[
  {
    "service_request": "2026-1288863",
    "request_type": "Trash/Recycling",
    "request_reason": "Request a Large Item Pick Up",
    "date_created": "2026-06-08T23:24:58.000",
    "date_modified": "2026-06-08T23:25:00.000",
    "request_status": "Pending",
    "responsible_agency": "Department of Sanitation",
    "final_address": "1910 France St",
    "address_councildis": "D",
    "status": "Assigned to Contractor",
    "contractor": "IV Waste",
    "rowid": "1288863",
    "final_x": "3693121.58269",
    "final_y": "538280.737481",
    "longitude": "-90.03113109486094",
    "latitude": "29.973727352381232",
    "geocoded_column": {
      "latitude": "29.973727352381232",
      "longitude": "-90.03113109486094"
    }
  },
  {
    "service_request": "2026-1288862",
    "request_type": "Streetlights",
    "request_reason": "Streetlight Outage/Malfunction",
    "date_created": "2026-06-08T23:08:43.000",
    "date_modified": "2026-06-08T23:08:46.000",
    "request_status": "Pending",
    "responsible_agency": "Department of Public Works",
    "final_address": "2414 Dreux Ave",
    "address_councildis": "D",
    "status": "Pending",
    "rowid": "1288862",
    "final_x": "3685344.43881",
    "final_y": "552045.663894",
    "longitude": "-90.0552080408048",
    "latitude": "30.011816715788026",
    "geocoded_column": {
      "latitude": "30.011816715788026",
      "longitude": "-90.0552080408048"
    }
  },
  {
    "service_request": "2026-1288861",
    "request_type": "Health Related Request",
    "request_reason": "Noise Ordinance Complaint",
    "date_created": "2026-06-08T22:58:48.000",
    "date_modified": "2026-06-08T22:58:50.000",
    "request_status": "Pending",
    "responsible_agency": "Health Department",
    "final_address": "801 Bourbon St, New Orleans, Louisiana, 70116",
    "address_councildis": "C",
    "status": "Pending",
    "rowid": "1288861",
    "final_x": "3682490.98735",
    "final_y": "533018.672772",
    "longitude": "-90.06488875731978",
    "latitude": "29.959586396383013",
    "geocoded_column": {
      "latitude": "29.959586396383013",
      "longitude": "-90.06488875731978"
    }
  },
  {
    "service_request": "2026-1288860",
    "request_type": "Property Maintenance",
    "request_reason": "Property Maintenance",
    "date_created": "2026-06-08T22:53:51.000",
    "date_modified": "2026-06-08T22:53:52.000",
    "request_status": "Pending",
    "responsible_agency": "Department of Code Enforcement",
    "final_address": "4754 Perrault Walk",
    "address_councildis": "E",
    "status": "Pending",
    "rowid": "1288860",
    "final_x": "3709871.66168",
    "final_y": "555806.512025",
    "longitude": "-89.97757632349095",
    "latitude": "30.02138251423288",
    "geocoded_column": {
      "latitude": "30.02138251423288",
      "longitude": "-89.97757632349095"
    }
  },
  {
    "service_request": "2026-1288859",
    "request_type": "Health Related Request",
    "request_reason": "Noise Ordinance Complaint",
    "date_created": "2026-06-08T22:42:30.000",
    "date_modified": "2026-06-08T22:42:31.000",
    "request_status": "Pending",
    "responsible_agency": "Health Department",
    "final_address": "1501 Iberville St, New Orleans, Louisiana, 70112",
    "address_councildis": "C",
    "status": "Pending",
    "rowid": "1288859",
    "final_x": "3679416.16936",
    "final_y": "532758.78874",
    "longitude": "-90.074607337725",
    "latitude": "29.958965038671078",
    "geocoded_column": {
      "latitude": "29.958965038671078",
      "longitude": "-90.074607337725"
    }
  },
  {
    "service_request": "2026-1288858",
    "request_type": "Health Related Request",
    "request_reason": "Noise Ordinance Complaint",
    "date_created": "2026-06-08T22:40:05.000",
    "date_modified": "2026-06-08T22:40:08.000",
    "request_status": "Pending",
    "responsible_agency": "Health Department",
    "final_address": "1535 Canal St, New Orleans, Louisiana, 70112",
    "address_councildis": "C",
    "status": "Pending",
    "rowid": "1288858",
    "final_x": "3678936.45589",
    "final_y": "532521.076676",
    "longitude": "-90.07613038878848",
    "latitude": "29.958325892153642",
    "geocoded_column": {
      "latitude": "29.958325892153642",
      "longitude": "-90.07613038878848"
    }
  },
  {
    "service_request": "2026-1288857",
    "request_type": "Trash/Recycling",
    "request_reason": "Return Trash Cart",
    "date_created": "2026-06-08T22:23:10.000",
    "date_modified": "2026-06-08T22:23:12.000",
    "request_status": "Pending",
    "responsible_agency": "Department of Sanitation",
    "final_address": "149 18Th St",
    "address_councildis": "A",
    "status": "Assigned to Contractor",
    "contractor": "IV Waste",
    "rowid": "1288857",
    "final_x": "3665678.13133",
    "final_y": "548754.714707",
    "longitude": "-90.11745280910681",
    "latitude": "30.003356268711748",
    "geocoded_column": {
      "latitude": "30.003356268711748",
      "longitude": "-90.11745280910681"
    }
  },
  {
    "service_request": "2026-1288856",
    "request_type": "Health Related Request",
    "request_reason": "Noise Ordinance Complaint",
    "date_created": "2026-06-08T22:12:39.000",
    "date_modified": "2026-06-08T22:12:41.000",
    "request_status": "Pending",
    "responsible_agency": "Health Department",
    "final_address": "801 Bourbon St, New Orleans, Louisiana, 70116",
    "address_councildis": "C",
    "status": "Pending",
    "rowid": "1288856",
    "final_x": "3682490.98735",
    "final_y": "533018.672772",
    "longitude": "-90.06488875731978",
    "latitude": "29.959586396383013",
    "geocoded_column": {
      "latitude": "29.959586396383013",
      "longitude": "-90.06488875731978"
    }
  },
  {
    "service_request": "2026-1288855",
    "request_type": "Property Maintenance",
    "request_reason": "Property Maintenance",
    "date_created": "2026-06-08T21:51:32.000",
    "date_modified": "2026-06-08T21:51:34.000",
    "request_status": "Pending",
    "responsible_agency": "Department of Code Enforcement",
    "final_address": "7901 Lehigh St",
    "address_councildis": "E",
    "status": "Pending",
    "rowid": "1288855",
    "final_x": "3710001.84145",
    "final_y": "566639.118435",
    "longitude": "-89.97675976638644",
    "latitude": "30.051163639475664",
    "geocoded_column": {
      "latitude": "30.051163639475664",
      "longitude": "-89.97675976638644"
    }
  },
  {
    "service_request": "2026-1288854",
    "request_type": "Trash/Recycling",
    "request_reason": "Repair Trash Cart",
    "date_created": "2026-06-08T21:42:36.000",
    "date_modified": "2026-06-08T21:42:37.000",
    "request_status": "Pending",
    "responsible_agency": "Department of Sanitation",
    "final_address": "1608 Milan St",
    "address_councildis": "B",
    "status": "Assigned to Contractor",
    "contractor": "IV Waste",
    "rowid": "1288854",
    "final_x": "3671553.67163",
    "final_y": "521041.868025",
    "longitude": "-90.09983349195188",
    "latitude": "29.926982477586133",
    "geocoded_column": {
      "latitude": "29.926982477586133",
      "longitude": "-90.09983349195188"
    }
  },
  {
    "service_request": "2026-1288853",
    "request_type": "Abandoned Vehicles",
    "request_reason": "Abandoned/Junk Vehicles",
    "date_created": "2026-06-08T21:42:26.000",
    "date_modified": "2026-06-08T21:42:27.000",
    "request_status": "Pending",
    "responsible_agency": "Department of Public Works",
    "final_address": "7512 Pearl St",
    "address_councildis": "A",
    "status": "Pending",
    "rowid": "1288853",
    "final_x": "3661792.38374",
    "final_y": "525157.442173",
    "longitude": "-90.13051109992382",
    "latitude": "29.938584340245036",
    "geocoded_column": {
      "latitude": "29.938584340245036",
      "longitude": "-90.13051109992382"
    }
  },
  {
    "service_request": "2026-1288852",
    "request_type": "Streetlights",
    "request_reason": "Streetlight Outage/Malfunction",
    "date_created": "2026-06-08T21:40:50.000",
    "date_modified": "2026-06-08T21:40:52.000",
    "request_status": "Pending",
    "responsible_agency": "Department of Public Works",
    "final_address": "4313 Palmyra St",
    "address_councildis": "A",
    "status": "Pending",
    "rowid": "1288852",
    "final_x": "3669735.89473",
    "final_y": "538435.030473",
    "longitude": "-90.1049831596672",
    "latitude": "29.974861655695168",
    "geocoded_column": {
      "latitude": "29.974861655695168",
      "longitude": "-90.1049831596672"
    }
  },
  {
    "service_request": "2026-1288851",
    "request_type": "Trash/Recycling",
    "request_reason": "Replace Trash Cart",
    "date_created": "2026-06-08T21:37:44.000",
    "date_modified": "2026-06-08T21:37:46.000",
    "request_status": "Pending",
    "responsible_agency": "Department of Sanitation",
    "final_address": "236 S Cortez St",
    "address_councildis": "A",
    "status": "Assigned to Contractor",
    "contractor": "IV Waste",
    "rowid": "1288851",
    "final_x": "3671660.74497",
    "final_y": "536999.379144",
    "longitude": "-90.09895282736979",
    "latitude": "29.97085722103926",
    "geocoded_column": {
      "latitude": "29.97085722103926",
      "longitude": "-90.09895282736979"
    }
  },
  {
    "service_request": "2026-1288850",
    "request_type": "Trash/Recycling",
    "request_reason": "Request a Large Item Pick Up",
    "date_created": "2026-06-08T21:22:10.000",
    "date_modified": "2026-06-08T21:22:25.000",
    "request_status": "Pending",
    "responsible_agency": "Department of Sanitation",
    "final_address": "1306 Andry St",
    "address_councildis": "E",
    "status": "Assigned to Contractor",
    "contractor": "Waste Pro",
    "rowid": "1288850",
    "final_x": "3697302.74499",
    "final_y": "534793.54535",
    "longitude": "-90.01805257000133",
    "latitude": "29.964007503226735",
    "geocoded_column": {
      "latitude": "29.964007503226735",
      "longitude": "-90.01805257000133"
    }
  },
  {
    "service_request": "2026-1288849",
    "request_type": "Property Maintenance",
    "request_reason": "Property Maintenance",
    "date_created": "2026-06-08T21:20:53.000",
    "date_modified": "2026-06-08T21:20:55.000",
    "request_status": "Pending",
    "responsible_agency": "Department of Code Enforcement",
    "final_address": "4925 De Montluzin St",
    "address_councildis": "D",
    "status": "Pending",
    "rowid": "1288849",
    "final_x": "3687151.39996",
    "final_y": "551212.298581",
    "longitude": "-90.04952859979707",
    "latitude": "30.009469721719896",
    "geocoded_column": {
      "latitude": "30.009469721719896",
      "longitude": "-90.04952859979707"
    }
  },
  {
    "service_request": "2026-1288848",
    "request_type": "Trash/Recycling",
    "request_reason": "Start Trash Service",
    "date_created": "2026-06-08T21:19:49.000",
    "date_modified": "2026-06-08T21:19:51.000",
    "request_status": "Pending",
    "responsible_agency": "Department of Sanitation",
    "final_address": "1248 Sumner St",
    "address_councildis": "C",
    "status": "Assigned to Contractor",
    "contractor": "Richards Disposal",
    "rowid": "1288848",
    "final_x": "3691112.05974",
    "final_y": "526673.055102",
    "longitude": "-90.0378920392072",
    "latitude": "29.941872909075748",
    "geocoded_column": {
      "latitude": "29.941872909075748",
      "longitude": "-90.0378920392072"
    }
  },
  {
    "service_request": "2026-1288847",
    "request_type": "Trash/Recycling",
    "request_reason": "Request a Large Item Pick Up",
    "date_created": "2026-06-08T21:17:12.000",
    "date_modified": "2026-06-08T21:17:15.000",
    "request_status": "Pending",
    "responsible_agency": "Department of Sanitation",
    "final_address": "8013 Lehigh St",
    "address_councildis": "E",
    "status": "Assigned to Contractor",
    "contractor": "Waste Pro",
    "rowid": "1288847",
    "final_x": "3709803.82782",
    "final_y": "566962.542564",
    "longitude": "-89.97737351920539",
    "latitude": "30.052059369494643",
    "geocoded_column": {
      "latitude": "30.052059369494643",
      "longitude": "-89.97737351920539"
    }
  },
  {
    "service_request": "2026-1288846",
    "request_type": "Property Maintenance",
    "request_reason": "Property Maintenance",
    "date_created": "2026-06-08T21:07:55.000",
    "date_modified": "2026-06-08T21:07:58.000",
    "request_status": "Pending",
    "responsible_agency": "Department of Code Enforcement",
    "final_address": "12150 S Interstate 10 Service Rd",
    "address_councildis": "E",
    "status": "Pending",
    "rowid": "1288846",
    "final_x": "3715649.55538",
    "final_y": "565056.46013",
    "longitude": "-89.95896941195382",
    "latitude": "30.04662691592126",
    "geocoded_column": {
      "latitude": "30.04662691592126",
      "longitude": "-89.95896941195382"
    }
  },
  {
    "service_request": "2026-1288845",
    "request_type": "Streetlights",
    "request_reason": "New Streetlight Request",
    "date_created": "2026-06-08T20:52:32.000",
    "date_modified": "2026-06-08T20:52:35.000",
    "request_status": "Pending",
    "responsible_agency": "Department of Public Works",
    "final_address": "40 Arbor Cir",
    "address_councildis": "C",
    "status": "Pending",
    "rowid": "1288845",
    "final_x": "3715609.03583",
    "final_y": "517279.964661",
    "longitude": "-89.96090605157121",
    "latitude": "29.915261020067632",
    "geocoded_column": {
      "latitude": "29.915261020067632",
      "longitude": "-89.96090605157121"
    }
  },
  {
    "service_request": "2026-1288844",
    "request_type": "Street and Traffic Signs",
    "request_reason": "Stop Sign Missing or Damaged",
    "date_created": "2026-06-08T20:48:23.000",
    "date_modified": "2026-06-08T20:48:24.000",
    "request_status": "Pending",
    "responsible_agency": "Department of Public Works",
    "final_address": "431 Atlantic Ave",
    "address_councildis": "C",
    "status": "Pending",
    "rowid": "1288844",
    "final_x": "3688760.06684",
    "final_y": "530035.319937",
    "longitude": "-90.04519841422469",
    "latitude": "29.95119089399211",
    "geocoded_column": {
      "latitude": "29.95119089399211",
      "longitude": "-90.04519841422469"
    }
  },
  {
    "service_request": "2026-1288843",
    "request_type": "Drainage",
    "request_reason": "Ditch and Culvert Maintenance",
    "date_created": "2026-06-08T20:47:31.000",
    "date_modified": "2026-06-08T20:47:33.000",
    "request_status": "Pending",
    "responsible_agency": "Department of Public Works",
    "final_address": "7029 Derbes St",
    "address_councildis": "A",
    "status": "Pending",
    "rowid": "1288843",
    "final_x": "3665949.91028",
    "final_y": "554475.811224",
    "longitude": "-90.11640226191595",
    "latitude": "30.019079355055066",
    "geocoded_column": {
      "latitude": "30.019079355055066",
      "longitude": "-90.11640226191595"
    }
  },
  {
    "service_request": "2026-1288842",
    "request_type": "Drainage",
    "request_reason": "Catch Basin Not Draining",
    "date_created": "2026-06-08T20:44:40.000",
    "date_modified": "2026-06-08T20:44:42.000",
    "request_status": "Pending",
    "responsible_agency": "Sewerage & Water Board",
    "final_address": "6566 Avenue A",
    "address_councildis": "A",
    "status": "Pending",
    "rowid": "1288842",
    "final_x": "3665970.38688",
    "final_y": "551873.639126",
    "longitude": "-90.11642488191043",
    "latitude": "30.011923696742727",
    "geocoded_column": {
      "latitude": "30.011923696742727",
      "longitude": "-90.11642488191043"
    }
  },
  {
    "service_request": "2026-1288841",
    "request_type": "Trash/Recycling",
    "request_reason": "Damaged Caused By Contractor",
    "date_created": "2026-06-08T20:29:52.000",
    "date_modified": "2026-06-08T20:29:55.000",
    "request_status": "Pending",
    "responsible_agency": "Department of Sanitation",
    "final_address": "5748 Tullis Dr",
    "address_councildis": "C",
    "status": "Assigned to Contractor",
    "contractor": "Richards Disposal",
    "rowid": "1288841",
    "final_x": "3705248.72932",
    "final_y": "512879.982321",
    "longitude": "-89.99376907895102",
    "latitude": "29.903499719181315",
    "geocoded_column": {
      "latitude": "29.903499719181315",
      "longitude": "-89.99376907895102"
    }
  },
  {
    "service_request": "2026-1288840",
    "request_type": "Trash/Recycling",
    "request_reason": "Repair Recycling Cart",
    "date_created": "2026-06-08T20:26:59.000",
    "date_modified": "2026-06-08T20:27:00.000",
    "request_status": "Pending",
    "responsible_agency": "Department of Sanitation",
    "final_address": "2331 Dumaine St",
    "address_councildis": "C",
    "status": "Pending",
    "rowid": "1288840",
    "final_x": "3678332.06056",
    "final_y": "536674.081991",
    "longitude": "-90.0778952221412",
    "latitude": "29.969763465908983",
    "geocoded_column": {
      "latitude": "29.969763465908983",
      "longitude": "-90.0778952221412"
    }
  },
  {
    "service_request": "2026-1288839",
    "request_type": "Trash/Recycling",
    "request_reason": "Order Recycling Cart",
    "date_created": "2026-06-08T20:25:43.000",
    "date_modified": "2026-06-08T20:25:44.000",
    "request_status": "Pending",
    "responsible_agency": "Department of Sanitation",
    "final_address": "2533 N Claiborne Ave",
    "address_councildis": "D",
    "status": "Pending",
    "rowid": "1288839",
    "final_x": "3687350.83778",
    "final_y": "538382.790537",
    "longitude": "-90.04935270188535",
    "latitude": "29.974187028868418",
    "geocoded_column": {
      "latitude": "29.974187028868418",
      "longitude": "-90.04935270188535"
    }
  },
  {
    "service_request": "2026-1288838",
    "request_type": "Trash/Recycling",
    "request_reason": "Order Recycling Cart",
    "date_created": "2026-06-08T20:24:31.000",
    "date_modified": "2026-06-08T20:24:33.000",
    "request_status": "Pending",
    "responsible_agency": "Department of Sanitation",
    "final_address": "2531 N Claiborne Ave",
    "address_councildis": "D",
    "status": "Pending",
    "rowid": "1288838",
    "final_x": "3687337.88918",
    "final_y": "538381.171465",
    "longitude": "-90.0493936537559",
    "latitude": "29.974182975948104",
    "geocoded_column": {
      "latitude": "29.974182975948104",
      "longitude": "-90.0493936537559"
    }
  },
  {
    "service_request": "2026-1288837",
    "request_type": "Trash/Recycling",
    "request_reason": "Replace Trash Cart",
    "date_created": "2026-06-08T20:23:34.000",
    "date_modified": "2026-06-08T20:23:35.000",
    "request_status": "Pending",
    "responsible_agency": "Department of Sanitation",
    "final_address": "2533 N Claiborne Ave",
    "address_councildis": "D",
    "status": "Assigned to Contractor",
    "contractor": "IV Waste",
    "rowid": "1288837",
    "final_x": "3687350.83778",
    "final_y": "538382.790537",
    "longitude": "-90.04935270188535",
    "latitude": "29.974187028868418",
    "geocoded_column": {
      "latitude": "29.974187028868418",
      "longitude": "-90.04935270188535"
    }
  },
  {
    "service_request": "2026-1288836",
    "request_type": "Trash/Recycling",
    "request_reason": "Order Trash Cart",
    "date_created": "2026-06-08T20:22:38.000",
    "date_modified": "2026-06-08T20:22:39.000",
    "request_status": "Pending",
    "responsible_agency": "Department of Sanitation",
    "final_address": "2531 N Claiborne Ave",
    "address_councildis": "D",
    "status": "Assigned to Contractor",
    "contractor": "IV Waste",
    "rowid": "1288836",
    "final_x": "3687337.88918",
    "final_y": "538381.171465",
    "longitude": "-90.0493936537559",
    "latitude": "29.974182975948104",
    "geocoded_column": {
      "latitude": "29.974182975948104",
      "longitude": "-90.0493936537559"
    }
  },
  {
    "service_request": "2026-1288835",
    "request_type": "Streetlights",
    "request_reason": "Streetlight Outage/Malfunction",
    "date_created": "2026-06-08T20:19:25.000",
    "date_modified": "2026-06-08T20:19:26.000",
    "request_status": "Pending",
    "responsible_agency": "Department of Public Works",
    "final_address": "447 Pacific Ave",
    "address_councildis": "C",
    "status": "Pending",
    "rowid": "1288835",
    "final_x": "3688464.55791",
    "final_y": "529927.752897",
    "longitude": "-90.04613529755372",
    "latitude": "29.950904252796267",
    "geocoded_column": {
      "latitude": "29.950904252796267",
      "longitude": "-90.04613529755372"
    }
  },
  {
    "service_request": "2026-1288834",
    "request_type": "Property Maintenance",
    "request_reason": "Property Maintenance",
    "date_created": "2026-06-08T20:13:04.000",
    "date_modified": "2026-06-08T20:13:06.000",
    "request_status": "Pending",
    "responsible_agency": "Department of Code Enforcement",
    "final_address": "2401 Governor Nicholls St",
    "address_councildis": "C",
    "status": "Pending",
    "rowid": "1288834",
    "final_x": "3678909.58824",
    "final_y": "537692.172296",
    "longitude": "-90.07603605708007",
    "latitude": "29.972545453452284",
    "geocoded_column": {
      "latitude": "29.972545453452284",
      "longitude": "-90.07603605708007"
    }
  },
  {
    "service_request": "2026-1288833",
    "request_type": "Abandoned Vehicles",
    "request_reason": "Abandoned/Junk Vehicles",
    "date_created": "2026-06-08T20:04:42.000",
    "date_modified": "2026-06-08T20:04:44.000",
    "request_status": "Pending",
    "responsible_agency": "Department of Public Works",
    "final_address": "316 S St Patrick St",
    "address_councildis": "A",
    "status": "Pending",
    "rowid": "1288833",
    "final_x": "3668629.02606",
    "final_y": "539035.452042",
    "longitude": "-90.10845867094878",
    "latitude": "29.976545193274887",
    "geocoded_column": {
      "latitude": "29.976545193274887",
      "longitude": "-90.10845867094878"
    }
  },
  {
    "service_request": "2026-1288832",
    "request_type": "Trash/Recycling",
    "request_reason": "Order Second Trash Cart",
    "date_created": "2026-06-08T20:03:29.000",
    "date_modified": "2026-06-08T20:03:31.000",
    "request_status": "Pending",
    "responsible_agency": "Department of Sanitation",
    "final_address": "4821 Read Blvd",
    "address_councildis": "E",
    "status": "Assigned to Contractor",
    "contractor": "Waste Pro",
    "rowid": "1288832",
    "final_x": "3712828.31762",
    "final_y": "556592.240282",
    "longitude": "-89.96820462192127",
    "latitude": "30.02344643554903",
    "geocoded_column": {
      "latitude": "30.02344643554903",
      "longitude": "-89.96820462192127"
    }
  },
  {
    "service_request": "2026-1288831",
    "request_type": "Property Maintenance",
    "request_reason": "Property Maintenance",
    "date_created": "2026-06-08T20:02:22.000",
    "date_modified": "2026-06-08T20:02:23.000",
    "request_status": "Pending",
    "responsible_agency": "Department of Code Enforcement",
    "final_address": "2411 Governor Nicholls St",
    "address_councildis": "C",
    "status": "Pending",
    "rowid": "1288831",
    "final_x": "3678853.75502",
    "final_y": "537672.896584",
    "longitude": "-90.07621305631017",
    "latitude": "29.972494136301634",
    "geocoded_column": {
      "latitude": "29.972494136301634",
      "longitude": "-90.07621305631017"
    }
  },
  {
    "service_request": "2026-1288830",
    "request_type": "Trash/Recycling",
    "request_reason": "Request a Large Item Pick Up",
    "date_created": "2026-06-08T20:02:07.000",
    "date_modified": "2026-06-08T20:02:09.000",
    "request_status": "Pending",
    "responsible_agency": "Department of Sanitation",
    "final_address": "4821 Read Blvd",
    "address_councildis": "E",
    "status": "Assigned to Contractor",
    "contractor": "Waste Pro",
    "rowid": "1288830",
    "final_x": "3712828.31762",
    "final_y": "556592.240282",
    "longitude": "-89.96820462192127",
    "latitude": "30.02344643554903",
    "geocoded_column": {
      "latitude": "30.02344643554903",
      "longitude": "-89.96820462192127"
    }
  },
  {
    "service_request": "2026-1288829",
    "request_type": "Trash/Recycling",
    "request_reason": "Request a Large Item Pick Up",
    "date_created": "2026-06-08T19:58:29.000",
    "date_modified": "2026-06-08T19:58:30.000",
    "request_status": "Pending",
    "responsible_agency": "Department of Sanitation",
    "final_address": "10920 Guildford Rd",
    "address_councildis": "E",
    "status": "Assigned to Contractor",
    "contractor": "Waste Pro",
    "rowid": "1288829",
    "final_x": "3711517.40606",
    "final_y": "563941.332385",
    "longitude": "-89.97207091423772",
    "latitude": "30.043696394401042",
    "geocoded_column": {
      "latitude": "30.043696394401042",
      "longitude": "-89.97207091423772"
    }
  },
  {
    "service_request": "2026-1288828",
    "request_type": "Trash/Recycling",
    "request_reason": "Order Recycling Cart",
    "date_created": "2026-06-08T19:58:02.000",
    "date_modified": "2026-06-08T19:58:03.000",
    "request_status": "Pending",
    "responsible_agency": "Department of Sanitation",
    "final_address": "1220 Dublin St",
    "address_councildis": "A",
    "status": "Pending",
    "rowid": "1288828",
    "final_x": "3661799.20006",
    "final_y": "528772.751104",
    "longitude": "-90.13036975054777",
    "latitude": "29.948525091607763",
    "geocoded_column": {
      "latitude": "29.948525091607763",
      "longitude": "-90.13036975054777"
    }
  },
  {
    "service_request": "2026-1288827",
    "request_type": "Street and Traffic Signs",
    "request_reason": "Street Name Sign Damaged or Missing",
    "date_created": "2026-06-08T19:54:11.000",
    "date_modified": "2026-06-08T19:54:12.000",
    "request_status": "Pending",
    "responsible_agency": "Department of Public Works",
    "final_address": "700 Dufossat St",
    "address_councildis": "B",
    "status": "Pending",
    "rowid": "1288827",
    "final_x": "3667974.15361",
    "final_y": "517950.788662",
    "longitude": "-90.11123720152251",
    "latitude": "29.918588455383777",
    "geocoded_column": {
      "latitude": "29.918588455383777",
      "longitude": "-90.11123720152251"
    }
  },
  {
    "service_request": "2026-1288826",
    "request_type": "Trash/Recycling",
    "request_reason": "Order Second Trash Cart",
    "date_created": "2026-06-08T19:52:04.000",
    "date_modified": "2026-06-08T19:52:07.000",
    "request_status": "Pending",
    "responsible_agency": "Department of Sanitation",
    "final_address": "414 Delaronde St",
    "address_councildis": "C",
    "status": "Assigned to Contractor",
    "contractor": "Richards Disposal",
    "rowid": "1288826",
    "final_x": "3686658.76073",
    "final_y": "531097.757122",
    "longitude": "-90.05179576168031",
    "latitude": "29.9541770192208",
    "geocoded_column": {
      "latitude": "29.9541770192208",
      "longitude": "-90.05179576168031"
    }
  },
  {
    "service_request": "2026-1288825",
    "request_type": "Utility Poles",
    "request_reason": "Wires Sagging/Hanging Low",
    "date_created": "2026-06-08T19:40:25.000",
    "date_modified": "2026-06-08T19:40:58.000",
    "request_status": "Pending",
    "responsible_agency": "Utility Company Collective",
    "final_address": "5839 Bellaire Dr",
    "address_councildis": "A",
    "status": "Pending",
    "rowid": "1288825",
    "final_x": "3664265.2352",
    "final_y": "546725.736465",
    "longitude": "-90.12198415006316",
    "latitude": "29.997818423394946",
    "geocoded_column": {
      "latitude": "29.997818423394946",
      "longitude": "-90.12198415006316"
    }
  },
  {
    "service_request": "2026-1288824",
    "request_type": "Trash/Recycling",
    "request_reason": "Request a Large Item Pick Up",
    "date_created": "2026-06-08T19:36:11.000",
    "date_modified": "2026-06-08T19:36:13.000",
    "request_status": "Pending",
    "responsible_agency": "Department of Sanitation",
    "final_address": "11040 Roger Dr",
    "address_councildis": "E",
    "status": "Assigned to Contractor",
    "contractor": "Waste Pro",
    "rowid": "1288824",
    "final_x": "3712397.49253",
    "final_y": "563579.453024",
    "longitude": "-89.96930310364468",
    "latitude": "30.042672594059926",
    "geocoded_column": {
      "latitude": "30.042672594059926",
      "longitude": "-89.96930310364468"
    }
  },
  {
    "service_request": "2026-1288823",
    "request_type": "Trash/Recycling",
    "request_reason": "Request a Large Item Pick Up",
    "date_created": "2026-06-08T19:34:48.000",
    "date_modified": "2026-06-08T19:34:49.000",
    "request_status": "Pending",
    "responsible_agency": "Department of Sanitation",
    "final_address": "11021 Roger Dr",
    "address_councildis": "E",
    "status": "Assigned to Contractor",
    "contractor": "Waste Pro",
    "rowid": "1288823",
    "final_x": "3712245.13477",
    "final_y": "563559.266208",
    "longitude": "-89.96978536939223",
    "latitude": "30.042622074527866",
    "geocoded_column": {
      "latitude": "30.042622074527866",
      "longitude": "-89.96978536939223"
    }
  },
  {
    "service_request": "2026-1288822",
    "request_type": "Trash/Recycling",
    "request_reason": "Request a Large Item Pick Up",
    "date_created": "2026-06-08T19:32:51.000",
    "date_modified": "2026-06-08T19:32:57.000",
    "request_status": "Pending",
    "responsible_agency": "Department of Sanitation",
    "final_address": "10940 Roger Dr",
    "address_councildis": "E",
    "status": "Assigned to Contractor",
    "contractor": "Waste Pro",
    "rowid": "1288822",
    "final_x": "3712138.98622",
    "final_y": "563385.519136",
    "longitude": "-89.97012737042596",
    "latitude": "30.042147812759573",
    "geocoded_column": {
      "latitude": "30.042147812759573",
      "longitude": "-89.97012737042596"
    }
  },
  {
    "service_request": "2026-1288821",
    "request_type": "Trash/Recycling",
    "request_reason": "Request a Large Item Pick Up",
    "date_created": "2026-06-08T19:31:28.000",
    "date_modified": "2026-06-08T19:31:30.000",
    "request_status": "Pending",
    "responsible_agency": "Department of Sanitation",
    "final_address": "11000 Roger Dr",
    "address_councildis": "E",
    "status": "Assigned to Contractor",
    "contractor": "Waste Pro",
    "rowid": "1288821",
    "final_x": "3712182.46053",
    "final_y": "563418.54384",
    "longitude": "-89.96998873451886",
    "latitude": "30.042237195202617",
    "geocoded_column": {
      "latitude": "30.042237195202617",
      "longitude": "-89.96998873451886"
    }
  },
  {
    "service_request": "2026-1288820",
    "request_type": "Trash/Recycling",
    "request_reason": "Request a Large Item Pick Up",
    "date_created": "2026-06-08T19:30:24.000",
    "date_modified": "2026-06-08T19:30:26.000",
    "request_status": "Pending",
    "responsible_agency": "Department of Sanitation",
    "final_address": "10931 Roger Dr",
    "address_councildis": "E",
    "status": "Assigned to Contractor",
    "contractor": "Waste Pro",
    "rowid": "1288820",
    "final_x": "3711983.80453",
    "final_y": "563371.03248",
    "longitude": "-89.97061834358104",
    "latitude": "30.042113055697705",
    "geocoded_column": {
      "latitude": "30.042113055697705",
      "longitude": "-89.97061834358104"
    }
  },
  {
    "service_request": "2026-1288819",
    "request_type": "Trash/Recycling",
    "request_reason": "Repair Trash Cart",
    "date_created": "2026-06-08T19:20:36.000",
    "date_modified": "2026-06-08T19:20:38.000",
    "request_status": "Pending",
    "responsible_agency": "Department of Sanitation",
    "final_address": "2150 Hope St",
    "address_councildis": "D",
    "status": "Assigned to Contractor",
    "contractor": "IV Waste",
    "rowid": "1288819",
    "final_x": "3683962.72425",
    "final_y": "542104.370252",
    "longitude": "-90.05992251115818",
    "latitude": "29.984524026197942",
    "geocoded_column": {
      "latitude": "29.984524026197942",
      "longitude": "-90.05992251115818"
    }
  },
  {
    "service_request": "2026-1288818",
    "request_type": "Trash/Recycling",
    "request_reason": "Order Trash Cart",
    "date_created": "2026-06-08T19:17:29.000",
    "date_modified": "2026-06-08T19:17:30.000",
    "request_status": "Pending",
    "responsible_agency": "Department of Sanitation",
    "final_address": "2150 Hope St",
    "address_councildis": "D",
    "status": "Assigned to Contractor",
    "contractor": "IV Waste",
    "rowid": "1288818",
    "final_x": "3683962.72425",
    "final_y": "542104.370252",
    "longitude": "-90.05992251115818",
    "latitude": "29.984524026197942",
    "geocoded_column": {
      "latitude": "29.984524026197942",
      "longitude": "-90.05992251115818"
    }
  },
  {
    "service_request": "2026-1288817",
    "request_type": "Tree Service",
    "request_reason": "Street or Sidewalk Blocked",
    "date_created": "2026-06-08T19:17:09.000",
    "date_modified": "2026-06-08T19:17:11.000",
    "request_status": "Pending",
    "responsible_agency": "Department of Parks & Parkways",
    "final_address": "5300 Press Dr",
    "address_councildis": "D",
    "status": "Pending",
    "rowid": "1288817",
    "final_x": "3689194.36303",
    "final_y": "552971.481047",
    "longitude": "-90.04301160035546",
    "latitude": "30.01424372929821",
    "geocoded_column": {
      "latitude": "30.01424372929821",
      "longitude": "-90.04301160035546"
    }
  },
  {
    "service_request": "2026-1288816",
    "request_type": "Trash/Recycling",
    "request_reason": "Request a Large Item Pick Up",
    "date_created": "2026-06-08T19:11:52.000",
    "date_modified": "2026-06-08T19:11:54.000",
    "request_status": "Pending",
    "responsible_agency": "Department of Sanitation",
    "final_address": "7632 Read Blvd",
    "address_councildis": "E",
    "status": "Assigned to Contractor",
    "contractor": "Waste Pro",
    "rowid": "1288816",
    "final_x": "3708336.85656",
    "final_y": "564668.384033",
    "longitude": "-89.98209563950212",
    "latitude": "30.045799006471658",
    "geocoded_column": {
      "latitude": "30.045799006471658",
      "longitude": "-89.98209563950212"
    }
  },
  {
    "service_request": "2026-1288815",
    "request_type": "Trash/Recycling",
    "request_reason": "Request a Large Item Pick Up",
    "date_created": "2026-06-08T19:11:51.000",
    "date_modified": "2026-06-08T19:11:52.000",
    "request_status": "Pending",
    "responsible_agency": "Department of Sanitation",
    "final_address": "7632 Read Blvd",
    "address_councildis": "E",
    "status": "Assigned to Contractor",
    "contractor": "Waste Pro",
    "rowid": "1288815",
    "final_x": "3708336.85656",
    "final_y": "564668.384033",
    "longitude": "-89.98209563950212",
    "latitude": "30.045799006471658",
    "geocoded_column": {
      "latitude": "30.045799006471658",
      "longitude": "-89.98209563950212"
    }
  },
  {
    "service_request": "2026-1288814",
    "request_type": "Roads and Streets",
    "request_reason": "Sidewalk Damaged or Missing",
    "date_created": "2026-06-08T18:59:20.000",
    "date_modified": "2026-06-08T18:59:21.000",
    "request_status": "Pending",
    "responsible_agency": "Department of Public Works",
    "final_address": "3442 Bennett St",
    "address_councildis": "C",
    "status": "Pending",
    "rowid": "1288814",
    "final_x": "3710462.66616",
    "final_y": "517928.183734",
    "longitude": "-89.9771255088155",
    "latitude": "29.917211883639347",
    "geocoded_column": {
      "latitude": "29.917211883639347",
      "longitude": "-89.9771255088155"
    }
  },
  {
    "service_request": "2026-1288813",
    "request_type": "Streetlights",
    "request_reason": "Streetlight Outage/Malfunction",
    "date_created": "2026-06-08T18:53:48.000",
    "date_modified": "2026-06-08T18:53:50.000",
    "request_status": "Pending",
    "responsible_agency": "Department of Public Works",
    "final_address": "2504 N Rampart St",
    "address_councildis": "C",
    "status": "Pending",
    "rowid": "1288813",
    "final_x": "3686590.63062",
    "final_y": "536036.062023",
    "longitude": "-90.05183649619796",
    "latitude": "29.96775774661229",
    "geocoded_column": {
      "latitude": "29.96775774661229",
      "longitude": "-90.05183649619796"
    }
  },
  {
    "service_request": "2026-1288812",
    "request_type": "Trash/Recycling",
    "request_reason": "Request a Large Item Pick Up",
    "date_created": "2026-06-08T18:45:28.000",
    "date_modified": "2026-06-08T18:45:30.000",
    "request_status": "Pending",
    "responsible_agency": "Department of Sanitation",
    "final_address": "4512 Annunciation St",
    "address_councildis": "B",
    "status": "Assigned to Contractor",
    "contractor": "IV Waste",
    "rowid": "1288812",
    "final_x": "3670644.52724",
    "final_y": "517658.089014",
    "longitude": "-90.10281814059219",
    "latitude": "29.917705040639046",
    "geocoded_column": {
      "latitude": "29.917705040639046",
      "longitude": "-90.10281814059219"
    }
  },
  {
    "service_request": "2026-1288811",
    "request_type": "Trash/Recycling",
    "request_reason": "Illegal Dumping",
    "date_created": "2026-06-08T18:34:27.000",
    "date_modified": "2026-06-08T18:34:29.000",
    "request_status": "Pending",
    "responsible_agency": "Department of Sanitation",
    "final_address": "3001 Banks St",
    "address_councildis": "B",
    "status": "Pending",
    "rowid": "1288811",
    "final_x": "3673627.12097",
    "final_y": "534977.22151",
    "longitude": "-90.09281189295528",
    "latitude": "29.965238576795137",
    "geocoded_column": {
      "latitude": "29.965238576795137",
      "longitude": "-90.09281189295528"
    }
  },
  {
    "service_request": "2026-1288810",
    "request_type": "Property Maintenance",
    "request_reason": "Property Maintenance",
    "date_created": "2026-06-08T18:30:02.000",
    "date_modified": "2026-06-08T18:30:04.000",
    "request_status": "Pending",
    "responsible_agency": "Department of Code Enforcement",
    "final_address": "1929 Philip St",
    "address_councildis": "B",
    "status": "Pending",
    "rowid": "1288810",
    "final_x": "3676326.12558",
    "final_y": "524628.358204",
    "longitude": "-90.08464471425295",
    "latitude": "29.936702027831107",
    "geocoded_column": {
      "latitude": "29.936702027831107",
      "longitude": "-90.08464471425295"
    }
  },
  {
    "service_request": "2026-1288809",
    "request_type": "Trash/Recycling",
    "request_reason": "Request a Large Item Pick Up",
    "date_created": "2026-06-08T18:29:49.000",
    "date_modified": "2026-06-08T18:29:50.000",
    "request_status": "Pending",
    "responsible_agency": "Department of Sanitation",
    "final_address": "6074 Eastover Dr",
    "address_councildis": "E",
    "status": "Assigned to Contractor",
    "contractor": "Waste Pro",
    "rowid": "1288809",
    "final_x": "3718266.70322",
    "final_y": "565555.705762",
    "longitude": "-89.95067891102478",
    "latitude": "30.047913063717903",
    "geocoded_column": {
      "latitude": "30.047913063717903",
      "longitude": "-89.95067891102478"
    }
  },
  {
    "service_request": "2026-1288808",
    "request_type": "Trash/Recycling",
    "request_reason": "Return Recycling Cart",
    "date_created": "2026-06-08T18:28:04.000",
    "date_modified": "2026-06-08T18:28:05.000",
    "request_status": "Pending",
    "responsible_agency": "Department of Sanitation",
    "final_address": "4421 Macarthur Blvd",
    "address_councildis": "C",
    "status": "Pending",
    "rowid": "1288808",
    "final_x": "3700188.73085",
    "final_y": "520196.489976",
    "longitude": "-90.00947152453433",
    "latitude": "29.923779315865673",
    "geocoded_column": {
      "latitude": "29.923779315865673",
      "longitude": "-90.00947152453433"
    }
  },
  {
    "service_request": "2026-1288807",
    "request_type": "Trash/Recycling",
    "request_reason": "Missed Trash Pick-Up",
    "date_created": "2026-06-08T18:25:27.000",
    "date_modified": "2026-06-08T18:25:28.000",
    "request_status": "Pending",
    "responsible_agency": "Department of Sanitation",
    "final_address": "4651 Sierra Madre Dr",
    "address_councildis": "E",
    "status": "Assigned to Contractor",
    "contractor": "Waste Pro",
    "rowid": "1288807",
    "final_x": "3714015.75493",
    "final_y": "556011.935897",
    "longitude": "-89.96447451419623",
    "latitude": "30.021811875714437",
    "geocoded_column": {
      "latitude": "30.021811875714437",
      "longitude": "-89.96447451419623"
    }
  },
  {
    "service_request": "2026-1288806",
    "request_type": "Roads and Streets",
    "request_reason": "Debris in Driving Lanes",
    "date_created": "2026-06-08T18:22:11.000",
    "date_modified": "2026-06-08T18:22:12.000",
    "request_status": "Pending",
    "responsible_agency": "Department of Public Works",
    "final_address": "3442 Bennett St",
    "address_councildis": "C",
    "status": "Pending",
    "rowid": "1288806",
    "final_x": "3710462.66616",
    "final_y": "517928.183734",
    "longitude": "-89.9771255088155",
    "latitude": "29.917211883639347",
    "geocoded_column": {
      "latitude": "29.917211883639347",
      "longitude": "-89.9771255088155"
    }
  },
  {
    "service_request": "2026-1288805",
    "request_type": "Roads and Streets",
    "request_reason": "Debris in Driving Lanes",
    "date_created": "2026-06-08T18:22:09.000",
    "date_modified": "2026-06-08T18:22:11.000",
    "request_status": "Pending",
    "responsible_agency": "Department of Public Works",
    "final_address": "3442 Bennett St",
    "address_councildis": "C",
    "status": "Pending",
    "rowid": "1288805",
    "final_x": "3710462.66616",
    "final_y": "517928.183734",
    "longitude": "-89.9771255088155",
    "latitude": "29.917211883639347",
    "geocoded_column": {
      "latitude": "29.917211883639347",
      "longitude": "-89.9771255088155"
    }
  },
  {
    "service_request": "2026-1288804",
    "request_type": "Property Maintenance",
    "request_reason": "Property Maintenance",
    "date_created": "2026-06-08T18:21:04.000",
    "date_modified": "2026-06-08T18:21:07.000",
    "request_status": "Pending",
    "responsible_agency": "Department of Code Enforcement",
    "final_address": "1900 Bayou Rd",
    "address_councildis": "C",
    "status": "Pending",
    "rowid": "1288804",
    "final_x": "3680451.04111",
    "final_y": "536757.633672",
    "longitude": "-90.07120038394656",
    "latitude": "29.969929196549963",
    "geocoded_column": {
      "latitude": "29.969929196549963",
      "longitude": "-90.07120038394656"
    }
  },
  {
    "service_request": "2026-1288803",
    "request_type": "Trash/Recycling",
    "request_reason": "Request a Large Item Pick Up",
    "date_created": "2026-06-08T18:15:23.000",
    "date_modified": "2026-06-08T18:15:25.000",
    "request_status": "Pending",
    "responsible_agency": "Department of Sanitation",
    "final_address": "6121 Craigie Rd",
    "address_councildis": "E",
    "status": "Assigned to Contractor",
    "contractor": "Waste Pro",
    "rowid": "1288803",
    "final_x": "3695876.46211",
    "final_y": "558886.435996",
    "longitude": "-90.02168569317324",
    "latitude": "30.030299021688446",
    "geocoded_column": {
      "latitude": "30.030299021688446",
      "longitude": "-90.02168569317324"
    }
  },
  {
    "service_request": "2026-1288802",
    "request_type": "Abandoned Vehicles",
    "request_reason": "Abandoned/Junk Vehicles",
    "date_created": "2026-06-08T18:11:14.000",
    "date_modified": "2026-06-08T18:11:15.000",
    "request_status": "Pending",
    "responsible_agency": "Department of Public Works",
    "final_address": "616 N Pierce St",
    "address_councildis": "A",
    "status": "Pending",
    "rowid": "1288802",
    "final_x": "3672786.80961",
    "final_y": "539489.772362",
    "longitude": "-90.09531158941479",
    "latitude": "29.977671554124054",
    "geocoded_column": {
      "latitude": "29.977671554124054",
      "longitude": "-90.09531158941479"
    }
  },
  {
    "service_request": "2026-1288801",
    "request_type": "Mosquito, Termite & Rodent Control",
    "request_reason": "Mosquito Complaint",
    "date_created": "2026-06-08T18:04:58.000",
    "date_modified": "2026-06-08T18:04:59.000",
    "request_status": "Pending",
    "responsible_agency": "Mosquito, Termite & Rodent Control Board",
    "final_address": "820 Piety St",
    "address_councildis": "C",
    "status": "Pending",
    "rowid": "1288801",
    "final_x": "3689563.97622",
    "final_y": "534826.214662",
    "longitude": "-90.04248965981505",
    "latitude": "29.964339318823548",
    "geocoded_column": {
      "latitude": "29.964339318823548",
      "longitude": "-90.04248965981505"
    }
  },
  {
    "service_request": "2026-1288800",
    "request_type": "Trash/Recycling",
    "request_reason": "Order Second Trash Cart",
    "date_created": "2026-06-08T18:03:13.000",
    "date_modified": "2026-06-08T18:03:15.000",
    "request_status": "Pending",
    "responsible_agency": "Department of Sanitation",
    "final_address": "7557 Avalon Way",
    "address_councildis": "E",
    "status": "Assigned to Contractor",
    "contractor": "Waste Pro",
    "rowid": "1288800",
    "final_x": "3709214.0995",
    "final_y": "564330.452385",
    "longitude": "-89.97933576004013",
    "latitude": "30.04484135616043",
    "geocoded_column": {
      "latitude": "30.04484135616043",
      "longitude": "-89.97933576004013"
    }
  },
  {
    "service_request": "2026-1288799",
    "request_type": "General Services",
    "request_reason": "General Service Request",
    "date_created": "2026-06-08T18:03:08.000",
    "date_modified": "2026-06-08T18:03:09.000",
    "request_status": "Pending",
    "responsible_agency": "Orleans Parish Communication District",
    "final_address": "2308 New Orleans St",
    "address_councildis": "D",
    "status": "Pending",
    "rowid": "1288799",
    "final_x": "3682015.97212",
    "final_y": "540608.326475",
    "longitude": "-90.06612369530004",
    "latitude": "29.980469774501568",
    "geocoded_column": {
      "latitude": "29.980469774501568",
      "longitude": "-90.06612369530004"
    }
  },
  {
    "service_request": "2026-1288798",
    "request_type": "Trash/Recycling",
    "request_reason": "Replace Trash Cart",
    "date_created": "2026-06-08T18:02:52.000",
    "date_modified": "2026-06-08T18:02:53.000",
    "request_status": "Pending",
    "responsible_agency": "Department of Sanitation",
    "final_address": "234 22Nd St",
    "address_councildis": "A",
    "status": "Assigned to Contractor",
    "contractor": "IV Waste",
    "rowid": "1288798",
    "final_x": "3665489.94605",
    "final_y": "549260.939731",
    "longitude": "-90.11803035605898",
    "latitude": "30.004753701984125",
    "geocoded_column": {
      "latitude": "30.004753701984125",
      "longitude": "-90.11803035605898"
    }
  },
  {
    "service_request": "2026-1288797",
    "request_type": "Trash/Recycling",
    "request_reason": "Request a Large Item Pick Up",
    "date_created": "2026-06-08T17:26:59.000",
    "date_modified": "2026-06-08T17:27:01.000",
    "request_status": "Pending",
    "responsible_agency": "Department of Sanitation",
    "final_address": "6434 Vicksburg St",
    "address_councildis": "A",
    "status": "Assigned to Contractor",
    "contractor": "IV Waste",
    "rowid": "1288797",
    "final_x": "3669057.89249",
    "final_y": "550329.3997",
    "longitude": "-90.1067223339416",
    "latitude": "30.0075870579097",
    "geocoded_column": {
      "latitude": "30.0075870579097",
      "longitude": "-90.1067223339416"
    }
  },
  {
    "service_request": "2026-1288796",
    "request_type": "Abandoned Vehicles",
    "request_reason": "Abandoned/Junk Vehicles",
    "date_created": "2026-06-08T17:23:36.000",
    "date_modified": "2026-06-08T17:23:37.000",
    "request_status": "Pending",
    "responsible_agency": "Department of Public Works",
    "final_address": "2411 N Claiborne Ave",
    "address_councildis": "D",
    "status": "Pending",
    "rowid": "1288796",
    "final_x": "3686491.51202",
    "final_y": "538308.288393",
    "longitude": "-90.05206927650455",
    "latitude": "29.974008623188766",
    "geocoded_column": {
      "latitude": "29.974008623188766",
      "longitude": "-90.05206927650455"
    }
  },
  {
    "service_request": "2026-1288795",
    "request_type": "Drainage",
    "request_reason": "Drainage Manhole Cover Missing or Damaged",
    "date_created": "2026-06-08T17:19:42.000",
    "date_modified": "2026-06-08T17:19:44.000",
    "request_status": "Pending",
    "responsible_agency": "Sewerage & Water Board",
    "final_address": "2401 N Claiborne Ave",
    "address_councildis": "D",
    "status": "Pending",
    "rowid": "1288795",
    "final_x": "3686416.50524",
    "final_y": "538301.231049",
    "longitude": "-90.05230641351204",
    "latitude": "29.97399152393178",
    "geocoded_column": {
      "latitude": "29.97399152393178",
      "longitude": "-90.05230641351204"
    }
  },
  {
    "service_request": "2026-1288794",
    "request_type": "Trash/Recycling",
    "request_reason": "Missed Trash Pick-Up",
    "date_created": "2026-06-08T17:12:39.000",
    "date_modified": "2026-06-08T17:12:40.000",
    "request_status": "Pending",
    "responsible_agency": "Department of Sanitation",
    "final_address": "430 S Olympia St, New Orleans, Louisiana, 70119",
    "address_councildis": "A",
    "status": "Assigned to Contractor",
    "contractor": "IV Waste",
    "rowid": "1288794",
    "final_x": "3668543.10759",
    "final_y": "538422.142921",
    "longitude": "-90.10875072995879",
    "latitude": "29.97486132459917",
    "geocoded_column": {
      "latitude": "29.97486132459917",
      "longitude": "-90.10875072995879"
    }
  },
  {
    "service_request": "2026-1288793",
    "request_type": "Abandoned Vehicles",
    "request_reason": "Abandoned/Junk Vehicles",
    "date_created": "2026-06-08T17:03:26.000",
    "date_modified": "2026-06-08T17:03:28.000",
    "request_status": "Pending",
    "responsible_agency": "Department of Public Works",
    "final_address": "5730 Providence Pl",
    "address_councildis": "D",
    "status": "Pending",
    "rowid": "1288793",
    "final_x": "3688174.04316",
    "final_y": "554449.181912",
    "longitude": "-90.0461828462937",
    "latitude": "30.01833841368749",
    "geocoded_column": {
      "latitude": "30.01833841368749",
      "longitude": "-90.0461828462937"
    }
  },
  {
    "service_request": "2026-1288792",
    "request_type": "Trash/Recycling",
    "request_reason": "Return Trash Cart",
    "date_created": "2026-06-08T16:54:25.000",
    "date_modified": "2026-06-08T18:14:44.000",
    "request_status": "Pending",
    "responsible_agency": "Department of Sanitation",
    "final_address": "345 Olivier St",
    "address_councildis": "C",
    "status": "Assigned to Contractor",
    "contractor": "Richards Disposal",
    "rowid": "1288792",
    "final_x": "3687201.5734",
    "final_y": "530418.476994",
    "longitude": "-90.05010580222665",
    "latitude": "29.95229252763659",
    "geocoded_column": {
      "latitude": "29.95229252763659",
      "longitude": "-90.05010580222665"
    }
  },
  {
    "service_request": "2026-1288791",
    "request_type": "Drainage",
    "request_reason": "Catch Basin Not Draining",
    "date_created": "2026-06-08T16:52:52.000",
    "date_modified": "2026-06-08T16:52:55.000",
    "request_status": "Pending",
    "responsible_agency": "Sewerage & Water Board",
    "final_address": "16 Virginia Ct",
    "address_councildis": "A",
    "status": "Pending",
    "rowid": "1288791",
    "final_x": "3668875.6578",
    "final_y": "542212.292813",
    "longitude": "-90.10757239740929",
    "latitude": "29.985273177838913",
    "geocoded_column": {
      "latitude": "29.985273177838913",
      "longitude": "-90.10757239740929"
    }
  },
  {
    "service_request": "2026-1288790",
    "request_type": "Trash/Recycling",
    "request_reason": "Replace Trash Cart",
    "date_created": "2026-06-08T16:49:04.000",
    "date_modified": "2026-06-08T16:49:06.000",
    "request_status": "Pending",
    "responsible_agency": "Department of Sanitation",
    "final_address": "14001 Linden St",
    "address_councildis": "E",
    "status": "Assigned to Contractor",
    "contractor": "Waste Pro",
    "rowid": "1288790",
    "final_x": "3718310.20409",
    "final_y": "572448.453609",
    "longitude": "-89.95027847674304",
    "latitude": "30.06686381783811",
    "geocoded_column": {
      "latitude": "30.06686381783811",
      "longitude": "-89.95027847674304"
    }
  },
  {
    "service_request": "2026-1288789",
    "request_type": "Trash/Recycling",
    "request_reason": "Dead Animal Pick Up",
    "date_created": "2026-06-08T16:46:11.000",
    "date_modified": "2026-06-08T16:46:13.000",
    "request_status": "Pending",
    "responsible_agency": "Department of Sanitation",
    "final_address": "100 Poydras St",
    "address_councildis": "B",
    "status": "Assigned to Contractor",
    "contractor": "IV Waste",
    "rowid": "1288789",
    "final_x": "3682833.51906",
    "final_y": "528749.42848",
    "longitude": "-90.06395646976783",
    "latitude": "29.947836993399488",
    "geocoded_column": {
      "latitude": "29.947836993399488",
      "longitude": "-90.06395646976783"
    }
  },
  {
    "service_request": "2026-1288788",
    "request_type": "Trash/Recycling",
    "request_reason": "Illegal Dumping",
    "date_created": "2026-06-08T16:44:41.000",
    "date_modified": "2026-06-08T16:44:43.000",
    "request_status": "Pending",
    "responsible_agency": "Department of Sanitation",
    "final_address": "400 BLK Fourth St",
    "address_councildis": "B",
    "status": "Pending",
    "rowid": "1288788",
    "final_x": "3678626.72276",
    "final_y": "519017.122187",
    "longitude": "-90.0775757658692",
    "latitude": "29.921203825273096",
    "geocoded_column": {
      "latitude": "29.921203825273096",
      "longitude": "-90.0775757658692"
    }
  },
  {
    "service_request": "2026-1288787",
    "request_type": "Trash/Recycling",
    "request_reason": "Request a Large Item Pick Up",
    "date_created": "2026-06-08T16:42:20.000",
    "date_modified": "2026-06-08T16:42:22.000",
    "request_status": "Pending",
    "responsible_agency": "Department of Sanitation",
    "final_address": "1520 Desire St",
    "address_councildis": "D",
    "status": "Assigned to Contractor",
    "contractor": "IV Waste",
    "rowid": "1288787",
    "final_x": "3690553.8383",
    "final_y": "537378.044296",
    "longitude": "-90.03927275706174",
    "latitude": "29.971325253990386",
    "geocoded_column": {
      "latitude": "29.971325253990386",
      "longitude": "-90.03927275706174"
    }
  },
  {
    "service_request": "2026-1288786",
    "request_type": "Trash/Recycling",
    "request_reason": "Request a Large Item Pick Up",
    "date_created": "2026-06-08T16:39:37.000",
    "date_modified": "2026-06-08T16:39:39.000",
    "request_status": "Pending",
    "responsible_agency": "Department of Sanitation",
    "final_address": "4963 Maid Marion Dr",
    "address_councildis": "E",
    "status": "Assigned to Contractor",
    "contractor": "Waste Pro",
    "rowid": "1288786",
    "final_x": "3716939.52408",
    "final_y": "558069.046683",
    "longitude": "-89.95515809710591",
    "latitude": "30.02737174665066",
    "geocoded_column": {
      "latitude": "30.02737174665066",
      "longitude": "-89.95515809710591"
    }
  },
  {
    "service_request": "2026-1288785",
    "request_type": "Trash/Recycling",
    "request_reason": "Repair Trash Cart",
    "date_created": "2026-06-08T16:36:57.000",
    "date_modified": "2026-06-08T16:36:59.000",
    "request_status": "Pending",
    "responsible_agency": "Department of Sanitation",
    "final_address": "7331 Heather Ct",
    "address_councildis": "E",
    "status": "Assigned to Contractor",
    "contractor": "Waste Pro",
    "rowid": "1288785",
    "final_x": "3705631.13054",
    "final_y": "562229.357855",
    "longitude": "-89.99073733710884",
    "latitude": "30.039180106985402",
    "geocoded_column": {
      "latitude": "30.039180106985402",
      "longitude": "-89.99073733710884"
    }
  },
  {
    "service_request": "2026-1288784",
    "request_type": "Trash/Recycling",
    "request_reason": "Order Recycling Cart",
    "date_created": "2026-06-08T16:36:52.000",
    "date_modified": "2026-06-08T16:36:54.000",
    "request_status": "Pending",
    "responsible_agency": "Department of Sanitation",
    "final_address": "7331 Heather Ct",
    "address_councildis": "E",
    "status": "Pending",
    "rowid": "1288784",
    "final_x": "3705631.13054",
    "final_y": "562229.357855",
    "longitude": "-89.99073733710884",
    "latitude": "30.039180106985402",
    "geocoded_column": {
      "latitude": "30.039180106985402",
      "longitude": "-89.99073733710884"
    }
  },
  {
    "service_request": "2026-1288783",
    "request_type": "Trash/Recycling",
    "request_reason": "Order Recycling Cart",
    "date_created": "2026-06-08T16:36:15.000",
    "date_modified": "2026-06-08T16:36:16.000",
    "request_status": "Pending",
    "responsible_agency": "Department of Sanitation",
    "final_address": "2724 Prancer St",
    "address_councildis": "C",
    "status": "Pending",
    "rowid": "1288783",
    "final_x": "3699628.53552",
    "final_y": "520873.536697",
    "longitude": "-90.01121518672078",
    "latitude": "29.925658746759076",
    "geocoded_column": {
      "latitude": "29.925658746759076",
      "longitude": "-90.01121518672078"
    }
  },
  {
    "service_request": "2026-1288782",
    "request_type": "Property Maintenance",
    "request_reason": "Property Maintenance",
    "date_created": "2026-06-08T16:33:07.000",
    "date_modified": "2026-06-08T16:33:09.000",
    "request_status": "Pending",
    "responsible_agency": "Department of Code Enforcement",
    "final_address": "3211 N Robertson St",
    "address_councildis": "D",
    "status": "Pending",
    "rowid": "1288782",
    "final_x": "3690087.20227",
    "final_y": "537348.27988",
    "longitude": "-90.04074751483364",
    "latitude": "29.971257894698507",
    "geocoded_column": {
      "latitude": "29.971257894698507",
      "longitude": "-90.04074751483364"
    }
  },
  {
    "service_request": "2026-1288781",
    "request_type": "Tree Service",
    "request_reason": "Dead or Dying Tree",
    "date_created": "2026-06-08T16:30:28.000",
    "date_modified": "2026-06-08T16:30:30.000",
    "request_status": "Pending",
    "responsible_agency": "Department of Parks & Parkways",
    "final_address": "20 Newcomb Blvd",
    "address_councildis": "A",
    "status": "Pending",
    "rowid": "1288781",
    "final_x": "3663788.66253",
    "final_y": "525181.704765",
    "longitude": "-90.12420780125025",
    "latitude": "29.938593282846682",
    "geocoded_column": {
      "latitude": "29.938593282846682",
      "longitude": "-90.12420780125025"
    }
  },
  {
    "service_request": "2026-1288779",
    "request_type": "Trash/Recycling",
    "request_reason": "Order Recycling Cart",
    "date_created": "2026-06-08T16:27:54.000",
    "date_modified": "2026-06-08T16:27:55.000",
    "request_status": "Pending",
    "responsible_agency": "Department of Sanitation",
    "final_address": "6628 Pauline Dr",
    "address_councildis": "D",
    "status": "Pending",
    "rowid": "1288779",
    "final_x": "3690779.1286",
    "final_y": "558151.987419",
    "longitude": "-90.03781949362353",
    "latitude": "30.028439019318462",
    "geocoded_column": {
      "latitude": "30.028439019318462",
      "longitude": "-90.03781949362353"
    }
  },
  {
    "service_request": "2026-1288780",
    "request_type": "Trash/Recycling",
    "request_reason": "Order Recycling Cart",
    "date_created": "2026-06-08T16:27:54.000",
    "date_modified": "2026-06-08T16:27:55.000",
    "request_status": "Pending",
    "responsible_agency": "Department of Sanitation",
    "final_address": "6628 Pauline Dr",
    "address_councildis": "D",
    "status": "Pending",
    "rowid": "1288780",
    "final_x": "3690779.1286",
    "final_y": "558151.987419",
    "longitude": "-90.03781949362353",
    "latitude": "30.028439019318462",
    "geocoded_column": {
      "latitude": "30.028439019318462",
      "longitude": "-90.03781949362353"
    }
  },
  {
    "service_request": "2026-1288778",
    "request_type": "Parks & Grass Service",
    "request_reason": "Request Grass Cutting Service (City Owned Property)",
    "date_created": "2026-06-08T16:27:02.000",
    "date_modified": "2026-06-08T16:27:04.000",
    "request_status": "Pending",
    "responsible_agency": "Department of Parks & Parkways",
    "final_address": "4740 Crowder Blvd",
    "address_councildis": "E",
    "status": "Pending",
    "rowid": "1288778",
    "final_x": "3706314.85886",
    "final_y": "555782.329113",
    "longitude": "-89.98881564708256",
    "latitude": "30.0214312564467",
    "geocoded_column": {
      "latitude": "30.0214312564467",
      "longitude": "-89.98881564708256"
    }
  },
  {
    "service_request": "2026-1288777",
    "request_type": "Trash/Recycling",
    "request_reason": "Request a Large Item Pick Up",
    "date_created": "2026-06-08T16:23:18.000",
    "date_modified": "2026-06-08T16:23:19.000",
    "request_status": "Pending",
    "responsible_agency": "Department of Sanitation",
    "final_address": "7016 Derbes St",
    "address_councildis": "A",
    "status": "Assigned to Contractor",
    "contractor": "IV Waste",
    "rowid": "1288777",
    "final_x": "3665767.34176",
    "final_y": "554397.56988",
    "longitude": "-90.11698174169292",
    "latitude": "30.018869549079913",
    "geocoded_column": {
      "latitude": "30.018869549079913",
      "longitude": "-90.11698174169292"
    }
  },
  {
    "service_request": "2026-1288776",
    "request_type": "Tree Service",
    "request_reason": "Tree Trim",
    "date_created": "2026-06-08T16:22:24.000",
    "date_modified": "2026-06-08T16:22:52.000",
    "request_status": "Pending",
    "responsible_agency": "Department of Parks & Parkways",
    "final_address": "4725 Carondelet St",
    "address_councildis": "B",
    "status": "Pending",
    "rowid": "1288776",
    "final_x": "3669504.75182",
    "final_y": "521159.369081",
    "longitude": "-90.10629744161675",
    "latitude": "29.927366057719894",
    "geocoded_column": {
      "latitude": "29.927366057719894",
      "longitude": "-90.10629744161675"
    }
  },
  {
    "service_request": "2026-1288775",
    "request_type": "Trash/Recycling",
    "request_reason": "Illegal Dumping",
    "date_created": "2026-06-08T16:19:33.000",
    "date_modified": "2026-06-08T16:19:34.000",
    "request_status": "Pending",
    "responsible_agency": "Department of Sanitation",
    "final_address": "THAYER ST & PTOLEMY ST",
    "address_councildis": "C",
    "status": "Pending",
    "rowid": "1288775",
    "final_x": "3689356.3",
    "final_y": "526011.28",
    "longitude": "-90.0434588422577",
    "latitude": "29.94010771655715",
    "geocoded_column": {
      "latitude": "29.94010771655715",
      "longitude": "-90.0434588422577"
    }
  },
  {
    "service_request": "2026-1288774",
    "request_type": "Trash/Recycling",
    "request_reason": "Request a Large Item Pick Up",
    "date_created": "2026-06-08T16:18:27.000",
    "date_modified": "2026-06-08T16:18:29.000",
    "request_status": "Pending",
    "responsible_agency": "Department of Sanitation",
    "final_address": "1418 Frankfort St",
    "address_councildis": "D",
    "status": "Assigned to Contractor",
    "contractor": "IV Waste",
    "rowid": "1288774",
    "final_x": "3677916.80482",
    "final_y": "555808.001369",
    "longitude": "-90.07854491698107",
    "latitude": "30.02238750436791",
    "geocoded_column": {
      "latitude": "30.02238750436791",
      "longitude": "-90.07854491698107"
    }
  },
  {
    "service_request": "2026-1288773",
    "request_type": "Trash/Recycling",
    "request_reason": "Request a Large Item Pick Up",
    "date_created": "2026-06-08T16:13:38.000",
    "date_modified": "2026-06-08T16:13:39.000",
    "request_status": "Pending",
    "responsible_agency": "Department of Sanitation",
    "final_address": "5501 Wildair Dr",
    "address_councildis": "D",
    "status": "Assigned to Contractor",
    "contractor": "IV Waste",
    "rowid": "1288773",
    "final_x": "3681671.43004",
    "final_y": "552929.835287",
    "longitude": "-90.06678174283543",
    "latitude": "30.01436000907058",
    "geocoded_column": {
      "latitude": "30.01436000907058",
      "longitude": "-90.06678174283543"
    }
  },
  {
    "service_request": "2026-1288772",
    "request_type": "Trash/Recycling",
    "request_reason": "Request a Large Item Pick Up",
    "date_created": "2026-06-08T16:13:30.000",
    "date_modified": "2026-06-08T16:13:31.000",
    "request_status": "Pending",
    "responsible_agency": "Department of Sanitation",
    "final_address": "4861 Francis Dr",
    "address_councildis": "D",
    "status": "Assigned to Contractor",
    "contractor": "Waste Pro",
    "rowid": "1288772",
    "final_x": "3698211.55843",
    "final_y": "555079.554585",
    "longitude": "-90.01444527741484",
    "latitude": "30.0197578481434",
    "geocoded_column": {
      "latitude": "30.0197578481434",
      "longitude": "-90.01444527741484"
    }
  },
  {
    "service_request": "2026-1288771",
    "request_type": "Trash/Recycling",
    "request_reason": "Repair Trash Cart",
    "date_created": "2026-06-08T16:11:32.000",
    "date_modified": "2026-06-08T16:11:34.000",
    "request_status": "Pending",
    "responsible_agency": "Department of Sanitation",
    "final_address": "732 Governor Nicholls St",
    "address_councildis": "C",
    "status": "Assigned to Contractor",
    "contractor": "IV Waste",
    "rowid": "1288771",
    "final_x": "3683436.65519",
    "final_y": "534044.250565",
    "longitude": "-90.0618666242673",
    "latitude": "29.96237756492884",
    "geocoded_column": {
      "latitude": "29.96237756492884",
      "longitude": "-90.0618666242673"
    }
  },
  {
    "service_request": "2026-1288770",
    "request_type": "Street and Traffic Signs",
    "request_reason": "Street Name Sign Damaged or Missing",
    "date_created": "2026-06-08T16:09:58.000",
    "date_modified": "2026-06-08T16:10:00.000",
    "request_status": "Pending",
    "responsible_agency": "Department of Public Works",
    "final_address": "LAWRENCE ST & CASA CALVO ST",
    "address_councildis": "C",
    "status": "Pending",
    "rowid": "1288770",
    "final_x": "3692024.8",
    "final_y": "525447.98",
    "longitude": "-90.03505416259311",
    "latitude": "29.938475966240652",
    "geocoded_column": {
      "latitude": "29.938475966240652",
      "longitude": "-90.03505416259311"
    }
  },
  {
    "service_request": "2026-1288769",
    "request_type": "Trash/Recycling",
    "request_reason": "Request a Large Item Pick Up",
    "date_created": "2026-06-08T16:09:49.000",
    "date_modified": "2026-06-08T16:09:51.000",
    "request_status": "Pending",
    "responsible_agency": "Department of Sanitation",
    "final_address": "4129 S Liberty St",
    "address_councildis": "B",
    "status": "Assigned to Contractor",
    "contractor": "IV Waste",
    "rowid": "1288769",
    "final_x": "3671439.46913",
    "final_y": "523476.139323",
    "longitude": "-90.10011129645214",
    "latitude": "29.933679321223988",
    "geocoded_column": {
      "latitude": "29.933679321223988",
      "longitude": "-90.10011129645214"
    }
  },
  {
    "service_request": "2026-1288768",
    "request_type": "Trash/Recycling",
    "request_reason": "Order Trash Cart",
    "date_created": "2026-06-08T16:08:36.000",
    "date_modified": "2026-06-08T16:08:37.000",
    "request_status": "Pending",
    "responsible_agency": "Department of Sanitation",
    "final_address": "3621 Huntlee Dr",
    "address_councildis": "C",
    "status": "Assigned to Contractor",
    "contractor": "Richards Disposal",
    "rowid": "1288768",
    "final_x": "3701633.20957",
    "final_y": "517722.520182",
    "longitude": "-90.00500239335331",
    "latitude": "29.91693078028708",
    "geocoded_column": {
      "latitude": "29.91693078028708",
      "longitude": "-90.00500239335331"
    }
  },
  {
    "service_request": "2026-1288767",
    "request_type": "Trash/Recycling",
    "request_reason": "Request a Large Item Pick Up",
    "date_created": "2026-06-08T16:08:21.000",
    "date_modified": "2026-06-08T16:08:22.000",
    "request_status": "Pending",
    "responsible_agency": "Department of Sanitation",
    "final_address": "4445 Skyview Dr",
    "address_councildis": "D",
    "status": "Assigned to Contractor",
    "contractor": "Waste Pro",
    "rowid": "1288767",
    "final_x": "3696881.10787",
    "final_y": "552810.048022",
    "longitude": "-90.01873131552532",
    "latitude": "30.013559601399653",
    "geocoded_column": {
      "latitude": "30.013559601399653",
      "longitude": "-90.01873131552532"
    }
  },
  {
    "service_request": "2026-1288766",
    "request_type": "Trash/Recycling",
    "request_reason": "Request a Large Item Pick Up",
    "date_created": "2026-06-08T16:06:47.000",
    "date_modified": "2026-06-08T16:06:49.000",
    "request_status": "Pending",
    "responsible_agency": "Department of Sanitation",
    "final_address": "5240 Glouster Rd",
    "address_councildis": "E",
    "status": "Assigned to Contractor",
    "contractor": "Waste Pro",
    "rowid": "1288766",
    "final_x": "3707620.273",
    "final_y": "557544.048987",
    "longitude": "-89.98462541007596",
    "latitude": "30.026233117032994",
    "geocoded_column": {
      "latitude": "30.026233117032994",
      "longitude": "-89.98462541007596"
    }
  },
  {
    "service_request": "2026-1288765",
    "request_type": "Roads and Streets",
    "request_reason": "Sidewalk Damaged or Missing",
    "date_created": "2026-06-08T16:06:39.000",
    "date_modified": "2026-06-08T16:06:41.000",
    "request_status": "Pending",
    "responsible_agency": "Department of Public Works",
    "final_address": "2327 Urquhart St",
    "address_councildis": "C",
    "status": "Pending",
    "rowid": "1288765",
    "final_x": "3685947.50684",
    "final_y": "537153.074248",
    "longitude": "-90.05382810437223",
    "latitude": "29.970848902884008",
    "geocoded_column": {
      "latitude": "29.970848902884008",
      "longitude": "-90.05382810437223"
    }
  },
  {
    "service_request": "2026-1288764",
    "request_type": "Tree Service",
    "request_reason": "Tree Trim",
    "date_created": "2026-06-08T16:06:39.000",
    "date_modified": "2026-06-08T16:06:40.000",
    "request_status": "Pending",
    "responsible_agency": "Department of Parks & Parkways",
    "final_address": "6638 Orleans Ave",
    "address_councildis": "A",
    "status": "Pending",
    "rowid": "1288764",
    "final_x": "3671187.53799",
    "final_y": "551451.611605",
    "longitude": "-90.09995598972628",
    "latitude": "30.010609887960953",
    "geocoded_column": {
      "latitude": "30.010609887960953",
      "longitude": "-90.09995598972628"
    }
  },
  {
    "service_request": "2026-1288763",
    "request_type": "Trash/Recycling",
    "request_reason": "Repair Trash Cart",
    "date_created": "2026-06-08T16:02:52.000",
    "date_modified": "2026-06-08T16:02:54.000",
    "request_status": "Pending",
    "responsible_agency": "Department of Sanitation",
    "final_address": "1805 Piety St",
    "address_councildis": "D",
    "status": "Assigned to Contractor",
    "contractor": "IV Waste",
    "rowid": "1288763",
    "final_x": "3690540.57212",
    "final_y": "538470.122185",
    "longitude": "-90.03927570278802",
    "latitude": "29.97432849408489",
    "geocoded_column": {
      "latitude": "29.97432849408489",
      "longitude": "-90.03927570278802"
    }
  },
  {
    "service_request": "2026-1288762",
    "request_type": "Traffic Safety",
    "request_reason": "Request for Traffic Calming due to Speeding",
    "date_created": "2026-06-08T16:02:05.000",
    "date_modified": "2026-06-08T16:02:07.000",
    "request_status": "Pending",
    "responsible_agency": "Department of Public Works",
    "final_address": "2200 BLK Felicity St",
    "address_councildis": "B",
    "status": "Pending",
    "rowid": "1288762",
    "final_x": "3676501.39598",
    "final_y": "526559.830526",
    "longitude": "-90.08402489353927",
    "latitude": "29.942007688454765",
    "geocoded_column": {
      "latitude": "29.942007688454765",
      "longitude": "-90.08402489353927"
    }
  },
  {
    "service_request": "2026-1288761",
    "request_type": "Property Maintenance",
    "request_reason": "Property Maintenance",
    "date_created": "2026-06-08T15:59:17.000",
    "date_modified": "2026-06-08T15:59:19.000",
    "request_status": "Pending",
    "responsible_agency": "Department of Code Enforcement",
    "final_address": "4660 Press Dr",
    "address_councildis": "D",
    "status": "Pending",
    "rowid": "1288761",
    "final_x": "3689588.07292",
    "final_y": "550506.705364",
    "longitude": "-90.04185545039573",
    "latitude": "30.007454307775074",
    "geocoded_column": {
      "latitude": "30.007454307775074",
      "longitude": "-90.04185545039573"
    }
  },
  {
    "service_request": "2026-1288760",
    "request_type": "Abandoned Vehicles",
    "request_reason": "Abandoned/Junk Vehicles",
    "date_created": "2026-06-08T15:59:09.000",
    "date_modified": "2026-06-08T15:59:11.000",
    "request_status": "Pending",
    "responsible_agency": "Department of Public Works",
    "final_address": "2700 Dauphine St",
    "address_councildis": "C",
    "status": "Pending",
    "rowid": "1288760",
    "final_x": "3687145.17705",
    "final_y": "535218.97799",
    "longitude": "-90.05011412474414",
    "latitude": "29.965493984992246",
    "geocoded_column": {
      "latitude": "29.965493984992246",
      "longitude": "-90.05011412474414"
    }
  },
  {
    "service_request": "2026-1288759",
    "request_type": "Tree Service",
    "request_reason": "Street or Sidewalk Blocked",
    "date_created": "2026-06-08T15:54:18.000",
    "date_modified": "2026-06-08T15:55:41.000",
    "request_status": "Pending",
    "responsible_agency": "Department of Parks & Parkways",
    "final_address": "1403 L. B. Landry Ave",
    "address_councildis": "C",
    "status": "Pending",
    "rowid": "1288759",
    "final_x": "3690007.51593",
    "final_y": "526253.371326",
    "longitude": "-90.04139424296855",
    "latitude": "29.940753212077702",
    "geocoded_column": {
      "latitude": "29.940753212077702",
      "longitude": "-90.04139424296855"
    }
  },
  {
    "service_request": "2026-1288758",
    "request_type": "Trash/Recycling",
    "request_reason": "Damaged Caused By Contractor",
    "date_created": "2026-06-08T15:53:46.000",
    "date_modified": "2026-06-08T15:53:47.000",
    "request_status": "Pending",
    "responsible_agency": "Department of Sanitation",
    "final_address": "5114 Baronne St",
    "address_councildis": "B",
    "status": "Assigned to Contractor",
    "contractor": "IV Waste",
    "rowid": "1288758",
    "final_x": "3668344.38631",
    "final_y": "521414.110969",
    "longitude": "-90.10995185166132",
    "latitude": "29.928100633122465",
    "geocoded_column": {
      "latitude": "29.928100633122465",
      "longitude": "-90.10995185166132"
    }
  },
  {
    "service_request": "2026-1288757",
    "request_type": "Trash/Recycling",
    "request_reason": "Request a Large Item Pick Up",
    "date_created": "2026-06-08T15:50:22.000",
    "date_modified": "2026-06-08T15:50:23.000",
    "request_status": "Pending",
    "responsible_agency": "Department of Sanitation",
    "final_address": "4750 Lurline St",
    "address_councildis": "E",
    "status": "Assigned to Contractor",
    "contractor": "Waste Pro",
    "rowid": "1288757",
    "final_x": "3711891.34194",
    "final_y": "556175.566234",
    "longitude": "-89.97118089057514",
    "latitude": "30.022331406338832",
    "geocoded_column": {
      "latitude": "30.022331406338832",
      "longitude": "-89.97118089057514"
    }
  },
  {
    "service_request": "2026-1288756",
    "request_type": "Trash/Recycling",
    "request_reason": "Replace Trash Cart",
    "date_created": "2026-06-08T15:48:16.000",
    "date_modified": "2026-06-08T15:48:17.000",
    "request_status": "Pending",
    "responsible_agency": "Department of Sanitation",
    "final_address": "3324 Esplanade Ave",
    "address_councildis": "A",
    "status": "Assigned to Contractor",
    "contractor": "IV Waste",
    "rowid": "1288756",
    "final_x": "3675835.08366",
    "final_y": "540681.332235",
    "longitude": "-90.08564310986975",
    "latitude": "29.98085702211278",
    "geocoded_column": {
      "latitude": "29.98085702211278",
      "longitude": "-90.08564310986975"
    }
  },
  {
    "service_request": "2026-1288755",
    "request_type": "Trash/Recycling",
    "request_reason": "Replace Trash Cart",
    "date_created": "2026-06-08T15:47:13.000",
    "date_modified": "2026-06-08T15:47:15.000",
    "request_status": "Pending",
    "responsible_agency": "Department of Sanitation",
    "final_address": "1901 Holiday Dr",
    "address_councildis": "C",
    "status": "Assigned to Contractor",
    "contractor": "Richards Disposal",
    "rowid": "1288755",
    "final_x": "3698844.42045",
    "final_y": "523966.981564",
    "longitude": "-90.01357791284534",
    "latitude": "29.934189508993793",
    "geocoded_column": {
      "latitude": "29.934189508993793",
      "longitude": "-90.01357791284534"
    }
  },
  {
    "service_request": "2026-1288754",
    "request_type": "Trash/Recycling",
    "request_reason": "Damaged Caused By Contractor",
    "date_created": "2026-06-08T15:44:54.000",
    "date_modified": "2026-06-08T15:44:55.000",
    "request_status": "Pending",
    "responsible_agency": "Department of Sanitation",
    "final_address": "5114 Baronne St",
    "address_councildis": "B",
    "status": "Assigned to Contractor",
    "contractor": "IV Waste",
    "rowid": "1288754",
    "final_x": "3668344.38631",
    "final_y": "521414.110969",
    "longitude": "-90.10995185166132",
    "latitude": "29.928100633122465",
    "geocoded_column": {
      "latitude": "29.928100633122465",
      "longitude": "-90.10995185166132"
    }
  },
  {
    "service_request": "2026-1288753",
    "request_type": "Trash/Recycling",
    "request_reason": "Request a Large Item Pick Up",
    "date_created": "2026-06-08T15:42:17.000",
    "date_modified": "2026-06-08T15:42:18.000",
    "request_status": "Pending",
    "responsible_agency": "Department of Sanitation",
    "final_address": "5130 Mckendall Pl",
    "address_councildis": "E",
    "status": "Assigned to Contractor",
    "contractor": "Waste Pro",
    "rowid": "1288753",
    "final_x": "3717985.54642",
    "final_y": "558728.380636",
    "longitude": "-89.95182767602584",
    "latitude": "30.029150015562198",
    "geocoded_column": {
      "latitude": "30.029150015562198",
      "longitude": "-89.95182767602584"
    }
  },
  {
    "service_request": "2026-1288752",
    "request_type": "Trash/Recycling",
    "request_reason": "Request a Large Item Pick Up",
    "date_created": "2026-06-08T15:40:48.000",
    "date_modified": "2026-06-08T15:40:50.000",
    "request_status": "Pending",
    "responsible_agency": "Department of Sanitation",
    "final_address": "10110 Deerfield Dr",
    "address_councildis": "E",
    "status": "Assigned to Contractor",
    "contractor": "Waste Pro",
    "rowid": "1288752",
    "final_x": "3709678.49201",
    "final_y": "563203.705504",
    "longitude": "-89.97791019954936",
    "latitude": "30.041728156554154",
    "geocoded_column": {
      "latitude": "30.041728156554154",
      "longitude": "-89.97791019954936"
    }
  },
  {
    "service_request": "2026-1288751",
    "request_type": "Abandoned Vehicles",
    "request_reason": "Abandoned/Junk Vehicles",
    "date_created": "2026-06-08T15:39:59.000",
    "date_modified": "2026-06-08T15:42:13.000",
    "request_status": "Pending",
    "responsible_agency": "Department of Public Works",
    "final_address": "2533 Ursulines Ave",
    "address_councildis": "C",
    "status": "Pending",
    "rowid": "1288751",
    "final_x": "3678248.56603",
    "final_y": "537747.961544",
    "longitude": "-90.0781217543535",
    "latitude": "29.972718782005096",
    "geocoded_column": {
      "latitude": "29.972718782005096",
      "longitude": "-90.0781217543535"
    }
  },
  {
    "service_request": "2026-1288750",
    "request_type": "Trash/Recycling",
    "request_reason": "Request a Large Item Pick Up",
    "date_created": "2026-06-08T15:39:21.000",
    "date_modified": "2026-06-08T15:39:23.000",
    "request_status": "Pending",
    "responsible_agency": "Department of Sanitation",
    "final_address": "8009 Vanderkloot Ave",
    "address_councildis": "E",
    "status": "Assigned to Contractor",
    "contractor": "Waste Pro",
    "rowid": "1288750",
    "final_x": "3705390.98705",
    "final_y": "564316.570273",
    "longitude": "-89.99141900491878",
    "latitude": "30.044926849203407",
    "geocoded_column": {
      "latitude": "30.044926849203407",
      "longitude": "-89.99141900491878"
    }
  },
  {
    "service_request": "2026-1288749",
    "request_type": "Trash/Recycling",
    "request_reason": "Request a Large Item Pick Up",
    "date_created": "2026-06-08T15:38:19.000",
    "date_modified": "2026-06-08T15:38:20.000",
    "request_status": "Pending",
    "responsible_agency": "Department of Sanitation",
    "final_address": "7063 Boston Dr",
    "address_councildis": "E",
    "status": "Assigned to Contractor",
    "contractor": "Waste Pro",
    "rowid": "1288749",
    "final_x": "3706400.36215",
    "final_y": "560866.942878",
    "longitude": "-89.98835690173163",
    "latitude": "30.03540919835036",
    "geocoded_column": {
      "latitude": "30.03540919835036",
      "longitude": "-89.98835690173163"
    }
  },
  {
    "service_request": "2026-1288748",
    "request_type": "Alley Ways",
    "request_reason": "Alley Way Issues",
    "date_created": "2026-06-08T15:37:43.000",
    "date_modified": "2026-06-08T15:37:45.000",
    "request_status": "Pending",
    "responsible_agency": "Department of Public Works",
    "final_address": "4800 BLK Saint Louis St",
    "address_councildis": "A",
    "status": "Pending",
    "rowid": "1288748",
    "final_x": "3669577.87177",
    "final_y": "541373.84683",
    "longitude": "-90.10538277113339",
    "latitude": "29.982947063048737",
    "geocoded_column": {
      "latitude": "29.982947063048737",
      "longitude": "-90.10538277113339"
    }
  },
  {
    "service_request": "2026-1288747",
    "request_type": "Trash/Recycling",
    "request_reason": "Request a Large Item Pick Up",
    "date_created": "2026-06-08T15:36:44.000",
    "date_modified": "2026-06-08T15:36:46.000",
    "request_status": "Pending",
    "responsible_agency": "Department of Sanitation",
    "final_address": "7300 Wayside Dr",
    "address_councildis": "E",
    "status": "Assigned to Contractor",
    "contractor": "Waste Pro",
    "rowid": "1288747",
    "final_x": "3716990.33356",
    "final_y": "568554.013029",
    "longitude": "-89.95459889028147",
    "latitude": "30.05619946277999",
    "geocoded_column": {
      "latitude": "30.05619946277999",
      "longitude": "-89.95459889028147"
    }
  },
  {
    "service_request": "2026-1288746",
    "request_type": "Trash/Recycling",
    "request_reason": "Order Second Trash Cart",
    "date_created": "2026-06-08T15:36:31.000",
    "date_modified": "2026-06-08T15:36:32.000",
    "request_status": "Pending",
    "responsible_agency": "Department of Sanitation",
    "final_address": "4842 Pauline Dr",
    "address_councildis": "D",
    "status": "Assigned to Contractor",
    "contractor": "IV Waste",
    "rowid": "1288746",
    "final_x": "3692670.5487",
    "final_y": "552065.442838",
    "longitude": "-90.03206114707802",
    "latitude": "30.01164436852426",
    "geocoded_column": {
      "latitude": "30.01164436852426",
      "longitude": "-90.03206114707802"
    }
  },
  {
    "service_request": "2026-1288745",
    "request_type": "Trash/Recycling",
    "request_reason": "Request a Large Item Pick Up",
    "date_created": "2026-06-08T15:35:28.000",
    "date_modified": "2026-06-08T15:35:29.000",
    "request_status": "Pending",
    "responsible_agency": "Department of Sanitation",
    "final_address": "5710 Willow St",
    "address_councildis": "A",
    "status": "Assigned to Contractor",
    "contractor": "IV Waste",
    "rowid": "1288745",
    "final_x": "3667451.52807",
    "final_y": "525437.618749",
    "longitude": "-90.11263510164092",
    "latitude": "29.93919017642057",
    "geocoded_column": {
      "latitude": "29.93919017642057",
      "longitude": "-90.11263510164092"
    }
  },
  {
    "service_request": "2026-1288744",
    "request_type": "Utility Poles",
    "request_reason": "Wires Sagging/Hanging Low",
    "date_created": "2026-06-08T15:35:11.000",
    "date_modified": "2026-06-08T15:35:16.000",
    "request_status": "Pending",
    "responsible_agency": "Utility Company Collective",
    "final_address": "416 Nashville Ave",
    "address_councildis": "A",
    "status": "Pending",
    "rowid": "1288744",
    "final_x": "3665203.7936",
    "final_y": "517838.208694",
    "longitude": "-90.11998556614577",
    "latitude": "29.918359850480638",
    "geocoded_column": {
      "latitude": "29.918359850480638",
      "longitude": "-90.11998556614577"
    }
  },
  {
    "service_request": "2026-1288743",
    "request_type": "Trash/Recycling",
    "request_reason": "Order Second Trash Cart",
    "date_created": "2026-06-08T15:34:21.000",
    "date_modified": "2026-06-08T15:34:23.000",
    "request_status": "Pending",
    "responsible_agency": "Department of Sanitation",
    "final_address": "4842 Pauline Dr",
    "address_councildis": "D",
    "status": "Assigned to Contractor",
    "contractor": "IV Waste",
    "rowid": "1288743",
    "final_x": "3692670.5487",
    "final_y": "552065.442838",
    "longitude": "-90.03206114707802",
    "latitude": "30.01164436852426",
    "geocoded_column": {
      "latitude": "30.01164436852426",
      "longitude": "-90.03206114707802"
    }
  },
  {
    "service_request": "2026-1288742",
    "request_type": "Trash/Recycling",
    "request_reason": "Request a Large Item Pick Up",
    "date_created": "2026-06-08T15:32:17.000",
    "date_modified": "2026-06-08T15:32:19.000",
    "request_status": "Pending",
    "responsible_agency": "Department of Sanitation",
    "final_address": "9824 E Wheaton Cir",
    "address_councildis": "E",
    "status": "Assigned to Contractor",
    "contractor": "Waste Pro",
    "rowid": "1288742",
    "final_x": "3708688.10801",
    "final_y": "562570.019552",
    "longitude": "-89.9810637858866",
    "latitude": "30.040017948150265",
    "geocoded_column": {
      "latitude": "30.040017948150265",
      "longitude": "-89.9810637858866"
    }
  },
  {
    "service_request": "2026-1288741",
    "request_type": "Trash/Recycling",
    "request_reason": "Order Recycling Cart",
    "date_created": "2026-06-08T15:30:07.000",
    "date_modified": "2026-06-08T15:30:09.000",
    "request_status": "Pending",
    "responsible_agency": "Department of Sanitation",
    "final_address": "1525 Owens Blvd",
    "address_councildis": "D",
    "status": "Pending",
    "rowid": "1288741",
    "final_x": "3679041.53807",
    "final_y": "549122.446355",
    "longitude": "-90.07522297745874",
    "latitude": "30.003970723971356",
    "geocoded_column": {
      "latitude": "30.003970723971356",
      "longitude": "-90.07522297745874"
    }
  },
  {
    "service_request": "2026-1288740",
    "request_type": "Trash/Recycling",
    "request_reason": "Request a Large Item Pick Up",
    "date_created": "2026-06-08T15:29:35.000",
    "date_modified": "2026-06-08T15:29:36.000",
    "request_status": "Pending",
    "responsible_agency": "Department of Sanitation",
    "final_address": "7631 Poitevent Ave",
    "address_councildis": "E",
    "status": "Assigned to Contractor",
    "contractor": "Waste Pro",
    "rowid": "1288740",
    "final_x": "3706975.84862",
    "final_y": "564223.220385",
    "longitude": "-89.98641360570382",
    "latitude": "30.044619044432675",
    "geocoded_column": {
      "latitude": "30.044619044432675",
      "longitude": "-89.98641360570382"
    }
  },
  {
    "service_request": "2026-1288739",
    "request_type": "Trash/Recycling",
    "request_reason": "Request a Large Item Pick Up",
    "date_created": "2026-06-08T15:28:52.000",
    "date_modified": "2026-06-08T15:28:53.000",
    "request_status": "Pending",
    "responsible_agency": "Department of Sanitation",
    "final_address": "8801 Bunker Hill Rd",
    "address_councildis": "E",
    "status": "Assigned to Contractor",
    "contractor": "Waste Pro",
    "rowid": "1288739",
    "final_x": "3705446.06084",
    "final_y": "561425.331038",
    "longitude": "-89.99135196525064",
    "latitude": "30.03697531145728",
    "geocoded_column": {
      "latitude": "30.03697531145728",
      "longitude": "-89.99135196525064"
    }
  },
  {
    "service_request": "2026-1288738",
    "request_type": "Trash/Recycling",
    "request_reason": "Order Recycling Cart",
    "date_created": "2026-06-08T15:28:34.000",
    "date_modified": "2026-06-08T15:28:35.000",
    "request_status": "Pending",
    "responsible_agency": "Department of Sanitation",
    "final_address": "4112 S Derbigny St",
    "address_councildis": "B",
    "status": "Pending",
    "rowid": "1288738",
    "final_x": "3671253.8619",
    "final_y": "526307.35923",
    "longitude": "-90.10060109236817",
    "latitude": "29.9414697504494",
    "geocoded_column": {
      "latitude": "29.9414697504494",
      "longitude": "-90.10060109236817"
    }
  },
  {
    "service_request": "2026-1288737",
    "request_type": "Trash/Recycling",
    "request_reason": "Request a Large Item Pick Up",
    "date_created": "2026-06-08T15:28:28.000",
    "date_modified": "2026-06-08T15:28:30.000",
    "request_status": "Pending",
    "responsible_agency": "Department of Sanitation",
    "final_address": "4418 N Villere St",
    "address_councildis": "D",
    "status": "Assigned to Contractor",
    "contractor": "IV Waste",
    "rowid": "1288737",
    "final_x": "3693499.47011",
    "final_y": "535980.176007",
    "longitude": "-90.03002029147564",
    "latitude": "29.967389811453415",
    "geocoded_column": {
      "latitude": "29.967389811453415",
      "longitude": "-90.03002029147564"
    }
  },
  {
    "service_request": "2026-1288736",
    "request_type": "Trash/Recycling",
    "request_reason": "Repair Trash Cart",
    "date_created": "2026-06-08T15:25:26.000",
    "date_modified": "2026-06-08T15:25:27.000",
    "request_status": "Pending",
    "responsible_agency": "Department of Sanitation",
    "final_address": "8637 Willow St",
    "address_councildis": "A",
    "status": "Assigned to Contractor",
    "contractor": "IV Waste",
    "rowid": "1288736",
    "final_x": "3660940.69786",
    "final_y": "530308.681026",
    "longitude": "-90.1330296157325",
    "latitude": "29.952773161537934",
    "geocoded_column": {
      "latitude": "29.952773161537934",
      "longitude": "-90.1330296157325"
    }
  },
  {
    "service_request": "2026-1288735",
    "request_type": "Trash/Recycling",
    "request_reason": "Request a Large Item Pick Up",
    "date_created": "2026-06-08T15:25:17.000",
    "date_modified": "2026-06-08T15:25:18.000",
    "request_status": "Pending",
    "responsible_agency": "Department of Sanitation",
    "final_address": "13820 PierreS Ct",
    "address_councildis": "E",
    "status": "Assigned to Contractor",
    "contractor": "Waste Pro",
    "rowid": "1288735",
    "final_x": "3725342.67251",
    "final_y": "570429.031847",
    "longitude": "-89.92812628040271",
    "latitude": "30.06107599337318",
    "geocoded_column": {
      "latitude": "30.06107599337318",
      "longitude": "-89.92812628040271"
    }
  },
  {
    "service_request": "2026-1288734",
    "request_type": "Trash/Recycling",
    "request_reason": "Request a Large Item Pick Up",
    "date_created": "2026-06-08T15:23:11.000",
    "date_modified": "2026-06-08T15:23:13.000",
    "request_status": "Pending",
    "responsible_agency": "Department of Sanitation",
    "final_address": "11040 Roger Dr Apt A",
    "address_councildis": "E",
    "status": "Assigned to Contractor",
    "contractor": "Waste Pro",
    "rowid": "1288734",
    "final_x": "3712420.08466",
    "final_y": "563553.061216",
    "longitude": "-89.96923269717058",
    "latitude": "30.04259928770898",
    "geocoded_column": {
      "latitude": "30.04259928770898",
      "longitude": "-89.96923269717058"
    }
  },
  {
    "service_request": "2026-1288733",
    "request_type": "Parks & Grass Service",
    "request_reason": "Request Grass Cutting Service (City Owned Property)",
    "date_created": "2026-06-08T15:22:46.000",
    "date_modified": "2026-06-08T15:24:22.000",
    "request_status": "Pending",
    "responsible_agency": "Department of Parks & Parkways",
    "final_address": "PALMETTO ST & CHERRY ST",
    "address_councildis": "A",
    "status": "Pending",
    "rowid": "1288733",
    "final_x": "3665067.5",
    "final_y": "538064.48",
    "longitude": "-90.1197395872712",
    "latitude": "29.973979547653936",
    "geocoded_column": {
      "latitude": "29.973979547653936",
      "longitude": "-90.1197395872712"
    }
  },
  {
    "service_request": "2026-1288732",
    "request_type": "Trash/Recycling",
    "request_reason": "Request a Large Item Pick Up",
    "date_created": "2026-06-08T15:19:25.000",
    "date_modified": "2026-06-08T15:19:26.000",
    "request_status": "Pending",
    "responsible_agency": "Department of Sanitation",
    "final_address": "6314 Ransom St",
    "address_councildis": "D",
    "status": "Assigned to Contractor",
    "contractor": "Waste Pro",
    "rowid": "1288732",
    "final_x": "3698159.59408",
    "final_y": "552853.378391",
    "longitude": "-90.0146904145094",
    "latitude": "30.01363835042148",
    "geocoded_column": {
      "latitude": "30.01363835042148",
      "longitude": "-90.0146904145094"
    }
  },
  {
    "service_request": "2026-1288731",
    "request_type": "Parks & Grass Service",
    "request_reason": "Request Grass Cutting Service (City Owned Property)",
    "date_created": "2026-06-08T15:17:57.000",
    "date_modified": "2026-06-08T15:17:59.000",
    "request_status": "Pending",
    "responsible_agency": "Department of Parks & Parkways",
    "final_address": "6200 Campus Blvd",
    "address_councildis": "D",
    "status": "Pending",
    "rowid": "1288731",
    "final_x": "3688447.30665",
    "final_y": "556256.72585",
    "longitude": "-90.04525523620772",
    "latitude": "30.023300044297823",
    "geocoded_column": {
      "latitude": "30.023300044297823",
      "longitude": "-90.04525523620772"
    }
  },
  {
    "service_request": "2026-1288730",
    "request_type": "Tree Service",
    "request_reason": "Tree Trim",
    "date_created": "2026-06-08T15:17:38.000",
    "date_modified": "2026-06-08T15:17:40.000",
    "request_status": "Pending",
    "responsible_agency": "Department of Parks & Parkways",
    "final_address": "4112 S Derbigny St",
    "address_councildis": "B",
    "status": "Pending",
    "rowid": "1288730",
    "final_x": "3671253.8619",
    "final_y": "526307.35923",
    "longitude": "-90.10060109236817",
    "latitude": "29.9414697504494",
    "geocoded_column": {
      "latitude": "29.9414697504494",
      "longitude": "-90.10060109236817"
    }
  },
  {
    "service_request": "2026-1288729",
    "request_type": "Streetlights",
    "request_reason": "Streetlight Outage/Malfunction",
    "date_created": "2026-06-08T15:16:37.000",
    "date_modified": "2026-06-08T15:16:40.000",
    "request_status": "Pending",
    "responsible_agency": "Department of Public Works",
    "final_address": "2470 Pressburg St",
    "address_councildis": "D",
    "status": "Pending",
    "rowid": "1288729",
    "final_x": "3685689.46396",
    "final_y": "554717.918296",
    "longitude": "-90.05402370055111",
    "latitude": "30.019153847667795",
    "geocoded_column": {
      "latitude": "30.019153847667795",
      "longitude": "-90.05402370055111"
    }
  },
  {
    "service_request": "2026-1288728",
    "request_type": "Abandoned Vehicles",
    "request_reason": "Abandoned/Junk Vehicles",
    "date_created": "2026-06-08T15:12:29.000",
    "date_modified": "2026-06-08T15:12:30.000",
    "request_status": "Pending",
    "responsible_agency": "Department of Public Works",
    "final_address": "3212 Royal St",
    "address_councildis": "C",
    "status": "Pending",
    "rowid": "1288728",
    "final_x": "3689307.77737",
    "final_y": "534301.198085",
    "longitude": "-90.04331737843266",
    "latitude": "29.96290363995088",
    "geocoded_column": {
      "latitude": "29.96290363995088",
      "longitude": "-90.04331737843266"
    }
  },
  {
    "service_request": "2026-1288727",
    "request_type": "Parks & Grass Service",
    "request_reason": "Request Grass Cutting Service (City Owned Property)",
    "date_created": "2026-06-08T15:11:56.000",
    "date_modified": "2026-06-08T15:11:57.000",
    "request_status": "Pending",
    "responsible_agency": "Department of Parks & Parkways",
    "final_address": "4626 Cardenas Dr",
    "address_councildis": "E",
    "status": "Pending",
    "rowid": "1288727",
    "final_x": "3713676.00453",
    "final_y": "555724.680089",
    "longitude": "-89.96555885980258",
    "latitude": "30.021033191207763",
    "geocoded_column": {
      "latitude": "30.021033191207763",
      "longitude": "-89.96555885980258"
    }
  },
  {
    "service_request": "2026-1288726",
    "request_type": "Drainage",
    "request_reason": "Catch Basin Not Draining",
    "date_created": "2026-06-08T15:11:09.000",
    "date_modified": "2026-06-08T15:19:36.000",
    "request_status": "Pending",
    "responsible_agency": "Sewerage & Water Board",
    "final_address": "MAGAZINE ST & ST JOSEPH ST",
    "address_councildis": "B",
    "status": "Pending",
    "rowid": "1288726",
    "final_x": "3681047.5",
    "final_y": "527271.48",
    "longitude": "-90.06964710292928",
    "latitude": "29.943827413603504",
    "geocoded_column": {
      "latitude": "29.943827413603504",
      "longitude": "-90.06964710292928"
    }
  },
  {
    "service_request": "2026-1288725",
    "request_type": "Trash/Recycling",
    "request_reason": "Request a Large Item Pick Up",
    "date_created": "2026-06-08T15:10:39.000",
    "date_modified": "2026-06-08T15:10:41.000",
    "request_status": "Pending",
    "responsible_agency": "Department of Sanitation",
    "final_address": "4820 Carondelet St",
    "address_councildis": "B",
    "status": "Assigned to Contractor",
    "contractor": "IV Waste",
    "rowid": "1288725",
    "final_x": "3669162.42068",
    "final_y": "520989.668793",
    "longitude": "-90.10738383026269",
    "latitude": "29.926909511532198",
    "geocoded_column": {
      "latitude": "29.926909511532198",
      "longitude": "-90.10738383026269"
    }
  },