[
  {
    "service_request": "2023-1012735",
    "request_type": "Trash/Recycling",
    "request_reason": "Order Recycling Cart",
    "date_created": "2023-06-29T01:31:26.000",
    "date_modified": "2023-06-29T01:31:26.000",
    "request_status": "Pending",
    "responsible_agency": "Department of Sanitation",
    "final_address": "1422 Deslonde St",
    "address_councildis": "E",
    "status": "Pending",
    "rowid": "1012735",
    "final_x": "3695674.83235",
    "final_y": "535762.496007",
    "longitude": "-90.02315835729279",
    "latitude": "29.966723054274627",
    "geocoded_column": {
      "latitude": "29.966723054274627",
      "longitude": "-90.02315835729279"
    }
  },
  {
    "service_request": "2023-1012734",
    "request_type": "Trash/Recycling",
    "request_reason": "Repair Trash Cart",
    "date_created": "2023-06-29T01:21:50.000",
    "date_modified": "2023-06-29T01:21:51.000",
    "request_status": "Pending",
    "responsible_agency": "Department of Sanitation",
    "final_address": "6018 Benjamin St",
    "address_councildis": "A",
    "status": "Assigned to Contractor",
    "contractor": "Richards Disposal",
    "rowid": "1012734",
    "final_x": "3665453.14343",
    "final_y": "522163.43609",
    "longitude": "-90.11905381999654",
    "latitude": "29.93024560339561",
    "geocoded_column": {
      "latitude": "29.93024560339561",
      "longitude": "-90.11905381999654"
    }
  },
  {
    "service_request": "2023-1012733",
    "request_type": "Traffic Signals/Signs/Striping/Streetlights",
    "request_reason": "Traffic Sign Missing/Damaged",
    "date_created": "2023-06-29T00:40:19.000",
    "date_modified": "2023-06-29T00:40:19.000",
    "request_status": "Pending",
    "responsible_agency": "Department of Public Works",
    "final_address": "1300 BLK Prytania St",
    "address_councildis": "B",
    "status": "Pending",
    "rowid": "1012733",
    "final_x": "3679892.24451",
    "final_y": "525643.773303",
    "longitude": "-90.0733510669343",
    "latitude": "29.939386743516778",
    "geocoded_column": {
      "latitude": "29.939386743516778",
      "longitude": "-90.0733510669343"
    }
  },
  {
    "service_request": "2023-1012732",
    "request_type": "Traffic Signals/Signs/Striping/Streetlights",
    "request_reason": "Traffic Sign Missing/Damaged",
    "date_created": "2023-06-29T00:23:48.000",
    "date_modified": "2023-06-29T00:23:48.000",
    "request_status": "Pending",
    "responsible_agency": "Department of Public Works",
    "final_address": "6071 Magazine St",
    "address_councildis": "A",
    "status": "Pending",
    "rowid": "1012732",
    "final_x": "3664165.8144",
    "final_y": "519456.822903",
    "longitude": "-90.12320796867229",
    "latitude": "29.92284071628242",
    "geocoded_column": {
      "latitude": "29.92284071628242",
      "longitude": "-90.12320796867229"
    }
  },
  {
    "service_request": "2023-1012731",
    "request_type": "Property Maintenance",
    "request_reason": "Property Maintenance",
    "date_created": "2023-06-28T22:14:36.000",
    "date_modified": "2023-06-28T22:14:36.000",
    "request_status": "Pending",
    "responsible_agency": "Department of Code Enforcement",
    "final_address": "2715 Chartres St",
    "address_councildis": "C",
    "status": "Pending",
    "rowid": "1012731",
    "final_x": "3687140.15017",
    "final_y": "534536.234565",
    "longitude": "-90.05015414433042",
    "latitude": "29.96361683251162",
    "geocoded_column": {
      "latitude": "29.96361683251162",
      "longitude": "-90.05015414433042"
    }
  },
  {
    "service_request": "2023-1012730",
    "request_type": "Trash/Recycling",
    "request_reason": "Request a Large Item Pick Up",
    "date_created": "2023-06-28T21:52:05.000",
    "date_modified": "2023-06-28T21:52:06.000",
    "request_status": "Pending",
    "responsible_agency": "Department of Sanitation",
    "final_address": "1427 St Mary St",
    "address_councildis": "B",
    "status": "Assigned to Contractor",
    "contractor": "Richards Disposal",
    "rowid": "1012730",
    "final_x": "3678984.6484",
    "final_y": "523767.974395",
    "longitude": "-90.07628143555137",
    "latitude": "29.934256326135813",
    "geocoded_column": {
      "latitude": "29.934256326135813",
      "longitude": "-90.07628143555137"
    }
  },
  {
    "service_request": "2023-1012729",
    "request_type": "Trash/Recycling",
    "request_reason": "Request a Large Item Pick Up",
    "date_created": "2023-06-28T21:51:45.000",
    "date_modified": "2023-06-28T21:51:46.000",
    "request_status": "Pending",
    "responsible_agency": "Department of Sanitation",
    "final_address": "2726 Royal St Apt A",
    "address_councildis": "C",
    "status": "Assigned to Contractor",
    "contractor": "IV Waste",
    "rowid": "1012729",
    "final_x": "3687238.58518",
    "final_y": "534816.090822",
    "longitude": "-90.0498333981867",
    "latitude": "29.96438330864536",
    "geocoded_column": {
      "latitude": "29.96438330864536",
      "longitude": "-90.0498333981867"
    }
  },
  {
    "service_request": "2023-1012728",
    "request_type": "Trash/Recycling",
    "request_reason": "Request a Large Item Pick Up",
    "date_created": "2023-06-28T21:49:39.000",
    "date_modified": "2023-06-28T21:49:39.000",
    "request_status": "Pending",
    "responsible_agency": "Department of Sanitation",
    "final_address": "3125 N Villere St",
    "address_councildis": "C",
    "status": "Assigned to Contractor",
    "contractor": "IV Waste",
    "rowid": "1012728",
    "final_x": "3689496.02499",
    "final_y": "537095.01172",
    "longitude": "-90.04262353861344",
    "latitude": "29.97057982024269",
    "geocoded_column": {
      "latitude": "29.97057982024269",
      "longitude": "-90.04262353861344"
    }
  },
  {
    "service_request": "2023-1012727",
    "request_type": "Traffic Signals/Signs/Striping/Streetlights",
    "request_reason": "Street Light Outage/Malfunction",
    "date_created": "2023-06-28T21:29:56.000",
    "date_modified": "2023-06-28T21:29:57.000",
    "request_status": "Pending",
    "responsible_agency": "Department of Public Works",
    "final_address": "3900 BLK Laurel St",
    "address_councildis": "B",
    "status": "Assigned to Contractor",
    "contractor": "Legacy Professional Services",
    "rowid": "1012727",
    "final_x": "3672768.94544",
    "final_y": "518216.236321",
    "longitude": "-90.09609349634817",
    "latitude": "29.919176865818834",
    "geocoded_column": {
      "latitude": "29.919176865818834",
      "longitude": "-90.09609349634817"
    }
  },
  {
    "service_request": "2023-1012726",
    "request_type": "Abandoned Vehicles",
    "request_reason": "Abandoned/Junk Vehicles",
    "date_created": "2023-06-28T21:16:12.000",
    "date_modified": "2023-06-28T21:16:12.000",
    "request_status": "Pending",
    "responsible_agency": "Department of Public Works",
    "final_address": "ARCHITECT ST & ST FERDINAND ST",
    "address_councildis": "C",
    "status": "Pending",
    "rowid": "1012726",
    "final_x": "3687295.0",
    "final_y": "534650.98",
    "longitude": "-90.0496610863334",
    "latitude": "29.963927573535408",
    "geocoded_column": {
      "latitude": "29.963927573535408",
      "longitude": "-90.0496610863334"
    }
  },
  {
    "service_request": "2023-1012725",
    "request_type": "Abandoned Vehicles",
    "request_reason": "Abandoned/Junk Vehicles",
    "date_created": "2023-06-28T21:14:15.000",
    "date_modified": "2023-06-28T21:14:15.000",
    "request_status": "Pending",
    "responsible_agency": "Department of Public Works",
    "final_address": "ARCHITECT ST & ST FERDINAND ST",
    "address_councildis": "C",
    "status": "Pending",
    "rowid": "1012725",
    "final_x": "3687295.0",
    "final_y": "534650.98",
    "longitude": "-90.0496610863334",
    "latitude": "29.963927573535408",
    "geocoded_column": {
      "latitude": "29.963927573535408",
      "longitude": "-90.0496610863334"
    }
  },
  {
    "service_request": "2023-1012724",
    "request_type": "Trash/Recycling",
    "request_reason": "Order Recycling Cart",
    "date_created": "2023-06-28T21:04:49.000",
    "date_modified": "2023-06-28T21:04:49.000",
    "request_status": "Pending",
    "responsible_agency": "Department of Sanitation",
    "final_address": "617 Philip St",
    "address_councildis": "B",
    "status": "Pending",
    "rowid": "1012724",
    "final_x": "3679591.67515",
    "final_y": "520537.162296",
    "longitude": "-90.07447712739221",
    "latitude": "29.925354327123696",
    "geocoded_column": {
      "latitude": "29.925354327123696",
      "longitude": "-90.07447712739221"
    }
  },
  {
    "service_request": "2023-1012723",
    "request_type": "Trash/Recycling",
    "request_reason": "Order Recycling Cart",
    "date_created": "2023-06-28T21:03:47.000",
    "date_modified": "2023-06-28T21:03:47.000",
    "request_status": "Pending",
    "responsible_agency": "Department of Sanitation",
    "final_address": "615 Philip St",
    "address_councildis": "B",
    "status": "Pending",
    "rowid": "1012723",
    "final_x": "3679597.64584",
    "final_y": "520527.319096",
    "longitude": "-90.0744586211686",
    "latitude": "29.92532708116715",
    "geocoded_column": {
      "latitude": "29.92532708116715",
      "longitude": "-90.0744586211686"
    }
  },
  {
    "service_request": "2023-1012722",
    "request_type": "Trash/Recycling",
    "request_reason": "Replace Trash Cart",
    "date_created": "2023-06-28T21:02:31.000",
    "date_modified": "2023-06-28T21:02:32.000",
    "request_status": "Pending",
    "responsible_agency": "Department of Sanitation",
    "final_address": "615 Philip St",
    "address_councildis": "B",
    "status": "Assigned to Contractor",
    "contractor": "Richards Disposal",
    "rowid": "1012722",
    "final_x": "3679597.64584",
    "final_y": "520527.319096",
    "longitude": "-90.0744586211686",
    "latitude": "29.92532708116715",
    "geocoded_column": {
      "latitude": "29.92532708116715",
      "longitude": "-90.0744586211686"
    }
  },
  {
    "service_request": "2023-1012721",
    "request_type": "Roads/Drainage",
    "request_reason": "Pothole",
    "date_created": "2023-06-28T20:50:41.000",
    "date_modified": "2023-06-28T20:50:41.000",
    "request_status": "Pending",
    "responsible_agency": "Department of Public Works",
    "final_address": "3400 Paris Ave",
    "address_councildis": "D",
    "status": "Pending",
    "rowid": "1012721",
    "final_x": "3679663.44667",
    "final_y": "544803.317007",
    "longitude": "-90.0734082941748",
    "latitude": "29.992075859438955",
    "geocoded_column": {
      "latitude": "29.992075859438955",
      "longitude": "-90.0734082941748"
    }
  },
  {
    "service_request": "2023-1012720",
    "request_type": "Parks & Parkways",
    "request_reason": "Request Tree Service (Right of Way/Public Property)",
    "date_created": "2023-06-28T20:40:15.000",
    "date_modified": "2023-06-28T20:40:15.000",
    "request_status": "Pending",
    "responsible_agency": "Department of Parks & Parkway",
    "final_address": "310 Webster St",
    "address_councildis": "A",
    "status": "Pending",
    "rowid": "1012720",
    "final_x": "3663504.47315",
    "final_y": "517875.59743",
    "longitude": "-90.12534819300896",
    "latitude": "29.918512027261567",
    "geocoded_column": {
      "latitude": "29.918512027261567",
      "longitude": "-90.12534819300896"
    }
  },
  {
    "service_request": "2023-1012719",
    "request_type": "Trash/Recycling",
    "request_reason": "MIssed Recycling Pick-Up",
    "date_created": "2023-06-28T20:35:28.000",
    "date_modified": "2023-06-28T20:35:29.000",
    "request_status": "Pending",
    "responsible_agency": "Department of Sanitation",
    "final_address": "2039 Coliseum St",
    "address_councildis": "B",
    "status": "Assigned to Contractor",
    "contractor": "Richards Disposal",
    "rowid": "1012719",
    "final_x": "3678581.52418",
    "final_y": "523208.411067",
    "longitude": "-90.07757344590534",
    "latitude": "29.9327298650237",
    "geocoded_column": {
      "latitude": "29.9327298650237",
      "longitude": "-90.07757344590534"
    }
  },
  {
    "service_request": "2023-1012718",
    "request_type": "Traffic Signals/Signs/Striping/Streetlights",
    "request_reason": "Traffic Sign Missing/Damaged",
    "date_created": "2023-06-28T20:34:37.000",
    "date_modified": "2023-06-28T20:34:38.000",
    "request_status": "Pending",
    "responsible_agency": "Department of Public Works",
    "final_address": "AIRLINE HWY & DIXON ST",
    "address_councildis": "A",
    "status": "Pending",
    "rowid": "1012718",
    "final_x": "3666560.1",
    "final_y": "537164.28",
    "longitude": "-90.11505583074339",
    "latitude": "29.97146074528826",
    "geocoded_column": {
      "latitude": "29.97146074528826",
      "longitude": "-90.11505583074339"
    }
  },
  {
    "service_request": "2023-1012717",
    "request_type": "Abandoned Vehicles",
    "request_reason": "Abandoned/Junk Vehicles",
    "date_created": "2023-06-28T20:29:02.000",
    "date_modified": "2023-06-28T20:29:03.000",
    "request_status": "Pending",
    "responsible_agency": "Department of Public Works",
    "final_address": "PINES BLVD & VIRGILIAN ST",
    "address_councildis": "D",
    "status": "Pending",
    "rowid": "1012717",
    "final_x": "3696981.7",
    "final_y": "556378.38",
    "longitude": "-90.01828410954033",
    "latitude": "30.023367991462095",
    "geocoded_column": {
      "latitude": "30.023367991462095",
      "longitude": "-90.01828410954033"
    }
  },
  {
    "service_request": "2023-1012715",
    "request_type": "Trash/Recycling",
    "request_reason": "Request a Large Item Pick Up",
    "date_created": "2023-06-28T20:15:04.000",
    "date_modified": "2023-06-28T20:15:05.000",
    "request_status": "Pending",
    "responsible_agency": "Department of Sanitation",
    "final_address": "4715 Rhodes Dr",
    "address_councildis": "E",
    "status": "Assigned to Contractor",
    "contractor": "Waste Pro",
    "rowid": "1012715",
    "final_x": "3702603.64113",
    "final_y": "554175.997976",
    "longitude": "-90.00060103259554",
    "latitude": "30.017133677784727",
    "geocoded_column": {
      "latitude": "30.017133677784727",
      "longitude": "-90.00060103259554"
    }
  },
  {
    "service_request": "2023-1012714",
    "request_type": "Trash/Recycling",
    "request_reason": "Request a Large Item Pick Up",
    "date_created": "2023-06-28T20:14:39.000",
    "date_modified": "2023-06-28T20:14:40.000",
    "request_status": "Pending",
    "responsible_agency": "Department of Sanitation",
    "status": "Assigned to Contractor",
    "rowid": "1012714",
    "longitude": "0.0",
    "latitude": "0.0",
    "geocoded_column": {
      "latitude": "0.0",
      "longitude": "0.0"
    }
  },
  {
    "service_request": "2023-1012712",
    "request_type": "Roads/Drainage",
    "request_reason": "Debris in Roadway",
    "date_created": "2023-06-28T19:50:49.000",
    "date_modified": "2023-06-28T19:50:49.000",
    "request_status": "Pending",
    "responsible_agency": "Department of Public Works",
    "final_address": "0 BLK Interstate 10",
    "status": "Pending",
    "rowid": "1012712",
    "final_x": "3749078.15502",
    "final_y": "605653.561774",
    "longitude": "-89.85166076471643",
    "latitude": "30.157105189447982",
    "geocoded_column": {
      "latitude": "30.157105189447982",
      "longitude": "-89.85166076471643"
    }
  },
  {
    "service_request": "2023-1012711",
    "request_type": "Trash/Recycling",
    "request_reason": "Missed Trash Pick-Up",
    "date_created": "2023-06-28T19:40:21.000",
    "date_modified": "2023-06-28T19:40:22.000",
    "request_status": "Pending",
    "responsible_agency": "Department of Sanitation",
    "final_address": "1306 Calhoun St",
    "address_councildis": "A",
    "status": "Assigned to Contractor",
    "contractor": "Richards Disposal",
    "rowid": "1012711",
    "final_x": "3664103.11738",
    "final_y": "521391.034809",
    "longitude": "-90.12334140557269",
    "latitude": "29.928161012734737",
    "geocoded_column": {
      "latitude": "29.928161012734737",
      "longitude": "-90.12334140557269"
    }
  },
  {
    "service_request": "2023-1012710",
    "request_type": "Roads/Drainage",
    "request_reason": "Service Cut",
    "date_created": "2023-06-28T19:36:55.000",
    "date_modified": "2023-06-28T19:36:55.000",
    "request_status": "Pending",
    "responsible_agency": "Department of Public Works",
    "final_address": "5591 Bellaire Dr",
    "address_councildis": "A",
    "status": "Pending",
    "rowid": "1012710",
    "final_x": "3664166.66221",
    "final_y": "545028.459087",
    "longitude": "-90.12235220634345",
    "latitude": "29.993154354174123",
    "geocoded_column": {
      "latitude": "29.993154354174123",
      "longitude": "-90.12235220634345"
    }
  },
  {
    "service_request": "2023-1012709",
    "request_type": "Roads/Drainage",
    "request_reason": "Pothole",
    "date_created": "2023-06-28T19:35:18.000",
    "date_modified": "2023-06-28T19:35:18.000",
    "request_status": "Pending",
    "responsible_agency": "Department of Public Works",
    "final_address": "5591 Bellaire Dr",
    "address_councildis": "A",
    "status": "Pending",
    "rowid": "1012709",
    "final_x": "3664166.66221",
    "final_y": "545028.459087",
    "longitude": "-90.12235220634345",
    "latitude": "29.993154354174123",
    "geocoded_column": {
      "latitude": "29.993154354174123",
      "longitude": "-90.12235220634345"
    }
  },
  {
    "service_request": "2023-1012706",
    "request_type": "Trash/Recycling",
    "request_reason": "MIssed Recycling Pick-Up",
    "date_created": "2023-06-28T19:12:20.000",
    "date_modified": "2023-06-28T19:12:21.000",
    "request_status": "Pending",
    "responsible_agency": "Department of Sanitation",
    "final_address": "1707 Second St",
    "address_councildis": "B",
    "status": "Assigned to Contractor",
    "contractor": "Richards Disposal",
    "rowid": "1012706",
    "final_x": "3676472.56641",
    "final_y": "523445.595643",
    "longitude": "-90.08422309921652",
    "latitude": "29.933445428973386",
    "geocoded_column": {
      "latitude": "29.933445428973386",
      "longitude": "-90.08422309921652"
    }
  },
  {
    "service_request": "2023-1012705",
    "request_type": "Trash/Recycling",
    "request_reason": "Request a Large Item Pick Up",
    "date_created": "2023-06-28T19:11:15.000",
    "date_modified": "2023-06-28T19:11:15.000",
    "request_status": "Pending",
    "responsible_agency": "Department of Sanitation",
    "final_address": "6025 Constance St",
    "address_councildis": "A",
    "status": "Assigned to Contractor",
    "contractor": "Richards Disposal",
    "rowid": "1012705",
    "final_x": "3664375.4512",
    "final_y": "519004.559287",
    "longitude": "-90.12256130996639",
    "latitude": "29.921591043397537",
    "geocoded_column": {
      "latitude": "29.921591043397537",
      "longitude": "-90.12256130996639"
    }
  },
  {
    "service_request": "2023-1012704",
    "request_type": "Trash/Recycling",
    "request_reason": "Missed Trash Pick-Up",
    "date_created": "2023-06-28T19:09:13.000",
    "date_modified": "2023-06-28T19:09:14.000",
    "request_status": "Pending",
    "responsible_agency": "Department of Sanitation",
    "final_address": "5105 Arts St",
    "address_councildis": "D",
    "status": "Assigned to Contractor",
    "contractor": "IV Waste",
    "rowid": "1012704",
    "final_x": "3685923.80489",
    "final_y": "551569.414869",
    "longitude": "-90.05339438969244",
    "latitude": "30.010489422674272",
    "geocoded_column": {
      "latitude": "30.010489422674272",
      "longitude": "-90.05339438969244"
    }
  },
  {
    "service_request": "2023-1012703",
    "request_type": "Trash/Recycling",
    "request_reason": "Order Recycling Cart",
    "date_created": "2023-06-28T18:50:37.000",
    "date_modified": "2023-06-28T18:50:37.000",
    "request_status": "Pending",
    "responsible_agency": "Department of Sanitation",
    "final_address": "520 Valmont St",
    "address_councildis": "B",
    "status": "Pending",
    "rowid": "1012703",
    "final_x": "3667274.5282",
    "final_y": "517360.395893",
    "longitude": "-90.11346539734325",
    "latitude": "29.916985559556366",
    "geocoded_column": {
      "latitude": "29.916985559556366",
      "longitude": "-90.11346539734325"
    }
  },
  {
    "service_request": "2023-1012702",
    "request_type": "Trash/Recycling",
    "request_reason": "Request a Large Item Pick Up",
    "date_created": "2023-06-28T18:49:58.000",
    "date_modified": "2023-06-28T18:49:59.000",
    "request_status": "Pending",
    "responsible_agency": "Department of Sanitation",
    "final_address": "1811 Camp St",
    "address_councildis": "B",
    "status": "Assigned to Contractor",
    "contractor": "Richards Disposal",
    "rowid": "1012702",
    "final_x": "3679549.62351",
    "final_y": "523278.194811",
    "longitude": "-90.07451481411721",
    "latitude": "29.932892538724165",
    "geocoded_column": {
      "latitude": "29.932892538724165",
      "longitude": "-90.07451481411721"
    }
  },
  {
    "service_request": "2023-1012701",
    "request_type": "Trash/Recycling",
    "request_reason": "Repair Recycling Cart",
    "date_created": "2023-06-28T18:48:23.000",
    "date_modified": "2023-06-28T18:48:23.000",
    "request_status": "Pending",
    "responsible_agency": "Department of Sanitation",
    "final_address": "520 Valmont St",
    "address_councildis": "B",
    "status": "Pending",
    "rowid": "1012701",
    "final_x": "3667274.5282",
    "final_y": "517360.395893",
    "longitude": "-90.11346539734325",
    "latitude": "29.916985559556366",
    "geocoded_column": {
      "latitude": "29.916985559556366",
      "longitude": "-90.11346539734325"
    }
  },
  {
    "service_request": "2023-1012700",
    "request_type": "Trash/Recycling",
    "request_reason": "Request a Large Item Pick Up",
    "date_created": "2023-06-28T18:47:24.000",
    "date_modified": "2023-06-28T18:47:25.000",
    "request_status": "Pending",
    "responsible_agency": "Department of Sanitation",
    "final_address": "1811 Camp St",
    "address_councildis": "B",
    "status": "Assigned to Contractor",
    "contractor": "Richards Disposal",
    "rowid": "1012700",
    "final_x": "3679549.62351",
    "final_y": "523278.194811",
    "longitude": "-90.07451481411721",
    "latitude": "29.932892538724165",
    "geocoded_column": {
      "latitude": "29.932892538724165",
      "longitude": "-90.07451481411721"
    }
  },
  {
    "service_request": "2023-1012699",
    "request_type": "Trash/Recycling",
    "request_reason": "Request a Large Item Pick Up",
    "date_created": "2023-06-28T18:45:32.000",
    "date_modified": "2023-06-28T18:45:33.000",
    "request_status": "Pending",
    "responsible_agency": "Department of Sanitation",
    "final_address": "1811 Camp St",
    "address_councildis": "B",
    "status": "Assigned to Contractor",
    "contractor": "Richards Disposal",
    "rowid": "1012699",
    "final_x": "3679549.62351",
    "final_y": "523278.194811",
    "longitude": "-90.07451481411721",
    "latitude": "29.932892538724165",
    "geocoded_column": {
      "latitude": "29.932892538724165",
      "longitude": "-90.07451481411721"
    }
  },
  {
    "service_request": "2023-1012698",
    "request_type": "Trash/Recycling",
    "request_reason": "Request a Large Item Pick Up",
    "date_created": "2023-06-28T18:44:27.000",
    "date_modified": "2023-06-28T18:44:28.000",
    "request_status": "Pending",
    "responsible_agency": "Department of Sanitation",
    "final_address": "1809 Camp St",
    "address_councildis": "B",
    "status": "Assigned to Contractor",
    "contractor": "Richards Disposal",
    "rowid": "1012698",
    "final_x": "3679560.65871",
    "final_y": "523288.009659",
    "longitude": "-90.07447963641624",
    "latitude": "29.932919192972673",
    "geocoded_column": {
      "latitude": "29.932919192972673",
      "longitude": "-90.07447963641624"
    }
  },
  {
    "service_request": "2023-1012697",
    "request_type": "Trash/Recycling",
    "request_reason": "Replace Trash Cart",
    "date_created": "2023-06-28T18:38:51.000",
    "date_modified": "2023-06-28T18:38:51.000",
    "request_status": "Pending",
    "responsible_agency": "Department of Sanitation",
    "final_address": "4738 Arts St",
    "address_councildis": "D",
    "status": "Assigned to Contractor",
    "contractor": "IV Waste",
    "rowid": "1012697",
    "final_x": "3685839.5535",
    "final_y": "550517.607956",
    "longitude": "-90.05369768215456",
    "latitude": "30.007599924465293",
    "geocoded_column": {
      "latitude": "30.007599924465293",
      "longitude": "-90.05369768215456"
    }
  },
  {
    "service_request": "2023-1012696",
    "request_type": "Trash/Recycling",
    "request_reason": "MIssed Recycling Pick-Up",
    "date_created": "2023-06-28T18:36:37.000",
    "date_modified": "2023-06-28T18:36:38.000",
    "request_status": "Pending",
    "responsible_agency": "Department of Sanitation",
    "final_address": "5026 Loyola Ave",
    "address_councildis": "B",
    "status": "Assigned to Contractor",
    "contractor": "Richards Disposal",
    "rowid": "1012696",
    "final_x": "3668572.8779",
    "final_y": "522828.316283",
    "longitude": "-90.10918285886576",
    "latitude": "29.93198253673753",
    "geocoded_column": {
      "latitude": "29.93198253673753",
      "longitude": "-90.10918285886576"
    }
  },
  {
    "service_request": "2023-1012694",
    "request_type": "Trash/Recycling",
    "request_reason": "Illegal Dumping",
    "date_created": "2023-06-28T18:30:37.000",
    "date_modified": "2023-06-28T18:30:37.000",
    "request_status": "Pending",
    "responsible_agency": "Department of Sanitation",
    "final_address": "1236 S Saratoga St",
    "address_councildis": "B",
    "status": "Pending",
    "rowid": "1012694",
    "final_x": "3677930.66101",
    "final_y": "527137.362751",
    "longitude": "-90.07949244486107",
    "latitude": "29.943552784559518",
    "geocoded_column": {
      "latitude": "29.943552784559518",
      "longitude": "-90.07949244486107"
    }
  },
  {
    "service_request": "2023-1012693",
    "request_type": "Trash/Recycling",
    "request_reason": "Missed Trash Pick-Up",
    "date_created": "2023-06-28T18:29:58.000",
    "date_modified": "2023-06-28T18:29:59.000",
    "request_status": "Pending",
    "responsible_agency": "Department of Sanitation",
    "final_address": "1937 Alvar St",
    "address_councildis": "D",
    "status": "Assigned to Contractor",
    "contractor": "IV Waste",
    "rowid": "1012693",
    "final_x": "3692363.5599",
    "final_y": "538680.285065",
    "longitude": "-90.03351077124495",
    "latitude": "29.974849631592303",
    "geocoded_column": {
      "latitude": "29.974849631592303",
      "longitude": "-90.03351077124495"
    }
  },
  {
    "service_request": "2023-1012692",
    "request_type": "Roads/Drainage",
    "request_reason": "Pothole",
    "date_created": "2023-06-28T18:28:48.000",
    "date_modified": "2023-06-28T18:28:48.000",
    "request_status": "Pending",
    "responsible_agency": "Department of Public Works",
    "final_address": "100 BLK Hay Pl",
    "address_councildis": "A",
    "status": "Pending",
    "rowid": "1012692",
    "final_x": "3665994.05413",
    "final_y": "554207.573459",
    "longitude": "-90.11627178430898",
    "latitude": "30.01834050650998",
    "geocoded_column": {
      "latitude": "30.01834050650998",
      "longitude": "-90.11627178430898"
    }
  },
  {
    "service_request": "2023-1012690",
    "request_type": "Trash/Recycling",
    "request_reason": "Request a Large Item Pick Up",
    "date_created": "2023-06-28T18:25:15.000",
    "date_modified": "2023-06-28T18:25:16.000",
    "request_status": "Pending",
    "responsible_agency": "Department of Sanitation",
    "final_address": "1232 S Saratoga St",
    "address_councildis": "B",
    "status": "Assigned to Contractor",
    "contractor": "Richards Disposal",
    "rowid": "1012690",
    "final_x": "3677946.82242",
    "final_y": "527161.711039",
    "longitude": "-90.0794405778039",
    "latitude": "29.943619247997038",
    "geocoded_column": {
      "latitude": "29.943619247997038",
      "longitude": "-90.0794405778039"
    }
  },
  {
    "service_request": "2023-1012689",
    "request_type": "Roads/Drainage",
    "request_reason": "Pothole",
    "date_created": "2023-06-28T18:20:29.000",
    "date_modified": "2023-06-28T18:20:29.000",
    "request_status": "Pending",
    "responsible_agency": "Department of Public Works",
    "final_address": "100 BLK Hay Pl",
    "address_councildis": "A",
    "status": "Pending",
    "rowid": "1012689",
    "final_x": "3665994.05413",
    "final_y": "554207.573459",
    "longitude": "-90.11627178430898",
    "latitude": "30.01834050650998",
    "geocoded_column": {
      "latitude": "30.01834050650998",
      "longitude": "-90.11627178430898"
    }
  },
  {
    "service_request": "2023-1012688",
    "request_type": "Mosquito, Termite & Rodent Control",
    "request_reason": "Mosquito Complaint",
    "date_created": "2023-06-28T18:20:15.000",
    "date_modified": "2023-06-28T18:20:15.000",
    "request_status": "Pending",
    "responsible_agency": "Mosquito, Termite & Rodent Control Board",
    "final_address": "2002 St Andrew St",
    "address_councildis": "B",
    "status": "Pending",
    "rowid": "1012688",
    "final_x": "3677175.29915",
    "final_y": "525435.747901",
    "longitude": "-90.08193599532034",
    "latitude": "29.938896611416606",
    "geocoded_column": {
      "latitude": "29.938896611416606",
      "longitude": "-90.08193599532034"
    }
  },
  {
    "service_request": "2023-1012687",
    "request_type": "Trash/Recycling",
    "request_reason": "Request a Large Item Pick Up",
    "date_created": "2023-06-28T18:18:14.000",
    "date_modified": "2023-06-28T18:18:15.000",
    "request_status": "Pending",
    "responsible_agency": "Department of Sanitation",
    "final_address": "2 Heron St",
    "address_councildis": "D",
    "status": "Assigned to Contractor",
    "contractor": "IV Waste",
    "rowid": "1012687",
    "final_x": "3675326.06318",
    "final_y": "555254.291865",
    "longitude": "-90.08675007697796",
    "latitude": "30.02094275792515",
    "geocoded_column": {
      "latitude": "30.02094275792515",
      "longitude": "-90.08675007697796"
    }
  },
  {
    "service_request": "2023-1012686",
    "request_type": "Trash/Recycling",
    "request_reason": "Missed Trash Pick-Up",
    "date_created": "2023-06-28T18:10:10.000",
    "date_modified": "2023-06-28T18:10:11.000",
    "request_status": "Pending",
    "responsible_agency": "Department of Sanitation",
    "final_address": "9000 Lake Forest Blvd",
    "address_councildis": "E",
    "status": "Assigned to Contractor",
    "contractor": "Waste Pro",
    "rowid": "1012686",
    "final_x": "3707449.97246",
    "final_y": "558311.370716",
    "longitude": "-89.98513500619254",
    "latitude": "30.02834846217099",
    "geocoded_column": {
      "latitude": "30.02834846217099",
      "longitude": "-89.98513500619254"
    }
  },
  {
    "service_request": "2023-1012685",
    "request_type": "Trash/Recycling",
    "request_reason": "Missed Trash Pick-Up",
    "date_created": "2023-06-28T17:58:23.000",
    "date_modified": "2023-06-28T17:58:23.000",
    "request_status": "Pending",
    "responsible_agency": "Department of Sanitation",
    "final_address": "1111 Cherokee St",
    "address_councildis": "A",
    "status": "Assigned to Contractor",
    "contractor": "Richards Disposal",
    "rowid": "1012685",
    "final_x": "3663415.62195",
    "final_y": "526758.049598",
    "longitude": "-90.12533306839717",
    "latitude": "29.94293854733253",
    "geocoded_column": {
      "latitude": "29.94293854733253",
      "longitude": "-90.12533306839717"
    }
  },
  {
    "service_request": "2023-1012683",
    "request_type": "Parks & Parkways",
    "request_reason": "Request Tree Service (Right of Way/Public Property)",
    "date_created": "2023-06-28T17:45:00.000",
    "date_modified": "2023-06-28T18:25:22.000",
    "request_status": "Pending",
    "responsible_agency": "Department of Parks & Parkway",
    "final_address": "3247 Calhoun St",
    "address_councildis": "A",
    "status": "Pending",
    "rowid": "1012683",
    "final_x": "3667449.26938",
    "final_y": "528741.466688",
    "longitude": "-90.11253110210805",
    "latitude": "29.948274756990095",
    "geocoded_column": {
      "latitude": "29.948274756990095",
      "longitude": "-90.11253110210805"
    }
  },
  {
    "service_request": "2023-1012681",
    "request_type": "Trash/Recycling",
    "request_reason": "Illegal Dumping",
    "date_created": "2023-06-28T17:41:13.000",
    "date_modified": "2023-06-28T17:41:13.000",
    "request_status": "Pending",
    "responsible_agency": "Department of Sanitation",
    "final_address": "131 N Rendon St",
    "address_councildis": "B",
    "status": "Pending",
    "rowid": "1012681",
    "final_x": "3673699.21851",
    "final_y": "536747.590408",
    "longitude": "-90.0925236712219",
    "latitude": "29.970104347596102",
    "geocoded_column": {
      "latitude": "29.970104347596102",
      "longitude": "-90.0925236712219"
    }
  },
  {
    "service_request": "2023-1012680",
    "request_type": "Property Maintenance",
    "request_reason": "Property Maintenance",
    "date_created": "2023-06-28T17:37:34.000",
    "date_modified": "2023-06-28T17:37:34.000",
    "request_status": "Pending",
    "responsible_agency": "Department of Code Enforcement",
    "final_address": "1415 Broadway St",
    "address_councildis": "A",
    "status": "Pending",
    "rowid": "1012680",
    "final_x": "3664704.13805",
    "final_y": "527179.366911",
    "longitude": "-90.12125082189009",
    "latitude": "29.94405961992344",
    "geocoded_column": {
      "latitude": "29.94405961992344",
      "longitude": "-90.12125082189009"
    }
  },
  {
    "service_request": "2023-1012679",
    "request_type": "Roads/Drainage",
    "request_reason": "Catch Basin - Clogged",
    "date_created": "2023-06-28T17:36:01.000",
    "date_modified": "2023-06-28T17:36:01.000",
    "request_status": "Pending",
    "responsible_agency": "Department of Public Works",
    "final_address": "1020 Pauline St",
    "address_councildis": "C",
    "status": "Pending",
    "rowid": "1012679",
    "final_x": "3691117.51459",
    "final_y": "535195.48679",
    "longitude": "-90.03757054119713",
    "latitude": "29.965306473488177",
    "geocoded_column": {
      "latitude": "29.965306473488177",
      "longitude": "-90.03757054119713"
    }
  },
  {
    "service_request": "2023-1012678",
    "request_type": "Roads/Drainage",
    "request_reason": "Catch Basin - Clogged",
    "date_created": "2023-06-28T17:35:57.000",
    "date_modified": "2023-06-28T17:35:57.000",
    "request_status": "Pending",
    "responsible_agency": "Department of Public Works",
    "final_address": "6201 Memphis St",
    "address_councildis": "A",
    "status": "Pending",
    "rowid": "1012678",
    "final_x": "3669379.9842",
    "final_y": "548569.609491",
    "longitude": "-90.10576431258646",
    "latitude": "30.00273876467606",
    "geocoded_column": {
      "latitude": "30.00273876467606",
      "longitude": "-90.10576431258646"
    }
  },
  {
    "service_request": "2023-1012677",
    "request_type": "Trash/Recycling",
    "request_reason": "Request a Large Item Pick Up",
    "date_created": "2023-06-28T17:33:37.000",
    "date_modified": "2023-06-28T17:33:38.000",
    "request_status": "Pending",
    "responsible_agency": "Department of Sanitation",
    "final_address": "6253 London Ave",
    "address_councildis": "D",
    "status": "Assigned to Contractor",
    "contractor": "IV Waste",
    "rowid": "1012677",
    "final_x": "3680598.95656",
    "final_y": "555941.999897",
    "longitude": "-90.07006530257232",
    "latitude": "30.022674916975344",
    "geocoded_column": {
      "latitude": "30.022674916975344",
      "longitude": "-90.07006530257232"
    }
  },
  {
    "service_request": "2023-1012676",
    "request_type": "Trash/Recycling",
    "request_reason": "Request a Large Item Pick Up",
    "date_created": "2023-06-28T17:14:58.000",
    "date_modified": "2023-06-28T17:14:58.000",
    "request_status": "Pending",
    "responsible_agency": "Department of Sanitation",
    "final_address": "2910 Kabel Dr, New Orleans, Louisiana, 70131",
    "address_councildis": "C",
    "status": "Assigned to Contractor",
    "contractor": "Richards Disposal",
    "rowid": "1012676",
    "final_x": "3700762.21802",
    "final_y": "520498.62764",
    "longitude": "-90.00765021173764",
    "latitude": "29.92459185913795",
    "geocoded_column": {
      "latitude": "29.92459185913795",
      "longitude": "-90.00765021173764"
    }
  },
  {
    "service_request": "2023-1012675",
    "request_type": "Trash/Recycling",
    "request_reason": "Request a Large Item Pick Up",
    "date_created": "2023-06-28T17:14:37.000",
    "date_modified": "2023-06-28T17:14:37.000",
    "request_status": "Pending",
    "responsible_agency": "Department of Sanitation",
    "final_address": "4401 Cerise Ave",
    "address_councildis": "E",
    "status": "Assigned to Contractor",
    "contractor": "Waste Pro",
    "rowid": "1012675",
    "final_x": "3708867.54424",
    "final_y": "553818.698391",
    "longitude": "-89.98082316782141",
    "latitude": "30.015949428670137",
    "geocoded_column": {
      "latitude": "30.015949428670137",
      "longitude": "-89.98082316782141"
    }
  },
  {
    "service_request": "2023-1012674",
    "request_type": "Parks & Parkways",
    "request_reason": "Request Tree Service (Right of Way/Public Property)",
    "date_created": "2023-06-28T17:13:41.000",
    "date_modified": "2023-06-28T18:26:59.000",
    "request_status": "Pending",
    "responsible_agency": "Department of Parks & Parkway",
    "final_address": "Between 2466 and 2344 Allen Tousaint Blvd New Orleans la.70122",
    "status": "Pending",
    "rowid": "1012674",
    "longitude": "0.0",
    "latitude": "0.0",
    "geocoded_column": {
      "latitude": "0.0",
      "longitude": "0.0"
    }
  },
  {
    "service_request": "2023-1012673",
    "request_type": "Trash/Recycling",
    "request_reason": "Replace Trash Cart",
    "date_created": "2023-06-28T17:05:49.000",
    "date_modified": "2023-06-28T17:05:50.000",
    "request_status": "Pending",
    "responsible_agency": "Department of Sanitation",
    "final_address": "100 BLK State St",
    "address_councildis": "A",
    "status": "Assigned to Contractor",
    "contractor": "Richards Disposal",
    "rowid": "1012673",
    "final_x": "3663987.03124",
    "final_y": "517002.053382",
    "longitude": "-90.1238541105149",
    "latitude": "29.916096055309392",
    "geocoded_column": {
      "latitude": "29.916096055309392",
      "longitude": "-90.1238541105149"
    }
  },
  {
    "service_request": "2023-1012672",
    "request_type": "Trash/Recycling",
    "request_reason": "Request a Large Item Pick Up",
    "date_created": "2023-06-28T17:00:09.000",
    "date_modified": "2023-06-28T17:00:10.000",
    "request_status": "Pending",
    "responsible_agency": "Department of Sanitation",
    "final_address": "11416 N St Andrews Cir",
    "address_councildis": "E",
    "status": "Assigned to Contractor",
    "contractor": "Waste Pro",
    "rowid": "1012672",
    "final_x": "3719043.75794",
    "final_y": "560179.969309",
    "longitude": "-89.94842835981461",
    "latitude": "30.03310617522833",
    "geocoded_column": {
      "latitude": "30.03310617522833",
      "longitude": "-89.94842835981461"
    }
  },
  {
    "service_request": "2023-1012671",
    "request_type": "Trash/Recycling",
    "request_reason": "Request a Large Item Pick Up",
    "date_created": "2023-06-28T16:55:49.000",
    "date_modified": "2023-06-28T16:55:50.000",
    "request_status": "Pending",
    "responsible_agency": "Department of Sanitation",
    "final_address": "5326 Burgundy St, New Orleans, Louisiana, 70117",
    "address_councildis": "E",
    "status": "Assigned to Contractor",
    "contractor": "Waste Pro",
    "rowid": "1012671",
    "final_x": "3696801.89251",
    "final_y": "533188.19258",
    "longitude": "-90.01969232758196",
    "latitude": "29.959609151011236",
    "geocoded_column": {
      "latitude": "29.959609151011236",
      "longitude": "-90.01969232758196"
    }
  },
  {
    "service_request": "2023-1012670",
    "request_type": "Trash/Recycling",
    "request_reason": "Missed Trash Pick-Up",
    "date_created": "2023-06-28T16:55:20.000",
    "date_modified": "2023-06-28T16:55:20.000",
    "request_status": "Pending",
    "responsible_agency": "Department of Sanitation",
    "final_address": "81 Neron Pl",
    "address_councildis": "A",
    "status": "Assigned to Contractor",
    "contractor": "Richards Disposal",
    "rowid": "1012670",
    "final_x": "3666098.25524",
    "final_y": "529983.516417",
    "longitude": "-90.1167551885446",
    "latitude": "29.95172950042253",
    "geocoded_column": {
      "latitude": "29.95172950042253",
      "longitude": "-90.1167551885446"
    }
  },
  {
    "service_request": "2023-1012669",
    "request_type": "Property Maintenance",
    "request_reason": "Property Maintenance",
    "date_created": "2023-06-28T16:52:48.000",
    "date_modified": "2023-06-28T16:52:48.000",
    "request_status": "Pending",
    "responsible_agency": "Department of Code Enforcement",
    "final_address": "5127 Patterson St",
    "address_councildis": "C",
    "status": "Pending",
    "rowid": "1012669",
    "final_x": "3703217.19671",
    "final_y": "523688.479419",
    "longitude": "-89.99978354306798",
    "latitude": "29.933284515043837",
    "geocoded_column": {
      "latitude": "29.933284515043837",
      "longitude": "-89.99978354306798"
    }
  },
  {
    "service_request": "2023-1012668",
    "request_type": "Property Maintenance",
    "request_reason": "Property Maintenance",
    "date_created": "2023-06-28T16:46:03.000",
    "date_modified": "2023-06-28T16:46:03.000",
    "request_status": "Pending",
    "responsible_agency": "Department of Code Enforcement",
    "final_address": "8601 Gervais St",
    "address_councildis": "E",
    "status": "Pending",
    "rowid": "1012668",
    "final_x": "3703875.73354",
    "final_y": "562771.737952",
    "longitude": "-89.99626485659405",
    "latitude": "30.040727876634456",
    "geocoded_column": {
      "latitude": "30.040727876634456",
      "longitude": "-89.99626485659405"
    }
  },
  {
    "service_request": "2023-1012667",
    "request_type": "Trash/Recycling",
    "request_reason": "MIssed Recycling Pick-Up",
    "date_created": "2023-06-28T16:45:26.000",
    "date_modified": "2023-06-28T16:45:26.000",
    "request_status": "Pending",
    "responsible_agency": "Department of Sanitation",
    "final_address": "830 Adele St",
    "address_councildis": "B",
    "status": "Assigned to Contractor",
    "contractor": "Richards Disposal",
    "rowid": "1012667",
    "final_x": "3679872.30901",
    "final_y": "521724.112826",
    "longitude": "-90.07355006029594",
    "latitude": "29.92860957219823",
    "geocoded_column": {
      "latitude": "29.92860957219823",
      "longitude": "-90.07355006029594"
    }
  },
  {
    "service_request": "2023-1012665",
    "request_type": "Abandoned Vehicles",
    "request_reason": "Abandoned/Junk Vehicles",
    "date_created": "2023-06-28T16:35:49.000",
    "date_modified": "2023-06-28T16:35:49.000",
    "request_status": "Pending",
    "responsible_agency": "Department of Public Works",
    "final_address": "1404 Bodenger Blvd",
    "address_councildis": "C",
    "status": "Pending",
    "rowid": "1012665",
    "final_x": "3688573.40585",
    "final_y": "526336.639678",
    "longitude": "-90.04591901059152",
    "latitude": "29.941026554966317",
    "geocoded_column": {
      "latitude": "29.941026554966317",
      "longitude": "-90.04591901059152"
    }
  },
  {
    "service_request": "2023-1012664",
    "request_type": "Property Maintenance",
    "request_reason": "Property Maintenance",
    "date_created": "2023-06-28T16:33:06.000",
    "date_modified": "2023-06-28T16:33:06.000",
    "request_status": "Pending",
    "responsible_agency": "Department of Code Enforcement",
    "final_address": "5127 Patterson St",
    "address_councildis": "C",
    "status": "Pending",
    "rowid": "1012664",
    "final_x": "3703217.19671",
    "final_y": "523688.479419",
    "longitude": "-89.99978354306798",
    "latitude": "29.933284515043837",
    "geocoded_column": {
      "latitude": "29.933284515043837",
      "longitude": "-89.99978354306798"
    }
  },
  {
    "service_request": "2023-1012663",
    "request_type": "Safety & Permits",
    "request_reason": "Licenses & Permits",
    "date_created": "2023-06-28T16:27:36.000",
    "date_modified": "2023-06-28T16:27:36.000",
    "request_status": "Pending",
    "responsible_agency": "Safety and Permits",
    "final_address": "2568 N Prieur St",
    "address_councildis": "D",
    "status": "Pending",
    "rowid": "1012663",
    "final_x": "3687536.46857",
    "final_y": "539434.163978",
    "longitude": "-90.04872921244036",
    "latitude": "29.977072214825228",
    "geocoded_column": {
      "latitude": "29.977072214825228",
      "longitude": "-90.04872921244036"
    }
  },
  {
    "service_request": "2023-1012662",
    "request_type": "Safety & Permits",
    "request_reason": "Licenses & Permits",
    "date_created": "2023-06-28T16:25:10.000",
    "date_modified": "2023-06-28T16:25:10.000",
    "request_status": "Pending",
    "responsible_agency": "Safety and Permits",
    "final_address": "1900 Franklin Ave",
    "address_councildis": "D",
    "status": "Pending",
    "rowid": "1012662",
    "final_x": "3687608.43862",
    "final_y": "539535.299722",
    "longitude": "-90.04849832672087",
    "latitude": "29.977348083670933",
    "geocoded_column": {
      "latitude": "29.977348083670933",
      "longitude": "-90.04849832672087"
    }
  },
  {
    "service_request": "2023-1012660",
    "request_type": "Traffic Signals/Signs/Striping/Streetlights",
    "request_reason": "Traffic Sign Missing/Damaged",
    "date_created": "2023-06-28T16:21:46.000",
    "date_modified": "2023-06-28T16:21:46.000",
    "request_status": "Pending",
    "responsible_agency": "Department of Public Works",
    "final_address": "DUBLIN ST & WILLOW ST",
    "address_councildis": "A",
    "status": "Pending",
    "rowid": "1012660",
    "final_x": "3662182.1",
    "final_y": "529126.58",
    "longitude": "-90.12914902804255",
    "latitude": "29.949486948638548",
    "geocoded_column": {
      "latitude": "29.949486948638548",
      "longitude": "-90.12914902804255"
    }
  },
  {
    "service_request": "2023-1012659",
    "request_type": "Property Maintenance",
    "request_reason": "Property Maintenance",
    "date_created": "2023-06-28T16:21:33.000",
    "date_modified": "2023-06-28T16:21:33.000",
    "request_status": "Pending",
    "responsible_agency": "Department of Code Enforcement",
    "final_address": "2568 N Prieur St",
    "address_councildis": "D",
    "status": "Pending",
    "rowid": "1012659",
    "final_x": "3687536.46857",
    "final_y": "539434.163978",
    "longitude": "-90.04872921244036",
    "latitude": "29.977072214825228",
    "geocoded_column": {
      "latitude": "29.977072214825228",
      "longitude": "-90.04872921244036"
    }
  },
  {
    "service_request": "2023-1012658",
    "request_type": "Trash/Recycling",
    "request_reason": "Request a Large Item Pick Up",
    "date_created": "2023-06-28T16:19:59.000",
    "date_modified": "2023-06-28T16:20:00.000",
    "request_status": "Pending",
    "responsible_agency": "Department of Sanitation",
    "final_address": "4502 Rosemont Pl",
    "address_councildis": "E",
    "status": "Assigned to Contractor",
    "contractor": "Waste Pro",
    "rowid": "1012658",
    "final_x": "3702762.91735",
    "final_y": "553551.620567",
    "longitude": "-90.00012074219508",
    "latitude": "30.015411783767576",
    "geocoded_column": {
      "latitude": "30.015411783767576",
      "longitude": "-90.00012074219508"
    }
  },
  {
    "service_request": "2023-1012657",
    "request_type": "Property Maintenance",
    "request_reason": "Property Maintenance",
    "date_created": "2023-06-28T16:19:54.000",
    "date_modified": "2023-06-28T16:19:54.000",
    "request_status": "Pending",
    "responsible_agency": "Department of Code Enforcement",
    "final_address": "2611 N Robertson St",
    "address_councildis": "C",
    "status": "Pending",
    "rowid": "1012657",
    "final_x": "3687625.3894",
    "final_y": "537959.348553",
    "longitude": "-90.04850060202745",
    "latitude": "29.973014249985265",
    "geocoded_column": {
      "latitude": "29.973014249985265",
      "longitude": "-90.04850060202745"
    }
  },
  {
    "service_request": "2023-1012656",
    "request_type": "Trash/Recycling",
    "request_reason": "MIssed Recycling Pick-Up",
    "date_created": "2023-06-28T16:13:15.000",
    "date_modified": "2023-06-28T16:13:16.000",
    "request_status": "Pending",
    "responsible_agency": "Department of Sanitation",
    "final_address": "3318 Danneel St",
    "address_councildis": "B",
    "status": "Assigned to Contractor",
    "contractor": "Richards Disposal",
    "rowid": "1012656",
    "final_x": "3673878.06862",
    "final_y": "522868.784123",
    "longitude": "-90.09243351262032",
    "latitude": "29.931936899125702",
    "geocoded_column": {
      "latitude": "29.931936899125702",
      "longitude": "-90.09243351262032"
    }
  },
  {
    "service_request": "2023-1012655",
    "request_type": "Abandoned Vehicles",
    "request_reason": "Abandoned/Junk Vehicles",
    "date_created": "2023-06-28T16:10:48.000",
    "date_modified": "2023-06-28T16:12:48.000",
    "request_status": "Pending",
    "responsible_agency": "Department of Public Works",
    "final_address": "200 BLK N Roman St",
    "address_councildis": "B",
    "status": "Pending",
    "rowid": "1012655",
    "final_x": "3678180.827",
    "final_y": "533709.140703",
    "longitude": "-90.07847537593818",
    "latitude": "29.961615441525588",
    "geocoded_column": {
      "latitude": "29.961615441525588",
      "longitude": "-90.07847537593818"
    }
  },
  {
    "service_request": "2023-1012654",
    "request_type": "Traffic Signals/Signs/Striping/Streetlights",
    "request_reason": "Traffic Sign Missing/Damaged",
    "date_created": "2023-06-28T16:10:27.000",
    "date_modified": "2023-06-28T16:10:27.000",
    "request_status": "Pending",
    "responsible_agency": "Department of Public Works",
    "final_address": "MARSHALL FOCH ST & HIDALGO ST",
    "address_councildis": "A",
    "status": "Pending",
    "rowid": "1012654",
    "final_x": "3669528.2",
    "final_y": "544044.38",
    "longitude": "-90.10544927169903",
    "latitude": "29.99029158074048",
    "geocoded_column": {
      "latitude": "29.99029158074048",
      "longitude": "-90.10544927169903"
    }
  },
  {
    "service_request": "2023-1012653",
    "request_type": "Traffic Signals/Signs/Striping/Streetlights",
    "request_reason": "Street Name Sign Damaged or Missing",
    "date_created": "2023-06-28T16:06:47.000",
    "date_modified": "2023-06-28T16:06:47.000",
    "request_status": "Pending",
    "responsible_agency": "Department of Public Works",
    "final_address": "LEMOYNE ST & MARSHALL FOCH ST",
    "address_councildis": "A",
    "status": "Pending",
    "rowid": "1012653",
    "final_x": "3669610.4",
    "final_y": "544915.28",
    "longitude": "-90.10516013626133",
    "latitude": "29.992683834185414",
    "geocoded_column": {
      "latitude": "29.992683834185414",
      "longitude": "-90.10516013626133"
    }
  },
  {
    "service_request": "2023-1012652",
    "request_type": "Trash/Recycling",
    "request_reason": "Change Size of Trash Cart",
    "date_created": "2023-06-28T15:58:07.000",
    "date_modified": "2023-06-28T15:58:08.000",
    "request_status": "Pending",
    "responsible_agency": "Department of Sanitation",
    "final_address": "1410 Mystery St",
    "address_councildis": "A",
    "status": "Assigned to Contractor",
    "contractor": "IV Waste",
    "rowid": "1012652",
    "final_x": "3676132.63214",
    "final_y": "540682.177867",
    "longitude": "-90.08470329010896",
    "latitude": "29.980850435171526",
    "geocoded_column": {
      "latitude": "29.980850435171526",
      "longitude": "-90.08470329010896"
    }
  },
  {
    "service_request": "2023-1012651",
    "request_type": "Trash/Recycling",
    "request_reason": "Request a Large Item Pick Up",
    "date_created": "2023-06-28T15:55:30.000",
    "date_modified": "2023-06-28T15:55:31.000",
    "request_status": "Pending",
    "responsible_agency": "Department of Sanitation",
    "final_address": "2316 Wisteria St",
    "address_councildis": "D",
    "status": "Assigned to Contractor",
    "contractor": "IV Waste",
    "rowid": "1012651",
    "final_x": "3685328.94249",
    "final_y": "548209.628242",
    "longitude": "-90.05539216906844",
    "latitude": "30.0012694853782",
    "geocoded_column": {
      "latitude": "30.0012694853782",
      "longitude": "-90.05539216906844"
    }
  },
  {
    "service_request": "2023-1012650",
    "request_type": "Abandoned Vehicles",
    "request_reason": "Abandoned/Junk Vehicles",
    "date_created": "2023-06-28T15:47:23.000",
    "date_modified": "2023-06-28T15:48:14.000",
    "request_status": "Pending",
    "responsible_agency": "Department of Public Works",
    "final_address": "7300 BLK Hansbrough Ave",
    "address_councildis": "E",
    "status": "Pending",
    "rowid": "1012650",
    "final_x": "3708133.23232",
    "final_y": "563583.463172",
    "longitude": "-89.98277960281096",
    "latitude": "30.04282250847879",
    "geocoded_column": {
      "latitude": "30.04282250847879",
      "longitude": "-89.98277960281096"
    }
  },
  {
    "service_request": "2023-1012649",
    "request_type": "Roads/Drainage",
    "request_reason": "Pothole",
    "date_created": "2023-06-28T15:46:34.000",
    "date_modified": "2023-06-28T15:46:34.000",
    "request_status": "Pending",
    "responsible_agency": "Department of Public Works",
    "final_address": "921 Touro St",
    "address_councildis": "C",
    "status": "Pending",
    "rowid": "1012649",
    "final_x": "3684304.78876",
    "final_y": "535712.918919",
    "longitude": "-90.0590665861643",
    "latitude": "29.966939310871233",
    "geocoded_column": {
      "latitude": "29.966939310871233",
      "longitude": "-90.0590665861643"
    }
  },
  {
    "service_request": "2023-1012647",
    "request_type": "Roads/Drainage",
    "request_reason": "Pothole",
    "date_created": "2023-06-28T15:44:13.000",
    "date_modified": "2023-06-28T15:44:14.000",
    "request_status": "Pending",
    "responsible_agency": "Department of Public Works",
    "final_address": "1140 Merrill St",
    "address_councildis": "C",
    "status": "Pending",
    "rowid": "1012647",
    "final_x": "3695019.19517",
    "final_y": "527678.938943",
    "longitude": "-90.02552020957984",
    "latitude": "29.9445167038531",
    "geocoded_column": {
      "latitude": "29.9445167038531",
      "longitude": "-90.02552020957984"
    }
  },
  {
    "service_request": "2023-1012646",
    "request_type": "Traffic Signals/Signs/Striping/Streetlights",
    "request_reason": "Street Light Outage/Malfunction",
    "date_created": "2023-06-28T15:43:39.000",
    "date_modified": "2023-06-28T15:43:40.000",
    "request_status": "Pending",
    "responsible_agency": "Department of Public Works",
    "final_address": "6434 Louisville St",
    "address_councildis": "A",
    "status": "Assigned to Contractor",
    "contractor": "Legacy Professional Services",
    "rowid": "1012646",
    "final_x": "3667977.78586",
    "final_y": "550373.96226",
    "longitude": "-90.1101332114634",
    "latitude": "30.007741337761196",
    "geocoded_column": {
      "latitude": "30.007741337761196",
      "longitude": "-90.1101332114634"
    }
  },
  {
    "service_request": "2023-1012645",
    "request_type": "Trash/Recycling",
    "request_reason": "Order Recycling Cart",
    "date_created": "2023-06-28T15:42:59.000",
    "date_modified": "2023-06-28T15:42:59.000",
    "request_status": "Pending",
    "responsible_agency": "Department of Sanitation",
    "final_address": "935 N Lopez St",
    "address_councildis": "A",
    "status": "Pending",
    "rowid": "1012645",
    "final_x": "3675842.75662",
    "final_y": "538882.439241",
    "longitude": "-90.08568074066461",
    "latitude": "29.9759104543328",
    "geocoded_column": {
      "latitude": "29.9759104543328",
      "longitude": "-90.08568074066461"
    }
  },
  {
    "service_request": "2023-1012644",
    "request_type": "Traffic Signals/Signs/Striping/Streetlights",
    "request_reason": "Street Light Outage/Malfunction",
    "date_created": "2023-06-28T15:40:17.000",
    "date_modified": "2023-06-28T15:40:17.000",
    "request_status": "Pending",
    "responsible_agency": "Department of Public Works",
    "final_address": "6454 Louisville St",
    "address_councildis": "A",
    "status": "Assigned to Contractor",
    "contractor": "Legacy Professional Services",
    "rowid": "1012644",
    "final_x": "3667944.00199",
    "final_y": "550565.288724",
    "longitude": "-90.11023349286287",
    "latitude": "30.008268410334416",
    "geocoded_column": {
      "latitude": "30.008268410334416",
      "longitude": "-90.11023349286287"
    }
  },
  {
    "service_request": "2023-1012643",
    "request_type": "Trash/Recycling",
    "request_reason": "Request a Large Item Pick Up",
    "date_created": "2023-06-28T15:39:45.000",
    "date_modified": "2023-06-28T15:39:47.000",
    "request_status": "Pending",
    "responsible_agency": "Department of Sanitation",
    "final_address": "1127 St Andrew St",
    "address_councildis": "B",
    "status": "Assigned to Contractor",
    "contractor": "Richards Disposal",
    "rowid": "1012643",
    "final_x": "3679370.12866",
    "final_y": "522798.452474",
    "longitude": "-90.07509809652522",
    "latitude": "29.931578825881914",
    "geocoded_column": {
      "latitude": "29.931578825881914",
      "longitude": "-90.07509809652522"
    }
  },
  {
    "service_request": "2023-1012642",
    "request_type": "Trash/Recycling",
    "request_reason": "Illegal Dumping",
    "date_created": "2023-06-28T15:38:35.000",
    "date_modified": "2023-06-28T15:39:48.000",
    "request_status": "Pending",
    "responsible_agency": "Department of Sanitation",
    "final_address": "10000 BLK Morrison Rd",
    "address_councildis": "E",
    "status": "Pending",
    "rowid": "1012642",
    "final_x": "3709538.99296",
    "final_y": "563956.268857",
    "longitude": "-89.97832293869196",
    "latitude": "30.04380194123472",
    "geocoded_column": {
      "latitude": "30.04380194123472",
      "longitude": "-89.97832293869196"
    }
  },
  {
    "service_request": "2023-1012641",
    "request_type": "Traffic Signals/Signs/Striping/Streetlights",
    "request_reason": "Street Light Outage/Malfunction",
    "date_created": "2023-06-28T15:36:04.000",
    "date_modified": "2023-06-28T15:36:04.000",
    "request_status": "Pending",
    "responsible_agency": "Department of Public Works",
    "final_address": "8800 BLK Apple St",
    "address_councildis": "A",
    "status": "Assigned to Contractor",
    "contractor": "Legacy Professional Services",
    "rowid": "1012641",
    "final_x": "3663392.39988",
    "final_y": "533887.411672",
    "longitude": "-90.12516905180573",
    "latitude": "29.962542661737015",
    "geocoded_column": {
      "latitude": "29.962542661737015",
      "longitude": "-90.12516905180573"
    }
  },
  {
    "service_request": "2023-1012640",
    "request_type": "Trash/Recycling",
    "request_reason": "Replace Trash Cart",
    "date_created": "2023-06-28T15:30:51.000",
    "date_modified": "2023-06-28T15:30:52.000",
    "request_status": "Pending",
    "responsible_agency": "Department of Sanitation",
    "final_address": "4790 Hickerson Dr",
    "address_councildis": "E",
    "status": "Assigned to Contractor",
    "contractor": "Waste Pro",
    "rowid": "1012640",
    "final_x": "3710194.69137",
    "final_y": "556100.148506",
    "longitude": "-89.97654466196646",
    "latitude": "30.022179386415427",
    "geocoded_column": {
      "latitude": "30.022179386415427",
      "longitude": "-89.97654466196646"
    }
  },
  {
    "service_request": "2023-1012639",
    "request_type": "Traffic Signals/Signs/Striping/Streetlights",
    "request_reason": "Street Light Outage/Malfunction",
    "date_created": "2023-06-28T15:27:46.000",
    "date_modified": "2023-06-28T15:27:47.000",
    "request_status": "Pending",
    "responsible_agency": "Department of Public Works",
    "final_address": "5900 BLK Marshal Foch St",
    "address_councildis": "A",
    "status": "Assigned to Contractor",
    "contractor": "Legacy Professional Services",
    "rowid": "1012639",
    "final_x": "3669791.04293",
    "final_y": "546825.537042",
    "longitude": "-90.1045248058977",
    "latitude": "29.99793105616967",
    "geocoded_column": {
      "latitude": "29.99793105616967",
      "longitude": "-90.1045248058977"
    }
  },
  {
    "service_request": "2023-1012638",
    "request_type": "Traffic Signals/Signs/Striping/Streetlights",
    "request_reason": "Street Light Outage/Malfunction",
    "date_created": "2023-06-28T15:24:40.000",
    "date_modified": "2023-06-28T15:24:41.000",
    "request_status": "Pending",
    "responsible_agency": "Department of Public Works",
    "final_address": "931 French St",
    "address_councildis": "A",
    "status": "Assigned to Contractor",
    "contractor": "Legacy Professional Services",
    "rowid": "1012638",
    "final_x": "3670214.37351",
    "final_y": "548526.35253",
    "longitude": "-90.1031298238106",
    "latitude": "30.002595217552685",
    "geocoded_column": {
      "latitude": "30.002595217552685",
      "longitude": "-90.1031298238106"
    }
  },
  {
    "service_request": "2023-1012637",
    "request_type": "Abandoned Vehicles",
    "request_reason": "Abandoned/Junk Vehicles",
    "date_created": "2023-06-28T15:21:55.000",
    "date_modified": "2023-06-28T15:21:55.000",
    "request_status": "Pending",
    "responsible_agency": "Department of Public Works",
    "final_address": "1915 Chestnut St",
    "address_councildis": "B",
    "status": "Pending",
    "rowid": "1012637",
    "final_x": "3679149.3725",
    "final_y": "523300.292411",
    "longitude": "-90.0757776108899",
    "latitude": "29.932965384512816",
    "geocoded_column": {
      "latitude": "29.932965384512816",
      "longitude": "-90.0757776108899"
    }
  },
  {
    "service_request": "2023-1012636",
    "request_type": "Property Maintenance",
    "request_reason": "Property Maintenance",
    "date_created": "2023-06-28T15:20:10.000",
    "date_modified": "2023-06-28T15:20:10.000",
    "request_status": "Pending",
    "responsible_agency": "Department of Code Enforcement",
    "final_address": "6636 Chef Menteur Hwy",
    "address_councildis": "E",
    "status": "Pending",
    "rowid": "1012636",
    "final_x": "3699419.84829",
    "final_y": "551857.618838",
    "longitude": "-90.01074500430995",
    "latitude": "30.01086044912289",
    "geocoded_column": {
      "latitude": "30.01086044912289",
      "longitude": "-90.01074500430995"
    }
  },
  {
    "service_request": "2023-1012635",
    "request_type": "Trash/Recycling",
    "request_reason": "Request a Large Item Pick Up",
    "date_created": "2023-06-28T15:15:11.000",
    "date_modified": "2023-06-28T15:15:11.000",
    "request_status": "Pending",
    "responsible_agency": "Department of Sanitation",
    "final_address": "5435 Press Dr",
    "address_councildis": "D",
    "status": "Assigned to Contractor",
    "contractor": "IV Waste",
    "rowid": "1012635",
    "final_x": "3689416.42748",
    "final_y": "553391.556503",
    "longitude": "-90.04229503585978",
    "latitude": "30.01539190363039",
    "geocoded_column": {
      "latitude": "30.01539190363039",
      "longitude": "-90.04229503585978"
    }
  },
  {
    "service_request": "2023-1012634",
    "request_type": "Trash/Recycling",
    "request_reason": "Request a Large Item Pick Up",
    "date_created": "2023-06-28T15:14:56.000",
    "date_modified": "2023-06-28T15:33:37.000",
    "case_close_date": "2023-06-28T10:33:37.000",
    "request_status": "Closed",
    "responsible_agency": "Department of Sanitation",
    "final_address": "7801 Scottwood Dr",
    "address_councildis": "E",
    "status": "Duplicate Request",
    "contractor": "Waste Pro",
    "contractor_action": "duplicate",
    "rowid": "1012634",
    "final_x": "3716761.26002",
    "final_y": "571573.324136",
    "longitude": "-89.95520816258562",
    "latitude": "30.064508892853556",
    "geocoded_column": {
      "latitude": "30.064508892853556",
      "longitude": "-89.95520816258562"
    }
  },
  {
    "service_request": "2023-1012633",
    "request_type": "Trash/Recycling",
    "request_reason": "Request a Large Item Pick Up",
    "date_created": "2023-06-28T15:14:08.000",
    "date_modified": "2023-06-28T15:14:09.000",
    "request_status": "Pending",
    "responsible_agency": "Department of Sanitation",
    "final_address": "1708 Flood St",
    "address_councildis": "E",
    "status": "Assigned to Contractor",
    "contractor": "Waste Pro",
    "rowid": "1012633",
    "final_x": "3698288.96701",
    "final_y": "536179.590535",
    "longitude": "-90.01488782549322",
    "latitude": "29.96778746748099",
    "geocoded_column": {
      "latitude": "29.96778746748099",
      "longitude": "-90.01488782549322"
    }
  },
  {
    "service_request": "2023-1012632",
    "request_type": "Trash/Recycling",
    "request_reason": "Request a Large Item Pick Up",
    "date_created": "2023-06-28T15:13:37.000",
    "date_modified": "2023-06-28T15:13:38.000",
    "request_status": "Pending",
    "responsible_agency": "Department of Sanitation",
    "final_address": "7801 Scottwood Dr",
    "address_councildis": "E",
    "status": "Assigned to Contractor",
    "contractor": "Waste Pro",
    "rowid": "1012632",
    "final_x": "3716761.26002",
    "final_y": "571573.324136",
    "longitude": "-89.95520816258562",
    "latitude": "30.064508892853556",
    "geocoded_column": {
      "latitude": "30.064508892853556",
      "longitude": "-89.95520816258562"
    }
  },
  {
    "service_request": "2023-1012631",
    "request_type": "Health Related Request",
    "request_reason": "Noise Ordinance Complaint",
    "date_created": "2023-06-28T15:08:04.000",
    "date_modified": "2023-06-28T15:08:04.000",
    "request_status": "Pending",
    "responsible_agency": "Health Department",
    "final_address": "3106 Washington Ave",
    "address_councildis": "B",
    "status": "Pending",
    "rowid": "1012631",
    "final_x": "3672809.49096",
    "final_y": "527052.89811",
    "longitude": "-90.09566423233932",
    "latitude": "29.94347362856386",
    "geocoded_column": {
      "latitude": "29.94347362856386",
      "longitude": "-90.09566423233932"
    }
  },
  {
    "service_request": "2023-1012630",
    "request_type": "Trash/Recycling",
    "request_reason": "MIssed Recycling Pick-Up",
    "date_created": "2023-06-28T15:02:42.000",
    "date_modified": "2023-06-28T15:02:42.000",
    "request_status": "Pending",
    "responsible_agency": "Department of Sanitation",
    "final_address": "3526 Timber Wolf Ln",
    "address_councildis": "C",
    "status": "Assigned to Contractor",
    "contractor": "Richards Disposal",
    "rowid": "1012630",
    "final_x": "3704536.70154",
    "final_y": "511204.991408",
    "longitude": "-89.99607791100352",
    "latitude": "29.898916931859482",
    "geocoded_column": {
      "latitude": "29.898916931859482",
      "longitude": "-89.99607791100352"
    }
  },
  {
    "service_request": "2023-1012629",
    "request_type": "Trash/Recycling",
    "request_reason": "Request a Large Item Pick Up",
    "date_created": "2023-06-28T15:01:17.000",
    "date_modified": "2023-06-28T15:01:18.000",
    "request_status": "Pending",
    "responsible_agency": "Department of Sanitation",
    "final_address": "7708 Keats St",
    "address_councildis": "E",
    "status": "Assigned to Contractor",
    "contractor": "Waste Pro",
    "rowid": "1012629",
    "final_x": "3696157.79037",
    "final_y": "559279.875612",
    "longitude": "-90.02078245657023",
    "latitude": "30.031371972173883",
    "geocoded_column": {
      "latitude": "30.031371972173883",
      "longitude": "-90.02078245657023"
    }
  },
  {
    "service_request": "2023-1012628",
    "request_type": "Trash/Recycling",
    "request_reason": "Request a Large Item Pick Up",
    "date_created": "2023-06-28T15:00:27.000",
    "date_modified": "2023-06-28T15:00:28.000",
    "request_status": "Pending",
    "responsible_agency": "Department of Sanitation",
    "final_address": "2729 Constance St",
    "address_councildis": "B",
    "status": "Assigned to Contractor",
    "contractor": "Richards Disposal",
    "rowid": "1012628",
    "final_x": "3677314.54677",
    "final_y": "520584.0942",
    "longitude": "-90.0816636935538",
    "latitude": "29.925551967506564",
    "geocoded_column": {
      "latitude": "29.925551967506564",
      "longitude": "-90.0816636935538"
    }
  },
  {
    "service_request": "2023-1012627",
    "request_type": "Trash/Recycling",
    "request_reason": "Order Trash Cart",
    "date_created": "2023-06-28T14:59:35.000",
    "date_modified": "2023-06-28T14:59:35.000",
    "request_status": "Pending",
    "responsible_agency": "Department of Sanitation",
    "final_address": "7708 Keats St",
    "address_councildis": "E",
    "status": "Assigned to Contractor",
    "contractor": "Waste Pro",
    "rowid": "1012627",
    "final_x": "3696157.79037",
    "final_y": "559279.875612",
    "longitude": "-90.02078245657023",
    "latitude": "30.031371972173883",
    "geocoded_column": {
      "latitude": "30.031371972173883",
      "longitude": "-90.02078245657023"
    }
  },
  {
    "service_request": "2023-1012626",
    "request_type": "Trash/Recycling",
    "request_reason": "Repair Trash Cart",
    "date_created": "2023-06-28T14:56:54.000",
    "date_modified": "2023-06-28T14:56:54.000",
    "request_status": "Pending",
    "responsible_agency": "Department of Sanitation",
    "final_address": "1834 E Homestead Dr",
    "address_councildis": "C",
    "status": "Assigned to Contractor",
    "contractor": "Richards Disposal",
    "rowid": "1012626",
    "final_x": "3697196.19536",
    "final_y": "525104.974653",
    "longitude": "-90.01874005730957",
    "latitude": "29.93737069380035",
    "geocoded_column": {
      "latitude": "29.93737069380035",
      "longitude": "-90.01874005730957"
    }
  },
  {
    "service_request": "2023-1012625",
    "request_type": "Trash/Recycling",
    "request_reason": "Request a Large Item Pick Up",
    "date_created": "2023-06-28T14:56:46.000",
    "date_modified": "2023-06-28T14:56:46.000",
    "request_status": "Pending",
    "responsible_agency": "Department of Sanitation",
    "final_address": "2327 Franklin Ave",
    "address_councildis": "D",
    "status": "Assigned to Contractor",
    "contractor": "IV Waste",
    "rowid": "1012625",
    "final_x": "3687631.09961",
    "final_y": "541168.60558",
    "longitude": "-90.04836890752634",
    "latitude": "29.981838398323543",
    "geocoded_column": {
      "latitude": "29.981838398323543",
      "longitude": "-90.04836890752634"
    }
  },
  {
    "service_request": "2023-1012624",
    "request_type": "Trash/Recycling",
    "request_reason": "Request a Large Item Pick Up",
    "date_created": "2023-06-28T14:56:08.000",
    "date_modified": "2023-06-28T14:56:10.000",
    "request_status": "Pending",
    "responsible_agency": "Department of Sanitation",
    "final_address": "7633 Lady Gray St",
    "address_councildis": "E",
    "status": "Assigned to Contractor",
    "contractor": "Waste Pro",
    "rowid": "1012624",
    "final_x": "3709967.17003",
    "final_y": "565367.27581",
    "longitude": "-89.97691693632764",
    "latitude": "30.047667714060427",
    "geocoded_column": {
      "latitude": "30.047667714060427",
      "longitude": "-89.97691693632764"
    }
  },
  {
    "service_request": "2023-1012623",
    "request_type": "Property Maintenance",
    "request_reason": "Property Maintenance",
    "date_created": "2023-06-28T14:53:45.000",
    "date_modified": "2023-06-28T14:53:45.000",
    "request_status": "Pending",
    "responsible_agency": "Department of Code Enforcement",
    "final_address": "3300 Lamarque St",
    "address_councildis": "C",
    "status": "Pending",
    "rowid": "1012623",
    "final_x": "3696403.43453",
    "final_y": "526672.414142",
    "longitude": "-90.0211861754145",
    "latitude": "29.941705595191593",
    "geocoded_column": {
      "latitude": "29.941705595191593",
      "longitude": "-90.0211861754145"
    }
  },
  {
    "service_request": "2023-1012622",
    "request_type": "Roads/Drainage",
    "request_reason": "Catch Basin - Broken/Damage",
    "date_created": "2023-06-28T14:48:42.000",
    "date_modified": "2023-06-28T17:14:47.000",
    "case_close_date": "2023-06-28T12:14:47.000",
    "request_status": "Closed",
    "responsible_agency": "Department of Public Works",
    "final_address": "12500 BLK Morrison Rd",
    "address_councildis": "E",
    "status": "Resolved",
    "rowid": "1012622",
    "final_x": "3715333.18905",
    "final_y": "568080.04637",
    "longitude": "-89.95985473907166",
    "latitude": "30.054950971396874",
    "geocoded_column": {
      "latitude": "30.054950971396874",
      "longitude": "-89.95985473907166"
    }
  },
  {
    "service_request": "2023-1012621",
    "request_type": "Trash/Recycling",
    "request_reason": "Request a Large Item Pick Up",
    "date_created": "2023-06-28T14:48:40.000",
    "date_modified": "2023-06-28T14:51:14.000",
    "request_status": "Pending",
    "responsible_agency": "Department of Sanitation",
    "final_address": "2115 Columbus St, New Orleans, Louisiana, 70119",
    "address_councildis": "D",
    "status": "Assigned to Contractor",
    "contractor": "IV Waste",
    "rowid": "1012621",
    "final_x": "3680271.29775",
    "final_y": "538441.188169",
    "longitude": "-90.0717094899144",
    "latitude": "29.974563833977133",
    "geocoded_column": {
      "latitude": "29.974563833977133",
      "longitude": "-90.0717094899144"
    }
  },
  {
    "service_request": "2023-1012620",
    "request_type": "Roads/Drainage",
    "request_reason": "Pothole",
    "date_created": "2023-06-28T14:44:45.000",
    "date_modified": "2023-06-28T14:44:46.000",
    "request_status": "Pending",
    "responsible_agency": "Department of Public Works",
    "final_address": "2062 N Prieur St",
    "address_councildis": "D",
    "status": "Pending",
    "rowid": "1012620",
    "final_x": "3684190.58492",
    "final_y": "539167.424586",
    "longitude": "-90.05930594383264",
    "latitude": "29.976441492132256",
    "geocoded_column": {
      "latitude": "29.976441492132256",
      "longitude": "-90.05930594383264"
    }
  },
  {
    "service_request": "2023-1012619",
    "request_type": "Trash/Recycling",
    "request_reason": "Repair Trash Cart",
    "date_created": "2023-06-28T14:42:53.000",
    "date_modified": "2023-06-28T14:42:54.000",
    "request_status": "Pending",
    "responsible_agency": "Department of Sanitation",
    "final_address": "1023 N Prieur St",
    "address_councildis": "D",
    "status": "Assigned to Contractor",
    "contractor": "Richards Disposal",
    "rowid": "1012619",
    "final_x": "3679690.77896",
    "final_y": "536325.333959",
    "longitude": "-90.07361637421003",
    "latitude": "29.968763524930793",
    "geocoded_column": {
      "latitude": "29.968763524930793",
      "longitude": "-90.07361637421003"
    }
  },
  {
    "service_request": "2023-1012618",
    "request_type": "Property Maintenance",
    "request_reason": "Property Maintenance",
    "date_created": "2023-06-28T14:42:07.000",
    "date_modified": "2023-06-28T14:42:07.000",
    "request_status": "Pending",
    "responsible_agency": "Department of Code Enforcement",
    "final_address": "5760 Wickfield Dr",
    "address_councildis": "D",
    "status": "Pending",
    "rowid": "1012618",
    "final_x": "3680938.34242",
    "final_y": "554381.562264",
    "longitude": "-90.06904732586857",
    "latitude": "30.018373990945303",
    "geocoded_column": {
      "latitude": "30.018373990945303",
      "longitude": "-90.06904732586857"
    }
  },
  {
    "service_request": "2023-1012617",
    "request_type": "Trash/Recycling",
    "request_reason": "Request a Large Item Pick Up",
    "date_created": "2023-06-28T14:39:02.000",
    "date_modified": "2023-06-28T14:39:03.000",
    "request_status": "Pending",
    "responsible_agency": "Department of Sanitation",
    "final_address": "3324 Third St",
    "address_councildis": "B",
    "status": "Assigned to Contractor",
    "contractor": "Richards Disposal",
    "rowid": "1012617",
    "final_x": "3672946.44852",
    "final_y": "528095.334527",
    "longitude": "-90.0951962574467",
    "latitude": "29.946335918411176",
    "geocoded_column": {
      "latitude": "29.946335918411176",
      "longitude": "-90.0951962574467"
    }
  },
  {
    "service_request": "2023-1012616",
    "request_type": "Trash/Recycling",
    "request_reason": "Repair Trash Cart",
    "date_created": "2023-06-28T14:39:00.000",
    "date_modified": "2023-06-28T14:39:17.000",
    "request_status": "Pending",
    "responsible_agency": "Department of Sanitation",
    "final_address": "7340 Perth St",
    "address_councildis": "E",
    "status": "Assigned to Contractor",
    "contractor": "Waste Pro",
    "rowid": "1012616",
    "final_x": "3698267.39978",
    "final_y": "559028.924636",
    "longitude": "-90.01412517047419",
    "latitude": "30.03061533897328",
    "geocoded_column": {
      "latitude": "30.03061533897328",
      "longitude": "-90.01412517047419"
    }
  },
  {
    "service_request": "2023-1012615",
    "request_type": "Trash/Recycling",
    "request_reason": "Order Trash Cart",
    "date_created": "2023-06-28T14:39:00.000",
    "date_modified": "2023-06-28T14:39:01.000",
    "request_status": "Pending",
    "responsible_agency": "Department of Sanitation",
    "final_address": "2064 N Prieur St",
    "address_councildis": "D",
    "status": "Assigned to Contractor",
    "contractor": "IV Waste",
    "rowid": "1012615",
    "final_x": "3684214.48706",
    "final_y": "539168.57729",
    "longitude": "-90.05923041327134",
    "latitude": "29.976443930892795",
    "geocoded_column": {
      "latitude": "29.976443930892795",
      "longitude": "-90.05923041327134"
    }
  },
  {
    "service_request": "2023-1012614",
    "request_type": "Trash/Recycling",
    "request_reason": "Order Trash Cart",
    "date_created": "2023-06-28T14:38:40.000",
    "date_modified": "2023-06-28T14:38:41.000",
    "request_status": "Pending",
    "responsible_agency": "Department of Sanitation",
    "final_address": "2062 N Prieur St",
    "address_councildis": "D",
    "status": "Assigned to Contractor",
    "contractor": "IV Waste",
    "rowid": "1012614",
    "final_x": "3684190.58492",
    "final_y": "539167.424586",
    "longitude": "-90.05930594383264",
    "latitude": "29.976441492132256",
    "geocoded_column": {
      "latitude": "29.976441492132256",
      "longitude": "-90.05930594383264"
    }
  },
  {
    "service_request": "2023-1012613",
    "request_type": "Trash/Recycling",
    "request_reason": "Missed Trash Pick-Up",
    "date_created": "2023-06-28T14:38:16.000",
    "date_modified": "2023-06-28T14:38:16.000",
    "request_status": "Pending",
    "responsible_agency": "Department of Sanitation",
    "final_address": "5050 Warren Dr",
    "address_councildis": "E",
    "status": "Assigned to Contractor",
    "contractor": "Waste Pro",
    "rowid": "1012613",
    "final_x": "3713241.02264",
    "final_y": "557740.941659",
    "longitude": "-89.96685728872572",
    "latitude": "30.02659138410887",
    "geocoded_column": {
      "latitude": "30.02659138410887",
      "longitude": "-89.96685728872572"
    }
  },
  {
    "service_request": "2023-1012612",
    "request_type": "Property Maintenance",
    "request_reason": "Property Maintenance",
    "date_created": "2023-06-28T14:38:04.000",
    "date_modified": "2023-06-28T14:38:04.000",
    "request_status": "Pending",
    "responsible_agency": "Department of Code Enforcement",
    "final_address": "7800 BLK Freret St",
    "address_councildis": "A",
    "status": "Pending",
    "rowid": "1012612",
    "final_x": "3662193.9154",
    "final_y": "527212.942737",
    "longitude": "-90.12917521875384",
    "latitude": "29.94422471717271",
    "geocoded_column": {
      "latitude": "29.94422471717271",
      "longitude": "-90.12917521875384"
    }
  },
  {
    "service_request": "2023-1012611",
    "request_type": "Trash/Recycling",
    "request_reason": "Order Trash Cart",
    "date_created": "2023-06-28T14:35:23.000",
    "date_modified": "2023-06-28T14:35:24.000",
    "request_status": "Pending",
    "responsible_agency": "Department of Sanitation",
    "final_address": "252 Mouton St",
    "address_councildis": "A",
    "status": "Assigned to Contractor",
    "contractor": "IV Waste",
    "rowid": "1012611",
    "final_x": "3667362.11169",
    "final_y": "553571.148055",
    "longitude": "-90.11197064787297",
    "latitude": "30.016550535447614",
    "geocoded_column": {
      "latitude": "30.016550535447614",
      "longitude": "-90.11197064787297"
    }
  },
  {
    "service_request": "2023-1012610",
    "request_type": "Trash/Recycling",
    "request_reason": "Repair Trash Cart",
    "date_created": "2023-06-28T14:34:16.000",
    "date_modified": "2023-06-28T15:44:44.000",
    "request_status": "Pending",
    "responsible_agency": "Department of Sanitation",
    "final_address": "1006 Touro St",
    "address_councildis": "C",
    "status": "Assigned to Contractor",
    "contractor": "IV Waste",
    "rowid": "1012610",
    "final_x": "3684227.67925",
    "final_y": "535946.945287",
    "longitude": "-90.05930188040844",
    "latitude": "29.96758516008398",
    "geocoded_column": {
      "latitude": "29.96758516008398",
      "longitude": "-90.05930188040844"
    }
  },
  {
    "service_request": "2023-1012609",
    "request_type": "Property Maintenance",
    "request_reason": "Property Maintenance",
    "date_created": "2023-06-28T14:32:14.000",
    "date_modified": "2023-06-28T14:32:14.000",
    "request_status": "Pending",
    "responsible_agency": "Department of Code Enforcement",
    "final_address": "5714 Lafaye St",
    "address_councildis": "D",
    "status": "Pending",
    "rowid": "1012609",
    "final_x": "3687162.94031",
    "final_y": "554283.74748",
    "longitude": "-90.04938340612846",
    "latitude": "30.01791472162876",
    "geocoded_column": {
      "latitude": "30.01791472162876",
      "longitude": "-90.04938340612846"
    }
  },
  {
    "service_request": "2023-1012608",
    "request_type": "Abandoned Vehicles",
    "request_reason": "Abandoned/Junk Vehicles",
    "date_created": "2023-06-28T14:30:59.000",
    "date_modified": "2023-06-28T14:30:59.000",
    "request_status": "Pending",
    "responsible_agency": "Department of Public Works",
    "final_address": "2110 Burgundy St Apt 1",
    "address_councildis": "C",
    "status": "Pending",
    "rowid": "1012608",
    "final_x": "3684775.60386",
    "final_y": "535502.303942",
    "longitude": "-90.05758715892546",
    "latitude": "29.966345787420146",
    "geocoded_column": {
      "latitude": "29.966345787420146",
      "longitude": "-90.05758715892546"
    }
  },
  {
    "service_request": "2023-1012607",
    "request_type": "Trash/Recycling",
    "request_reason": "Repair Recycling Cart",
    "date_created": "2023-06-28T14:29:16.000",
    "date_modified": "2023-06-28T14:29:17.000",
    "request_status": "Pending",
    "responsible_agency": "Department of Sanitation",
    "final_address": "1468 N White St",
    "address_councildis": "A",
    "status": "Pending",
    "rowid": "1012607",
    "final_x": "3677825.73339",
    "final_y": "540115.443723",
    "longitude": "-90.07937531411467",
    "latitude": "29.979241272884334",
    "geocoded_column": {
      "latitude": "29.979241272884334",
      "longitude": "-90.07937531411467"
    }
  },
  {
    "service_request": "2023-1012606",
    "request_type": "Traffic Signals/Signs/Striping/Streetlights",
    "request_reason": "Street Light Outage/Malfunction",
    "date_created": "2023-06-28T14:20:54.000",
    "date_modified": "2023-06-28T14:20:54.000",
    "request_status": "Pending",
    "responsible_agency": "Department of Public Works",
    "final_address": "1420 Desire St",
    "address_councildis": "C",
    "status": "Assigned to Contractor",
    "contractor": "Legacy Professional Services",
    "rowid": "1012606",
    "final_x": "3690469.60694",
    "final_y": "537005.514824",
    "longitude": "-90.03955205462482",
    "latitude": "29.970303544709232",
    "geocoded_column": {
      "latitude": "29.970303544709232",
      "longitude": "-90.03955205462482"
    }
  },
  {
    "service_request": "2023-1012605",
    "request_type": "Abandoned Vehicles",
    "request_reason": "Abandoned/Junk Vehicles",
    "date_created": "2023-06-28T14:14:44.000",
    "date_modified": "2023-06-28T14:18:18.000",
    "request_status": "Pending",
    "responsible_agency": "Department of Public Works",
    "final_address": "4232 Fontainebleau Dr",
    "address_councildis": "A",
    "status": "Pending",
    "rowid": "1012605",
    "final_x": "3669494.63866",
    "final_y": "529262.996225",
    "longitude": "-90.10605537382496",
    "latitude": "29.94964871415222",
    "geocoded_column": {
      "latitude": "29.94964871415222",
      "longitude": "-90.10605537382496"
    }
  },
  {
    "service_request": "2023-1012604",
    "request_type": "Property Maintenance",
    "request_reason": "Property Maintenance",
    "date_created": "2023-06-28T14:10:04.000",
    "date_modified": "2023-06-28T14:10:04.000",
    "request_status": "Pending",
    "responsible_agency": "Department of Code Enforcement",
    "final_address": "1944 Gentilly Blvd, New Orleans, Louisiana, 70119",
    "address_councildis": "D",
    "status": "Pending",
    "rowid": "1012604",
    "final_x": "3679614.2596",
    "final_y": "543578.180814",
    "longitude": "-90.07360621214089",
    "latitude": "29.988708652449724",
    "geocoded_column": {
      "latitude": "29.988708652449724",
      "longitude": "-90.07360621214089"
    }
  },
  {
    "service_request": "2023-1012603",
    "request_type": "Property Maintenance",
    "request_reason": "Property Maintenance",
    "date_created": "2023-06-28T14:09:48.000",
    "date_modified": "2023-06-28T14:09:49.000",
    "request_status": "Pending",
    "responsible_agency": "Department of Code Enforcement",
    "final_address": "5952 Magazine St",
    "address_councildis": "A",
    "status": "Pending",
    "rowid": "1012603",
    "final_x": "3664804.96148",
    "final_y": "519138.168887",
    "longitude": "-90.12120106450227",
    "latitude": "29.921945941592504",
    "geocoded_column": {
      "latitude": "29.921945941592504",
      "longitude": "-90.12120106450227"
    }
  },
  {
    "service_request": "2023-1012602",
    "request_type": "Traffic Signals/Signs/Striping/Streetlights",
    "request_reason": "Street Light Outage/Malfunction",
    "date_created": "2023-06-28T14:07:48.000",
    "date_modified": "2023-06-28T14:07:49.000",
    "request_status": "Pending",
    "responsible_agency": "Department of Public Works",
    "final_address": "6336 Brunswick Ct",
    "address_councildis": "C",
    "status": "Assigned to Contractor",
    "contractor": "Legacy Professional Services",
    "rowid": "1012602",
    "final_x": "3707530.48286",
    "final_y": "517076.903861",
    "longitude": "-89.98641224056078",
    "latitude": "29.91496626136319",
    "geocoded_column": {
      "latitude": "29.91496626136319",
      "longitude": "-89.98641224056078"
    }
  },
  {
    "service_request": "2023-1012601",
    "request_type": "Trash/Recycling",
    "request_reason": "Return Recycling Cart",
    "date_created": "2023-06-28T14:04:46.000",
    "date_modified": "2023-06-28T14:04:48.000",
    "request_status": "Pending",
    "responsible_agency": "Department of Sanitation",
    "final_address": "49 Versailles Blvd",
    "address_councildis": "A",
    "status": "Pending",
    "rowid": "1012601",
    "final_x": "3667583.91745",
    "final_y": "529840.206785",
    "longitude": "-90.11206898594038",
    "latitude": "29.951291989381122",
    "geocoded_column": {
      "latitude": "29.951291989381122",
      "longitude": "-90.11206898594038"
    }
  },
  {
    "service_request": "2023-1012600",
    "request_type": "Roads/Drainage",
    "request_reason": "Pothole",
    "date_created": "2023-06-28T14:00:19.000",
    "date_modified": "2023-06-28T14:00:19.000",
    "request_status": "Pending",
    "responsible_agency": "Department of Public Works",
    "final_address": "1800 BLK Murl St",
    "address_councildis": "C",
    "status": "Pending",
    "rowid": "1012600",
    "final_x": "3695357.59908",
    "final_y": "524292.719903",
    "longitude": "-90.02457388856936",
    "latitude": "29.935195145058778",
    "geocoded_column": {
      "latitude": "29.935195145058778",
      "longitude": "-90.02457388856936"
    }
  },
  {
    "service_request": "2023-1012599",
    "request_type": "Trash/Recycling",
    "request_reason": "Repair Trash Cart",
    "date_created": "2023-06-28T13:58:14.000",
    "date_modified": "2023-06-28T13:58:14.000",
    "request_status": "Pending",
    "responsible_agency": "Department of Sanitation",
    "final_address": "1723 Burdette St",
    "address_councildis": "A",
    "status": "Assigned to Contractor",
    "contractor": "Richards Disposal",
    "rowid": "1012599",
    "final_x": "3664140.14029",
    "final_y": "529024.563712",
    "longitude": "-90.1229699889906",
    "latitude": "29.949149710460983",
    "geocoded_column": {
      "latitude": "29.949149710460983",
      "longitude": "-90.1229699889906"
    }
  },
  {
    "service_request": "2023-1012598",
    "request_type": "Trash/Recycling",
    "request_reason": "Request a Large Item Pick Up",
    "date_created": "2023-06-28T13:56:32.000",
    "date_modified": "2023-06-28T13:56:32.000",
    "request_status": "Pending",
    "responsible_agency": "Department of Sanitation",
    "final_address": "11241 N Parkwood Ct",
    "address_councildis": "E",
    "status": "Assigned to Contractor",
    "contractor": "Waste Pro",
    "rowid": "1012598",
    "final_x": "3716628.29893",
    "final_y": "559380.002077",
    "longitude": "-89.95609174005175",
    "latitude": "30.030986638158623",
    "geocoded_column": {
      "latitude": "30.030986638158623",
      "longitude": "-89.95609174005175"
    }
  },
  {
    "service_request": "2023-1012597",
    "request_type": "Abandoned Vehicles",
    "request_reason": "Abandoned/Junk Vehicles",
    "date_created": "2023-06-28T13:56:08.000",
    "date_modified": "2023-06-28T14:13:57.000",
    "request_status": "Pending",
    "responsible_agency": "Department of Public Works",
    "final_address": "2514 Frenchmen St",
    "address_councildis": "D",
    "status": "Inspected",
    "rowid": "1012597",
    "final_x": "3684130.86428",
    "final_y": "541554.816716",
    "longitude": "-90.05941073004314",
    "latitude": "29.98300780861253",
    "geocoded_column": {
      "latitude": "29.98300780861253",
      "longitude": "-90.05941073004314"
    }
  },
  {
    "service_request": "2023-1012596",
    "request_type": "Trash/Recycling",
    "request_reason": "Request a Large Item Pick Up",
    "date_created": "2023-06-28T13:55:39.000",
    "date_modified": "2023-06-28T13:55:39.000",
    "request_status": "Pending",
    "responsible_agency": "Department of Sanitation",
    "final_address": "11231 N Parkwood Ct",
    "address_councildis": "E",
    "status": "Assigned to Contractor",
    "contractor": "Waste Pro",
    "rowid": "1012596",
    "final_x": "3716576.15788",
    "final_y": "559340.547613",
    "longitude": "-89.95625800376892",
    "latitude": "30.030879877314895",
    "geocoded_column": {
      "latitude": "30.030879877314895",
      "longitude": "-89.95625800376892"
    }
  },
  {
    "service_request": "2023-1012595",
    "request_type": "Trash/Recycling",
    "request_reason": "Request a Large Item Pick Up",
    "date_created": "2023-06-28T13:54:45.000",
    "date_modified": "2023-06-28T13:54:46.000",
    "request_status": "Pending",
    "responsible_agency": "Department of Sanitation",
    "final_address": "7711 Birch St",
    "address_councildis": "A",
    "status": "Assigned to Contractor",
    "contractor": "Richards Disposal",
    "rowid": "1012595",
    "final_x": "3663954.26714",
    "final_y": "528521.214976",
    "longitude": "-90.1235736543242",
    "latitude": "29.947771060925213",
    "geocoded_column": {
      "latitude": "29.947771060925213",
      "longitude": "-90.1235736543242"
    }
  },
  {
    "service_request": "2023-1012594",
    "request_type": "Trash/Recycling",
    "request_reason": "Request a Large Item Pick Up",
    "date_created": "2023-06-28T13:54:40.000",
    "date_modified": "2023-06-28T13:54:40.000",
    "request_status": "Pending",
    "responsible_agency": "Department of Sanitation",
    "final_address": "11210 N Parkwood Ct",
    "address_councildis": "E",
    "status": "Assigned to Contractor",
    "contractor": "Waste Pro",
    "rowid": "1012594",
    "final_x": "3716543.09157",
    "final_y": "559121.364124",
    "longitude": "-89.9563708162498",
    "latitude": "30.030278303222833",
    "geocoded_column": {
      "latitude": "30.030278303222833",
      "longitude": "-89.9563708162498"
    }
  },
  {
    "service_request": "2023-1012593",
    "request_type": "Trash/Recycling",
    "request_reason": "Order Trash Cart",
    "date_created": "2023-06-28T13:49:53.000",
    "date_modified": "2023-06-28T13:49:53.000",
    "request_status": "Pending",
    "responsible_agency": "Department of Sanitation",
    "final_address": "2310 Fats Domino Ave",
    "address_councildis": "E",
    "status": "Assigned to Contractor",
    "contractor": "Waste Pro",
    "rowid": "1012593",
    "final_x": "3699214.07517",
    "final_y": "538376.934793",
    "longitude": "-90.01188629793346",
    "latitude": "29.973800071262165",
    "geocoded_column": {
      "latitude": "29.973800071262165",
      "longitude": "-90.01188629793346"
    }
  },
  {
    "service_request": "2023-1012592",
    "request_type": "Trash/Recycling",
    "request_reason": "Order Trash Cart",
    "date_created": "2023-06-28T13:49:29.000",
    "date_modified": "2023-06-28T13:49:30.000",
    "request_status": "Pending",
    "responsible_agency": "Department of Sanitation",
    "final_address": "2308 Fats Domino Ave",
    "address_councildis": "E",
    "status": "Assigned to Contractor",
    "contractor": "Waste Pro",
    "rowid": "1012592",
    "final_x": "3699210.33834",
    "final_y": "538362.630601",
    "longitude": "-90.01189862057464",
    "latitude": "29.97376085839966",
    "geocoded_column": {
      "latitude": "29.97376085839966",
      "longitude": "-90.01189862057464"
    }
  },
  {
    "service_request": "2023-1012591",
    "request_type": "Traffic Signals/Signs/Striping/Streetlights",
    "request_reason": "Street Light Outage/Malfunction",
    "date_created": "2023-06-28T13:48:24.000",
    "date_modified": "2023-06-28T13:48:24.000",
    "request_status": "Pending",
    "responsible_agency": "Department of Public Works",
    "final_address": "6923 Louis Xiv St",
    "address_councildis": "A",
    "status": "Assigned to Contractor",
    "contractor": "Legacy Professional Services",
    "rowid": "1012591",
    "final_x": "3668743.55258",
    "final_y": "553563.327767",
    "longitude": "-90.1076061352857",
    "latitude": "30.01648847184288",
    "geocoded_column": {
      "latitude": "30.01648847184288",
      "longitude": "-90.1076061352857"
    }
  },
  {
    "service_request": "2023-1012590",
    "request_type": "Trash/Recycling",
    "request_reason": "Repair Trash Cart",
    "date_created": "2023-06-28T13:47:23.000",
    "date_modified": "2023-06-28T13:47:24.000",
    "request_status": "Pending",
    "responsible_agency": "Department of Sanitation",
    "final_address": "6211 Spain St",
    "address_councildis": "D",
    "status": "Assigned to Contractor",
    "contractor": "IV Waste",
    "rowid": "1012590",
    "final_x": "3684590.99612",
    "final_y": "556027.196505",
    "longitude": "-90.0574484109923",
    "latitude": "30.022787556464802",
    "geocoded_column": {
      "latitude": "30.022787556464802",
      "longitude": "-90.0574484109923"
    }
  },
  {
    "service_request": "2023-1012589",
    "request_type": "Property Maintenance",
    "request_reason": "Property Maintenance",
    "date_created": "2023-06-28T13:46:44.000",
    "date_modified": "2023-06-28T13:46:45.000",
    "request_status": "Pending",
    "responsible_agency": "Department of Code Enforcement",
    "final_address": "3016 N Miro St",
    "address_councildis": "D",
    "status": "Pending",
    "rowid": "1012589",
    "final_x": "3689611.42243",
    "final_y": "540191.930059",
    "longitude": "-90.04214889096384",
    "latitude": "29.979091676176267",
    "geocoded_column": {
      "latitude": "29.979091676176267",
      "longitude": "-90.04214889096384"
    }
  },
  {
    "service_request": "2023-1012588",
    "request_type": "Traffic Signals/Signs/Striping/Streetlights",
    "request_reason": "Street Light Outage/Malfunction",
    "date_created": "2023-06-28T13:41:43.000",
    "date_modified": "2023-06-28T13:41:44.000",
    "request_status": "Pending",
    "responsible_agency": "Department of Public Works",
    "final_address": "7576 Pearl St",
    "address_councildis": "A",
    "status": "Assigned to Contractor",
    "contractor": "Legacy Professional Services",
    "rowid": "1012588",
    "final_x": "3661683.31942",
    "final_y": "525254.220989",
    "longitude": "-90.13085222275969",
    "latitude": "29.938853598944643",
    "geocoded_column": {
      "latitude": "29.938853598944643",
      "longitude": "-90.13085222275969"
    }
  },
  {
    "service_request": "2023-1012587",
    "request_type": "Parks & Parkways",
    "request_reason": "Request Tree Service (Right of Way/Public Property)",
    "date_created": "2023-06-28T13:40:49.000",
    "date_modified": "2023-06-28T13:40:50.000",
    "request_status": "Pending",
    "responsible_agency": "Department of Parks & Parkway",
    "final_address": "7576 Pearl St",
    "address_councildis": "A",
    "status": "Pending",
    "rowid": "1012587",
    "final_x": "3661683.31942",
    "final_y": "525254.220989",
    "longitude": "-90.13085222275969",
    "latitude": "29.938853598944643",
    "geocoded_column": {
      "latitude": "29.938853598944643",
      "longitude": "-90.13085222275969"
    }
  },