[
  {
    "service_request": "2024-1090442",
    "request_type": "Roads/Drainage",
    "request_reason": "Accessibility Ramps, Curbs and Sidewalk Repair",
    "date_created": "2024-05-04T20:59:25.000",
    "date_modified": "2024-05-04T20:59:25.000",
    "request_status": "Pending",
    "responsible_agency": "Department of Public Works",
    "final_address": "1501 N Roman St",
    "address_councildis": "D",
    "status": "Pending",
    "rowid": "1090442",
    "final_x": "3681150.95759",
    "final_y": "537670.79348",
    "longitude": "-90.06895815961967",
    "latitude": "29.97241885398716",
    "geocoded_column": {
      "latitude": "29.97241885398716",
      "longitude": "-90.06895815961967"
    }
  },
  {
    "service_request": "2024-1090441",
    "request_type": "Property Maintenance",
    "request_reason": "Property Maintenance",
    "date_created": "2024-05-04T20:56:02.000",
    "date_modified": "2024-05-04T20:56:02.000",
    "request_status": "Pending",
    "responsible_agency": "Department of Code Enforcement",
    "final_address": "1501 N Roman St",
    "address_councildis": "D",
    "status": "Pending",
    "rowid": "1090441",
    "final_x": "3681150.95759",
    "final_y": "537670.79348",
    "longitude": "-90.06895815961967",
    "latitude": "29.97241885398716",
    "geocoded_column": {
      "latitude": "29.97241885398716",
      "longitude": "-90.06895815961967"
    }
  },
  {
    "service_request": "2024-1090439",
    "request_type": "Property Maintenance",
    "request_reason": "Property Maintenance",
    "date_created": "2024-05-04T20:49:36.000",
    "date_modified": "2024-05-04T20:49:36.000",
    "request_status": "Pending",
    "responsible_agency": "Department of Code Enforcement",
    "final_address": "1434 N Prieur St",
    "address_councildis": "D",
    "status": "Pending",
    "rowid": "1090439",
    "final_x": "3680650.52207",
    "final_y": "537465.070856",
    "longitude": "-90.07054578229447",
    "latitude": "29.971868361951703",
    "geocoded_column": {
      "latitude": "29.971868361951703",
      "longitude": "-90.07054578229447"
    }
  },
  {
    "service_request": "2024-1090438",
    "request_type": "Traffic Signals/Signs/Striping/Streetlights",
    "request_reason": "Street Light Outage/Malfunction",
    "date_created": "2024-05-04T20:47:49.000",
    "date_modified": "2024-05-04T20:47:50.000",
    "request_status": "Pending",
    "responsible_agency": "Department of Public Works",
    "final_address": "1726 Columbus St",
    "address_councildis": "D",
    "status": "Assigned to Contractor",
    "contractor": "Legacy Professional Services",
    "rowid": "1090438",
    "final_x": "3681196.3702",
    "final_y": "537542.75252",
    "longitude": "-90.06881920128147",
    "latitude": "29.972065407624854",
    "geocoded_column": {
      "latitude": "29.972065407624854",
      "longitude": "-90.06881920128147"
    }
  },
  {
    "service_request": "2024-1090437",
    "request_type": "Abandoned Vehicles",
    "request_reason": "Abandoned/Junk Vehicles",
    "date_created": "2024-05-04T20:32:09.000",
    "date_modified": "2024-05-04T20:32:09.000",
    "request_status": "Pending",
    "responsible_agency": "Department of Public Works",
    "final_address": "5700 BLK Hempstead Rd",
    "address_councildis": "E",
    "status": "Pending",
    "rowid": "1090437",
    "final_x": "3708303.11256",
    "final_y": "558061.779661",
    "longitude": "-89.98244845180913",
    "latitude": "30.027634556175478",
    "geocoded_column": {
      "latitude": "30.027634556175478",
      "longitude": "-89.98244845180913"
    }
  },
  {
    "service_request": "2024-1090436",
    "request_type": "Abandoned Vehicles",
    "request_reason": "Abandoned/Junk Vehicles",
    "date_created": "2024-05-04T20:00:41.000",
    "date_modified": "2024-05-04T20:00:41.000",
    "request_status": "Pending",
    "responsible_agency": "Department of Public Works",
    "final_address": "900 BLK Germain St",
    "address_councildis": "A",
    "status": "Pending",
    "rowid": "1090436",
    "final_x": "3670320.09207",
    "final_y": "547770.032528",
    "longitude": "-90.10282150288755",
    "latitude": "30.000512479711848",
    "geocoded_column": {
      "latitude": "30.000512479711848",
      "longitude": "-90.10282150288755"
    }
  },
  {
    "service_request": "2024-1090435",
    "request_type": "Trash/Recycling",
    "request_reason": "Request a Large Item Pick Up",
    "date_created": "2024-05-04T19:59:47.000",
    "date_modified": "2024-05-04T19:59:47.000",
    "request_status": "Pending",
    "responsible_agency": "Department of Sanitation",
    "final_address": "7620 Fieldston Rd",
    "address_councildis": "E",
    "status": "Assigned to Contractor",
    "contractor": "Waste Pro",
    "rowid": "1090435",
    "final_x": "3700402.91389",
    "final_y": "560643.477278",
    "longitude": "-90.00731790817653",
    "latitude": "30.034986957425467",
    "geocoded_column": {
      "latitude": "30.034986957425467",
      "longitude": "-90.00731790817653"
    }
  },
  {
    "service_request": "2024-1090434",
    "request_type": "Traffic Signals/Signs/Striping/Streetlights",
    "request_reason": "Street Light Outage/Malfunction",
    "date_created": "2024-05-04T19:47:37.000",
    "date_modified": "2024-05-04T19:47:37.000",
    "request_status": "Pending",
    "responsible_agency": "Department of Public Works",
    "final_address": "2107 Valmont St",
    "address_councildis": "B",
    "status": "Assigned to Contractor",
    "contractor": "Legacy Professional Services",
    "rowid": "1090434",
    "final_x": "3668142.65031",
    "final_y": "523302.938811",
    "longitude": "-90.11052505733328",
    "latitude": "29.933300228353247",
    "geocoded_column": {
      "latitude": "29.933300228353247",
      "longitude": "-90.11052505733328"
    }
  },
  {
    "service_request": "2024-1090433",
    "request_type": "Trash/Recycling",
    "request_reason": "Repair Recycling Cart",
    "date_created": "2024-05-04T19:46:57.000",
    "date_modified": "2024-05-04T19:46:57.000",
    "request_status": "Pending",
    "responsible_agency": "Department of Sanitation",
    "final_address": "PEARL ST & FERN ST",
    "address_councildis": "A",
    "status": "Pending",
    "rowid": "1090433",
    "final_x": "3660880.7",
    "final_y": "526028.18",
    "longitude": "-90.13336060784788",
    "latitude": "29.941004877269645",
    "geocoded_column": {
      "latitude": "29.941004877269645",
      "longitude": "-90.13336060784788"
    }
  },
  {
    "service_request": "2024-1090432",
    "request_type": "Trash/Recycling",
    "request_reason": "Request a Large Item Pick Up",
    "date_created": "2024-05-04T19:40:14.000",
    "date_modified": "2024-05-04T19:40:14.000",
    "request_status": "Pending",
    "responsible_agency": "Department of Sanitation",
    "final_address": "927 Taft Pl",
    "address_councildis": "A",
    "status": "Assigned to Contractor",
    "contractor": "IV Waste",
    "rowid": "1090432",
    "final_x": "3673808.0651",
    "final_y": "540286.943179",
    "longitude": "-90.09205883600875",
    "latitude": "29.97983312175482",
    "geocoded_column": {
      "latitude": "29.97983312175482",
      "longitude": "-90.09205883600875"
    }
  },
  {
    "service_request": "2024-1090431",
    "request_type": "Trash/Recycling",
    "request_reason": "Missed Trash Pick-Up",
    "date_created": "2024-05-04T19:20:03.000",
    "date_modified": "2024-05-04T19:20:04.000",
    "request_status": "Pending",
    "responsible_agency": "Department of Sanitation",
    "final_address": "1101 Odeon St",
    "address_councildis": "C",
    "status": "Assigned to Contractor",
    "contractor": "Richards Disposal",
    "rowid": "1090431",
    "final_x": "3696009.4328",
    "final_y": "527382.866047",
    "longitude": "-90.02240445058754",
    "latitude": "29.943671491926477",
    "geocoded_column": {
      "latitude": "29.943671491926477",
      "longitude": "-90.02240445058754"
    }
  },
  {
    "service_request": "2024-1090430",
    "request_type": "Abandoned Vehicles",
    "request_reason": "Abandoned/Junk Vehicles",
    "date_created": "2024-05-04T19:08:40.000",
    "date_modified": "2024-05-04T19:08:40.000",
    "request_status": "Pending",
    "responsible_agency": "Department of Public Works",
    "final_address": "3010 Bienville Ave",
    "address_councildis": "B",
    "status": "Pending",
    "rowid": "1090430",
    "final_x": "3674696.94651",
    "final_y": "536516.938439",
    "longitude": "-90.0893806478862",
    "latitude": "29.969440387249954",
    "geocoded_column": {
      "latitude": "29.969440387249954",
      "longitude": "-90.0893806478862"
    }
  },
  {
    "service_request": "2024-1090428",
    "request_type": "Trash/Recycling",
    "request_reason": "MIssed Recycling Pick-Up",
    "date_created": "2024-05-04T18:02:29.000",
    "date_modified": "2024-05-04T18:02:30.000",
    "request_status": "Pending",
    "responsible_agency": "Department of Sanitation",
    "final_address": "1013 Thalia St",
    "address_councildis": "B",
    "status": "Assigned to Contractor",
    "contractor": "IV Waste",
    "rowid": "1090428",
    "final_x": "3680797.64757",
    "final_y": "525202.070909",
    "longitude": "-90.07050796174185",
    "latitude": "29.938144802079158",
    "geocoded_column": {
      "latitude": "29.938144802079158",
      "longitude": "-90.07050796174185"
    }
  },
  {
    "service_request": "2024-1090427",
    "request_type": "Roads/Drainage",
    "request_reason": "Damaged Sidewalk",
    "date_created": "2024-05-04T18:01:39.000",
    "date_modified": "2024-05-04T18:01:39.000",
    "request_status": "Pending",
    "responsible_agency": "Department of Public Works",
    "final_address": "201 Chartres St",
    "address_councildis": "C",
    "status": "Pending",
    "rowid": "1090427",
    "final_x": "3681732.84623",
    "final_y": "530836.437122",
    "longitude": "-90.06735892499799",
    "latitude": "29.95360904473037",
    "geocoded_column": {
      "latitude": "29.95360904473037",
      "longitude": "-90.06735892499799"
    }
  },
  {
    "service_request": "2024-1090426",
    "request_type": "Trash/Recycling",
    "request_reason": "Repair Trash Cart",
    "date_created": "2024-05-04T17:06:05.000",
    "date_modified": "2024-05-04T17:06:06.000",
    "request_status": "Pending",
    "responsible_agency": "Department of Sanitation",
    "final_address": "1817 Urquhart St",
    "address_councildis": "C",
    "status": "Assigned to Contractor",
    "contractor": "IV Waste",
    "rowid": "1090426",
    "final_x": "3683622.78133",
    "final_y": "536967.412872",
    "longitude": "-90.06117637984612",
    "latitude": "29.970409572268508",
    "geocoded_column": {
      "latitude": "29.970409572268508",
      "longitude": "-90.06117637984612"
    }
  },
  {
    "service_request": "2024-1090425",
    "request_type": "Trash/Recycling",
    "request_reason": "Replace Trash Cart",
    "date_created": "2024-05-04T16:56:04.000",
    "date_modified": "2024-05-04T16:56:05.000",
    "request_status": "Pending",
    "responsible_agency": "Department of Sanitation",
    "final_address": "1421 Constantinople St",
    "address_councildis": "B",
    "status": "Assigned to Contractor",
    "contractor": "IV Waste",
    "rowid": "1090425",
    "final_x": "3672433.24257",
    "final_y": "520667.657465",
    "longitude": "-90.09706965638372",
    "latitude": "29.925927453713577",
    "geocoded_column": {
      "latitude": "29.925927453713577",
      "longitude": "-90.09706965638372"
    }
  },
  {
    "service_request": "2024-1090424",
    "request_type": "Trash/Recycling",
    "request_reason": "Request a Large Item Pick Up",
    "date_created": "2024-05-04T16:50:40.000",
    "date_modified": "2024-05-04T16:50:40.000",
    "request_status": "Pending",
    "responsible_agency": "Department of Sanitation",
    "final_address": "7300 Strathmore Dr",
    "address_councildis": "E",
    "status": "Assigned to Contractor",
    "contractor": "Waste Pro",
    "rowid": "1090424",
    "final_x": "3714742.61003",
    "final_y": "566364.042019",
    "longitude": "-89.96178633735718",
    "latitude": "30.05025211322423",
    "geocoded_column": {
      "latitude": "30.05025211322423",
      "longitude": "-89.96178633735718"
    }
  },
  {
    "service_request": "2024-1090423",
    "request_type": "Trash/Recycling",
    "request_reason": "Request a Large Item Pick Up",
    "date_created": "2024-05-04T16:15:03.000",
    "date_modified": "2024-05-04T16:15:03.000",
    "request_status": "Pending",
    "responsible_agency": "Department of Sanitation",
    "final_address": "439 40Th St",
    "address_councildis": "A",
    "status": "Assigned to Contractor",
    "contractor": "IV Waste",
    "rowid": "1090423",
    "final_x": "3664734.48199",
    "final_y": "553434.447575",
    "longitude": "-90.12027744382496",
    "latitude": "30.016251407674847",
    "geocoded_column": {
      "latitude": "30.016251407674847",
      "longitude": "-90.12027744382496"
    }
  },
  {
    "service_request": "2024-1090422",
    "request_type": "Trash/Recycling",
    "request_reason": "Repair Trash Cart",
    "date_created": "2024-05-04T16:02:53.000",
    "date_modified": "2024-05-04T16:02:54.000",
    "request_status": "Pending",
    "responsible_agency": "Department of Sanitation",
    "final_address": "6901 Deanne St",
    "address_councildis": "D",
    "status": "Assigned to Contractor",
    "contractor": "Waste Pro",
    "rowid": "1090422",
    "final_x": "3695853.65667",
    "final_y": "556074.767961",
    "longitude": "-90.02185945025462",
    "latitude": "30.022568722583824",
    "geocoded_column": {
      "latitude": "30.022568722583824",
      "longitude": "-90.02185945025462"
    }
  },
  {
    "service_request": "2024-1090421",
    "request_type": "Safety & Permits",
    "request_reason": "Licenses & Permits",
    "date_created": "2024-05-04T15:33:42.000",
    "date_modified": "2024-05-04T15:33:42.000",
    "request_status": "Pending",
    "responsible_agency": "Safety and Permits",
    "final_address": "3000 BLK Constance St",
    "address_councildis": "B",
    "status": "Pending",
    "rowid": "1090421",
    "final_x": "3676447.37213",
    "final_y": "519982.211136",
    "longitude": "-90.08442180838323",
    "latitude": "29.923923002048596",
    "geocoded_column": {
      "latitude": "29.923923002048596",
      "longitude": "-90.08442180838323"
    }
  },
  {
    "service_request": "2024-1090420",
    "request_type": "Trash/Recycling",
    "request_reason": "MIssed Recycling Pick-Up",
    "date_created": "2024-05-04T15:30:24.000",
    "date_modified": "2024-05-04T15:30:25.000",
    "request_status": "Pending",
    "responsible_agency": "Department of Sanitation",
    "final_address": "1706 S Rampart St",
    "address_councildis": "B",
    "status": "Assigned to Contractor",
    "contractor": "IV Waste",
    "rowid": "1090420",
    "final_x": "3677420.85685",
    "final_y": "525843.496829",
    "longitude": "-90.08114667319602",
    "latitude": "29.940010410237925",
    "geocoded_column": {
      "latitude": "29.940010410237925",
      "longitude": "-90.08114667319602"
    }
  },
  {
    "service_request": "2024-1090418",
    "request_type": "Safety & Permits",
    "request_reason": "Construction permit",
    "date_created": "2024-05-04T14:58:07.000",
    "date_modified": "2024-05-04T14:58:07.000",
    "request_status": "Pending",
    "responsible_agency": "Department of Code Enforcement",
    "final_address": "137 N Roadway St",
    "address_councildis": "A",
    "status": "Pending",
    "rowid": "1090418",
    "final_x": "3666163.31233",
    "final_y": "556861.77929",
    "longitude": "-90.1156478675417",
    "latitude": "30.025633689079587",
    "geocoded_column": {
      "latitude": "30.025633689079587",
      "longitude": "-90.1156478675417"
    }
  },
  {
    "service_request": "2024-1090417",
    "request_type": "Trash/Recycling",
    "request_reason": "Request a Large Item Pick Up",
    "date_created": "2024-05-04T14:56:14.000",
    "date_modified": "2024-05-04T14:56:14.000",
    "request_status": "Pending",
    "responsible_agency": "Department of Sanitation",
    "final_address": "1011 Frenchmen St",
    "address_councildis": "C",
    "status": "Assigned to Contractor",
    "contractor": "IV Waste",
    "rowid": "1090417",
    "final_x": "3684644.04482",
    "final_y": "536035.603655",
    "longitude": "-90.05798387445755",
    "latitude": "29.96781620387111",
    "geocoded_column": {
      "latitude": "29.96781620387111",
      "longitude": "-90.05798387445755"
    }
  },
  {
    "service_request": "2024-1090416",
    "request_type": "Roads/Drainage",
    "request_reason": "Street Flooding / Drainage",
    "date_created": "2024-05-04T14:39:46.000",
    "date_modified": "2024-05-04T14:39:46.000",
    "request_status": "Pending",
    "responsible_agency": "Department of Public Works",
    "final_address": "1727 Short St",
    "address_councildis": "A",
    "status": "Pending",
    "rowid": "1090416",
    "final_x": "3663660.26752",
    "final_y": "529506.800257",
    "longitude": "-90.12446910120045",
    "latitude": "29.950489634724374",
    "geocoded_column": {
      "latitude": "29.950489634724374",
      "longitude": "-90.12446910120045"
    }
  },
  {
    "service_request": "2024-1090415",
    "request_type": "Roads/Drainage",
    "request_reason": "Street Flooding / Drainage",
    "date_created": "2024-05-04T14:32:37.000",
    "date_modified": "2024-05-04T14:32:37.000",
    "request_status": "Pending",
    "responsible_agency": "Department of Public Works",
    "final_address": "1727 Short St",
    "address_councildis": "A",
    "status": "Pending",
    "rowid": "1090415",
    "final_x": "3663660.26752",
    "final_y": "529506.800257",
    "longitude": "-90.12446910120045",
    "latitude": "29.950489634724374",
    "geocoded_column": {
      "latitude": "29.950489634724374",
      "longitude": "-90.12446910120045"
    }
  },
  {
    "service_request": "2024-1090414",
    "request_type": "Trash/Recycling",
    "request_reason": "Replace Recycling Cart",
    "date_created": "2024-05-04T14:28:53.000",
    "date_modified": "2024-05-04T14:28:53.000",
    "request_status": "Pending",
    "responsible_agency": "Department of Sanitation",
    "final_address": "5923 Patton St",
    "address_councildis": "A",
    "status": "Pending",
    "rowid": "1090414",
    "final_x": "3664893.21492",
    "final_y": "518489.657271",
    "longitude": "-90.12094414411037",
    "latitude": "29.92016017011528",
    "geocoded_column": {
      "latitude": "29.92016017011528",
      "longitude": "-90.12094414411037"
    }
  },
  {
    "service_request": "2024-1090413",
    "request_type": "Trash/Recycling",
    "request_reason": "Replace Trash Cart",
    "date_created": "2024-05-04T14:20:57.000",
    "date_modified": "2024-05-04T14:20:58.000",
    "request_status": "Pending",
    "responsible_agency": "Department of Sanitation",
    "final_address": "1414 Thalia St",
    "address_councildis": "B",
    "status": "Assigned to Contractor",
    "contractor": "IV Waste",
    "rowid": "1090413",
    "final_x": "3679948.76213",
    "final_y": "525393.123261",
    "longitude": "-90.07318133628526",
    "latitude": "29.93869583004208",
    "geocoded_column": {
      "latitude": "29.93869583004208",
      "longitude": "-90.07318133628526"
    }
  },
  {
    "service_request": "2024-1090412",
    "request_type": "Traffic Signals/Signs/Striping/Streetlights",
    "request_reason": "Street Light Outage/Malfunction",
    "date_created": "2024-05-04T13:55:15.000",
    "date_modified": "2024-05-04T13:55:15.000",
    "request_status": "Pending",
    "responsible_agency": "Department of Public Works",
    "final_address": "210 Baronne St",
    "address_councildis": "B",
    "status": "Assigned to Contractor",
    "contractor": "Legacy Professional Services",
    "rowid": "1090412",
    "final_x": "3680240.2836",
    "final_y": "530605.158914",
    "longitude": "-90.0720798481",
    "latitude": "29.953018366512932",
    "geocoded_column": {
      "latitude": "29.953018366512932",
      "longitude": "-90.0720798481"
    }
  },
  {
    "service_request": "2024-1090411",
    "request_type": "Abandoned Vehicles",
    "request_reason": "Abandoned/Junk Vehicles",
    "date_created": "2024-05-04T13:36:16.000",
    "date_modified": "2024-05-04T13:36:16.000",
    "request_status": "Pending",
    "responsible_agency": "Department of Public Works",
    "final_address": "4900 BLK Lafaye St",
    "address_councildis": "D",
    "status": "Pending",
    "rowid": "1090411",
    "final_x": "3687375.36964",
    "final_y": "551310.729515",
    "longitude": "-90.04881751713023",
    "latitude": "30.009733469010005",
    "geocoded_column": {
      "latitude": "30.009733469010005",
      "longitude": "-90.04881751713023"
    }
  },
  {
    "service_request": "2024-1090410",
    "request_type": "Roads/Drainage",
    "request_reason": "Pothole",
    "date_created": "2024-05-04T13:35:48.000",
    "date_modified": "2024-05-04T13:35:48.000",
    "request_status": "Pending",
    "responsible_agency": "Department of Public Works",
    "final_address": "223 Clinton St",
    "address_councildis": "C",
    "status": "Pending",
    "rowid": "1090410",
    "final_x": "3682213.63644",
    "final_y": "530569.308738",
    "longitude": "-90.06585012296284",
    "latitude": "29.95285991727074",
    "geocoded_column": {
      "latitude": "29.95285991727074",
      "longitude": "-90.06585012296284"
    }
  },
  {
    "service_request": "2024-1090409",
    "request_type": "Trash/Recycling",
    "request_reason": "Request a Large Item Pick Up",
    "date_created": "2024-05-04T13:09:49.000",
    "date_modified": "2024-05-04T13:09:49.000",
    "request_status": "Pending",
    "responsible_agency": "Department of Sanitation",
    "final_address": "7453 Horizon Dr",
    "address_councildis": "E",
    "status": "Assigned to Contractor",
    "contractor": "Waste Pro",
    "rowid": "1090409",
    "final_x": "3725645.81491",
    "final_y": "569505.267686",
    "longitude": "-89.92720389929964",
    "latitude": "30.05852580697668",
    "geocoded_column": {
      "latitude": "30.05852580697668",
      "longitude": "-89.92720389929964"
    }
  },
  {
    "service_request": "2024-1090408",
    "request_type": "Roads/Drainage",
    "request_reason": "Catch Basin - Broken/Damage",
    "date_created": "2024-05-04T13:08:50.000",
    "date_modified": "2024-05-04T13:08:50.000",
    "request_status": "Pending",
    "responsible_agency": "Department of Public Works",
    "final_address": "2440 Delery St",
    "address_councildis": "E",
    "status": "Pending",
    "rowid": "1090408",
    "final_x": "3702395.02359",
    "final_y": "537893.771081",
    "longitude": "-90.00185796962187",
    "latitude": "29.972370294013146",
    "geocoded_column": {
      "latitude": "29.972370294013146",
      "longitude": "-90.00185796962187"
    }
  },
  {
    "service_request": "2024-1090407",
    "request_type": "Roads/Drainage",
    "request_reason": "Catch Basin - Broken/Damage",
    "date_created": "2024-05-04T12:55:35.000",
    "date_modified": "2024-05-04T12:55:35.000",
    "request_status": "Pending",
    "responsible_agency": "Department of Public Works",
    "final_address": "1035 Calhoun St",
    "address_councildis": "A",
    "status": "Pending",
    "rowid": "1090407",
    "final_x": "3663904.95104",
    "final_y": "520557.308408",
    "longitude": "-90.1239947524101",
    "latitude": "29.925874279533662",
    "geocoded_column": {
      "latitude": "29.925874279533662",
      "longitude": "-90.1239947524101"
    }
  },
  {
    "service_request": "2024-1090406",
    "request_type": "Trash/Recycling",
    "request_reason": "Request a Large Item Pick Up",
    "date_created": "2024-05-04T12:36:29.000",
    "date_modified": "2024-05-04T12:36:30.000",
    "request_status": "Pending",
    "responsible_agency": "Department of Sanitation",
    "final_address": "6201 Waldo Dr",
    "address_councildis": "D",
    "status": "Assigned to Contractor",
    "contractor": "IV Waste",
    "rowid": "1090406",
    "final_x": "3681158.46767",
    "final_y": "555629.635417",
    "longitude": "-90.06830827550976",
    "latitude": "30.021799056046582",
    "geocoded_column": {
      "latitude": "30.021799056046582",
      "longitude": "-90.06830827550976"
    }
  },
  {
    "service_request": "2024-1090405",
    "request_type": "Trash/Recycling",
    "request_reason": "Request a Large Item Pick Up",
    "date_created": "2024-05-04T12:31:38.000",
    "date_modified": "2024-05-04T12:31:38.000",
    "request_status": "Pending",
    "responsible_agency": "Department of Sanitation",
    "final_address": "13026 Laval St",
    "address_councildis": "E",
    "status": "Assigned to Contractor",
    "contractor": "Waste Pro",
    "rowid": "1090405",
    "final_x": "3723818.83411",
    "final_y": "562361.092319",
    "longitude": "-89.93325465065008",
    "latitude": "30.038943815142815",
    "geocoded_column": {
      "latitude": "30.038943815142815",
      "longitude": "-89.93325465065008"
    }
  },
  {
    "service_request": "2024-1090404",
    "request_type": "Trash/Recycling",
    "request_reason": "MIssed Recycling Pick-Up",
    "date_created": "2024-05-04T12:23:02.000",
    "date_modified": "2024-05-04T13:45:30.000",
    "case_close_date": "2024-05-04T08:45:30.000",
    "request_status": "Closed",
    "responsible_agency": "Department of Sanitation",
    "final_address": "1305 S Gayoso St",
    "address_councildis": "B",
    "status": "Assigned to Contractor",
    "contractor": "IV Waste",
    "contractor_action": "Invalid Request",
    "rowid": "1090404",
    "final_x": "3671038.94177",
    "final_y": "531258.59661",
    "longitude": "-90.10111153411962",
    "latitude": "29.95509038667018",
    "geocoded_column": {
      "latitude": "29.95509038667018",
      "longitude": "-90.10111153411962"
    }
  },
  {
    "service_request": "2024-1090403",
    "request_type": "Trash/Recycling",
    "request_reason": "Request a Large Item Pick Up",
    "date_created": "2024-05-04T12:06:27.000",
    "date_modified": "2024-05-04T12:06:27.000",
    "request_status": "Pending",
    "responsible_agency": "Department of Sanitation",
    "final_address": "1906 Short St",
    "address_councildis": "A",
    "status": "Assigned to Contractor",
    "contractor": "IV Waste",
    "rowid": "1090403",
    "final_x": "3663990.71431",
    "final_y": "529979.891137",
    "longitude": "-90.12340994366251",
    "latitude": "29.951780891704864",
    "geocoded_column": {
      "latitude": "29.951780891704864",
      "longitude": "-90.12340994366251"
    }
  },
  {
    "service_request": "2024-1090402",
    "request_type": "Parks & Parkways",
    "request_reason": "Request Grass Cutting Service (City Owned Property)",
    "date_created": "2024-05-04T11:39:16.000",
    "date_modified": "2024-05-04T11:39:16.000",
    "request_status": "Pending",
    "responsible_agency": "Department of Parks & Parkway",
    "final_address": "5211 Kim Dr",
    "address_councildis": "E",
    "status": "Pending",
    "rowid": "1090402",
    "final_x": "3727720.14515",
    "final_y": "564274.958241",
    "longitude": "-89.92085104000682",
    "latitude": "30.0440745007233",
    "geocoded_column": {
      "latitude": "30.0440745007233",
      "longitude": "-89.92085104000682"
    }
  },
  {
    "service_request": "2024-1090401",
    "request_type": "Abandoned Vehicles",
    "request_reason": "Abandoned/Junk Vehicles",
    "date_created": "2024-05-04T11:27:42.000",
    "date_modified": "2024-05-04T11:27:42.000",
    "request_status": "Pending",
    "responsible_agency": "Department of Public Works",
    "final_address": "1712 Congress St",
    "address_councildis": "D",
    "status": "Pending",
    "rowid": "1090401",
    "final_x": "3691265.53436",
    "final_y": "537954.483017",
    "longitude": "-90.03700453336553",
    "latitude": "29.972888136773012",
    "geocoded_column": {
      "latitude": "29.972888136773012",
      "longitude": "-90.03700453336553"
    }
  },
  {
    "service_request": "2024-1090400",
    "request_type": "Trash/Recycling",
    "request_reason": "Request a Large Item Pick Up",
    "date_created": "2024-05-04T11:18:43.000",
    "date_modified": "2024-05-04T11:18:44.000",
    "request_status": "Pending",
    "responsible_agency": "Department of Sanitation",
    "final_address": "704 Austerlitz St",
    "address_councildis": "B",
    "status": "Assigned to Contractor",
    "contractor": "IV Waste",
    "rowid": "1090400",
    "final_x": "3672894.74081",
    "final_y": "518290.873334",
    "longitude": "-90.09569387896802",
    "latitude": "29.919378358347135",
    "geocoded_column": {
      "latitude": "29.919378358347135",
      "longitude": "-90.09569387896802"
    }
  },
  {
    "service_request": "2024-1090399",
    "request_type": "Health Related Request",
    "request_reason": "Noise Ordinance Complaint",
    "date_created": "2024-05-04T10:31:33.000",
    "date_modified": "2024-05-04T10:31:33.000",
    "request_status": "Pending",
    "responsible_agency": "Health Department",
    "final_address": "1029 Henriette Delille St",
    "address_councildis": "C",
    "status": "Pending",
    "rowid": "1090399",
    "final_x": "3681847.74306",
    "final_y": "534699.92839",
    "longitude": "-90.06686129340083",
    "latitude": "29.96422883844941",
    "geocoded_column": {
      "latitude": "29.96422883844941",
      "longitude": "-90.06686129340083"
    }
  },
  {
    "service_request": "2024-1090398",
    "request_type": "Health Related Request",
    "request_reason": "Noise Ordinance Complaint",
    "date_created": "2024-05-04T10:31:31.000",
    "date_modified": "2024-05-04T10:31:31.000",
    "request_status": "Pending",
    "responsible_agency": "Health Department",
    "final_address": "1027 Henriette Delille St",
    "address_councildis": "C",
    "status": "Pending",
    "rowid": "1090398",
    "final_x": "3681842.77628",
    "final_y": "534694.710278",
    "longitude": "-90.0668771601929",
    "latitude": "29.96421464137617",
    "geocoded_column": {
      "latitude": "29.96421464137617",
      "longitude": "-90.0668771601929"
    }
  },
  {
    "service_request": "2024-1090397",
    "request_type": "Trash/Recycling",
    "request_reason": "Request a Large Item Pick Up",
    "date_created": "2024-05-04T10:27:12.000",
    "date_modified": "2024-05-04T10:27:12.000",
    "request_status": "Pending",
    "responsible_agency": "Department of Sanitation",
    "final_address": "228 S Scott St",
    "address_councildis": "A",
    "status": "Assigned to Contractor",
    "contractor": "IV Waste",
    "rowid": "1090397",
    "final_x": "3671403.54267",
    "final_y": "537257.894728",
    "longitude": "-90.09975631715963",
    "latitude": "29.971575667962984",
    "geocoded_column": {
      "latitude": "29.971575667962984",
      "longitude": "-90.09975631715963"
    }
  },
  {
    "service_request": "2024-1090396",
    "request_type": "Abandoned Vehicles",
    "request_reason": "Abandoned/Junk Vehicles",
    "date_created": "2024-05-04T10:25:39.000",
    "date_modified": "2024-05-04T10:25:39.000",
    "request_status": "Pending",
    "responsible_agency": "Department of Public Works",
    "final_address": "1020 N Carrollton Ave",
    "address_councildis": "A",
    "status": "Pending",
    "rowid": "1090396",
    "final_x": "3673817.22766",
    "final_y": "541137.605452",
    "longitude": "-90.0920007903434",
    "latitude": "29.982171878507195",
    "geocoded_column": {
      "latitude": "29.982171878507195",
      "longitude": "-90.0920007903434"
    }
  },
  {
    "service_request": "2024-1090395",
    "request_type": "Abandoned Vehicles",
    "request_reason": "Abandoned/Junk Vehicles",
    "date_created": "2024-05-04T10:24:27.000",
    "date_modified": "2024-05-04T10:24:27.000",
    "request_status": "Pending",
    "responsible_agency": "Department of Public Works",
    "final_address": "1020 N Carrollton Ave",
    "address_councildis": "A",
    "status": "Pending",
    "rowid": "1090395",
    "final_x": "3673817.22766",
    "final_y": "541137.605452",
    "longitude": "-90.0920007903434",
    "latitude": "29.982171878507195",
    "geocoded_column": {
      "latitude": "29.982171878507195",
      "longitude": "-90.0920007903434"
    }
  },
  {
    "service_request": "2024-1090394",
    "request_type": "Health Related Request",
    "request_reason": "Noise Ordinance Complaint",
    "date_created": "2024-05-04T10:22:32.000",
    "date_modified": "2024-05-04T10:22:32.000",
    "request_status": "Pending",
    "responsible_agency": "Health Department",
    "final_address": "1027 Henriette Delille St, New Orleans, Louisiana, 70116",
    "address_councildis": "C",
    "status": "Pending",
    "rowid": "1090394",
    "final_x": "3681842.77628",
    "final_y": "534694.710278",
    "longitude": "-90.0668771601929",
    "latitude": "29.96421464137617",
    "geocoded_column": {
      "latitude": "29.96421464137617",
      "longitude": "-90.0668771601929"
    }
  },
  {
    "service_request": "2024-1090393",
    "request_type": "Health Related Request",
    "request_reason": "Noise Ordinance Complaint",
    "date_created": "2024-05-04T10:22:07.000",
    "date_modified": "2024-05-04T10:22:07.000",
    "request_status": "Pending",
    "responsible_agency": "Health Department",
    "final_address": "1027 Henriette Delille St, New Orleans, Louisiana, 70116",
    "address_councildis": "C",
    "status": "Pending",
    "rowid": "1090393",
    "final_x": "3681842.77628",
    "final_y": "534694.710278",
    "longitude": "-90.0668771601929",
    "latitude": "29.96421464137617",
    "geocoded_column": {
      "latitude": "29.96421464137617",
      "longitude": "-90.0668771601929"
    }
  },
  {
    "service_request": "2024-1090392",
    "request_type": "Abandoned Vehicles",
    "request_reason": "Abandoned/Junk Vehicles",
    "date_created": "2024-05-04T10:10:31.000",
    "date_modified": "2024-05-04T10:10:31.000",
    "request_status": "Pending",
    "responsible_agency": "Department of Public Works",
    "final_address": "CLEMATIS AVE & GLADIOLUS ST",
    "address_councildis": "D",
    "status": "Pending",
    "rowid": "1090392",
    "final_x": "3685619.1",
    "final_y": "547385.58",
    "longitude": "-90.05450459125723",
    "latitude": "29.998994748494496",
    "geocoded_column": {
      "latitude": "29.998994748494496",
      "longitude": "-90.05450459125723"
    }
  },
  {
    "service_request": "2024-1090391",
    "request_type": "Trash/Recycling",
    "request_reason": "Order Recycling Cart",
    "date_created": "2024-05-04T10:09:45.000",
    "date_modified": "2024-05-04T10:09:45.000",
    "request_status": "Pending",
    "responsible_agency": "Department of Sanitation",
    "final_address": "1820 Dumaine St",
    "address_councildis": "D",
    "status": "Pending",
    "rowid": "1090391",
    "final_x": "3679732.35567",
    "final_y": "535491.856326",
    "longitude": "-90.073514012486",
    "latitude": "29.96647048985124",
    "geocoded_column": {
      "latitude": "29.96647048985124",
      "longitude": "-90.073514012486"
    }
  },
  {
    "service_request": "2024-1090390",
    "request_type": "Abandoned Vehicles",
    "request_reason": "Abandoned/Junk Vehicles",
    "date_created": "2024-05-04T10:08:32.000",
    "date_modified": "2024-05-04T10:08:32.000",
    "request_status": "Pending",
    "responsible_agency": "Department of Public Works",
    "final_address": "CLEMATIS AVE & GLADIOLUS ST",
    "address_councildis": "D",
    "status": "Pending",
    "rowid": "1090390",
    "final_x": "3685619.1",
    "final_y": "547385.58",
    "longitude": "-90.05450459125723",
    "latitude": "29.998994748494496",
    "geocoded_column": {
      "latitude": "29.998994748494496",
      "longitude": "-90.05450459125723"
    }
  },
  {
    "service_request": "2024-1090389",
    "request_type": "Trash/Recycling",
    "request_reason": "Order Recycling Cart",
    "date_created": "2024-05-04T10:08:13.000",
    "date_modified": "2024-05-04T10:08:13.000",
    "request_status": "Pending",
    "responsible_agency": "Department of Sanitation",
    "final_address": "1820 Dumaine St",
    "address_councildis": "D",
    "status": "Pending",
    "rowid": "1090389",
    "final_x": "3679732.35567",
    "final_y": "535491.856326",
    "longitude": "-90.073514012486",
    "latitude": "29.96647048985124",
    "geocoded_column": {
      "latitude": "29.96647048985124",
      "longitude": "-90.073514012486"
    }
  },
  {
    "service_request": "2024-1090388",
    "request_type": "Trash/Recycling",
    "request_reason": "Order Trash Cart",
    "date_created": "2024-05-04T10:07:10.000",
    "date_modified": "2024-05-04T10:07:11.000",
    "request_status": "Pending",
    "responsible_agency": "Department of Sanitation",
    "final_address": "1820 Dumaine St",
    "address_councildis": "D",
    "status": "Assigned to Contractor",
    "contractor": "IV Waste",
    "rowid": "1090388",
    "final_x": "3679732.35567",
    "final_y": "535491.856326",
    "longitude": "-90.073514012486",
    "latitude": "29.96647048985124",
    "geocoded_column": {
      "latitude": "29.96647048985124",
      "longitude": "-90.073514012486"
    }
  },
  {
    "service_request": "2024-1090387",
    "request_type": "Abandoned Vehicles",
    "request_reason": "Vehicle Blocking Your Driveway",
    "date_created": "2024-05-04T10:02:56.000",
    "date_modified": "2024-05-04T10:02:56.000",
    "request_status": "Pending",
    "responsible_agency": "Department of Public Works",
    "final_address": "6034 St Anthony Ave",
    "address_councildis": "D",
    "status": "Pending",
    "rowid": "1090387",
    "final_x": "3681932.38453",
    "final_y": "555070.922969",
    "longitude": "-90.06588242957021",
    "latitude": "30.020239285478695",
    "geocoded_column": {
      "latitude": "30.020239285478695",
      "longitude": "-90.06588242957021"
    }
  },
  {
    "service_request": "2024-1090386",
    "request_type": "Trash/Recycling",
    "request_reason": "Request a Large Item Pick Up",
    "date_created": "2024-05-04T09:59:43.000",
    "date_modified": "2024-05-04T09:59:44.000",
    "request_status": "Pending",
    "responsible_agency": "Department of Sanitation",
    "final_address": "3231 State Street Dr",
    "address_councildis": "A",
    "status": "Assigned to Contractor",
    "contractor": "IV Waste",
    "rowid": "1090386",
    "final_x": "3667663.38701",
    "final_y": "528198.6496",
    "longitude": "-90.11187331239908",
    "latitude": "29.946775911808924",
    "geocoded_column": {
      "latitude": "29.946775911808924",
      "longitude": "-90.11187331239908"
    }
  },
  {
    "service_request": "2024-1090385",
    "request_type": "Trash/Recycling",
    "request_reason": "Replace Trash Cart",
    "date_created": "2024-05-04T09:13:02.000",
    "date_modified": "2024-05-04T09:13:03.000",
    "request_status": "Pending",
    "responsible_agency": "Department of Sanitation",
    "final_address": "4316 Prytania St",
    "address_councildis": "B",
    "status": "Assigned to Contractor",
    "contractor": "IV Waste",
    "rowid": "1090385",
    "final_x": "3671152.56679",
    "final_y": "520266.268408",
    "longitude": "-90.10112600699054",
    "latitude": "29.924861693239798",
    "geocoded_column": {
      "latitude": "29.924861693239798",
      "longitude": "-90.10112600699054"
    }
  },
  {
    "service_request": "2024-1090384",
    "request_type": "Trash/Recycling",
    "request_reason": "Missed Trash Pick-Up",
    "date_created": "2024-05-04T09:12:07.000",
    "date_modified": "2024-05-04T13:29:12.000",
    "case_close_date": "2024-05-04T08:29:12.000",
    "request_status": "Closed",
    "responsible_agency": "Department of Sanitation",
    "final_address": "2021 Joseph St",
    "address_councildis": "A",
    "status": "Assigned to Contractor",
    "contractor": "IV Waste",
    "contractor_action": "Completed",
    "rowid": "1090384",
    "final_x": "3667238.00685",
    "final_y": "523606.287547",
    "longitude": "-90.11337077458992",
    "latitude": "29.934160855162613",
    "geocoded_column": {
      "latitude": "29.934160855162613",
      "longitude": "-90.11337077458992"
    }
  },
  {
    "service_request": "2024-1090382",
    "request_type": "Abandoned Vehicles",
    "request_reason": "Abandoned/Junk Vehicles",
    "date_created": "2024-05-04T08:55:47.000",
    "date_modified": "2024-05-04T08:55:47.000",
    "request_status": "Pending",
    "responsible_agency": "Department of Public Works",
    "final_address": "New Orleans, Louisiana",
    "status": "Pending",
    "rowid": "1090382",
    "longitude": "0.0",
    "latitude": "0.0",
    "geocoded_column": {
      "latitude": "0.0",
      "longitude": "0.0"
    }
  },
  {
    "service_request": "2024-1090381",
    "request_type": "Property Maintenance",
    "request_reason": "Property Maintenance",
    "date_created": "2024-05-04T08:53:25.000",
    "date_modified": "2024-05-04T08:53:25.000",
    "request_status": "Pending",
    "responsible_agency": "Department of Code Enforcement",
    "final_address": "4617 Clara St",
    "address_councildis": "B",
    "status": "Pending",
    "rowid": "1090381",
    "final_x": "3669518.97754",
    "final_y": "525030.865597",
    "longitude": "-90.1061216419301",
    "latitude": "29.938011012692517",
    "geocoded_column": {
      "latitude": "29.938011012692517",
      "longitude": "-90.1061216419301"
    }
  },
  {
    "service_request": "2024-1090380",
    "request_type": "Roads/Drainage",
    "request_reason": "Pothole",
    "date_created": "2024-05-04T08:50:13.000",
    "date_modified": "2024-05-04T08:50:13.000",
    "request_status": "Pending",
    "responsible_agency": "Department of Public Works",
    "final_address": " & PRESS DR",
    "address_councildis": "D",
    "status": "Pending",
    "rowid": "1090380",
    "final_x": "3687169.31",
    "final_y": "559124.89",
    "longitude": "-90.04919185681615",
    "latitude": "30.031225864695518",
    "geocoded_column": {
      "latitude": "30.031225864695518",
      "longitude": "-90.04919185681615"
    }
  },
  {
    "service_request": "2024-1090379",
    "request_type": "Roads/Drainage",
    "request_reason": "Pothole",
    "date_created": "2024-05-04T08:47:32.000",
    "date_modified": "2024-05-04T08:47:32.000",
    "request_status": "Pending",
    "responsible_agency": "Department of Public Works",
    "final_address": " & PRESS DR",
    "address_councildis": "D",
    "status": "Pending",
    "rowid": "1090379",
    "final_x": "3687169.31",
    "final_y": "559124.89",
    "longitude": "-90.04919185681615",
    "latitude": "30.031225864695518",
    "geocoded_column": {
      "latitude": "30.031225864695518",
      "longitude": "-90.04919185681615"
    }
  },
  {
    "service_request": "2024-1090378",
    "request_type": "Roads/Drainage",
    "request_reason": "Pothole",
    "date_created": "2024-05-04T08:46:19.000",
    "date_modified": "2024-05-04T08:46:19.000",
    "request_status": "Pending",
    "responsible_agency": "Department of Public Works",
    "final_address": " & PRESS DR",
    "address_councildis": "D",
    "status": "Pending",
    "rowid": "1090378",
    "final_x": "3687169.31",
    "final_y": "559124.89",
    "longitude": "-90.04919185681615",
    "latitude": "30.031225864695518",
    "geocoded_column": {
      "latitude": "30.031225864695518",
      "longitude": "-90.04919185681615"
    }
  },
  {
    "service_request": "2024-1090377",
    "request_type": "Trash/Recycling",
    "request_reason": "MIssed Recycling Pick-Up",
    "date_created": "2024-05-04T08:39:50.000",
    "date_modified": "2024-05-04T11:44:37.000",
    "case_close_date": "2024-05-04T06:44:38.000",
    "request_status": "Closed",
    "responsible_agency": "Department of Sanitation",
    "final_address": "1216 Congress St",
    "address_councildis": "C",
    "status": "Assigned to Contractor",
    "contractor": "IV Waste",
    "contractor_action": "Invalid Request",
    "rowid": "1090377",
    "final_x": "3690804.41398",
    "final_y": "536071.464007",
    "longitude": "-90.03852803465213",
    "latitude": "29.967724835065372",
    "geocoded_column": {
      "latitude": "29.967724835065372",
      "longitude": "-90.03852803465213"
    }
  },
  {
    "service_request": "2024-1090376",
    "request_type": "Trash/Recycling",
    "request_reason": "Return Recycling Cart",
    "date_created": "2024-05-04T08:32:50.000",
    "date_modified": "2024-05-04T08:32:50.000",
    "request_status": "Pending",
    "responsible_agency": "Department of Sanitation",
    "final_address": "2507 St Ann St",
    "address_councildis": "D",
    "status": "Pending",
    "rowid": "1090376",
    "final_x": "3677691.68789",
    "final_y": "536687.115783",
    "longitude": "-90.07991712823382",
    "latitude": "29.969818581083384",
    "geocoded_column": {
      "latitude": "29.969818581083384",
      "longitude": "-90.07991712823382"
    }
  },
  {
    "service_request": "2024-1090375",
    "request_type": "Roads/Drainage",
    "request_reason": "Catch Basin - Broken/Damage",
    "date_created": "2024-05-04T08:29:16.000",
    "date_modified": "2024-05-04T08:29:16.000",
    "request_status": "Pending",
    "responsible_agency": "Department of Public Works",
    "final_address": "800 BLK Olga St",
    "address_councildis": "A",
    "status": "Pending",
    "rowid": "1090375",
    "final_x": "3673332.28749",
    "final_y": "540071.039724",
    "longitude": "-90.09356891757686",
    "latitude": "29.979253624293346",
    "geocoded_column": {
      "latitude": "29.979253624293346",
      "longitude": "-90.09356891757686"
    }
  },
  {
    "service_request": "2024-1090374",
    "request_type": "Abandoned Vehicles",
    "request_reason": "Abandoned/Junk Vehicles",
    "date_created": "2024-05-04T08:24:23.000",
    "date_modified": "2024-05-04T08:24:23.000",
    "request_status": "Pending",
    "responsible_agency": "Department of Public Works",
    "final_address": "2126 Dublin St",
    "address_councildis": "A",
    "status": "Pending",
    "rowid": "1090374",
    "final_x": "3663953.11431",
    "final_y": "531142.558594",
    "longitude": "-90.12348990491178",
    "latitude": "29.954978942252232",
    "geocoded_column": {
      "latitude": "29.954978942252232",
      "longitude": "-90.12348990491178"
    }
  },
  {
    "service_request": "2024-1090373",
    "request_type": "Trash/Recycling",
    "request_reason": "Order Recycling Cart",
    "date_created": "2024-05-04T08:22:08.000",
    "date_modified": "2024-05-04T08:22:08.000",
    "request_status": "Pending",
    "responsible_agency": "Department of Sanitation",
    "final_address": "1240 Kentucky St",
    "address_councildis": "D",
    "status": "Pending",
    "rowid": "1090373",
    "final_x": "3693457.02115",
    "final_y": "535636.23079",
    "longitude": "-90.03016669857539",
    "latitude": "29.96644541128934",
    "geocoded_column": {
      "latitude": "29.96644541128934",
      "longitude": "-90.03016669857539"
    }
  },
  {
    "service_request": "2024-1090372",
    "request_type": "Traffic Signals/Signs/Striping/Streetlights",
    "request_reason": "Street Light Outage/Malfunction",
    "date_created": "2024-05-04T08:01:05.000",
    "date_modified": "2024-05-04T08:03:01.000",
    "request_status": "Pending",
    "responsible_agency": "Department of Public Works",
    "final_address": "VANCHU DR & MY VIET DR",
    "address_councildis": "E",
    "status": "Assigned to Contractor",
    "contractor": "Legacy Professional Services",
    "rowid": "1090372",
    "final_x": "3727708.5",
    "final_y": "563196.88",
    "longitude": "-89.92092984151571",
    "latitude": "30.041110629412486",
    "geocoded_column": {
      "latitude": "30.041110629412486",
      "longitude": "-89.92092984151571"
    }
  },
  {
    "service_request": "2024-1090371",
    "request_type": "Trash/Recycling",
    "request_reason": "Request a Large Item Pick Up",
    "date_created": "2024-05-04T07:37:12.000",
    "date_modified": "2024-05-04T07:40:46.000",
    "request_status": "Pending",
    "responsible_agency": "Department of Sanitation",
    "final_address": "2022 Joliet St",
    "address_councildis": "A",
    "status": "Assigned to Contractor",
    "contractor": "IV Waste",
    "rowid": "1090371",
    "final_x": "3662889.21184",
    "final_y": "531570.445699",
    "longitude": "-90.12683509832124",
    "latitude": "29.956186338111042",
    "geocoded_column": {
      "latitude": "29.956186338111042",
      "longitude": "-90.12683509832124"
    }
  },
  {
    "service_request": "2024-1090370",
    "request_type": "Trash/Recycling",
    "request_reason": "Request a Large Item Pick Up",
    "date_created": "2024-05-04T07:25:24.000",
    "date_modified": "2024-05-04T07:25:59.000",
    "request_status": "Pending",
    "responsible_agency": "Department of Sanitation",
    "final_address": "2529 Acacia St",
    "address_councildis": "D",
    "status": "Assigned to Contractor",
    "contractor": "IV Waste",
    "rowid": "1090370",
    "final_x": "3686638.64393",
    "final_y": "546358.421264",
    "longitude": "-90.05132014634921",
    "latitude": "29.996139105151634",
    "geocoded_column": {
      "latitude": "29.996139105151634",
      "longitude": "-90.05132014634921"
    }
  },
  {
    "service_request": "2024-1090369",
    "request_type": "Trash/Recycling",
    "request_reason": "Request a Large Item Pick Up",
    "date_created": "2024-05-04T07:13:19.000",
    "date_modified": "2024-05-04T07:14:01.000",
    "request_status": "Pending",
    "responsible_agency": "Department of Sanitation",
    "final_address": "2407 Iberville St",
    "address_councildis": "B",
    "status": "Assigned to Contractor",
    "contractor": "IV Waste",
    "rowid": "1090369",
    "final_x": "3676633.30056",
    "final_y": "534709.763526",
    "longitude": "-90.08332774012753",
    "latitude": "29.9644133255772",
    "geocoded_column": {
      "latitude": "29.9644133255772",
      "longitude": "-90.08332774012753"
    }
  },
  {
    "service_request": "2024-1090368",
    "request_type": "Health Related Request",
    "request_reason": "Noise Ordinance Complaint",
    "date_created": "2024-05-04T03:01:40.000",
    "date_modified": "2024-05-04T03:01:40.000",
    "request_status": "Pending",
    "responsible_agency": "Health Department",
    "final_address": "530 Bourbon St",
    "address_councildis": "C",
    "status": "Pending",
    "rowid": "1090368",
    "final_x": "3681986.9444",
    "final_y": "532265.683267",
    "longitude": "-90.0665066956375",
    "latitude": "29.95753126456209",
    "geocoded_column": {
      "latitude": "29.95753126456209",
      "longitude": "-90.0665066956375"
    }
  },
  {
    "service_request": "2024-1090367",
    "request_type": "Traffic Signals/Signs/Striping/Streetlights",
    "request_reason": "Street Light Outage/Malfunction",
    "date_created": "2024-05-04T01:43:53.000",
    "date_modified": "2024-05-04T01:43:53.000",
    "request_status": "Pending",
    "responsible_agency": "Department of Public Works",
    "final_address": "3610 Post Oak Ave",
    "address_councildis": "C",
    "status": "Assigned to Contractor",
    "contractor": "Legacy Professional Services",
    "rowid": "1090367",
    "final_x": "3703722.91543",
    "final_y": "514650.837939",
    "longitude": "-89.99851939889142",
    "latitude": "29.908417929574824",
    "geocoded_column": {
      "latitude": "29.908417929574824",
      "longitude": "-89.99851939889142"
    }
  },
  {
    "service_request": "2024-1090366",
    "request_type": "Roads/Drainage",
    "request_reason": "Pothole",
    "date_created": "2024-05-04T00:01:08.000",
    "date_modified": "2024-05-04T00:01:08.000",
    "request_status": "Pending",
    "responsible_agency": "Department of Public Works",
    "final_address": "5956 Magazine St",
    "address_councildis": "A",
    "status": "Pending",
    "rowid": "1090366",
    "final_x": "3664789.061",
    "final_y": "519151.066103",
    "longitude": "-90.12125082518692",
    "latitude": "29.921981867396603",
    "geocoded_column": {
      "latitude": "29.921981867396603",
      "longitude": "-90.12125082518692"
    }
  },
  {
    "service_request": "2024-1090365",
    "request_type": "Abandoned Vehicles",
    "request_reason": "Abandoned/Junk Vehicles",
    "date_created": "2024-05-03T23:23:40.000",
    "date_modified": "2024-05-03T23:23:40.000",
    "request_status": "Pending",
    "responsible_agency": "Department of Public Works",
    "final_address": "3405 Coliseum St",
    "address_councildis": "B",
    "status": "Pending",
    "rowid": "1090365",
    "final_x": "3674488.45704",
    "final_y": "520571.029496",
    "longitude": "-90.09058525042185",
    "latitude": "29.925600626643256",
    "geocoded_column": {
      "latitude": "29.925600626643256",
      "longitude": "-90.09058525042185"
    }
  },
  {
    "service_request": "2024-1090364",
    "request_type": "Trash/Recycling",
    "request_reason": "Replace Recycling Cart",
    "date_created": "2024-05-03T22:45:34.000",
    "date_modified": "2024-05-03T22:45:34.000",
    "request_status": "Pending",
    "responsible_agency": "Department of Sanitation",
    "final_address": "2200 BLK Lake Oaks Pkwy",
    "address_councildis": "D",
    "status": "Pending",
    "rowid": "1090364",
    "final_x": "3684427.13537",
    "final_y": "558424.7166",
    "longitude": "-90.05788184733372",
    "latitude": "30.02938486387656",
    "geocoded_column": {
      "latitude": "30.02938486387656",
      "longitude": "-90.05788184733372"
    }
  },
  {
    "service_request": "2024-1090363",
    "request_type": "Trash/Recycling",
    "request_reason": "Missed Trash Pick-Up",
    "date_created": "2024-05-03T21:59:16.000",
    "date_modified": "2024-05-04T09:27:00.000",
    "case_close_date": "2024-05-04T04:29:11.000",
    "request_status": "Closed",
    "responsible_agency": "Department of Sanitation",
    "final_address": "935 Washington Ave",
    "address_councildis": "B",
    "status": "Assigned to Contractor",
    "contractor": "IV Waste",
    "contractor_action": "Completed",
    "rowid": "1090363",
    "final_x": "3677325.57198",
    "final_y": "520486.486584",
    "longitude": "-90.0816322561667",
    "latitude": "29.925283247071093",
    "geocoded_column": {
      "latitude": "29.925283247071093",
      "longitude": "-90.0816322561667"
    }
  },
  {
    "service_request": "2024-1090362",
    "request_type": "Trash/Recycling",
    "request_reason": "Request a Large Item Pick Up",
    "date_created": "2024-05-03T21:55:31.000",
    "date_modified": "2024-05-03T21:55:31.000",
    "request_status": "Pending",
    "responsible_agency": "Department of Sanitation",
    "final_address": "237 22Nd St",
    "address_councildis": "A",
    "status": "Assigned to Contractor",
    "contractor": "IV Waste",
    "rowid": "1090362",
    "final_x": "3665400.99764",
    "final_y": "549360.288467",
    "longitude": "-90.11830803482745",
    "latitude": "30.005029470383942",
    "geocoded_column": {
      "latitude": "30.005029470383942",
      "longitude": "-90.11830803482745"
    }
  },
  {
    "service_request": "2024-1090361",
    "request_type": "Abandoned Vehicles",
    "request_reason": "Abandoned/Junk Vehicles",
    "date_created": "2024-05-03T21:55:30.000",
    "date_modified": "2024-05-03T21:55:30.000",
    "request_status": "Pending",
    "responsible_agency": "Department of Public Works",
    "final_address": "225 Bermuda St",
    "address_councildis": "C",
    "status": "Pending",
    "rowid": "1090361",
    "final_x": "3686150.38658",
    "final_y": "530889.80109",
    "longitude": "-90.05340833437134",
    "latitude": "29.95362083553353",
    "geocoded_column": {
      "latitude": "29.95362083553353",
      "longitude": "-90.05340833437134"
    }
  },
  {
    "service_request": "2024-1090360",
    "request_type": "Abandoned Vehicles",
    "request_reason": "Abandoned/Junk Vehicles",
    "date_created": "2024-05-03T20:58:32.000",
    "date_modified": "2024-05-03T20:58:32.000",
    "request_status": "Pending",
    "responsible_agency": "Department of Public Works",
    "final_address": "CONTI ST & N ROCHEBLAVE ST",
    "address_councildis": "B",
    "status": "Pending",
    "rowid": "1090360",
    "final_x": "3676844.6",
    "final_y": "535436.28",
    "longitude": "-90.08263543012484",
    "latitude": "29.966404659677153",
    "geocoded_column": {
      "latitude": "29.966404659677153",
      "longitude": "-90.08263543012484"
    }
  },
  {
    "service_request": "2024-1090359",
    "request_type": "Traffic Signals/Signs/Striping/Streetlights",
    "request_reason": "Street Light Outage/Malfunction",
    "date_created": "2024-05-03T20:15:24.000",
    "date_modified": "2024-05-03T20:15:25.000",
    "request_status": "Pending",
    "responsible_agency": "Department of Public Works",
    "final_address": "CLEMATIS AVE & GLADIOLUS ST",
    "address_councildis": "D",
    "status": "Assigned to Contractor",
    "contractor": "Legacy Professional Services",
    "rowid": "1090359",
    "final_x": "3685619.1",
    "final_y": "547385.58",
    "longitude": "-90.05450459125723",
    "latitude": "29.998994748494496",
    "geocoded_column": {
      "latitude": "29.998994748494496",
      "longitude": "-90.05450459125723"
    }
  },
  {
    "service_request": "2024-1090358",
    "request_type": "Trash/Recycling",
    "request_reason": "Missed Trash Pick-Up",
    "date_created": "2024-05-03T20:02:47.000",
    "date_modified": "2024-05-04T10:29:27.000",
    "case_close_date": "2024-05-04T05:29:28.000",
    "request_status": "Closed",
    "responsible_agency": "Department of Sanitation",
    "final_address": "2474 Royal St",
    "address_councildis": "C",
    "status": "Assigned to Contractor",
    "contractor": "IV Waste",
    "contractor_action": "Invalid Request",
    "rowid": "1090358",
    "final_x": "3686514.46684",
    "final_y": "534946.351878",
    "longitude": "-90.05211550215586",
    "latitude": "29.964763764325657",
    "geocoded_column": {
      "latitude": "29.964763764325657",
      "longitude": "-90.05211550215586"
    }
  },
  {
    "service_request": "2024-1090357",
    "request_type": "Trash/Recycling",
    "request_reason": "Replace Trash Cart",
    "date_created": "2024-05-03T19:36:59.000",
    "date_modified": "2024-05-03T19:37:00.000",
    "request_status": "Pending",
    "responsible_agency": "Department of Sanitation",
    "final_address": "4353 Joycelyn Dr",
    "address_councildis": "C",
    "status": "Assigned to Contractor",
    "contractor": "Richards Disposal",
    "rowid": "1090357",
    "final_x": "3707994.04004",
    "final_y": "514553.936435",
    "longitude": "-89.9850428048359",
    "latitude": "29.908013982427136",
    "geocoded_column": {
      "latitude": "29.908013982427136",
      "longitude": "-89.9850428048359"
    }
  },
  {
    "service_request": "2024-1090356",
    "request_type": "Trash/Recycling",
    "request_reason": "Replace Trash Cart",
    "date_created": "2024-05-03T19:32:54.000",
    "date_modified": "2024-05-03T19:32:55.000",
    "request_status": "Pending",
    "responsible_agency": "Department of Sanitation",
    "final_address": "4351 Joycelyn Dr",
    "address_councildis": "C",
    "status": "Assigned to Contractor",
    "contractor": "Richards Disposal",
    "rowid": "1090356",
    "final_x": "3708014.04004",
    "final_y": "514568.521011",
    "longitude": "-89.98497914097861",
    "latitude": "29.90805343786995",
    "geocoded_column": {
      "latitude": "29.90805343786995",
      "longitude": "-89.98497914097861"
    }
  },
  {
    "service_request": "2024-1090355",
    "request_type": "Trash/Recycling",
    "request_reason": "Request a Large Item Pick Up",
    "date_created": "2024-05-03T19:02:54.000",
    "date_modified": "2024-05-03T19:02:55.000",
    "request_status": "Pending",
    "responsible_agency": "Department of Sanitation",
    "final_address": "413 Constantinople St",
    "address_councildis": "B",
    "status": "Assigned to Contractor",
    "contractor": "IV Waste",
    "rowid": "1090355",
    "final_x": "3672691.84276",
    "final_y": "517475.15071",
    "longitude": "-90.09636212350053",
    "latitude": "29.917141405070293",
    "geocoded_column": {
      "latitude": "29.917141405070293",
      "longitude": "-90.09636212350053"
    }
  },
  {
    "service_request": "2024-1090354",
    "request_type": "Traffic Signals/Signs/Striping/Streetlights",
    "request_reason": "Additional signage",
    "date_created": "2024-05-03T18:48:16.000",
    "date_modified": "2024-05-03T18:48:16.000",
    "request_status": "Pending",
    "responsible_agency": "Department of Public Works",
    "final_address": "1133 Royal St Unit 1",
    "address_councildis": "C",
    "status": "Pending",
    "rowid": "1090354",
    "final_x": "3683555.607",
    "final_y": "533852.418373",
    "longitude": "-90.06149771577029",
    "latitude": "29.961846462366434",
    "geocoded_column": {
      "latitude": "29.961846462366434",
      "longitude": "-90.06149771577029"
    }
  },
  {
    "service_request": "2024-1090353",
    "request_type": "Roads/Drainage",
    "request_reason": "Pothole",
    "date_created": "2024-05-03T18:32:58.000",
    "date_modified": "2024-05-03T18:32:58.000",
    "request_status": "Pending",
    "responsible_agency": "Department of Public Works",
    "final_address": "724 N Alexander St",
    "address_councildis": "A",
    "status": "Pending",
    "rowid": "1090353",
    "final_x": "3671558.56129",
    "final_y": "541171.645708",
    "longitude": "-90.09913361066457",
    "latitude": "29.98233256551896",
    "geocoded_column": {
      "latitude": "29.98233256551896",
      "longitude": "-90.09913361066457"
    }
  },
  {
    "service_request": "2024-1090352",
    "request_type": "Roads/Drainage",
    "request_reason": "WaterMain Break",
    "date_created": "2024-05-03T18:30:54.000",
    "date_modified": "2024-05-03T18:30:54.000",
    "request_status": "Pending",
    "responsible_agency": "Department of Public Works",
    "final_address": "533 S Alexander St",
    "address_councildis": "A",
    "status": "Pending",
    "rowid": "1090352",
    "final_x": "3668765.90202",
    "final_y": "537680.406408",
    "longitude": "-90.10807213627888",
    "latitude": "29.97281524928413",
    "geocoded_column": {
      "latitude": "29.97281524928413",
      "longitude": "-90.10807213627888"
    }
  },
  {
    "service_request": "2024-1090351",
    "request_type": "Property Maintenance",
    "request_reason": "Property Maintenance",
    "date_created": "2024-05-03T18:06:34.000",
    "date_modified": "2024-05-03T18:06:34.000",
    "request_status": "Pending",
    "responsible_agency": "Department of Code Enforcement",
    "final_address": "2525 Memorial Park Dr",
    "address_councildis": "C",
    "status": "Pending",
    "rowid": "1090351",
    "final_x": "3692766.18371",
    "final_y": "521079.566969",
    "longitude": "-90.03287007438414",
    "latitude": "29.92644119738659",
    "geocoded_column": {
      "latitude": "29.92644119738659",
      "longitude": "-90.03287007438414"
    }
  },
  {
    "service_request": "2024-1090350",
    "request_type": "Property Maintenance",
    "request_reason": "Property Maintenance",
    "date_created": "2024-05-03T18:05:32.000",
    "date_modified": "2024-05-03T18:05:32.000",
    "request_status": "Pending",
    "responsible_agency": "Department of Code Enforcement",
    "final_address": "2525 Memorial Park Dr",
    "address_councildis": "C",
    "status": "Pending",
    "rowid": "1090350",
    "final_x": "3692766.18371",
    "final_y": "521079.566969",
    "longitude": "-90.03287007438414",
    "latitude": "29.92644119738659",
    "geocoded_column": {
      "latitude": "29.92644119738659",
      "longitude": "-90.03287007438414"
    }
  },
  {
    "service_request": "2024-1090348",
    "request_type": "Roads/Drainage",
    "request_reason": "Debris in Roadway",
    "date_created": "2024-05-03T17:57:04.000",
    "date_modified": "2024-05-03T17:57:04.000",
    "request_status": "Pending",
    "responsible_agency": "Department of Public Works",
    "final_address": "10 Elysian Fields Ave",
    "address_councildis": "D",
    "status": "Pending",
    "rowid": "1090348",
    "final_x": "3683547.89602",
    "final_y": "552090.847318",
    "longitude": "-90.06088248659371",
    "latitude": "30.011995932794086",
    "geocoded_column": {
      "latitude": "30.011995932794086",
      "longitude": "-90.06088248659371"
    }
  },
  {
    "service_request": "2024-1090347",
    "request_type": "Abandoned Vehicles",
    "request_reason": "Abandoned/Junk Vehicles",
    "date_created": "2024-05-03T17:34:37.000",
    "date_modified": "2024-05-03T17:34:37.000",
    "request_status": "Pending",
    "responsible_agency": "Department of Public Works",
    "final_address": "3343 Esplanade Ave",
    "address_councildis": "A",
    "status": "Pending",
    "rowid": "1090347",
    "final_x": "3675778.57781",
    "final_y": "540915.894027",
    "longitude": "-90.08581351461964",
    "latitude": "29.981503677945287",
    "geocoded_column": {
      "latitude": "29.981503677945287",
      "longitude": "-90.08581351461964"
    }
  },
  {
    "service_request": "2024-1090346",
    "request_type": "Property Maintenance",
    "request_reason": "Property Maintenance",
    "date_created": "2024-05-03T17:17:02.000",
    "date_modified": "2024-05-03T17:17:02.000",
    "request_status": "Pending",
    "responsible_agency": "Department of Code Enforcement",
    "final_address": "4942 Rhodes Dr",
    "address_councildis": "E",
    "status": "Pending",
    "rowid": "1090346",
    "final_x": "3702350.48708",
    "final_y": "555552.158297",
    "longitude": "-90.00135034573437",
    "latitude": "30.020925685234026",
    "geocoded_column": {
      "latitude": "30.020925685234026",
      "longitude": "-90.00135034573437"
    }
  },
  {
    "service_request": "2024-1090345",
    "request_type": "Trash/Recycling",
    "request_reason": "Replace Trash Cart",
    "date_created": "2024-05-03T17:05:40.000",
    "date_modified": "2024-05-03T17:05:40.000",
    "request_status": "Pending",
    "responsible_agency": "Department of Sanitation",
    "final_address": "5414 St Charles Ave",
    "address_councildis": "A",
    "status": "Assigned to Contractor",
    "contractor": "IV Waste",
    "rowid": "1090345",
    "final_x": "3667225.39527",
    "final_y": "521548.270841",
    "longitude": "-90.11347975665058",
    "latitude": "29.928502333576425",
    "geocoded_column": {
      "latitude": "29.928502333576425",
      "longitude": "-90.11347975665058"
    }
  },
  {
    "service_request": "2024-1090344",
    "request_type": "Traffic Signals/Signs/Striping/Streetlights",
    "request_reason": "Street Light Outage/Malfunction",
    "date_created": "2024-05-03T17:01:30.000",
    "date_modified": "2024-05-03T17:01:30.000",
    "request_status": "Pending",
    "responsible_agency": "Department of Public Works",
    "final_address": "MICHOUD BLVD & W CAVELIER DR",
    "address_councildis": "E",
    "status": "Assigned to Contractor",
    "contractor": "Legacy Professional Services",
    "rowid": "1090344",
    "final_x": "3724678.8",
    "final_y": "569370.08",
    "longitude": "-89.93026572775324",
    "latitude": "30.05818669137776",
    "geocoded_column": {
      "latitude": "30.05818669137776",
      "longitude": "-89.93026572775324"
    }
  },
  {
    "service_request": "2024-1090343",
    "request_type": "Trash/Recycling",
    "request_reason": "Illegal Dumping",
    "date_created": "2024-05-03T17:00:39.000",
    "date_modified": "2024-05-03T17:00:40.000",
    "request_status": "Pending",
    "responsible_agency": "Department of Sanitation",
    "final_address": "13000 BLK Michoud Blvd",
    "address_councildis": "E",
    "status": "Pending",
    "rowid": "1090343",
    "final_x": "3724993.10181",
    "final_y": "570277.696502",
    "longitude": "-89.92923711345162",
    "latitude": "30.060671667985027",
    "geocoded_column": {
      "latitude": "30.060671667985027",
      "longitude": "-89.92923711345162"
    }
  },
  {
    "service_request": "2024-1090342",
    "request_type": "Roads/Drainage",
    "request_reason": "Pothole",
    "date_created": "2024-05-03T16:59:48.000",
    "date_modified": "2024-05-03T16:59:48.000",
    "request_status": "Pending",
    "responsible_agency": "Department of Public Works",
    "final_address": "CONSTANCE ST & LAFAYETTE ST",
    "address_councildis": "B",
    "status": "Pending",
    "rowid": "1090342",
    "final_x": "3681611.0",
    "final_y": "528686.08",
    "longitude": "-90.06781865475025",
    "latitude": "29.94769998908786",
    "geocoded_column": {
      "latitude": "29.94769998908786",
      "longitude": "-90.06781865475025"
    }
  },
  {
    "service_request": "2024-1090341",
    "request_type": "Roads/Drainage",
    "request_reason": "Pothole",
    "date_created": "2024-05-03T16:54:06.000",
    "date_modified": "2024-05-03T16:54:06.000",
    "request_status": "Pending",
    "responsible_agency": "Department of Public Works",
    "final_address": "CONSTANCE ST & LAFAYETTE ST",
    "address_councildis": "B",
    "status": "Pending",
    "rowid": "1090341",
    "final_x": "3681611.0",
    "final_y": "528686.08",
    "longitude": "-90.06781865475025",
    "latitude": "29.94769998908786",
    "geocoded_column": {
      "latitude": "29.94769998908786",
      "longitude": "-90.06781865475025"
    }
  },
  {
    "service_request": "2024-1090340",
    "request_type": "Abandoned Vehicles",
    "request_reason": "Abandoned/Junk Vehicles",
    "date_created": "2024-05-03T16:46:37.000",
    "date_modified": "2024-05-03T16:46:37.000",
    "request_status": "Pending",
    "responsible_agency": "Department of Public Works",
    "final_address": "426 Delery St",
    "address_councildis": "E",
    "status": "Pending",
    "rowid": "1090340",
    "final_x": "3699533.31895",
    "final_y": "530787.871874",
    "longitude": "-90.0111546263561",
    "latitude": "29.95292273459336",
    "geocoded_column": {
      "latitude": "29.95292273459336",
      "longitude": "-90.0111546263561"
    }
  },
  {
    "service_request": "2024-1090339",
    "request_type": "Trash/Recycling",
    "request_reason": "Request a Large Item Pick Up",
    "date_created": "2024-05-03T16:44:29.000",
    "date_modified": "2024-05-03T16:44:30.000",
    "request_status": "Pending",
    "responsible_agency": "Department of Sanitation",
    "final_address": "2417 Freret St",
    "address_councildis": "B",
    "status": "Assigned to Contractor",
    "contractor": "IV Waste",
    "rowid": "1090339",
    "final_x": "3674992.0628",
    "final_y": "525910.699133",
    "longitude": "-90.0888124456722",
    "latitude": "29.940267953131816",
    "geocoded_column": {
      "latitude": "29.940267953131816",
      "longitude": "-90.0888124456722"
    }
  },
  {
    "service_request": "2024-1090338",
    "request_type": "Trash/Recycling",
    "request_reason": "Order Trash Cart",
    "date_created": "2024-05-03T16:41:49.000",
    "date_modified": "2024-05-03T16:41:50.000",
    "request_status": "Pending",
    "responsible_agency": "Department of Sanitation",
    "final_address": "1528 Painters St",
    "address_councildis": "C",
    "status": "Assigned to Contractor",
    "contractor": "IV Waste",
    "rowid": "1090338",
    "final_x": "3687400.29154",
    "final_y": "538176.777609",
    "longitude": "-90.04920380745604",
    "latitude": "29.973619041844042",
    "geocoded_column": {
      "latitude": "29.973619041844042",
      "longitude": "-90.04920380745604"
    }
  },
  {
    "service_request": "2024-1090337",
    "request_type": "Trash/Recycling",
    "request_reason": "Request a Large Item Pick Up",
    "date_created": "2024-05-03T16:36:06.000",
    "date_modified": "2024-05-03T16:36:07.000",
    "request_status": "Pending",
    "responsible_agency": "Department of Sanitation",
    "final_address": "1904 Pauline St",
    "address_councildis": "D",
    "status": "Assigned to Contractor",
    "contractor": "IV Waste",
    "rowid": "1090337",
    "final_x": "3691929.47715",
    "final_y": "538524.538505",
    "longitude": "-90.03488728273699",
    "latitude": "29.974434916501085",
    "geocoded_column": {
      "latitude": "29.974434916501085",
      "longitude": "-90.03488728273699"
    }
  },
  {
    "service_request": "2024-1090336",
    "request_type": "Roads/Drainage",
    "request_reason": "Catch Basin - Clogged",
    "date_created": "2024-05-03T16:33:45.000",
    "date_modified": "2024-05-03T16:33:46.000",
    "request_status": "Pending",
    "responsible_agency": "Department of Public Works",
    "final_address": "818 S Carrollton Ave",
    "address_councildis": "A",
    "status": "Pending",
    "rowid": "1090336",
    "final_x": "3661108.21677",
    "final_y": "527470.631039",
    "longitude": "-90.13259456949578",
    "latitude": "29.944964605846028",
    "geocoded_column": {
      "latitude": "29.944964605846028",
      "longitude": "-90.13259456949578"
    }
  },
  {
    "service_request": "2024-1090335",
    "request_type": "Roads/Drainage",
    "request_reason": "Pothole",
    "date_created": "2024-05-03T16:23:50.000",
    "date_modified": "2024-05-03T16:23:50.000",
    "request_status": "Pending",
    "responsible_agency": "Department of Public Works",
    "final_address": "CONSTANCE ST & LAFAYETTE ST",
    "address_councildis": "B",
    "status": "Pending",
    "rowid": "1090335",
    "final_x": "3681611.0",
    "final_y": "528686.08",
    "longitude": "-90.06781865475025",
    "latitude": "29.94769998908786",
    "geocoded_column": {
      "latitude": "29.94769998908786",
      "longitude": "-90.06781865475025"
    }
  },
  {
    "service_request": "2024-1090334",
    "request_type": "Roads/Drainage",
    "request_reason": "Pothole",
    "date_created": "2024-05-03T16:23:22.000",
    "date_modified": "2024-05-03T16:23:22.000",
    "request_status": "Pending",
    "responsible_agency": "Department of Public Works",
    "final_address": "6651 Foch Rd",
    "address_councildis": "D",
    "status": "Pending",
    "rowid": "1090334",
    "final_x": "3696913.64842",
    "final_y": "555875.737049",
    "longitude": "-90.01851736157819",
    "latitude": "30.021988061607168",
    "geocoded_column": {
      "latitude": "30.021988061607168",
      "longitude": "-90.01851736157819"
    }
  },
  {
    "service_request": "2024-1090333",
    "request_type": "Parks & Parkways",
    "request_reason": "Request Tree Service (Right of Way/Public Property)",
    "date_created": "2024-05-03T16:22:51.000",
    "date_modified": "2024-05-03T16:22:51.000",
    "request_status": "Pending",
    "responsible_agency": "Department of Parks & Parkway",
    "final_address": "5900 BLK General Diaz St",
    "address_councildis": "A",
    "status": "Pending",
    "rowid": "1090333",
    "final_x": "3669472.17086",
    "final_y": "546854.508113",
    "longitude": "-90.10553113968012",
    "latitude": "29.99802011545594",
    "geocoded_column": {
      "latitude": "29.99802011545594",
      "longitude": "-90.10553113968012"
    }
  },
  {
    "service_request": "2024-1090332",
    "request_type": "Abandoned Vehicles",
    "request_reason": "Abandoned/Junk Vehicles",
    "date_created": "2024-05-03T16:20:50.000",
    "date_modified": "2024-05-03T16:20:51.000",
    "request_status": "Pending",
    "responsible_agency": "Department of Public Works",
    "final_address": "KENTUCKY ST & BURGUNDY ST",
    "address_councildis": "C",
    "status": "Pending",
    "rowid": "1090332",
    "final_x": "3693124.5",
    "final_y": "534143.98",
    "longitude": "-90.03127034132767",
    "latitude": "29.9623526418559",
    "geocoded_column": {
      "latitude": "29.9623526418559",
      "longitude": "-90.03127034132767"
    }
  },
  {
    "service_request": "2024-1090331",
    "request_type": "Trash/Recycling",
    "request_reason": "Request a Large Item Pick Up",
    "date_created": "2024-05-03T16:20:29.000",
    "date_modified": "2024-05-03T16:20:30.000",
    "request_status": "Pending",
    "responsible_agency": "Department of Sanitation",
    "final_address": "1229 Governor Nicholls St",
    "address_councildis": "C",
    "status": "Assigned to Contractor",
    "contractor": "IV Waste",
    "rowid": "1090331",
    "final_x": "3682014.20962",
    "final_y": "535274.299718",
    "longitude": "-90.06631555004992",
    "latitude": "29.965803102282084",
    "geocoded_column": {
      "latitude": "29.965803102282084",
      "longitude": "-90.06631555004992"
    }
  },
  {
    "service_request": "2024-1090330",
    "request_type": "Trash/Recycling",
    "request_reason": "Request a Large Item Pick Up",
    "date_created": "2024-05-03T16:11:28.000",
    "date_modified": "2024-05-03T16:11:28.000",
    "request_status": "Pending",
    "responsible_agency": "Department of Sanitation",
    "final_address": "1801 Nie Prkwy",
    "address_councildis": "C",
    "status": "Assigned to Contractor",
    "contractor": "Richards Disposal",
    "rowid": "1090330",
    "final_x": "3701094.44177",
    "final_y": "524265.42662",
    "longitude": "-90.00646381027909",
    "latitude": "29.934938678930216",
    "geocoded_column": {
      "latitude": "29.934938678930216",
      "longitude": "-90.00646381027909"
    }
  },
  {
    "service_request": "2024-1090329",
    "request_type": "Trash/Recycling",
    "request_reason": "Request a Large Item Pick Up",
    "date_created": "2024-05-03T16:10:15.000",
    "date_modified": "2024-05-03T16:10:16.000",
    "request_status": "Pending",
    "responsible_agency": "Department of Sanitation",
    "final_address": "3721 Rue Denise",
    "address_councildis": "C",
    "status": "Assigned to Contractor",
    "contractor": "Richards Disposal",
    "rowid": "1090329",
    "final_x": "3704196.6321",
    "final_y": "516795.254965",
    "longitude": "-89.99694535335558",
    "latitude": "29.914299159575183",
    "geocoded_column": {
      "latitude": "29.914299159575183",
      "longitude": "-89.99694535335558"
    }
  },
  {
    "service_request": "2024-1090328",
    "request_type": "Trash/Recycling",
    "request_reason": "Change Size of Trash Cart",
    "date_created": "2024-05-03T16:09:50.000",
    "date_modified": "2024-05-03T16:09:51.000",
    "request_status": "Pending",
    "responsible_agency": "Department of Sanitation",
    "final_address": "3721 Rue Denise",
    "address_councildis": "C",
    "status": "Assigned to Contractor",
    "contractor": "Richards Disposal",
    "rowid": "1090328",
    "final_x": "3704196.6321",
    "final_y": "516795.254965",
    "longitude": "-89.99694535335558",
    "latitude": "29.914299159575183",
    "geocoded_column": {
      "latitude": "29.914299159575183",
      "longitude": "-89.99694535335558"
    }
  },
  {
    "service_request": "2024-1090327",
    "request_type": "Trash/Recycling",
    "request_reason": "Request a Large Item Pick Up",
    "date_created": "2024-05-03T15:58:51.000",
    "date_modified": "2024-05-03T15:58:51.000",
    "request_status": "Pending",
    "responsible_agency": "Department of Sanitation",
    "final_address": "3721 Rue Denise",
    "address_councildis": "C",
    "status": "Assigned to Contractor",
    "contractor": "Richards Disposal",
    "rowid": "1090327",
    "final_x": "3704196.6321",
    "final_y": "516795.254965",
    "longitude": "-89.99694535335558",
    "latitude": "29.914299159575183",
    "geocoded_column": {
      "latitude": "29.914299159575183",
      "longitude": "-89.99694535335558"
    }
  },
  {
    "service_request": "2024-1090326",
    "request_type": "Traffic Signals/Signs/Striping/Streetlights",
    "request_reason": "Traffic Sign Missing/Damaged",
    "date_created": "2024-05-03T15:56:03.000",
    "date_modified": "2024-05-03T15:58:13.000",
    "request_status": "Pending",
    "responsible_agency": "Department of Public Works",
    "final_address": "Touro and  n. Johnson",
    "address_councildis": "D",
    "rowid": "1090326",
    "final_x": "3683967.4",
    "final_y": "539555.68",
    "longitude": "-90.0599972016873",
    "latitude": "29.977515880252056",
    "geocoded_column": {
      "latitude": "29.977515880252056",
      "longitude": "-90.0599972016873"
    }
  },
  {
    "service_request": "2024-1090325",
    "request_type": "Trash/Recycling",
    "request_reason": "Repair Trash Cart",
    "date_created": "2024-05-03T15:54:49.000",
    "date_modified": "2024-05-03T16:01:10.000",
    "request_status": "Pending",
    "responsible_agency": "Department of Sanitation",
    "final_address": "1528 Elizardi Blvd",
    "address_councildis": "C",
    "contractor": "Richards Disposal",
    "rowid": "1090325",
    "final_x": "3694779.12387",
    "final_y": "525534.492349",
    "longitude": "-90.02635540903572",
    "latitude": "29.938627747902192",
    "geocoded_column": {
      "latitude": "29.938627747902192",
      "longitude": "-90.02635540903572"
    }
  },
  {
    "service_request": "2024-1090324",
    "request_type": "Property Maintenance",
    "request_reason": "Property Maintenance",
    "date_created": "2024-05-03T15:52:44.000",
    "date_modified": "2024-05-03T15:52:44.000",
    "request_status": "Pending",
    "responsible_agency": "Department of Code Enforcement",
    "final_address": "4975 Marque Dr",
    "address_councildis": "E",
    "status": "Pending",
    "rowid": "1090324",
    "final_x": "3709972.83179",
    "final_y": "557091.907994",
    "longitude": "-89.97720858827009",
    "latitude": "30.024913557924407",
    "geocoded_column": {
      "latitude": "30.024913557924407",
      "longitude": "-89.97720858827009"
    }
  },
  {
    "service_request": "2024-1090323",
    "request_type": "Abandoned Vehicles",
    "request_reason": "Abandoned/Junk Vehicles",
    "date_created": "2024-05-03T15:51:15.000",
    "date_modified": "2024-05-03T15:52:55.000",
    "request_status": "Pending",
    "responsible_agency": "Department of Public Works",
    "final_address": "7100 BLK Earhart Blvd",
    "address_councildis": "B",
    "status": "Pending",
    "rowid": "1090323",
    "final_x": "3668264.64736",
    "final_y": "532378.616133",
    "longitude": "-90.10983398684695",
    "latitude": "29.958251815270753",
    "geocoded_column": {
      "latitude": "29.958251815270753",
      "longitude": "-90.10983398684695"
    }
  },
  {
    "service_request": "2024-1090322",
    "request_type": "Trash/Recycling",
    "request_reason": "Replace Trash Cart",
    "date_created": "2024-05-03T15:45:09.000",
    "date_modified": "2024-05-03T15:45:10.000",
    "request_status": "Pending",
    "responsible_agency": "Department of Sanitation",
    "final_address": "2640 Louisiana Ave",
    "address_councildis": "B",
    "status": "Assigned to Contractor",
    "contractor": "IV Waste",
    "rowid": "1090322",
    "final_x": "3672608.72392",
    "final_y": "525066.695037",
    "longitude": "-90.09636580408781",
    "latitude": "29.938018179261285",
    "geocoded_column": {
      "latitude": "29.938018179261285",
      "longitude": "-90.09636580408781"
    }
  },
  {
    "service_request": "2024-1090321",
    "request_type": "Trash/Recycling",
    "request_reason": "Repair Trash Cart",
    "date_created": "2024-05-03T15:43:41.000",
    "date_modified": "2024-05-03T15:43:41.000",
    "request_status": "Pending",
    "responsible_agency": "Department of Sanitation",
    "final_address": "4051 Piedmont Dr",
    "address_councildis": "D",
    "status": "Assigned to Contractor",
    "contractor": "IV Waste",
    "rowid": "1090321",
    "final_x": "3685216.47036",
    "final_y": "547618.123986",
    "longitude": "-90.05576831214732",
    "latitude": "29.999646510425393",
    "geocoded_column": {
      "latitude": "29.999646510425393",
      "longitude": "-90.05576831214732"
    }
  },
  {
    "service_request": "2024-1090320",
    "request_type": "Trash/Recycling",
    "request_reason": "Order Recycling Cart",
    "date_created": "2024-05-03T15:42:40.000",
    "date_modified": "2024-05-03T15:42:40.000",
    "request_status": "Pending",
    "responsible_agency": "Department of Sanitation",
    "final_address": "1916 Leonidas St",
    "address_councildis": "A",
    "status": "Pending",
    "rowid": "1090320",
    "final_x": "3662389.35187",
    "final_y": "531543.945155",
    "longitude": "-90.12841437483638",
    "latitude": "29.95612793280913",
    "geocoded_column": {
      "latitude": "29.95612793280913",
      "longitude": "-90.12841437483638"
    }
  },
  {
    "service_request": "2024-1090319",
    "request_type": "Trash/Recycling",
    "request_reason": "Order Recycling Cart",
    "date_created": "2024-05-03T15:42:25.000",
    "date_modified": "2024-05-03T15:42:26.000",
    "request_status": "Pending",
    "responsible_agency": "Department of Sanitation",
    "final_address": "1916 Leonidas St",
    "address_councildis": "A",
    "status": "Pending",
    "rowid": "1090319",
    "final_x": "3662389.35187",
    "final_y": "531543.945155",
    "longitude": "-90.12841437483638",
    "latitude": "29.95612793280913",
    "geocoded_column": {
      "latitude": "29.95612793280913",
      "longitude": "-90.12841437483638"
    }
  },
  {
    "service_request": "2024-1090318",
    "request_type": "Trash/Recycling",
    "request_reason": "Request a Large Item Pick Up",
    "date_created": "2024-05-03T15:41:45.000",
    "date_modified": "2024-05-03T15:41:45.000",
    "request_status": "Pending",
    "responsible_agency": "Department of Sanitation",
    "final_address": "4804 Deanne St",
    "address_councildis": "D",
    "status": "Assigned to Contractor",
    "contractor": "Waste Pro",
    "rowid": "1090318",
    "final_x": "3696239.98915",
    "final_y": "554394.558104",
    "longitude": "-90.02069955602609",
    "latitude": "30.01793661708956",
    "geocoded_column": {
      "latitude": "30.01793661708956",
      "longitude": "-90.02069955602609"
    }
  },
  {
    "service_request": "2024-1090317",
    "request_type": "Trash/Recycling",
    "request_reason": "Order Trash Cart",
    "date_created": "2024-05-03T15:41:42.000",
    "date_modified": "2024-05-03T15:41:43.000",
    "request_status": "Pending",
    "responsible_agency": "Department of Sanitation",
    "final_address": "1916 Leonidas St",
    "address_councildis": "A",
    "status": "Assigned to Contractor",
    "contractor": "IV Waste",
    "rowid": "1090317",
    "final_x": "3662389.35187",
    "final_y": "531543.945155",
    "longitude": "-90.12841437483638",
    "latitude": "29.95612793280913",
    "geocoded_column": {
      "latitude": "29.95612793280913",
      "longitude": "-90.12841437483638"
    }
  },
  {
    "service_request": "2024-1090316",
    "request_type": "Trash/Recycling",
    "request_reason": "Order Trash Cart",
    "date_created": "2024-05-03T15:41:27.000",
    "date_modified": "2024-05-03T15:41:27.000",
    "request_status": "Pending",
    "responsible_agency": "Department of Sanitation",
    "final_address": "1916 Leonidas St",
    "address_councildis": "A",
    "status": "Assigned to Contractor",
    "contractor": "IV Waste",
    "rowid": "1090316",
    "final_x": "3662389.35187",
    "final_y": "531543.945155",
    "longitude": "-90.12841437483638",
    "latitude": "29.95612793280913",
    "geocoded_column": {
      "latitude": "29.95612793280913",
      "longitude": "-90.12841437483638"
    }
  },
  {
    "service_request": "2024-1090315",
    "request_type": "Trash/Recycling",
    "request_reason": "Order Trash Cart",
    "date_created": "2024-05-03T15:41:05.000",
    "date_modified": "2024-05-03T15:41:06.000",
    "request_status": "Pending",
    "responsible_agency": "Department of Sanitation",
    "final_address": "1914 Leonidas St",
    "address_councildis": "A",
    "status": "Assigned to Contractor",
    "contractor": "IV Waste",
    "rowid": "1090315",
    "final_x": "3662375.59533",
    "final_y": "531529.524675",
    "longitude": "-90.1284582923382",
    "latitude": "29.956088678911566",
    "geocoded_column": {
      "latitude": "29.956088678911566",
      "longitude": "-90.1284582923382"
    }
  },
  {
    "service_request": "2024-1090314",
    "request_type": "Trash/Recycling",
    "request_reason": "Order Recycling Cart",
    "date_created": "2024-05-03T15:40:36.000",
    "date_modified": "2024-05-03T15:40:36.000",
    "request_status": "Pending",
    "responsible_agency": "Department of Sanitation",
    "final_address": "1914 Leonidas St",
    "address_councildis": "A",
    "status": "Pending",
    "rowid": "1090314",
    "final_x": "3662375.59533",
    "final_y": "531529.524675",
    "longitude": "-90.1284582923382",
    "latitude": "29.956088678911566",
    "geocoded_column": {
      "latitude": "29.956088678911566",
      "longitude": "-90.1284582923382"
    }
  },
  {
    "service_request": "2024-1090313",
    "request_type": "Trash/Recycling",
    "request_reason": "Order Recycling Cart",
    "date_created": "2024-05-03T15:40:16.000",
    "date_modified": "2024-05-03T15:40:16.000",
    "request_status": "Pending",
    "responsible_agency": "Department of Sanitation",
    "final_address": "1914 Leonidas St",
    "address_councildis": "A",
    "status": "Pending",
    "rowid": "1090313",
    "final_x": "3662375.59533",
    "final_y": "531529.524675",
    "longitude": "-90.1284582923382",
    "latitude": "29.956088678911566",
    "geocoded_column": {
      "latitude": "29.956088678911566",
      "longitude": "-90.1284582923382"
    }
  },
  {
    "service_request": "2024-1090312",
    "request_type": "Trash/Recycling",
    "request_reason": "Order Trash Cart",
    "date_created": "2024-05-03T15:39:53.000",
    "date_modified": "2024-05-03T15:39:54.000",
    "request_status": "Pending",
    "responsible_agency": "Department of Sanitation",
    "final_address": "1914 Leonidas St",
    "address_councildis": "A",
    "status": "Assigned to Contractor",
    "contractor": "IV Waste",
    "rowid": "1090312",
    "final_x": "3662375.59533",
    "final_y": "531529.524675",
    "longitude": "-90.1284582923382",
    "latitude": "29.956088678911566",
    "geocoded_column": {
      "latitude": "29.956088678911566",
      "longitude": "-90.1284582923382"
    }
  },
  {
    "service_request": "2024-1090311",
    "request_type": "Abandoned Vehicles",
    "request_reason": "Vehicle Blocking Your Driveway",
    "date_created": "2024-05-03T15:39:22.000",
    "date_modified": "2024-05-03T15:39:22.000",
    "request_status": "Pending",
    "responsible_agency": "Department of Public Works",
    "final_address": "5711 Red Maple Dr",
    "address_councildis": "E",
    "status": "Pending",
    "rowid": "1090311",
    "final_x": "3723433.54124",
    "final_y": "564646.704545",
    "longitude": "-89.93438408079835",
    "latitude": "30.045241245182066",
    "geocoded_column": {
      "latitude": "30.045241245182066",
      "longitude": "-89.93438408079835"
    }
  },
  {
    "service_request": "2024-1090310",
    "request_type": "Property Maintenance",
    "request_reason": "Property Maintenance",
    "date_created": "2024-05-03T15:37:24.000",
    "date_modified": "2024-05-03T15:37:24.000",
    "request_status": "Pending",
    "responsible_agency": "Department of Code Enforcement",
    "final_address": "4999 Hickerson Dr",
    "address_councildis": "E",
    "status": "Pending",
    "rowid": "1090310",
    "final_x": "3710173.40312",
    "final_y": "557105.385242",
    "longitude": "-89.97657431731108",
    "latitude": "30.02494408647591",
    "geocoded_column": {
      "latitude": "30.02494408647591",
      "longitude": "-89.97657431731108"
    }
  },
  {
    "service_request": "2024-1090309",
    "request_type": "Trash/Recycling",
    "request_reason": "Replace Recycling Cart",
    "date_created": "2024-05-03T15:36:58.000",
    "date_modified": "2024-05-03T15:36:58.000",
    "request_status": "Pending",
    "responsible_agency": "Department of Sanitation",
    "final_address": "520 State St",
    "address_councildis": "A",
    "status": "Pending",
    "rowid": "1090309",
    "final_x": "3664387.8489",
    "final_y": "518440.638134",
    "longitude": "-90.12254098521923",
    "latitude": "29.920040076114898",
    "geocoded_column": {
      "latitude": "29.920040076114898",
      "longitude": "-90.12254098521923"
    }
  },
  {
    "service_request": "2024-1090308",
    "request_type": "Trash/Recycling",
    "request_reason": "Request a Large Item Pick Up",
    "date_created": "2024-05-03T15:34:00.000",
    "date_modified": "2024-05-03T15:34:00.000",
    "request_status": "Pending",
    "responsible_agency": "Department of Sanitation",
    "final_address": "5788 Tullis Dr",
    "address_councildis": "C",
    "status": "Assigned to Contractor",
    "contractor": "Richards Disposal",
    "rowid": "1090308",
    "final_x": "3705389.38929",
    "final_y": "513002.046961",
    "longitude": "-89.99332065518455",
    "latitude": "29.903830832989346",
    "geocoded_column": {
      "latitude": "29.903830832989346",
      "longitude": "-89.99332065518455"
    }
  },
  {
    "service_request": "2024-1090307",
    "request_type": "Trash/Recycling",
    "request_reason": "Replace Trash Cart",
    "date_created": "2024-05-03T15:31:52.000",
    "date_modified": "2024-05-03T15:31:53.000",
    "request_status": "Pending",
    "responsible_agency": "Department of Sanitation",
    "final_address": "5631 Magazine Street",
    "address_councildis": "A",
    "status": "Assigned to Contractor",
    "contractor": "IV Waste",
    "rowid": "1090307",
    "final_x": "3665910.58125",
    "final_y": "518962.629943",
    "longitude": "-90.11771695333093",
    "latitude": "29.92143105846425",
    "geocoded_column": {
      "latitude": "29.92143105846425",
      "longitude": "-90.11771695333093"
    }
  },
  {
    "service_request": "2024-1090306",
    "request_type": "Trash/Recycling",
    "request_reason": "Replace Recycling Cart",
    "date_created": "2024-05-03T15:30:04.000",
    "date_modified": "2024-05-03T15:32:11.000",
    "request_status": "Pending",
    "responsible_agency": "Department of Sanitation",
    "final_address": "5631 Magazine Street",
    "address_councildis": "A",
    "rowid": "1090306",
    "final_x": "3665910.58125",
    "final_y": "518962.629943",
    "longitude": "-90.11771695333093",
    "latitude": "29.92143105846425",
    "geocoded_column": {
      "latitude": "29.92143105846425",
      "longitude": "-90.11771695333093"
    }
  },
  {
    "service_request": "2024-1090305",
    "request_type": "Abandoned Vehicles",
    "request_reason": "Vehicle Blocking Your Driveway",
    "date_created": "2024-05-03T15:29:11.000",
    "date_modified": "2024-05-03T15:29:11.000",
    "request_status": "Pending",
    "responsible_agency": "Department of Public Works",
    "final_address": "5711 Red Maple Dr",
    "address_councildis": "E",
    "status": "Pending",
    "rowid": "1090305",
    "final_x": "3723433.54124",
    "final_y": "564646.704545",
    "longitude": "-89.93438408079835",
    "latitude": "30.045241245182066",
    "geocoded_column": {
      "latitude": "30.045241245182066",
      "longitude": "-89.93438408079835"
    }
  },
  {
    "service_request": "2024-1090304",
    "request_type": "Trash/Recycling",
    "request_reason": "Request a Large Item Pick Up",
    "date_created": "2024-05-03T15:11:35.000",
    "date_modified": "2024-05-03T15:11:36.000",
    "request_status": "Pending",
    "responsible_agency": "Department of Sanitation",
    "final_address": "144 Morrison Ct",
    "address_councildis": "E",
    "status": "Assigned to Contractor",
    "contractor": "Waste Pro",
    "rowid": "1090304",
    "final_x": "3703829.94404",
    "final_y": "561651.522719",
    "longitude": "-89.99645087087558",
    "latitude": "30.03764919444908",
    "geocoded_column": {
      "latitude": "30.03764919444908",
      "longitude": "-89.99645087087558"
    }
  },
  {
    "service_request": "2024-1090303",
    "request_type": "Trash/Recycling",
    "request_reason": "Illegal Dumping",
    "date_created": "2024-05-03T15:08:56.000",
    "date_modified": "2024-05-03T15:08:56.000",
    "request_status": "Pending",
    "responsible_agency": "Department of Sanitation",
    "final_address": "1710 Lakeshore Dr",
    "address_councildis": "D",
    "status": "Pending",
    "rowid": "1090303",
    "final_x": "3678200.92354",
    "final_y": "558006.585819",
    "longitude": "-90.07757103606485",
    "latitude": "30.028424250645944",
    "geocoded_column": {
      "latitude": "30.028424250645944",
      "longitude": "-90.07757103606485"
    }
  },
  {
    "service_request": "2024-1090302",
    "request_type": "Trash/Recycling",
    "request_reason": "Repair Trash Cart",
    "date_created": "2024-05-03T15:06:46.000",
    "date_modified": "2024-05-03T15:06:47.000",
    "request_status": "Pending",
    "responsible_agency": "Department of Sanitation",
    "final_address": "2820 S Johnson St",
    "address_councildis": "B",
    "status": "Assigned to Contractor",
    "contractor": "IV Waste",
    "rowid": "1090302",
    "final_x": "3672248.65467",
    "final_y": "527723.274495",
    "longitude": "-90.0974121122904",
    "latitude": "29.94533358934261",
    "geocoded_column": {
      "latitude": "29.94533358934261",
      "longitude": "-90.0974121122904"
    }
  },
  {
    "service_request": "2024-1090301",
    "request_type": "Trash/Recycling",
    "request_reason": "Request a Large Item Pick Up",
    "date_created": "2024-05-03T15:04:21.000",
    "date_modified": "2024-05-03T15:04:22.000",
    "request_status": "Pending",
    "responsible_agency": "Department of Sanitation",
    "final_address": "9970 Morrison Rd",
    "address_councildis": "E",
    "status": "Assigned to Contractor",
    "contractor": "Waste Pro",
    "rowid": "1090301",
    "final_x": "3708644.44676",
    "final_y": "563346.352032",
    "longitude": "-89.98117281581064",
    "latitude": "30.042153969834775",
    "geocoded_column": {
      "latitude": "30.042153969834775",
      "longitude": "-89.98117281581064"
    }
  },
  {
    "service_request": "2024-1090300",
    "request_type": "Roads/Drainage",
    "request_reason": "Pothole",
    "date_created": "2024-05-03T15:03:24.000",
    "date_modified": "2024-05-03T15:03:25.000",
    "request_status": "Pending",
    "responsible_agency": "Department of Public Works",
    "final_address": "N CLAIBORNE AVE & TUPELO ST",
    "address_councildis": "E",
    "status": "Pending",
    "rowid": "1090300",
    "final_x": "3700137.3",
    "final_y": "535072.18",
    "longitude": "-90.00909119174081",
    "latitude": "29.964683878363545",
    "geocoded_column": {
      "latitude": "29.964683878363545",
      "longitude": "-90.00909119174081"
    }
  },
  {
    "service_request": "2024-1090299",
    "request_type": "Trash/Recycling",
    "request_reason": "Missed Trash Pick-Up",
    "date_created": "2024-05-03T15:01:40.000",
    "date_modified": "2024-05-03T15:37:40.000",
    "case_close_date": "2024-05-03T10:37:40.000",
    "request_status": "Closed",
    "responsible_agency": "Department of Sanitation",
    "final_address": "425 Celeste St",
    "address_councildis": "B",
    "status": "Invalid Request",
    "contractor": "IV Waste",
    "contractor_action": "Invalid Request",
    "rowid": "1090299",
    "final_x": "3682253.27951",
    "final_y": "521476.733881",
    "longitude": "-90.06604248169063",
    "latitude": "29.927857167766927",
    "geocoded_column": {
      "latitude": "29.927857167766927",
      "longitude": "-90.06604248169063"
    }
  },