[
  {
    "service_request": "2023-986739",
    "request_type": "Trash/Recycling",
    "request_reason": "Request a Large Item Pick Up",
    "date_created": "2023-03-28T22:52:57.000",
    "date_modified": "2023-03-28T22:52:58.000",
    "request_status": "Pending",
    "responsible_agency": "Department of Sanitation",
    "final_address": "2233 George Nick Connor Dr",
    "address_councildis": "D",
    "status": "Assigned to Contractor",
    "contractor": "IV Waste",
    "rowid": "986739",
    "final_x": "3681314.2685",
    "final_y": "540340.552395",
    "longitude": "-90.06834931271982",
    "latitude": "29.97975480857669",
    "geocoded_column": {
      "latitude": "29.97975480857669",
      "longitude": "-90.06834931271982"
    }
  },
  {
    "service_request": "2023-986738",
    "request_type": "Trash/Recycling",
    "request_reason": "Request a Large Item Pick Up",
    "date_created": "2023-03-28T22:52:32.000",
    "date_modified": "2023-03-28T22:52:32.000",
    "request_status": "Pending",
    "responsible_agency": "Department of Sanitation",
    "final_address": "2431 Ap Tureaud Ave",
    "address_councildis": "D",
    "status": "Assigned to Contractor",
    "contractor": "IV Waste",
    "rowid": "986738",
    "final_x": "3681663.96546",
    "final_y": "541112.499532",
    "longitude": "-90.06721788753791",
    "latitude": "29.98186677375577",
    "geocoded_column": {
      "latitude": "29.98186677375577",
      "longitude": "-90.06721788753791"
    }
  },
  {
    "service_request": "2023-986737",
    "request_type": "Trash/Recycling",
    "request_reason": "Request a Large Item Pick Up",
    "date_created": "2023-03-28T22:40:16.000",
    "date_modified": "2023-03-28T22:40:17.000",
    "request_status": "Pending",
    "responsible_agency": "Department of Sanitation",
    "final_address": "324 Audubon St",
    "address_councildis": "A",
    "status": "Assigned to Contractor",
    "contractor": "Richards Disposal",
    "rowid": "986737",
    "final_x": "3661668.99853",
    "final_y": "522305.39705",
    "longitude": "-90.13099512390407",
    "latitude": "29.930745675685742",
    "geocoded_column": {
      "latitude": "29.930745675685742",
      "longitude": "-90.13099512390407"
    }
  },
  {
    "service_request": "2023-986736",
    "request_type": "Traffic Signals/Signs/Striping/Streetlights",
    "request_reason": "Street Light Outage/Malfunction",
    "date_created": "2023-03-28T22:09:37.000",
    "date_modified": "2023-03-28T22:09:38.000",
    "request_status": "Pending",
    "responsible_agency": "Department of Public Works",
    "final_address": "4429 S Liberty St",
    "address_councildis": "B",
    "status": "Assigned to Contractor",
    "contractor": "Legacy Professional Services",
    "rowid": "986736",
    "final_x": "3670311.06625",
    "final_y": "523357.326459",
    "longitude": "-90.1036776423614",
    "latitude": "29.93338596936739",
    "geocoded_column": {
      "latitude": "29.93338596936739",
      "longitude": "-90.1036776423614"
    }
  },
  {
    "service_request": "2023-986735",
    "request_type": "Trash/Recycling",
    "request_reason": "Request a Large Item Pick Up",
    "date_created": "2023-03-28T21:30:04.000",
    "date_modified": "2023-03-28T21:30:13.000",
    "request_status": "Pending",
    "responsible_agency": "Department of Sanitation",
    "final_address": "212 Alonzo St",
    "address_councildis": "A",
    "status": "Assigned to Contractor",
    "contractor": "Richards Disposal",
    "rowid": "986735",
    "final_x": "3664471.77088",
    "final_y": "517167.838325",
    "longitude": "-90.12231854418529",
    "latitude": "29.916537834419888",
    "geocoded_column": {
      "latitude": "29.916537834419888",
      "longitude": "-90.12231854418529"
    }
  },
  {
    "service_request": "2023-986734",
    "request_type": "Trash/Recycling",
    "request_reason": "Request a Large Item Pick Up",
    "date_created": "2023-03-28T21:16:26.000",
    "date_modified": "2023-03-28T21:16:27.000",
    "request_status": "Pending",
    "responsible_agency": "Department of Sanitation",
    "final_address": "6025 Constance St",
    "address_councildis": "A",
    "status": "Assigned to Contractor",
    "contractor": "Richards Disposal",
    "rowid": "986734",
    "final_x": "3664395.1984",
    "final_y": "519062.125047",
    "longitude": "-90.12249705614619",
    "latitude": "29.921748757473562",
    "geocoded_column": {
      "latitude": "29.921748757473562",
      "longitude": "-90.12249705614619"
    }
  },
  {
    "service_request": "2023-986733",
    "request_type": "Roads/Drainage",
    "request_reason": "Catch Basin - Clogged",
    "date_created": "2023-03-28T21:01:31.000",
    "date_modified": "2023-03-28T21:01:31.000",
    "request_status": "Pending",
    "responsible_agency": "Department of Public Works",
    "final_address": "2810 Soniat St",
    "address_councildis": "B",
    "status": "Pending",
    "rowid": "986733",
    "final_x": "3668526.37166",
    "final_y": "525698.490493",
    "longitude": "-90.10923287769926",
    "latitude": "29.939875960371054",
    "geocoded_column": {
      "latitude": "29.939875960371054",
      "longitude": "-90.10923287769926"
    }
  },
  {
    "service_request": "2023-986732",
    "request_type": "Trash/Recycling",
    "request_reason": "Request a Large Item Pick Up",
    "date_created": "2023-03-28T20:57:50.000",
    "date_modified": "2023-03-28T20:57:50.000",
    "request_status": "Pending",
    "responsible_agency": "Department of Sanitation",
    "final_address": "2810 Soniat St",
    "address_councildis": "B",
    "status": "Assigned to Contractor",
    "contractor": "Richards Disposal",
    "rowid": "986732",
    "final_x": "3668526.37166",
    "final_y": "525698.490493",
    "longitude": "-90.10923287769926",
    "latitude": "29.939875960371054",
    "geocoded_column": {
      "latitude": "29.939875960371054",
      "longitude": "-90.10923287769926"
    }
  },
  {
    "service_request": "2023-986731",
    "request_type": "Abandoned Vehicles",
    "request_reason": "Abandoned/Junk Vehicles",
    "date_created": "2023-03-28T20:31:15.000",
    "date_modified": "2023-03-28T20:31:15.000",
    "request_status": "Pending",
    "responsible_agency": "Department of Public Works",
    "final_address": "4520 Elba St",
    "address_councildis": "B",
    "status": "Pending",
    "rowid": "986731",
    "final_x": "3669360.61089",
    "final_y": "530597.86029",
    "longitude": "-90.10643343230436",
    "latitude": "29.953323099658896",
    "geocoded_column": {
      "latitude": "29.953323099658896",
      "longitude": "-90.10643343230436"
    }
  },
  {
    "service_request": "2023-986730",
    "request_type": "Traffic Signals/Signs/Striping/Streetlights",
    "request_reason": "Street Light Outage/Malfunction",
    "date_created": "2023-03-28T20:27:15.000",
    "date_modified": "2023-03-28T20:27:16.000",
    "request_status": "Pending",
    "responsible_agency": "Department of Public Works",
    "final_address": "3651 Rue Delphine",
    "address_councildis": "C",
    "status": "Assigned to Contractor",
    "contractor": "Legacy Professional Services",
    "rowid": "986730",
    "final_x": "3702975.40465",
    "final_y": "517120.951925",
    "longitude": "-90.00078797501861",
    "latitude": "29.915233822022515",
    "geocoded_column": {
      "latitude": "29.915233822022515",
      "longitude": "-90.00078797501861"
    }
  },
  {
    "service_request": "2023-986729",
    "request_type": "Traffic Signals/Signs/Striping/Streetlights",
    "request_reason": "Street Light Outage/Malfunction",
    "date_created": "2023-03-28T20:25:30.000",
    "date_modified": "2023-03-28T20:25:31.000",
    "request_status": "Pending",
    "responsible_agency": "Department of Public Works",
    "final_address": "466 Crystal St",
    "address_councildis": "D",
    "status": "Assigned to Contractor",
    "contractor": "Legacy Professional Services",
    "rowid": "986729",
    "final_x": "3668283.42433",
    "final_y": "556184.38921",
    "longitude": "-90.10897145843856",
    "latitude": "30.023708987017255",
    "geocoded_column": {
      "latitude": "30.023708987017255",
      "longitude": "-90.10897145843856"
    }
  },
  {
    "service_request": "2023-986728",
    "request_type": "Trash/Recycling",
    "request_reason": "Missed Trash Pick-Up",
    "date_created": "2023-03-28T20:23:01.000",
    "date_modified": "2023-03-28T20:23:02.000",
    "request_status": "Pending",
    "responsible_agency": "Department of Sanitation",
    "final_address": "6210 Paris Ave, New Orleans, Louisiana, 70122",
    "address_councildis": "D",
    "status": "Assigned to Contractor",
    "contractor": "IV Waste",
    "rowid": "986728",
    "final_x": "3678746.28315",
    "final_y": "555599.001177",
    "longitude": "-90.07593121281081",
    "latitude": "30.021787827654887",
    "geocoded_column": {
      "latitude": "30.021787827654887",
      "longitude": "-90.07593121281081"
    }
  },
  {
    "service_request": "2023-986727",
    "request_type": "Traffic Signals/Signs/Striping/Streetlights",
    "request_reason": "Street Light Outage/Malfunction",
    "date_created": "2023-03-28T20:05:50.000",
    "date_modified": "2023-03-28T20:05:51.000",
    "request_status": "Pending",
    "responsible_agency": "Department of Public Works",
    "final_address": "1100 Michael St",
    "address_councildis": "C",
    "status": "Assigned to Contractor",
    "contractor": "Legacy Professional Services",
    "rowid": "986727",
    "final_x": "3697294.67165",
    "final_y": "527332.925823",
    "longitude": "-90.01834844210458",
    "latitude": "29.94349367977194",
    "geocoded_column": {
      "latitude": "29.94349367977194",
      "longitude": "-90.01834844210458"
    }
  },
  {
    "service_request": "2023-986726",
    "request_type": "Roads/Drainage",
    "request_reason": "Catch Basin - Clogged",
    "date_created": "2023-03-28T19:55:25.000",
    "date_modified": "2023-03-28T19:55:25.000",
    "request_status": "Pending",
    "responsible_agency": "Department of Public Works",
    "final_address": "2247 Milton St",
    "address_councildis": "D",
    "status": "Pending",
    "rowid": "986726",
    "final_x": "3684411.53103",
    "final_y": "546738.144977",
    "longitude": "-90.05834207379013",
    "latitude": "29.997251536647575",
    "geocoded_column": {
      "latitude": "29.997251536647575",
      "longitude": "-90.05834207379013"
    }
  },
  {
    "service_request": "2023-986725",
    "request_type": "Trash/Recycling",
    "request_reason": "Request a Large Item Pick Up",
    "date_created": "2023-03-28T19:55:10.000",
    "date_modified": "2023-03-28T19:55:10.000",
    "request_status": "Pending",
    "responsible_agency": "Department of Sanitation",
    "final_address": "202 S Solomon St",
    "address_councildis": "A",
    "status": "Assigned to Contractor",
    "contractor": "Richards Disposal",
    "rowid": "986725",
    "final_x": "3670337.27399",
    "final_y": "538342.248457",
    "longitude": "-90.10308699305102",
    "latitude": "29.974588796162877",
    "geocoded_column": {
      "latitude": "29.974588796162877",
      "longitude": "-90.10308699305102"
    }
  },
  {
    "service_request": "2023-986724",
    "request_type": "Trash/Recycling",
    "request_reason": "Missed Trash Pick-Up",
    "date_created": "2023-03-28T19:46:34.000",
    "date_modified": "2023-03-28T19:46:34.000",
    "request_status": "Pending",
    "responsible_agency": "Department of Sanitation",
    "final_address": "7241 Restgate Rd",
    "address_councildis": "E",
    "status": "Assigned to Contractor",
    "contractor": "Waste Pro",
    "rowid": "986724",
    "final_x": "3710623.40933",
    "final_y": "563563.36112",
    "longitude": "-89.97491046486283",
    "latitude": "30.04268629765786",
    "geocoded_column": {
      "latitude": "30.04268629765786",
      "longitude": "-89.97491046486283"
    }
  },
  {
    "service_request": "2023-986723",
    "request_type": "Trash/Recycling",
    "request_reason": "Request a Large Item Pick Up",
    "date_created": "2023-03-28T19:45:19.000",
    "date_modified": "2023-03-28T19:45:19.000",
    "request_status": "Pending",
    "responsible_agency": "Department of Sanitation",
    "final_address": "5542 Chatham Dr",
    "address_councildis": "D",
    "status": "Assigned to Contractor",
    "contractor": "IV Waste",
    "rowid": "986723",
    "final_x": "3679641.27439",
    "final_y": "552916.108375",
    "longitude": "-90.07319650292024",
    "latitude": "30.014383811412316",
    "geocoded_column": {
      "latitude": "30.014383811412316",
      "longitude": "-90.07319650292024"
    }
  },
  {
    "service_request": "2023-986722",
    "request_type": "Traffic Signals/Signs/Striping/Streetlights",
    "request_reason": "Street Light Outage/Malfunction",
    "date_created": "2023-03-28T19:36:19.000",
    "date_modified": "2023-03-28T19:36:19.000",
    "request_status": "Pending",
    "responsible_agency": "Department of Public Works",
    "final_address": "9 Camellia Trce",
    "address_councildis": "C",
    "status": "Assigned to Contractor",
    "contractor": "Legacy Professional Services",
    "rowid": "986722",
    "final_x": "3697104.93162",
    "final_y": "523655.893307",
    "longitude": "-90.01908065374998",
    "latitude": "29.93338909852305",
    "geocoded_column": {
      "latitude": "29.93338909852305",
      "longitude": "-90.01908065374998"
    }
  },
  {
    "service_request": "2023-986721",
    "request_type": "Traffic Signals/Signs/Striping/Streetlights",
    "request_reason": "Street Light Outage/Malfunction",
    "date_created": "2023-03-28T19:31:47.000",
    "date_modified": "2023-03-28T19:31:48.000",
    "request_status": "Pending",
    "responsible_agency": "Department of Public Works",
    "final_address": "224 Jewel St",
    "address_councildis": "D",
    "status": "Assigned to Contractor",
    "contractor": "Legacy Professional Services",
    "rowid": "986721",
    "final_x": "3667252.381",
    "final_y": "555740.882905",
    "longitude": "-90.11224429474247",
    "latitude": "30.022519754616077",
    "geocoded_column": {
      "latitude": "30.022519754616077",
      "longitude": "-90.11224429474247"
    }
  },
  {
    "service_request": "2023-986720",
    "request_type": "Property Maintenance",
    "request_reason": "Property Maintenance",
    "date_created": "2023-03-28T19:29:07.000",
    "date_modified": "2023-03-28T19:29:07.000",
    "request_status": "Pending",
    "responsible_agency": "Department of Code Enforcement",
    "final_address": "9880 Andover Dr",
    "address_councildis": "E",
    "status": "Pending",
    "rowid": "986720",
    "final_x": "3709235.17189",
    "final_y": "562115.669599",
    "longitude": "-89.97935187429783",
    "latitude": "30.03875090327423",
    "geocoded_column": {
      "latitude": "30.03875090327423",
      "longitude": "-89.97935187429783"
    }
  },
  {
    "service_request": "2023-986719",
    "request_type": "Property Maintenance",
    "request_reason": "Property Maintenance",
    "date_created": "2023-03-28T19:25:25.000",
    "date_modified": "2023-03-28T19:25:26.000",
    "request_status": "Pending",
    "responsible_agency": "Department of Code Enforcement",
    "final_address": "11317 Will Stutley Dr",
    "address_councildis": "E",
    "status": "Pending",
    "rowid": "986719",
    "final_x": "3716992.82002",
    "final_y": "558321.633116",
    "longitude": "-89.95498008736114",
    "latitude": "30.028064495621084",
    "geocoded_column": {
      "latitude": "30.028064495621084",
      "longitude": "-89.95498008736114"
    }
  },
  {
    "service_request": "2023-986718",
    "request_type": "Trash/Recycling",
    "request_reason": "Request a Large Item Pick Up",
    "date_created": "2023-03-28T19:25:10.000",
    "date_modified": "2023-03-28T19:25:10.000",
    "request_status": "Pending",
    "responsible_agency": "Department of Sanitation",
    "final_address": "6636 Bamberry St",
    "address_councildis": "E",
    "status": "Assigned to Contractor",
    "contractor": "Waste Pro",
    "rowid": "986718",
    "final_x": "3698005.65021",
    "final_y": "558699.281372",
    "longitude": "-90.01496428437073",
    "latitude": "30.029717230111352",
    "geocoded_column": {
      "latitude": "30.029717230111352",
      "longitude": "-90.01496428437073"
    }
  },
  {
    "service_request": "2023-986717",
    "request_type": "Trash/Recycling",
    "request_reason": "Illegal Dumping",
    "date_created": "2023-03-28T19:22:58.000",
    "date_modified": "2023-03-28T19:22:58.000",
    "request_status": "Pending",
    "responsible_agency": "Department of Sanitation",
    "final_address": "10200 S Interstate 10 Service Rd",
    "address_councildis": "E",
    "status": "Pending",
    "rowid": "986717",
    "final_x": "3711710.89054",
    "final_y": "562236.988255",
    "longitude": "-89.97152344265811",
    "latitude": "30.039003810410883",
    "geocoded_column": {
      "latitude": "30.039003810410883",
      "longitude": "-89.97152344265811"
    }
  },
  {
    "service_request": "2023-986716",
    "request_type": "Trash/Recycling",
    "request_reason": "Return Recycling Cart",
    "date_created": "2023-03-28T19:21:31.000",
    "date_modified": "2023-03-28T19:21:31.000",
    "request_status": "Pending",
    "responsible_agency": "Department of Sanitation",
    "final_address": "9 Olympic Ct",
    "address_councildis": "C",
    "status": "Pending",
    "rowid": "986716",
    "final_x": "3699946.41053",
    "final_y": "516491.729525",
    "longitude": "-90.01037145958686",
    "latitude": "29.913600185138392",
    "geocoded_column": {
      "latitude": "29.913600185138392",
      "longitude": "-90.01037145958686"
    }
  },
  {
    "service_request": "2023-986715",
    "request_type": "Trash/Recycling",
    "request_reason": "Replace Trash Cart",
    "date_created": "2023-03-28T19:19:53.000",
    "date_modified": "2023-03-28T19:19:54.000",
    "request_status": "Pending",
    "responsible_agency": "Department of Sanitation",
    "final_address": "9 Olympic Ct",
    "address_councildis": "C",
    "status": "Assigned to Contractor",
    "contractor": "Richards Disposal",
    "rowid": "986715",
    "final_x": "3699946.41053",
    "final_y": "516491.729525",
    "longitude": "-90.01037145958686",
    "latitude": "29.913600185138392",
    "geocoded_column": {
      "latitude": "29.913600185138392",
      "longitude": "-90.01037145958686"
    }
  },
  {
    "service_request": "2023-986714",
    "request_type": "Trash/Recycling",
    "request_reason": "MIssed Recycling Pick-Up",
    "date_created": "2023-03-28T19:17:23.000",
    "date_modified": "2023-03-28T19:17:24.000",
    "request_status": "Pending",
    "responsible_agency": "Department of Sanitation",
    "final_address": "7360 Heather Ct",
    "address_councildis": "E",
    "status": "Assigned to Contractor",
    "contractor": "Waste Pro",
    "rowid": "986714",
    "final_x": "3705425.873",
    "final_y": "562455.273183",
    "longitude": "-89.99137764361129",
    "latitude": "30.039807896243417",
    "geocoded_column": {
      "latitude": "30.039807896243417",
      "longitude": "-89.99137764361129"
    }
  },
  {
    "service_request": "2023-986713",
    "request_type": "Property Maintenance",
    "request_reason": "Property Maintenance",
    "date_created": "2023-03-28T19:17:04.000",
    "date_modified": "2023-03-28T19:17:04.000",
    "request_status": "Pending",
    "responsible_agency": "Department of Code Enforcement",
    "final_address": "5998 Bullard Ave",
    "address_councildis": "E",
    "status": "Pending",
    "rowid": "986713",
    "final_x": "3715583.42021",
    "final_y": "563755.698913",
    "longitude": "-89.95922773196618",
    "latitude": "30.043052532258418",
    "geocoded_column": {
      "latitude": "30.043052532258418",
      "longitude": "-89.95922773196618"
    }
  },
  {
    "service_request": "2023-986712",
    "request_type": "Property Maintenance",
    "request_reason": "Property Maintenance",
    "date_created": "2023-03-28T19:17:02.000",
    "date_modified": "2023-03-28T19:17:02.000",
    "request_status": "Pending",
    "responsible_agency": "Department of Code Enforcement",
    "final_address": "1136 Bourbon St",
    "address_councildis": "C",
    "status": "Pending",
    "rowid": "986712",
    "final_x": "3683356.96169",
    "final_y": "534065.428805",
    "longitude": "-90.06211754272476",
    "latitude": "29.962438229124018",
    "geocoded_column": {
      "latitude": "29.962438229124018",
      "longitude": "-90.06211754272476"
    }
  },
  {
    "service_request": "2023-986711",
    "request_type": "Health Related Request",
    "request_reason": "Noise Ordinance Complaint",
    "date_created": "2023-03-28T19:16:16.000",
    "date_modified": "2023-03-28T19:16:16.000",
    "request_status": "Pending",
    "responsible_agency": "Health Department",
    "final_address": "700 Frenchmen St",
    "address_councildis": "C",
    "status": "Pending",
    "rowid": "986711",
    "final_x": "3684674.15349",
    "final_y": "534862.19559",
    "longitude": "-90.05793003716528",
    "latitude": "29.964588816083072",
    "geocoded_column": {
      "latitude": "29.964588816083072",
      "longitude": "-90.05793003716528"
    }
  },
  {
    "service_request": "2023-986710",
    "request_type": "Trash/Recycling",
    "request_reason": "Return Recycling Cart",
    "date_created": "2023-03-28T19:02:47.000",
    "date_modified": "2023-03-28T19:02:47.000",
    "request_status": "Pending",
    "responsible_agency": "Department of Sanitation",
    "final_address": "3023 Iberville St",
    "address_councildis": "B",
    "status": "Pending",
    "rowid": "986710",
    "final_x": "3674492.50593",
    "final_y": "536349.738887",
    "longitude": "-90.09003201817453",
    "latitude": "29.968986746263102",
    "geocoded_column": {
      "latitude": "29.968986746263102",
      "longitude": "-90.09003201817453"
    }
  },
  {
    "service_request": "2023-986709",
    "request_type": "Abandoned Vehicles",
    "request_reason": "Abandoned/Junk Vehicles",
    "date_created": "2023-03-28T19:01:10.000",
    "date_modified": "2023-03-28T19:01:10.000",
    "request_status": "Pending",
    "responsible_agency": "Department of Public Works",
    "final_address": "3141 Toulouse St",
    "address_councildis": "A",
    "status": "Pending",
    "rowid": "986709",
    "final_x": "3674907.02401",
    "final_y": "537938.260361",
    "longitude": "-90.08866844741681",
    "latitude": "29.97334226687232",
    "geocoded_column": {
      "latitude": "29.97334226687232",
      "longitude": "-90.08866844741681"
    }
  },
  {
    "service_request": "2023-986708",
    "request_type": "Abandoned Vehicles",
    "request_reason": "Abandoned/Junk Vehicles",
    "date_created": "2023-03-28T18:55:20.000",
    "date_modified": "2023-03-28T18:55:20.000",
    "request_status": "Pending",
    "responsible_agency": "Department of Public Works",
    "final_address": "3515 Conti St",
    "address_councildis": "B",
    "status": "Pending",
    "rowid": "986708",
    "final_x": "3673440.24596",
    "final_y": "538085.315785",
    "longitude": "-90.09329581464254",
    "latitude": "29.973790347638932",
    "geocoded_column": {
      "latitude": "29.973790347638932",
      "longitude": "-90.09329581464254"
    }
  },
  {
    "service_request": "2023-986707",
    "request_type": "Trash/Recycling",
    "request_reason": "Replace Trash Cart",
    "date_created": "2023-03-28T18:52:02.000",
    "date_modified": "2023-03-28T18:52:03.000",
    "request_status": "Pending",
    "responsible_agency": "Department of Sanitation",
    "final_address": "5225 Demontluzin ",
    "status": "Assigned to Contractor",
    "rowid": "986707",
    "longitude": "0.0",
    "latitude": "0.0",
    "geocoded_column": {
      "latitude": "0.0",
      "longitude": "0.0"
    }
  },
  {
    "service_request": "2023-986706",
    "request_type": "Property Maintenance",
    "request_reason": "Property Maintenance",
    "date_created": "2023-03-28T18:51:03.000",
    "date_modified": "2023-03-28T18:51:03.000",
    "request_status": "Pending",
    "responsible_agency": "Department of Code Enforcement",
    "final_address": "2602 Flood St",
    "address_councildis": "E",
    "status": "Pending",
    "rowid": "986706",
    "final_x": "3699208.32842",
    "final_y": "539541.969674",
    "longitude": "-90.01186201332513",
    "latitude": "29.977003677639832",
    "geocoded_column": {
      "latitude": "29.977003677639832",
      "longitude": "-90.01186201332513"
    }
  },
  {
    "service_request": "2023-986705",
    "request_type": "Parks & Parkways",
    "request_reason": "Request Tree Service (Right of Way/Public Property)",
    "date_created": "2023-03-28T18:39:15.000",
    "date_modified": "2023-03-28T18:39:18.000",
    "request_status": "Pending",
    "responsible_agency": "Department of Parks & Parkway",
    "final_address": "NAPOLEON AVE & ST CHARLES AVE",
    "address_councildis": "B",
    "status": "Pending",
    "rowid": "986705",
    "final_x": "3670814.1",
    "final_y": "520818.48",
    "longitude": "-90.10217570850496",
    "latitude": "29.926390102746048",
    "geocoded_column": {
      "latitude": "29.926390102746048",
      "longitude": "-90.10217570850496"
    }
  },
  {
    "service_request": "2023-986704",
    "request_type": "Trash/Recycling",
    "request_reason": "Request a Large Item Pick Up",
    "date_created": "2023-03-28T18:37:35.000",
    "date_modified": "2023-03-28T18:37:35.000",
    "request_status": "Pending",
    "responsible_agency": "Department of Sanitation",
    "final_address": "455 Abalon Ct",
    "address_councildis": "C",
    "status": "Assigned to Contractor",
    "contractor": "Richards Disposal",
    "rowid": "986704",
    "final_x": "3689144.68022",
    "final_y": "530070.040577",
    "longitude": "-90.043982766142",
    "latitude": "29.951274469329526",
    "geocoded_column": {
      "latitude": "29.951274469329526",
      "longitude": "-90.043982766142"
    }
  },
  {
    "service_request": "2023-986703",
    "request_type": "Trash/Recycling",
    "request_reason": "Request a Large Item Pick Up",
    "date_created": "2023-03-28T18:24:05.000",
    "date_modified": "2023-03-28T18:24:06.000",
    "request_status": "Pending",
    "responsible_agency": "Department of Sanitation",
    "final_address": "807 Voisin St, New Orleans, Louisiana, 70124",
    "address_councildis": "A",
    "status": "Assigned to Contractor",
    "contractor": "IV Waste",
    "rowid": "986703",
    "final_x": "3668723.05095",
    "final_y": "543265.705486",
    "longitude": "-90.1080188395133",
    "latitude": "29.98817419149916",
    "geocoded_column": {
      "latitude": "29.98817419149916",
      "longitude": "-90.1080188395133"
    }
  },
  {
    "service_request": "2023-986702",
    "request_type": "Trash/Recycling",
    "request_reason": "Request a Large Item Pick Up",
    "date_created": "2023-03-28T18:23:30.000",
    "date_modified": "2023-03-28T18:23:30.000",
    "request_status": "Pending",
    "responsible_agency": "Department of Sanitation",
    "final_address": "5520 S Tonti St",
    "address_councildis": "A",
    "status": "Assigned to Contractor",
    "contractor": "Richards Disposal",
    "rowid": "986702",
    "final_x": "3668232.66369",
    "final_y": "527989.001087",
    "longitude": "-90.1100829593664",
    "latitude": "29.9461827479449",
    "geocoded_column": {
      "latitude": "29.9461827479449",
      "longitude": "-90.1100829593664"
    }
  },
  {
    "service_request": "2023-986701",
    "request_type": "Trash/Recycling",
    "request_reason": "Illegal Dumping",
    "date_created": "2023-03-28T18:10:53.000",
    "date_modified": "2023-03-28T18:10:53.000",
    "request_status": "Pending",
    "responsible_agency": "Department of Sanitation",
    "final_address": "2338 Port St",
    "address_councildis": "D",
    "status": "Pending",
    "rowid": "986701",
    "final_x": "3688618.81027",
    "final_y": "541208.8971",
    "longitude": "-90.04524782786606",
    "latitude": "29.98191869262235",
    "geocoded_column": {
      "latitude": "29.98191869262235",
      "longitude": "-90.04524782786606"
    }
  },
  {
    "service_request": "2023-986700",
    "request_type": "Traffic Signals/Signs/Striping/Streetlights",
    "request_reason": "Street Light Outage/Malfunction",
    "date_created": "2023-03-28T18:06:48.000",
    "date_modified": "2023-03-28T18:06:48.000",
    "request_status": "Pending",
    "responsible_agency": "Department of Public Works",
    "final_address": "N JOHNSON ST & CLOUET ST",
    "address_councildis": "D",
    "status": "Assigned to Contractor",
    "contractor": "Legacy Professional Services",
    "rowid": "986700",
    "final_x": "3689847.0",
    "final_y": "539382.78",
    "longitude": "-90.04143366199807",
    "latitude": "29.97685949942823",
    "geocoded_column": {
      "latitude": "29.97685949942823",
      "longitude": "-90.04143366199807"
    }
  },
  {
    "service_request": "2023-986699",
    "request_type": "Trash/Recycling",
    "request_reason": "Request a Large Item Pick Up",
    "date_created": "2023-03-28T18:03:12.000",
    "date_modified": "2023-03-28T18:03:13.000",
    "request_status": "Pending",
    "responsible_agency": "Department of Sanitation",
    "final_address": "3051 Royal St",
    "address_councildis": "C",
    "status": "Assigned to Contractor",
    "contractor": "IV Waste",
    "rowid": "986699",
    "final_x": "3688465.56969",
    "final_y": "534568.822213",
    "longitude": "-90.04596746183493",
    "latitude": "29.963665557960415",
    "geocoded_column": {
      "latitude": "29.963665557960415",
      "longitude": "-90.04596746183493"
    }
  },
  {
    "service_request": "2023-986698",
    "request_type": "Trash/Recycling",
    "request_reason": "Order Trash Cart",
    "date_created": "2023-03-28T17:59:58.000",
    "date_modified": "2023-03-28T17:59:59.000",
    "request_status": "Pending",
    "responsible_agency": "Department of Sanitation",
    "final_address": "13922 Wales St",
    "address_councildis": "E",
    "status": "Assigned to Contractor",
    "contractor": "Waste Pro",
    "rowid": "986698",
    "final_x": "3718003.47865",
    "final_y": "572332.310121",
    "longitude": "-89.95125250375868",
    "latitude": "30.066554648037023",
    "geocoded_column": {
      "latitude": "30.066554648037023",
      "longitude": "-89.95125250375868"
    }
  },
  {
    "service_request": "2023-986697",
    "request_type": "Trash/Recycling",
    "request_reason": "MIssed Recycling Pick-Up",
    "date_created": "2023-03-28T17:57:59.000",
    "date_modified": "2023-03-28T17:58:00.000",
    "request_status": "Pending",
    "responsible_agency": "Department of Sanitation",
    "final_address": "6031 Warwick Ct",
    "address_councildis": "C",
    "status": "Assigned to Contractor",
    "contractor": "Richards Disposal",
    "rowid": "986697",
    "final_x": "3706141.75537",
    "final_y": "515818.027188",
    "longitude": "-89.99084207868353",
    "latitude": "29.91154959812794",
    "geocoded_column": {
      "latitude": "29.91154959812794",
      "longitude": "-89.99084207868353"
    }
  },
  {
    "service_request": "2023-986696",
    "request_type": "Trash/Recycling",
    "request_reason": "Illegal Dumping",
    "date_created": "2023-03-28T17:57:25.000",
    "date_modified": "2023-03-28T17:57:25.000",
    "request_status": "Pending",
    "responsible_agency": "Department of Sanitation",
    "final_address": "2921 N Rocheblave St",
    "address_councildis": "D",
    "status": "Pending",
    "rowid": "986696",
    "final_x": "3688893.06895",
    "final_y": "541308.093516",
    "longitude": "-90.04437806651698",
    "latitude": "29.98218296730714",
    "geocoded_column": {
      "latitude": "29.98218296730714",
      "longitude": "-90.04437806651698"
    }
  },
  {
    "service_request": "2023-986695",
    "request_type": "Trash/Recycling",
    "request_reason": "Request a Large Item Pick Up",
    "date_created": "2023-03-28T17:56:06.000",
    "date_modified": "2023-03-28T17:56:07.000",
    "request_status": "Pending",
    "responsible_agency": "Department of Sanitation",
    "final_address": "725 Napoleon Ave",
    "address_councildis": "B",
    "status": "Assigned to Contractor",
    "contractor": "Richards Disposal",
    "rowid": "986695",
    "final_x": "3671210.86254",
    "final_y": "518268.895926",
    "longitude": "-90.10100979535594",
    "latitude": "29.91936783071306",
    "geocoded_column": {
      "latitude": "29.91936783071306",
      "longitude": "-90.10100979535594"
    }
  },
  {
    "service_request": "2023-986694",
    "request_type": "Trash/Recycling",
    "request_reason": "Illegal Dumping",
    "date_created": "2023-03-28T17:54:33.000",
    "date_modified": "2023-03-28T17:54:33.000",
    "request_status": "Pending",
    "responsible_agency": "Department of Sanitation",
    "final_address": "2916 N Rocheblave St",
    "address_councildis": "D",
    "status": "Pending",
    "rowid": "986694",
    "final_x": "3688834.46684",
    "final_y": "541210.030924",
    "longitude": "-90.04456664345828",
    "latitude": "29.981915142544633",
    "geocoded_column": {
      "latitude": "29.981915142544633",
      "longitude": "-90.04456664345828"
    }
  },
  {
    "service_request": "2023-986693",
    "request_type": "Property Maintenance",
    "request_reason": "Property Maintenance",
    "date_created": "2023-03-28T17:54:14.000",
    "date_modified": "2023-03-28T17:54:14.000",
    "request_status": "Pending",
    "responsible_agency": "Department of Code Enforcement",
    "final_address": "4500 General Meyer Ave",
    "address_councildis": "C",
    "status": "Pending",
    "rowid": "986693",
    "final_x": "3700689.88836",
    "final_y": "524028.745724",
    "longitude": "-90.00774961673321",
    "latitude": "29.934300763858566",
    "geocoded_column": {
      "latitude": "29.934300763858566",
      "longitude": "-90.00774961673321"
    }
  },
  {
    "service_request": "2023-986692",
    "request_type": "Trash/Recycling",
    "request_reason": "Illegal Dumping",
    "date_created": "2023-03-28T17:50:18.000",
    "date_modified": "2023-03-28T17:50:18.000",
    "request_status": "Pending",
    "responsible_agency": "Department of Sanitation",
    "final_address": "2913 N Rocheblave St",
    "address_councildis": "D",
    "status": "Pending",
    "rowid": "986692",
    "final_x": "3688807.04316",
    "final_y": "541282.793164",
    "longitude": "-90.0446506755706",
    "latitude": "29.982116060905664",
    "geocoded_column": {
      "latitude": "29.982116060905664",
      "longitude": "-90.0446506755706"
    }
  },
  {
    "service_request": "2023-986691",
    "request_type": "Trash/Recycling",
    "request_reason": "Return Trash Cart",
    "date_created": "2023-03-28T17:45:25.000",
    "date_modified": "2023-03-28T17:45:26.000",
    "request_status": "Pending",
    "responsible_agency": "Department of Sanitation",
    "final_address": "2312 Killdeer St",
    "address_councildis": "D",
    "status": "Assigned to Contractor",
    "contractor": "IV Waste",
    "rowid": "986691",
    "final_x": "3684206.05244",
    "final_y": "557467.290203",
    "longitude": "-90.05861412116039",
    "latitude": "30.026759061592497",
    "geocoded_column": {
      "latitude": "30.026759061592497",
      "longitude": "-90.05861412116039"
    }
  },
  {
    "service_request": "2023-986690",
    "request_type": "Trash/Recycling",
    "request_reason": "Missed Trash Pick-Up",
    "date_created": "2023-03-28T17:35:05.000",
    "date_modified": "2023-03-28T17:35:06.000",
    "request_status": "Pending",
    "responsible_agency": "Department of Sanitation",
    "final_address": "9307 Morrison Rd",
    "address_councildis": "E",
    "status": "Assigned to Contractor",
    "contractor": "Waste Pro",
    "rowid": "986690",
    "final_x": "3706672.88247",
    "final_y": "562544.83216",
    "longitude": "-89.9874334166719",
    "latitude": "30.0400139324293",
    "geocoded_column": {
      "latitude": "30.0400139324293",
      "longitude": "-89.9874334166719"
    }
  },
  {
    "service_request": "2023-986689",
    "request_type": "EMS",
    "request_reason": "EMS Complaint",
    "date_created": "2023-03-28T17:30:21.000",
    "date_modified": "2023-03-28T17:30:22.000",
    "request_status": "Pending",
    "responsible_agency": "Emergency Medical Services",
    "status": "Pending",
    "rowid": "986689",
    "longitude": "0.0",
    "latitude": "0.0",
    "geocoded_column": {
      "latitude": "0.0",
      "longitude": "0.0"
    }
  },
  {
    "service_request": "2023-986688",
    "request_type": "Trash/Recycling",
    "request_reason": "Request a Large Item Pick Up",
    "date_created": "2023-03-28T17:29:53.000",
    "date_modified": "2023-03-28T17:29:54.000",
    "request_status": "Pending",
    "responsible_agency": "Department of Sanitation",
    "final_address": "826 N Rampart St",
    "address_councildis": "C",
    "status": "Assigned to Contractor",
    "contractor": "Empire Services",
    "rowid": "986688",
    "final_x": "3681789.56725",
    "final_y": "533796.767557",
    "longitude": "-90.06707652592542",
    "latitude": "29.961747223151935",
    "geocoded_column": {
      "latitude": "29.961747223151935",
      "longitude": "-90.06707652592542"
    }
  },
  {
    "service_request": "2023-986687",
    "request_type": "Trash/Recycling",
    "request_reason": "Request a Large Item Pick Up",
    "date_created": "2023-03-28T17:24:33.000",
    "date_modified": "2023-03-28T17:24:34.000",
    "request_status": "Pending",
    "responsible_agency": "Department of Sanitation",
    "final_address": "2761 Dreux Ave",
    "address_councildis": "D",
    "status": "Assigned to Contractor",
    "contractor": "IV Waste",
    "rowid": "986687",
    "final_x": "3687828.78511",
    "final_y": "552356.830102",
    "longitude": "-90.04734792729376",
    "latitude": "30.01259587770836",
    "geocoded_column": {
      "latitude": "30.01259587770836",
      "longitude": "-90.04734792729376"
    }
  },
  {
    "service_request": "2023-986686",
    "request_type": "Abandoned Vehicles",
    "request_reason": "Abandoned/Junk Vehicles",
    "date_created": "2023-03-28T17:22:27.000",
    "date_modified": "2023-03-28T17:22:27.000",
    "request_status": "Pending",
    "responsible_agency": "Department of Public Works",
    "final_address": "6609 Lake Willow Dr",
    "address_councildis": "E",
    "status": "Pending",
    "rowid": "986686",
    "final_x": "3704166.72196",
    "final_y": "559735.496797",
    "longitude": "-89.9954572784548",
    "latitude": "30.032370065437135",
    "geocoded_column": {
      "latitude": "30.032370065437135",
      "longitude": "-89.9954572784548"
    }
  },
  {
    "service_request": "2023-986685",
    "request_type": "Trash/Recycling",
    "request_reason": "Missed Trash Pick-Up",
    "date_created": "2023-03-28T17:22:00.000",
    "date_modified": "2023-03-28T17:22:01.000",
    "request_status": "Pending",
    "responsible_agency": "Department of Sanitation",
    "final_address": "961 Harrison Ave",
    "address_councildis": "A",
    "status": "Assigned to Contractor",
    "contractor": "IV Waste",
    "rowid": "986685",
    "final_x": "3670674.40462",
    "final_y": "549237.697107",
    "longitude": "-90.1016523657706",
    "latitude": "30.004537577948202",
    "geocoded_column": {
      "latitude": "30.004537577948202",
      "longitude": "-90.1016523657706"
    }
  },
  {
    "service_request": "2023-986684",
    "request_type": "Abandoned Vehicles",
    "request_reason": "Abandoned/Junk Vehicles",
    "date_created": "2023-03-28T17:18:40.000",
    "date_modified": "2023-03-28T17:18:40.000",
    "request_status": "Pending",
    "responsible_agency": "Department of Public Works",
    "final_address": "4423 Pauger St",
    "address_councildis": "D",
    "status": "Pending",
    "rowid": "986684",
    "final_x": "3682916.71029",
    "final_y": "548930.032275",
    "longitude": "-90.06298738535703",
    "latitude": "30.003324091700843",
    "geocoded_column": {
      "latitude": "30.003324091700843",
      "longitude": "-90.06298738535703"
    }
  },
  {
    "service_request": "2023-986683",
    "request_type": "Trash/Recycling",
    "request_reason": "Request a Large Item Pick Up",
    "date_created": "2023-03-28T17:17:40.000",
    "date_modified": "2023-03-28T17:17:41.000",
    "request_status": "Pending",
    "responsible_agency": "Department of Sanitation",
    "final_address": "2502 Jasmine St",
    "address_councildis": "D",
    "status": "Assigned to Contractor",
    "contractor": "IV Waste",
    "rowid": "986683",
    "final_x": "3686307.14607",
    "final_y": "547988.293074",
    "longitude": "-90.0523097607821",
    "latitude": "30.000630859396882",
    "geocoded_column": {
      "latitude": "30.000630859396882",
      "longitude": "-90.0523097607821"
    }
  },
  {
    "service_request": "2023-986682",
    "request_type": "Trash/Recycling",
    "request_reason": "MIssed Recycling Pick-Up",
    "date_created": "2023-03-28T17:16:35.000",
    "date_modified": "2023-03-28T17:16:36.000",
    "request_status": "Pending",
    "responsible_agency": "Department of Sanitation",
    "final_address": "2423 Burgundy St",
    "address_councildis": "C",
    "status": "Assigned to Contractor",
    "contractor": "IV Waste",
    "rowid": "986682",
    "final_x": "3686029.5821",
    "final_y": "535695.648135",
    "longitude": "-90.05362030576845",
    "latitude": "29.96683896808017",
    "geocoded_column": {
      "latitude": "29.96683896808017",
      "longitude": "-90.05362030576845"
    }
  },
  {
    "service_request": "2023-986681",
    "request_type": "Trash/Recycling",
    "request_reason": "Request a Large Item Pick Up",
    "date_created": "2023-03-28T17:14:11.000",
    "date_modified": "2023-03-28T17:14:12.000",
    "request_status": "Pending",
    "responsible_agency": "Department of Sanitation",
    "final_address": "5415 Burgundy St",
    "address_councildis": "E",
    "status": "Assigned to Contractor",
    "contractor": "Waste Pro",
    "rowid": "986681",
    "final_x": "3697082.16797",
    "final_y": "533198.77082",
    "longitude": "-90.01880690380933",
    "latitude": "29.959629399258237",
    "geocoded_column": {
      "latitude": "29.959629399258237",
      "longitude": "-90.01880690380933"
    }
  },
  {
    "service_request": "2023-986680",
    "request_type": "Trash/Recycling",
    "request_reason": "Order Recycling Cart",
    "date_created": "2023-03-28T17:13:56.000",
    "date_modified": "2023-03-28T17:13:56.000",
    "request_status": "Pending",
    "responsible_agency": "Department of Sanitation",
    "final_address": "8514 Freret St",
    "address_councildis": "A",
    "status": "Pending",
    "rowid": "986680",
    "final_x": "3660297.07584",
    "final_y": "528889.007872",
    "longitude": "-90.1351087745928",
    "latitude": "29.948888037674052",
    "geocoded_column": {
      "latitude": "29.948888037674052",
      "longitude": "-90.1351087745928"
    }
  },
  {
    "service_request": "2023-986679",
    "request_type": "Trash/Recycling",
    "request_reason": "Request a Large Item Pick Up",
    "date_created": "2023-03-28T16:57:25.000",
    "date_modified": "2023-03-28T16:57:26.000",
    "request_status": "Pending",
    "responsible_agency": "Department of Sanitation",
    "final_address": "1900 BLK Saint Thomas St",
    "address_councildis": "B",
    "status": "Assigned to Contractor",
    "contractor": "Richards Disposal",
    "rowid": "986679",
    "final_x": "3680840.24163",
    "final_y": "521325.544735",
    "longitude": "-90.07050836885253",
    "latitude": "29.927484343740478",
    "geocoded_column": {
      "latitude": "29.927484343740478",
      "longitude": "-90.07050836885253"
    }
  },
  {
    "service_request": "2023-986678",
    "request_type": "Property Maintenance",
    "request_reason": "Property Maintenance",
    "date_created": "2023-03-28T16:56:45.000",
    "date_modified": "2023-03-28T17:27:44.000",
    "request_status": "Pending",
    "responsible_agency": "Department of Code Enforcement",
    "final_address": "2721 General Ogden St",
    "address_councildis": "A",
    "status": "Pending",
    "rowid": "986678",
    "final_x": "3663643.83219",
    "final_y": "534369.035077",
    "longitude": "-90.1243590123576",
    "latitude": "29.96385967641752",
    "geocoded_column": {
      "latitude": "29.96385967641752",
      "longitude": "-90.1243590123576"
    }
  },
  {
    "service_request": "2023-986677",
    "request_type": "Trash/Recycling",
    "request_reason": "Illegal Dumping",
    "date_created": "2023-03-28T16:53:58.000",
    "date_modified": "2023-03-28T16:53:58.000",
    "request_status": "Pending",
    "responsible_agency": "Department of Sanitation",
    "final_address": "1100 BLK General Taylor St",
    "address_councildis": "B",
    "status": "Pending",
    "rowid": "986677",
    "final_x": "3672907.37364",
    "final_y": "519862.817017",
    "longitude": "-90.09560040577898",
    "latitude": "29.92370032612822",
    "geocoded_column": {
      "latitude": "29.92370032612822",
      "longitude": "-90.09560040577898"
    }
  },
  {
    "service_request": "2023-986676",
    "request_type": "Trash/Recycling",
    "request_reason": "Request a Large Item Pick Up",
    "date_created": "2023-03-28T16:53:25.000",
    "date_modified": "2023-03-28T16:53:26.000",
    "request_status": "Pending",
    "responsible_agency": "Department of Sanitation",
    "final_address": "4954 Warren Dr",
    "address_councildis": "E",
    "status": "Assigned to Contractor",
    "contractor": "Waste Pro",
    "rowid": "986676",
    "final_x": "3713273.37861",
    "final_y": "557391.219995",
    "longitude": "-89.96676822799627",
    "latitude": "30.025628726979832",
    "geocoded_column": {
      "latitude": "30.025628726979832",
      "longitude": "-89.96676822799627"
    }
  },
  {
    "service_request": "2023-986675",
    "request_type": "Trash/Recycling",
    "request_reason": "Replace Trash Cart",
    "date_created": "2023-03-28T16:46:15.000",
    "date_modified": "2023-03-28T16:46:15.000",
    "request_status": "Pending",
    "responsible_agency": "Department of Sanitation",
    "final_address": "8860 Apricot St",
    "address_councildis": "A",
    "status": "Assigned to Contractor",
    "contractor": "Richards Disposal",
    "rowid": "986675",
    "final_x": "3663760.65939",
    "final_y": "534450.140933",
    "longitude": "-90.1239873783174",
    "latitude": "29.964079301064018",
    "geocoded_column": {
      "latitude": "29.964079301064018",
      "longitude": "-90.1239873783174"
    }
  },
  {
    "service_request": "2023-986674",
    "request_type": "Property Maintenance",
    "request_reason": "Property Maintenance",
    "date_created": "2023-03-28T16:42:59.000",
    "date_modified": "2023-03-28T16:42:59.000",
    "request_status": "Pending",
    "responsible_agency": "Department of Code Enforcement",
    "final_address": "4019 Royal St",
    "address_councildis": "C",
    "status": "Pending",
    "rowid": "986674",
    "final_x": "3691585.92553",
    "final_y": "533797.204229",
    "longitude": "-90.0361413179396",
    "latitude": "29.96144711359915",
    "geocoded_column": {
      "latitude": "29.96144711359915",
      "longitude": "-90.0361413179396"
    }
  },
  {
    "service_request": "2023-986673",
    "request_type": "Trash/Recycling",
    "request_reason": "MIssed Recycling Pick-Up",
    "date_created": "2023-03-28T16:36:00.000",
    "date_modified": "2023-03-28T16:36:01.000",
    "request_status": "Pending",
    "responsible_agency": "Department of Sanitation",
    "final_address": "820 Jefferson Ave",
    "address_councildis": "A",
    "status": "Assigned to Contractor",
    "contractor": "Richards Disposal",
    "rowid": "986673",
    "final_x": "3666616.29799",
    "final_y": "518590.638135",
    "longitude": "-90.11550178594287",
    "latitude": "29.920387592369174",
    "geocoded_column": {
      "latitude": "29.920387592369174",
      "longitude": "-90.11550178594287"
    }
  },
  {
    "service_request": "2023-986672",
    "request_type": "Roads/Drainage",
    "request_reason": "Pothole",
    "date_created": "2023-03-28T16:34:39.000",
    "date_modified": "2023-03-28T16:34:40.000",
    "request_status": "Pending",
    "responsible_agency": "Department of Public Works",
    "final_address": "ST CLAUDE AVE & ELYSIAN FIELDS AVE",
    "address_councildis": "C",
    "status": "Pending",
    "rowid": "986672",
    "final_x": "3684962.3",
    "final_y": "536299.18",
    "longitude": "-90.05696954489969",
    "latitude": "29.96853120354274",
    "geocoded_column": {
      "latitude": "29.96853120354274",
      "longitude": "-90.05696954489969"
    }
  },
  {
    "service_request": "2023-986670",
    "request_type": "Traffic Signals/Signs/Striping/Streetlights",
    "request_reason": "Street Light Outage/Malfunction",
    "date_created": "2023-03-28T16:31:47.000",
    "date_modified": "2023-03-28T16:31:47.000",
    "request_status": "Pending",
    "responsible_agency": "Department of Public Works",
    "final_address": "1341 Franklin Ave",
    "address_councildis": "C",
    "status": "Assigned to Contractor",
    "contractor": "Legacy Professional Services",
    "rowid": "986670",
    "final_x": "3687424.23292",
    "final_y": "537502.378952",
    "longitude": "-90.0491520660738",
    "latitude": "29.97176394433445",
    "geocoded_column": {
      "latitude": "29.97176394433445",
      "longitude": "-90.0491520660738"
    }
  },
  {
    "service_request": "2023-986668",
    "request_type": "Trash/Recycling",
    "request_reason": "Request a Large Item Pick Up",
    "date_created": "2023-03-28T16:28:16.000",
    "date_modified": "2023-03-28T16:28:17.000",
    "request_status": "Pending",
    "responsible_agency": "Department of Sanitation",
    "final_address": "1907 Ellen Park Pl",
    "address_councildis": "C",
    "status": "Assigned to Contractor",
    "contractor": "Richards Disposal",
    "rowid": "986668",
    "final_x": "3702874.2881",
    "final_y": "523908.827964",
    "longitude": "-90.00085798677532",
    "latitude": "29.933901365581594",
    "geocoded_column": {
      "latitude": "29.933901365581594",
      "longitude": "-90.00085798677532"
    }
  },
  {
    "service_request": "2023-986667",
    "request_type": "Trash/Recycling",
    "request_reason": "Request a Large Item Pick Up",
    "date_created": "2023-03-28T16:28:16.000",
    "date_modified": "2023-03-28T16:28:17.000",
    "request_status": "Pending",
    "responsible_agency": "Department of Sanitation",
    "final_address": "1907 Ellen Park Pl",
    "address_councildis": "C",
    "status": "Assigned to Contractor",
    "contractor": "Richards Disposal",
    "rowid": "986667",
    "final_x": "3702874.2881",
    "final_y": "523908.827964",
    "longitude": "-90.00085798677532",
    "latitude": "29.933901365581594",
    "geocoded_column": {
      "latitude": "29.933901365581594",
      "longitude": "-90.00085798677532"
    }
  },
  {
    "service_request": "2023-986665",
    "request_type": "Trash/Recycling",
    "request_reason": "Request a Large Item Pick Up",
    "date_created": "2023-03-28T16:27:17.000",
    "date_modified": "2023-03-28T16:27:18.000",
    "request_status": "Pending",
    "responsible_agency": "Department of Sanitation",
    "final_address": "1615 S Rendon St",
    "address_councildis": "B",
    "status": "Assigned to Contractor",
    "contractor": "Richards Disposal",
    "rowid": "986665",
    "final_x": "3669759.02503",
    "final_y": "531006.627458",
    "longitude": "-90.10516157322171",
    "latitude": "29.954435338916625",
    "geocoded_column": {
      "latitude": "29.954435338916625",
      "longitude": "-90.10516157322171"
    }
  },
  {
    "service_request": "2023-986664",
    "request_type": "Trash/Recycling",
    "request_reason": "Illegal Dumping",
    "date_created": "2023-03-28T16:22:03.000",
    "date_modified": "2023-03-28T16:22:04.000",
    "request_status": "Pending",
    "responsible_agency": "Department of Sanitation",
    "final_address": "399 Broadway St",
    "address_councildis": "A",
    "status": "Pending",
    "rowid": "986664",
    "final_x": "3662071.74682",
    "final_y": "523249.358203",
    "longitude": "-90.12969239595746",
    "latitude": "29.93332964555626",
    "geocoded_column": {
      "latitude": "29.93332964555626",
      "longitude": "-90.12969239595746"
    }
  },
  {
    "service_request": "2023-986663",
    "request_type": "Trash/Recycling",
    "request_reason": "Request a Large Item Pick Up",
    "date_created": "2023-03-28T16:21:57.000",
    "date_modified": "2023-03-28T16:21:58.000",
    "request_status": "Pending",
    "responsible_agency": "Department of Sanitation",
    "final_address": "819 Port St",
    "address_councildis": "C",
    "status": "Assigned to Contractor",
    "contractor": "IV Waste",
    "rowid": "986663",
    "final_x": "3687196.31414",
    "final_y": "535410.634886",
    "longitude": "-90.04994585747143",
    "latitude": "29.96601940001161",
    "geocoded_column": {
      "latitude": "29.96601940001161",
      "longitude": "-90.04994585747143"
    }
  },
  {
    "service_request": "2023-986661",
    "request_type": "Abandoned Vehicles",
    "request_reason": "Abandoned/Junk Vehicles",
    "date_created": "2023-03-28T16:21:51.000",
    "date_modified": "2023-03-28T16:21:51.000",
    "request_status": "Pending",
    "responsible_agency": "Department of Public Works",
    "final_address": "4168 Bienville Ave",
    "address_councildis": "A",
    "status": "Pending",
    "rowid": "986661",
    "final_x": "3671101.96711",
    "final_y": "539243.38049",
    "longitude": "-90.1006412824638",
    "latitude": "29.977044006798113",
    "geocoded_column": {
      "latitude": "29.977044006798113",
      "longitude": "-90.1006412824638"
    }
  },
  {
    "service_request": "2023-986662",
    "request_type": "Abandoned Vehicles",
    "request_reason": "Abandoned/Junk Vehicles",
    "date_created": "2023-03-28T16:21:51.000",
    "date_modified": "2023-03-28T16:21:51.000",
    "request_status": "Pending",
    "responsible_agency": "Department of Public Works",
    "final_address": "4168 Bienville Ave",
    "address_councildis": "A",
    "status": "Pending",
    "rowid": "986662",
    "final_x": "3671101.96711",
    "final_y": "539243.38049",
    "longitude": "-90.1006412824638",
    "latitude": "29.977044006798113",
    "geocoded_column": {
      "latitude": "29.977044006798113",
      "longitude": "-90.1006412824638"
    }
  },
  {
    "service_request": "2023-986660",
    "request_type": "Trash/Recycling",
    "request_reason": "Repair Trash Cart",
    "date_created": "2023-03-28T16:21:40.000",
    "date_modified": "2023-03-28T16:21:41.000",
    "request_status": "Pending",
    "responsible_agency": "Department of Sanitation",
    "final_address": "5721 Carlisle Ct",
    "address_councildis": "C",
    "status": "Assigned to Contractor",
    "contractor": "Richards Disposal",
    "rowid": "986660",
    "final_x": "3704719.22417",
    "final_y": "516492.455797",
    "longitude": "-89.99530705016824",
    "latitude": "29.913449796486432",
    "geocoded_column": {
      "latitude": "29.913449796486432",
      "longitude": "-89.99530705016824"
    }
  },
  {
    "service_request": "2023-986659",
    "request_type": "Trash/Recycling",
    "request_reason": "Missed Trash Pick-Up",
    "date_created": "2023-03-28T16:20:32.000",
    "date_modified": "2023-03-28T16:20:33.000",
    "request_status": "Pending",
    "responsible_agency": "Department of Sanitation",
    "final_address": "5336 Dryades St",
    "address_councildis": "B",
    "status": "Assigned to Contractor",
    "contractor": "Richards Disposal",
    "rowid": "986659",
    "final_x": "3667609.66049",
    "final_y": "521793.283898",
    "longitude": "-90.11225846699281",
    "latitude": "29.929164787498774",
    "geocoded_column": {
      "latitude": "29.929164787498774",
      "longitude": "-90.11225846699281"
    }
  },
  {
    "service_request": "2023-986658",
    "request_type": "Trash/Recycling",
    "request_reason": "Illegal Dumping",
    "date_created": "2023-03-28T16:20:00.000",
    "date_modified": "2023-03-28T16:20:01.000",
    "request_status": "Pending",
    "responsible_agency": "Department of Code Enforcement",
    "final_address": "3100 BLK Toledano St",
    "address_councildis": "B",
    "status": "Pending",
    "rowid": "986658",
    "final_x": "3672249.88086",
    "final_y": "527194.257735",
    "longitude": "-90.09742625645325",
    "latitude": "29.943878930037595",
    "geocoded_column": {
      "latitude": "29.943878930037595",
      "longitude": "-90.09742625645325"
    }
  },
  {
    "service_request": "2023-986657",
    "request_type": "Trash/Recycling",
    "request_reason": "Request a Large Item Pick Up",
    "date_created": "2023-03-28T16:16:10.000",
    "date_modified": "2023-03-28T16:16:11.000",
    "request_status": "Pending",
    "responsible_agency": "Department of Sanitation",
    "final_address": "8301 Lomond Rd",
    "address_councildis": "E",
    "status": "Assigned to Contractor",
    "contractor": "Waste Pro",
    "rowid": "986657",
    "final_x": "3703054.73188",
    "final_y": "561832.818719",
    "longitude": "-89.99889403786482",
    "latitude": "30.038172533824554",
    "geocoded_column": {
      "latitude": "30.038172533824554",
      "longitude": "-89.99889403786482"
    }
  },
  {
    "service_request": "2023-986656",
    "request_type": "Trash/Recycling",
    "request_reason": "Request a Large Item Pick Up",
    "date_created": "2023-03-28T16:15:43.000",
    "date_modified": "2023-03-28T16:15:45.000",
    "request_status": "Pending",
    "responsible_agency": "Department of Sanitation",
    "final_address": "29 Tennyson Pl",
    "address_councildis": "C",
    "status": "Assigned to Contractor",
    "contractor": "Richards Disposal",
    "rowid": "986656",
    "final_x": "3705117.45745",
    "final_y": "517720.915062",
    "longitude": "-89.99400479133874",
    "latitude": "29.91681484339427",
    "geocoded_column": {
      "latitude": "29.91681484339427",
      "longitude": "-89.99400479133874"
    }
  },
  {
    "service_request": "2023-986655",
    "request_type": "Traffic Signals/Signs/Striping/Streetlights",
    "request_reason": "Traffic Signal Malfunctioning/Damaged",
    "date_created": "2023-03-28T16:14:29.000",
    "date_modified": "2023-03-28T16:14:29.000",
    "request_status": "Pending",
    "responsible_agency": "Department of Public Works",
    "final_address": "2911 Annunciation St",
    "address_councildis": "B",
    "status": "Pending",
    "rowid": "986655",
    "final_x": "3677119.22114",
    "final_y": "519591.127032",
    "longitude": "-90.08231449906575",
    "latitude": "29.922827494790358",
    "geocoded_column": {
      "latitude": "29.922827494790358",
      "longitude": "-90.08231449906575"
    }
  },
  {
    "service_request": "2023-986654",
    "request_type": "Traffic Signals/Signs/Striping/Streetlights",
    "request_reason": "Street Light Outage/Malfunction",
    "date_created": "2023-03-28T16:08:18.000",
    "date_modified": "2023-03-28T16:08:18.000",
    "request_status": "Pending",
    "responsible_agency": "Department of Public Works",
    "final_address": "CHEF MENTEUR HWY & CHANTILLY DR",
    "address_councildis": "E",
    "status": "Assigned to Contractor",
    "contractor": "Legacy Professional Services",
    "rowid": "986654",
    "final_x": "3700963.5",
    "final_y": "552101.28",
    "longitude": "-90.00585911693433",
    "latitude": "30.011481342826563",
    "geocoded_column": {
      "latitude": "30.011481342826563",
      "longitude": "-90.00585911693433"
    }
  },
  {
    "service_request": "2023-986653",
    "request_type": "Trash/Recycling",
    "request_reason": "MIssed Recycling Pick-Up",
    "date_created": "2023-03-28T16:05:13.000",
    "date_modified": "2023-03-28T16:05:13.000",
    "request_status": "Pending",
    "responsible_agency": "Department of Sanitation",
    "final_address": "9701 W Wheaton Cir",
    "address_councildis": "E",
    "status": "Assigned to Contractor",
    "contractor": "Waste Pro",
    "rowid": "986653",
    "final_x": "3708544.50398",
    "final_y": "562225.718175",
    "longitude": "-89.98153045271161",
    "latitude": "30.03907591542858",
    "geocoded_column": {
      "latitude": "30.03907591542858",
      "longitude": "-89.98153045271161"
    }
  },
  {
    "service_request": "2023-986652",
    "request_type": "Parks & Parkways",
    "request_reason": "Request Tree Service (Right of Way/Public Property)",
    "date_created": "2023-03-28T16:04:22.000",
    "date_modified": "2023-03-28T16:08:34.000",
    "case_close_date": "2023-03-28T11:08:34.000",
    "request_status": "Closed",
    "responsible_agency": "Department of Parks & Parkway",
    "final_address": "4723 Rhodes Dr",
    "address_councildis": "E",
    "status": "Duplicate Request",
    "rowid": "986652",
    "final_x": "3702579.14807",
    "final_y": "554425.649304",
    "longitude": "-90.00066924606017",
    "latitude": "30.017820906717727",
    "geocoded_column": {
      "latitude": "30.017820906717727",
      "longitude": "-90.00066924606017"
    }
  },
  {
    "service_request": "2023-986651",
    "request_type": "Trash/Recycling",
    "request_reason": "Missed Trash Pick-Up",
    "date_created": "2023-03-28T15:57:31.000",
    "date_modified": "2023-03-28T15:57:32.000",
    "request_status": "Pending",
    "responsible_agency": "Department of Sanitation",
    "final_address": "2718 Hollygrove St",
    "address_councildis": "A",
    "status": "Assigned to Contractor",
    "contractor": "Richards Disposal",
    "rowid": "986651",
    "final_x": "3663342.67469",
    "final_y": "534667.909126",
    "longitude": "-90.12530009302897",
    "latitude": "29.964690215774237",
    "geocoded_column": {
      "latitude": "29.964690215774237",
      "longitude": "-90.12530009302897"
    }
  },
  {
    "service_request": "2023-986650",
    "request_type": "Roads/Drainage",
    "request_reason": "Pothole",
    "date_created": "2023-03-28T15:55:58.000",
    "date_modified": "2023-03-28T15:55:59.000",
    "request_status": "Pending",
    "responsible_agency": "Department of Public Works",
    "final_address": "7540 Brevard Ave",
    "address_councildis": "E",
    "status": "Pending",
    "rowid": "986650",
    "final_x": "3706423.6218",
    "final_y": "563257.692064",
    "longitude": "-89.98819470554007",
    "latitude": "30.041982062537123",
    "geocoded_column": {
      "latitude": "30.041982062537123",
      "longitude": "-89.98819470554007"
    }
  },
  {
    "service_request": "2023-986649",
    "request_type": "Trash/Recycling",
    "request_reason": "Replace Trash Cart",
    "date_created": "2023-03-28T15:54:35.000",
    "date_modified": "2023-03-28T15:54:36.000",
    "request_status": "Pending",
    "responsible_agency": "Department of Sanitation",
    "final_address": "1735 Urquhart St",
    "address_councildis": "C",
    "status": "Assigned to Contractor",
    "contractor": "IV Waste",
    "rowid": "986649",
    "final_x": "3683385.99663",
    "final_y": "536940.908616",
    "longitude": "-90.061925100226",
    "latitude": "29.97034392112823",
    "geocoded_column": {
      "latitude": "29.97034392112823",
      "longitude": "-90.061925100226"
    }
  },
  {
    "service_request": "2023-986648",
    "request_type": "Trash/Recycling",
    "request_reason": "Repair Trash Cart",
    "date_created": "2023-03-28T15:53:47.000",
    "date_modified": "2023-03-28T16:23:00.000",
    "request_status": "Pending",
    "responsible_agency": "Department of Sanitation",
    "final_address": "1916 Prytania St",
    "address_councildis": "B",
    "status": "Assigned to Contractor",
    "contractor": "Richards Disposal",
    "rowid": "986648",
    "final_x": "3678633.12104",
    "final_y": "523782.865275",
    "longitude": "-90.07739068110115",
    "latitude": "29.93430787045944",
    "geocoded_column": {
      "latitude": "29.93430787045944",
      "longitude": "-90.07739068110115"
    }
  },
  {
    "service_request": "2023-986647",
    "request_type": "Mayor's Request",
    "request_reason": "Entergy Bill Payment Assistance",
    "date_created": "2023-03-28T15:50:27.000",
    "date_modified": "2023-03-28T15:50:28.000",
    "request_status": "Pending",
    "responsible_agency": "Executive Office of the Mayor",
    "final_address": "8335 Birch St Apt A",
    "address_councildis": "A",
    "status": "Pending",
    "rowid": "986647",
    "final_x": "3662187.83629",
    "final_y": "530152.364737",
    "longitude": "-90.12909687657191",
    "latitude": "29.952307361053382",
    "geocoded_column": {
      "latitude": "29.952307361053382",
      "longitude": "-90.12909687657191"
    }
  },
  {
    "service_request": "2023-986646",
    "request_type": "Roads/Drainage",
    "request_reason": "Street Subsidence (Sinking)",
    "date_created": "2023-03-28T15:47:49.000",
    "date_modified": "2023-03-28T15:47:49.000",
    "request_status": "Pending",
    "responsible_agency": "Department of Public Works",
    "final_address": "800 BLK Bungalow Ct",
    "address_councildis": "A",
    "status": "Pending",
    "rowid": "986646",
    "final_x": "3672639.46899",
    "final_y": "540593.455674",
    "longitude": "-90.09573929296921",
    "latitude": "29.98071068326906",
    "geocoded_column": {
      "latitude": "29.98071068326906",
      "longitude": "-90.09573929296921"
    }
  },
  {
    "service_request": "2023-986645",
    "request_type": "Trash/Recycling",
    "request_reason": "Order Recycling Cart",
    "date_created": "2023-03-28T15:41:29.000",
    "date_modified": "2023-03-28T15:41:30.000",
    "request_status": "Pending",
    "responsible_agency": "Department of Sanitation",
    "final_address": "3137 Pauger St",
    "address_councildis": "D",
    "status": "Pending",
    "rowid": "986645",
    "final_x": "3683499.53263",
    "final_y": "541328.193932",
    "longitude": "-90.06141274068953",
    "latitude": "29.982403960362294",
    "geocoded_column": {
      "latitude": "29.982403960362294",
      "longitude": "-90.06141274068953"
    }
  },
  {
    "service_request": "2023-986644",
    "request_type": "Trash/Recycling",
    "request_reason": "Order Trash Cart",
    "date_created": "2023-03-28T15:40:38.000",
    "date_modified": "2023-03-28T15:40:39.000",
    "request_status": "Pending",
    "responsible_agency": "Department of Sanitation",
    "final_address": "3137 Pauger St",
    "address_councildis": "D",
    "status": "Assigned to Contractor",
    "contractor": "IV Waste",
    "rowid": "986644",
    "final_x": "3683499.53263",
    "final_y": "541328.193932",
    "longitude": "-90.06141274068953",
    "latitude": "29.982403960362294",
    "geocoded_column": {
      "latitude": "29.982403960362294",
      "longitude": "-90.06141274068953"
    }
  },
  {
    "service_request": "2023-986643",
    "request_type": "Trash/Recycling",
    "request_reason": "Missed Trash Pick-Up",
    "date_created": "2023-03-28T15:40:05.000",
    "date_modified": "2023-03-28T15:40:06.000",
    "request_status": "Pending",
    "responsible_agency": "Department of Sanitation",
    "final_address": "2000 BLK N Roman St",
    "address_councildis": "D",
    "status": "Assigned to Contractor",
    "contractor": "IV Waste",
    "rowid": "986643",
    "final_x": "3684203.41371",
    "final_y": "538834.436554",
    "longitude": "-90.05927712024726",
    "latitude": "29.9755254991679",
    "geocoded_column": {
      "latitude": "29.9755254991679",
      "longitude": "-90.05927712024726"
    }
  },
  {
    "service_request": "2023-986642",
    "request_type": "Abandoned Vehicles",
    "request_reason": "Abandoned/Junk Vehicles",
    "date_created": "2023-03-28T15:34:42.000",
    "date_modified": "2023-03-28T15:34:42.000",
    "request_status": "Pending",
    "responsible_agency": "Department of Public Works",
    "final_address": "7923 Means Ave",
    "address_councildis": "E",
    "status": "Pending",
    "rowid": "986642",
    "final_x": "3707601.87134",
    "final_y": "565676.133602",
    "longitude": "-89.98438104389504",
    "latitude": "30.048593725718316",
    "geocoded_column": {
      "latitude": "30.048593725718316",
      "longitude": "-89.98438104389504"
    }
  },
  {
    "service_request": "2023-986641",
    "request_type": "Trash/Recycling",
    "request_reason": "Request a Large Item Pick Up",
    "date_created": "2023-03-28T15:33:34.000",
    "date_modified": "2023-03-28T15:33:35.000",
    "request_status": "Pending",
    "responsible_agency": "Department of Sanitation",
    "final_address": "4729 Corinne St",
    "address_councildis": "E",
    "status": "Assigned to Contractor",
    "contractor": "Waste Pro",
    "rowid": "986641",
    "final_x": "3715115.48043",
    "final_y": "556819.672538",
    "longitude": "-89.96096913964354",
    "latitude": "30.023996661919245",
    "geocoded_column": {
      "latitude": "30.023996661919245",
      "longitude": "-89.96096913964354"
    }
  },
  {
    "service_request": "2023-986640",
    "request_type": "Trash/Recycling",
    "request_reason": "Missed Trash Pick-Up",
    "date_created": "2023-03-28T15:30:20.000",
    "date_modified": "2023-03-28T16:17:11.000",
    "case_close_date": "2023-03-28T11:17:11.000",
    "request_status": "Closed",
    "responsible_agency": "Department of Sanitation",
    "final_address": "4729 Corinne St, New Orleans, Louisiana, 70127",
    "address_councildis": "E",
    "status": "Assigned to Contractor",
    "contractor": "Waste Pro",
    "contractor_action": "Completed",
    "rowid": "986640",
    "final_x": "3715115.48043",
    "final_y": "556819.672538",
    "longitude": "-89.96096913964354",
    "latitude": "30.023996661919245",
    "geocoded_column": {
      "latitude": "30.023996661919245",
      "longitude": "-89.96096913964354"
    }
  },
  {
    "service_request": "2023-986639",
    "request_type": "Trash/Recycling",
    "request_reason": "Request a Large Item Pick Up",
    "date_created": "2023-03-28T15:27:40.000",
    "date_modified": "2023-03-28T15:27:41.000",
    "request_status": "Pending",
    "responsible_agency": "Department of Sanitation",
    "final_address": "7070 W Renaissance Ct",
    "address_councildis": "E",
    "status": "Assigned to Contractor",
    "contractor": "Waste Pro",
    "rowid": "986639",
    "final_x": "3716746.30021",
    "final_y": "567310.352868",
    "longitude": "-89.95541750043738",
    "latitude": "30.052787981241693",
    "geocoded_column": {
      "latitude": "30.052787981241693",
      "longitude": "-89.95541750043738"
    }
  },
  {
    "service_request": "2023-986638",
    "request_type": "Property Maintenance",
    "request_reason": "Property Maintenance",
    "date_created": "2023-03-28T15:26:09.000",
    "date_modified": "2023-03-28T15:26:10.000",
    "request_status": "Pending",
    "responsible_agency": "Department of Code Enforcement",
    "final_address": "3229 Montegut St",
    "address_councildis": "D",
    "status": "Pending",
    "rowid": "986638",
    "final_x": "3690656.25193",
    "final_y": "544674.395855",
    "longitude": "-90.03868896825082",
    "latitude": "29.991384435006673",
    "geocoded_column": {
      "latitude": "29.991384435006673",
      "longitude": "-90.03868896825082"
    }
  },
  {
    "service_request": "2023-986637",
    "request_type": "Parks & Parkways",
    "request_reason": "Request Tree Service (Right of Way/Public Property)",
    "date_created": "2023-03-28T15:24:52.000",
    "date_modified": "2023-03-28T15:24:52.000",
    "request_status": "Pending",
    "responsible_agency": "Department of Parks & Parkway",
    "final_address": "BURBANK DR & ELYSIAN FIELDS AVE",
    "address_councildis": "D",
    "status": "Pending",
    "rowid": "986637",
    "final_x": "3683452.9",
    "final_y": "554769.08",
    "longitude": "-90.06108866796878",
    "latitude": "30.0193629946011",
    "geocoded_column": {
      "latitude": "30.0193629946011",
      "longitude": "-90.06108866796878"
    }
  },
  {
    "service_request": "2023-986636",
    "request_type": "Traffic Signals/Signs/Striping/Streetlights",
    "request_reason": "Street Light Outage/Malfunction",
    "date_created": "2023-03-28T15:22:46.000",
    "date_modified": "2023-03-28T15:22:47.000",
    "request_status": "Pending",
    "responsible_agency": "Department of Public Works",
    "final_address": "3009 Constance St",
    "address_councildis": "B",
    "status": "Assigned to Contractor",
    "contractor": "Legacy Professional Services",
    "rowid": "986636",
    "final_x": "3676445.69352",
    "final_y": "520039.113336",
    "longitude": "-90.08442514939131",
    "latitude": "29.92407951501425",
    "geocoded_column": {
      "latitude": "29.92407951501425",
      "longitude": "-90.08442514939131"
    }
  },
  {
    "service_request": "2023-986635",
    "request_type": "Trash/Recycling",
    "request_reason": "Request a Large Item Pick Up",
    "date_created": "2023-03-28T15:22:04.000",
    "date_modified": "2023-03-28T15:22:05.000",
    "request_status": "Pending",
    "responsible_agency": "Department of Sanitation",
    "final_address": "4500 Arthur Dr",
    "address_councildis": "E",
    "status": "Assigned to Contractor",
    "contractor": "Waste Pro",
    "rowid": "986635",
    "final_x": "3707769.40913",
    "final_y": "553962.837336",
    "longitude": "-89.98428739200858",
    "latitude": "30.016381350041613",
    "geocoded_column": {
      "latitude": "30.016381350041613",
      "longitude": "-89.98428739200858"
    }
  },
  {
    "service_request": "2023-986634",
    "request_type": "Trash/Recycling",
    "request_reason": "Order Trash Cart",
    "date_created": "2023-03-28T15:17:39.000",
    "date_modified": "2023-03-28T15:17:40.000",
    "request_status": "Pending",
    "responsible_agency": "Department of Sanitation",
    "final_address": "409 New Orleans-Hammond Hwy",
    "address_councildis": "A",
    "status": "Assigned to Contractor",
    "contractor": "IV Waste",
    "rowid": "986634",
    "final_x": "3665464.63911",
    "final_y": "554725.997016",
    "longitude": "-90.11792717178125",
    "latitude": "30.019781440011815",
    "geocoded_column": {
      "latitude": "30.019781440011815",
      "longitude": "-90.11792717178125"
    }
  },
  {
    "service_request": "2023-986633",
    "request_type": "Parks & Parkways",
    "request_reason": "Request Tree Service (Right of Way/Public Property)",
    "date_created": "2023-03-28T15:16:55.000",
    "date_modified": "2023-03-28T15:20:52.000",
    "request_status": "Pending",
    "responsible_agency": "Department of Parks & Parkway",
    "final_address": "ELYSIAN FIELDS AVE & PRESSBURG ST",
    "address_councildis": "D",
    "status": "Pending",
    "rowid": "986633",
    "final_x": "3683470.3",
    "final_y": "554582.08",
    "longitude": "-90.0610402505437",
    "latitude": "30.018848281968705",
    "geocoded_column": {
      "latitude": "30.018848281968705",
      "longitude": "-90.0610402505437"
    }
  },
  {
    "service_request": "2023-986632",
    "request_type": "Trash/Recycling",
    "request_reason": "Request a Large Item Pick Up",
    "date_created": "2023-03-28T15:13:04.000",
    "date_modified": "2023-03-28T15:13:05.000",
    "request_status": "Pending",
    "responsible_agency": "Department of Sanitation",
    "final_address": "918 N Rendon St",
    "address_councildis": "A",
    "status": "Assigned to Contractor",
    "contractor": "Richards Disposal",
    "rowid": "986632",
    "final_x": "3675540.63893",
    "final_y": "538969.425546",
    "longitude": "-90.0866319266803",
    "latitude": "29.976158678769302",
    "geocoded_column": {
      "latitude": "29.976158678769302",
      "longitude": "-90.0866319266803"
    }
  },
  {
    "service_request": "2023-986631",
    "request_type": "Trash/Recycling",
    "request_reason": "Request a Large Item Pick Up",
    "date_created": "2023-03-28T15:11:24.000",
    "date_modified": "2023-03-28T17:19:04.000",
    "case_close_date": "2023-03-28T12:19:04.000",
    "request_status": "Closed",
    "responsible_agency": "Department of Sanitation",
    "final_address": "7301 Wayside Dr",
    "address_councildis": "E",
    "status": "Assigned to Contractor",
    "contractor": "Waste Pro",
    "contractor_action": "Completed",
    "rowid": "986631",
    "final_x": "3717127.64383",
    "final_y": "568646.471845",
    "longitude": "-89.9541613635904",
    "latitude": "30.056449142733285",
    "geocoded_column": {
      "latitude": "30.056449142733285",
      "longitude": "-89.9541613635904"
    }
  },
  {
    "service_request": "2023-986630",
    "request_type": "Abandoned Vehicles",
    "request_reason": "Abandoned/Junk Vehicles",
    "date_created": "2023-03-28T15:07:19.000",
    "date_modified": "2023-03-28T15:08:41.000",
    "request_status": "Pending",
    "responsible_agency": "Department of Public Works",
    "final_address": "FELICITY ST & BARONNE ST",
    "address_councildis": "B",
    "status": "Inspected",
    "rowid": "986630",
    "final_x": "3677890.4",
    "final_y": "525168.98",
    "longitude": "-90.07968755352348",
    "latitude": "29.938141593975352",
    "geocoded_column": {
      "latitude": "29.938141593975352",
      "longitude": "-90.07968755352348"
    }
  },
  {
    "service_request": "2023-986629",
    "request_type": "Trash/Recycling",
    "request_reason": "Illegal Dumping",
    "date_created": "2023-03-28T15:06:19.000",
    "date_modified": "2023-03-28T15:07:40.000",
    "request_status": "Pending",
    "responsible_agency": "Department of Sanitation",
    "final_address": "I 10 E & CHEF MENTEUR EXIT",
    "address_councildis": "E",
    "status": "Pending",
    "rowid": "986629",
    "final_x": "3698336.5",
    "final_y": "550858.18",
    "longitude": "-90.01420405816066",
    "latitude": "30.0081467060236",
    "geocoded_column": {
      "latitude": "30.0081467060236",
      "longitude": "-90.01420405816066"
    }
  },
  {
    "service_request": "2023-986628",
    "request_type": "Abandoned Vehicles",
    "request_reason": "Abandoned/Junk Vehicles",
    "date_created": "2023-03-28T15:03:49.000",
    "date_modified": "2023-03-28T15:03:50.000",
    "request_status": "Pending",
    "responsible_agency": "Department of Public Works",
    "final_address": "430 36Th St",
    "address_councildis": "A",
    "status": "Pending",
    "rowid": "986628",
    "final_x": "3664615.52647",
    "final_y": "551910.943446",
    "longitude": "-90.12070423487854",
    "latitude": "30.012065765459873",
    "geocoded_column": {
      "latitude": "30.012065765459873",
      "longitude": "-90.12070423487854"
    }
  },
  {
    "service_request": "2023-986627",
    "request_type": "Trash/Recycling",
    "request_reason": "Request a Large Item Pick Up",
    "date_created": "2023-03-28T15:01:46.000",
    "date_modified": "2023-03-28T15:02:50.000",
    "request_status": "Pending",
    "responsible_agency": "Department of Sanitation",
    "final_address": "3602 Republic St",
    "address_councildis": "D",
    "status": "Assigned to Contractor",
    "contractor": "IV Waste",
    "rowid": "986627",
    "final_x": "3680399.49403",
    "final_y": "545626.512272",
    "longitude": "-90.07105462480999",
    "latitude": "29.994317081367978",
    "geocoded_column": {
      "latitude": "29.994317081367978",
      "longitude": "-90.07105462480999"
    }
  },
  {
    "service_request": "2023-986626",
    "request_type": "Traffic Signals/Signs/Striping/Streetlights",
    "request_reason": "Disabled Parking Sign ",
    "date_created": "2023-03-28T15:00:47.000",
    "date_modified": "2023-03-28T15:00:48.000",
    "request_status": "Pending",
    "responsible_agency": "Department of Public Works",
    "final_address": "429 Newton St",
    "address_councildis": "C",
    "status": "Pending",
    "rowid": "986626",
    "final_x": "3686799.11644",
    "final_y": "527881.618943",
    "longitude": "-90.05146618407632",
    "latitude": "29.94532941999298",
    "geocoded_column": {
      "latitude": "29.94532941999298",
      "longitude": "-90.05146618407632"
    }
  },
  {
    "service_request": "2023-986625",
    "request_type": "Abandoned Vehicles",
    "request_reason": "Abandoned/Junk Vehicles",
    "date_created": "2023-03-28T14:55:50.000",
    "date_modified": "2023-03-28T14:55:50.000",
    "request_status": "Pending",
    "responsible_agency": "Department of Public Works",
    "final_address": "2415 Allen St",
    "address_councildis": "D",
    "status": "Pending",
    "rowid": "986625",
    "final_x": "3682414.56885",
    "final_y": "541114.696204",
    "longitude": "-90.06484705135023",
    "latitude": "29.981849987100922",
    "geocoded_column": {
      "latitude": "29.981849987100922",
      "longitude": "-90.06484705135023"
    }
  },
  {
    "service_request": "2023-986624",
    "request_type": "Trash/Recycling",
    "request_reason": "Order Recycling Cart",
    "date_created": "2023-03-28T14:55:32.000",
    "date_modified": "2023-03-28T14:55:33.000",
    "request_status": "Pending",
    "responsible_agency": "Department of Sanitation",
    "final_address": "3125 St Anthony Ave",
    "address_councildis": "D",
    "status": "Pending",
    "rowid": "986624",
    "final_x": "3682967.30901",
    "final_y": "544229.700174",
    "longitude": "-90.06299216124584",
    "latitude": "29.99039831337307",
    "geocoded_column": {
      "latitude": "29.99039831337307",
      "longitude": "-90.06299216124584"
    }
  },
  {
    "service_request": "2023-986623",
    "request_type": "Trash/Recycling",
    "request_reason": "Request a Large Item Pick Up",
    "date_created": "2023-03-28T14:54:23.000",
    "date_modified": "2023-03-28T14:54:24.000",
    "request_status": "Pending",
    "responsible_agency": "Department of Sanitation",
    "final_address": "1125 Adams St",
    "address_councildis": "A",
    "status": "Assigned to Contractor",
    "contractor": "Richards Disposal",
    "rowid": "986623",
    "final_x": "3662998.35571",
    "final_y": "527249.999999",
    "longitude": "-90.12663412843888",
    "latitude": "29.944303343042236",
    "geocoded_column": {
      "latitude": "29.944303343042236",
      "longitude": "-90.12663412843888"
    }
  },
  {
    "service_request": "2023-986622",
    "request_type": "Trash/Recycling",
    "request_reason": "Request a Large Item Pick Up",
    "date_created": "2023-03-28T14:52:44.000",
    "date_modified": "2023-03-28T14:53:36.000",
    "request_status": "Pending",
    "responsible_agency": "Department of Sanitation",
    "final_address": "7617 Oak St",
    "address_councildis": "A",
    "status": "Assigned to Contractor",
    "contractor": "Richards Disposal",
    "rowid": "986622",
    "final_x": "3663217.64551",
    "final_y": "527288.093887",
    "longitude": "-90.12594049724188",
    "latitude": "29.944401737220215",
    "geocoded_column": {
      "latitude": "29.944401737220215",
      "longitude": "-90.12594049724188"
    }
  },
  {
    "service_request": "2023-986621",
    "request_type": "Roads/Drainage",
    "request_reason": "Pothole",
    "date_created": "2023-03-28T14:50:38.000",
    "date_modified": "2023-03-28T14:50:38.000",
    "request_status": "Pending",
    "responsible_agency": "Department of Public Works",
    "final_address": "4613 Dart St",
    "address_councildis": "B",
    "status": "Pending",
    "rowid": "986621",
    "final_x": "3669369.46055",
    "final_y": "531598.108419",
    "longitude": "-90.10637166921542",
    "latitude": "29.95607319259939",
    "geocoded_column": {
      "latitude": "29.95607319259939",
      "longitude": "-90.10637166921542"
    }
  },
  {
    "service_request": "2023-986620",
    "request_type": "Parks & Parkways",
    "request_reason": "Request Tree Service (Right of Way/Public Property)",
    "date_created": "2023-03-28T14:47:17.000",
    "date_modified": "2023-03-28T14:47:18.000",
    "request_status": "Pending",
    "responsible_agency": "Department of Parks & Parkway",
    "final_address": "826 Fourth St",
    "address_councildis": "B",
    "status": "Pending",
    "rowid": "986620",
    "final_x": "3677749.21819",
    "final_y": "520241.899576",
    "longitude": "-90.08030338136338",
    "latitude": "29.924597980308025",
    "geocoded_column": {
      "latitude": "29.924597980308025",
      "longitude": "-90.08030338136338"
    }
  },
  {
    "service_request": "2023-986619",
    "request_type": "Trash/Recycling",
    "request_reason": "Request a Large Item Pick Up",
    "date_created": "2023-03-28T14:46:46.000",
    "date_modified": "2023-03-28T14:46:47.000",
    "request_status": "Pending",
    "responsible_agency": "Department of Sanitation",
    "final_address": "4527 Iberville St",
    "address_councildis": "A",
    "status": "Assigned to Contractor",
    "contractor": "Richards Disposal",
    "rowid": "986619",
    "final_x": "3669827.86593",
    "final_y": "539949.253962",
    "longitude": "-90.10464140959816",
    "latitude": "29.9790225473719",
    "geocoded_column": {
      "latitude": "29.9790225473719",
      "longitude": "-90.10464140959816"
    }
  },
  {
    "service_request": "2023-986618",
    "request_type": "Trash/Recycling",
    "request_reason": "Request a Large Item Pick Up",
    "date_created": "2023-03-28T14:43:19.000",
    "date_modified": "2023-03-28T14:47:15.000",
    "request_status": "Pending",
    "responsible_agency": "Department of Sanitation",
    "final_address": "3840 Mansfield Ave",
    "address_councildis": "C",
    "status": "Assigned to Contractor",
    "contractor": "Richards Disposal",
    "rowid": "986618",
    "final_x": "3708839.18635",
    "final_y": "516675.888053",
    "longitude": "-89.98229646631403",
    "latitude": "29.9138212425139",
    "geocoded_column": {
      "latitude": "29.9138212425139",
      "longitude": "-89.98229646631403"
    }
  },
  {
    "service_request": "2023-986617",
    "request_type": "Trash/Recycling",
    "request_reason": "Repair Recycling Cart",
    "date_created": "2023-03-28T14:42:01.000",
    "date_modified": "2023-03-28T14:42:02.000",
    "request_status": "Pending",
    "responsible_agency": "Department of Sanitation",
    "final_address": "1023 Amelia St",
    "address_councildis": "B",
    "status": "Pending",
    "rowid": "986617",
    "final_x": "3673733.70248",
    "final_y": "518961.963191",
    "longitude": "-90.09302276479025",
    "latitude": "29.92119869737272",
    "geocoded_column": {
      "latitude": "29.92119869737272",
      "longitude": "-90.09302276479025"
    }
  },
  {
    "service_request": "2023-986616",
    "request_type": "Trash/Recycling",
    "request_reason": "Repair Trash Cart",
    "date_created": "2023-03-28T14:38:43.000",
    "date_modified": "2023-03-28T14:38:43.000",
    "request_status": "Pending",
    "responsible_agency": "Department of Sanitation",
    "final_address": "7110 Neptune Ct",
    "address_councildis": "E",
    "status": "Assigned to Contractor",
    "contractor": "Waste Pro",
    "rowid": "986616",
    "final_x": "3701651.19511",
    "final_y": "559226.792924",
    "longitude": "-90.003425132063",
    "latitude": "30.03105184685034",
    "geocoded_column": {
      "latitude": "30.03105184685034",
      "longitude": "-90.003425132063"
    }
  },
  {
    "service_request": "2023-986615",
    "request_type": "Roads/Drainage",
    "request_reason": "Street Subsidence (Sinking)",
    "date_created": "2023-03-28T14:37:59.000",
    "date_modified": "2023-03-28T14:38:00.000",
    "request_status": "Pending",
    "responsible_agency": "Department of Public Works",
    "final_address": "WALMSLEY AVE & FERN ST",
    "address_councildis": "B",
    "status": "Pending",
    "rowid": "986615",
    "final_x": "3666408.0",
    "final_y": "532100.68",
    "longitude": "-90.11570612121697",
    "latitude": "29.957541962941328",
    "geocoded_column": {
      "latitude": "29.957541962941328",
      "longitude": "-90.11570612121697"
    }
  },
  {
    "service_request": "2023-986613",
    "request_type": "Roads/Drainage",
    "request_reason": "Pothole",
    "date_created": "2023-03-28T14:35:29.000",
    "date_modified": "2023-03-28T14:37:18.000",
    "request_status": "Pending",
    "responsible_agency": "Department of Public Works",
    "final_address": "CADIZ ST & S GAYOSO ST",
    "address_councildis": "A",
    "status": "Pending",
    "rowid": "986613",
    "final_x": "3669335.0",
    "final_y": "528606.58",
    "longitude": "-90.10658161677956",
    "latitude": "29.94784848438957",
    "geocoded_column": {
      "latitude": "29.94784848438957",
      "longitude": "-90.10658161677956"
    }
  },
  {
    "service_request": "2023-986612",
    "request_type": "Trash/Recycling",
    "request_reason": "Request a Large Item Pick Up",
    "date_created": "2023-03-28T14:32:47.000",
    "date_modified": "2023-03-28T14:32:47.000",
    "request_status": "Pending",
    "responsible_agency": "Department of Sanitation",
    "final_address": "7624 Bullard Ave",
    "address_councildis": "E",
    "status": "Assigned to Contractor",
    "contractor": "Waste Pro",
    "rowid": "986612",
    "final_x": "3712978.40523",
    "final_y": "567451.07306",
    "longitude": "-89.96732133711699",
    "latitude": "30.05329895180492",
    "geocoded_column": {
      "latitude": "30.05329895180492",
      "longitude": "-89.96732133711699"
    }
  },
  {
    "service_request": "2023-986611",
    "request_type": "Trash/Recycling",
    "request_reason": "Request a Large Item Pick Up",
    "date_created": "2023-03-28T14:32:34.000",
    "date_modified": "2023-03-28T14:32:34.000",
    "request_status": "Pending",
    "responsible_agency": "Department of Sanitation",
    "final_address": "86 Fontainebleau Dr",
    "address_councildis": "A",
    "status": "Assigned to Contractor",
    "contractor": "Richards Disposal",
    "rowid": "986611",
    "final_x": "3666910.29447",
    "final_y": "530715.840898",
    "longitude": "-90.11416654538185",
    "latitude": "29.953719422193565",
    "geocoded_column": {
      "latitude": "29.953719422193565",
      "longitude": "-90.11416654538185"
    }
  },
  {
    "service_request": "2023-986610",
    "request_type": "Roads/Drainage",
    "request_reason": "Street Subsidence (Sinking)",
    "date_created": "2023-03-28T14:29:58.000",
    "date_modified": "2023-03-28T16:28:54.000",
    "case_close_date": "2023-03-28T11:28:54.000",
    "request_status": "Closed",
    "responsible_agency": "Department of Public Works",
    "final_address": "1000 Conti St",
    "address_councildis": "C",
    "status": "Duplicate Request",
    "rowid": "986610",
    "final_x": "3680979.80354",
    "final_y": "532252.663363",
    "longitude": "-90.06968740036038",
    "latitude": "29.957526042802996",
    "geocoded_column": {
      "latitude": "29.957526042802996",
      "longitude": "-90.06968740036038"
    }
  },
  {
    "service_request": "2023-986609",
    "request_type": "Trash/Recycling",
    "request_reason": "Replace Recycling Cart",
    "date_created": "2023-03-28T14:29:24.000",
    "date_modified": "2023-03-28T14:37:01.000",
    "request_status": "Pending",
    "responsible_agency": "Department of Sanitation",
    "final_address": "1223 Pleasant St",
    "address_councildis": "B",
    "rowid": "986609",
    "final_x": "3675328.23144",
    "final_y": "520383.518392",
    "longitude": "-90.08794076970584",
    "latitude": "29.925059960964063",
    "geocoded_column": {
      "latitude": "29.925059960964063",
      "longitude": "-90.08794076970584"
    }
  },
  {
    "service_request": "2023-986608",
    "request_type": "Trash/Recycling",
    "request_reason": "Request a Large Item Pick Up",
    "date_created": "2023-03-28T14:27:52.000",
    "date_modified": "2023-03-28T14:27:52.000",
    "request_status": "Pending",
    "responsible_agency": "Department of Sanitation",
    "final_address": "4145 Cleveland Ave",
    "address_councildis": "A",
    "status": "Assigned to Contractor",
    "contractor": "Richards Disposal",
    "rowid": "986608",
    "final_x": "3670532.5483",
    "final_y": "538288.640841",
    "longitude": "-90.10247208618843",
    "latitude": "29.97443562696582",
    "geocoded_column": {
      "latitude": "29.97443562696582",
      "longitude": "-90.10247208618843"
    }
  },
  {
    "service_request": "2023-986607",
    "request_type": "Trash/Recycling",
    "request_reason": "Request a Large Item Pick Up",
    "date_created": "2023-03-28T14:25:45.000",
    "date_modified": "2023-03-28T14:25:45.000",
    "request_status": "Pending",
    "responsible_agency": "Department of Sanitation",
    "final_address": "2716 Camp St",
    "address_councildis": "B",
    "status": "Assigned to Contractor",
    "contractor": "Richards Disposal",
    "rowid": "986607",
    "final_x": "3677015.03208",
    "final_y": "521190.206393",
    "longitude": "-90.08258828523525",
    "latitude": "29.927227572244124",
    "geocoded_column": {
      "latitude": "29.927227572244124",
      "longitude": "-90.08258828523525"
    }
  },
  {
    "service_request": "2023-986606",
    "request_type": "Abandoned Vehicles",
    "request_reason": "Abandoned/Junk Vehicles",
    "date_created": "2023-03-28T14:19:52.000",
    "date_modified": "2023-03-28T14:22:09.000",
    "request_status": "Pending",
    "responsible_agency": "Department of Public Works",
    "final_address": "PERLITA ST & MITHRA ST",
    "address_councildis": "D",
    "status": "Pending",
    "rowid": "986606",
    "final_x": "3678516.2",
    "final_y": "552169.28",
    "longitude": "-90.07677705706583",
    "latitude": "30.01236427566136",
    "geocoded_column": {
      "latitude": "30.01236427566136",
      "longitude": "-90.07677705706583"
    }
  },
  {
    "service_request": "2023-986605",
    "request_type": "Trash/Recycling",
    "request_reason": "Order Recycling Cart",
    "date_created": "2023-03-28T14:17:04.000",
    "date_modified": "2023-03-28T14:17:05.000",
    "request_status": "Pending",
    "responsible_agency": "Department of Sanitation",
    "final_address": "8214 Forshey St",
    "address_councildis": "A",
    "status": "Pending",
    "rowid": "986605",
    "final_x": "3666616.42554",
    "final_y": "534209.690309",
    "longitude": "-90.1149771614353",
    "latitude": "29.963334956231357",
    "geocoded_column": {
      "latitude": "29.963334956231357",
      "longitude": "-90.1149771614353"
    }
  },
  {
    "service_request": "2023-986603",
    "request_type": "Abandoned Vehicles",
    "request_reason": "Vehicle Blocking Your Driveway",
    "date_created": "2023-03-28T14:09:49.000",
    "date_modified": "2023-03-28T14:09:49.000",
    "request_status": "Pending",
    "responsible_agency": "Department of Public Works",
    "final_address": "5314 Tullis Dr",
    "address_councildis": "C",
    "status": "Pending",
    "rowid": "986603",
    "final_x": "3703452.4419",
    "final_y": "511979.640432",
    "longitude": "-89.99947118852805",
    "latitude": "29.901081704408004",
    "geocoded_column": {
      "latitude": "29.901081704408004",
      "longitude": "-89.99947118852805"
    }
  },
  {
    "service_request": "2023-986602",
    "request_type": "Trash/Recycling",
    "request_reason": "Request a Large Item Pick Up",
    "date_created": "2023-03-28T14:08:55.000",
    "date_modified": "2023-03-28T14:08:55.000",
    "request_status": "Pending",
    "responsible_agency": "Department of Sanitation",
    "final_address": "5035 W St Andrews Cir",
    "address_councildis": "E",
    "status": "Assigned to Contractor",
    "contractor": "Waste Pro",
    "rowid": "986602",
    "final_x": "3719135.9637",
    "final_y": "559502.818845",
    "longitude": "-89.94816285232818",
    "latitude": "30.031241220408774",
    "geocoded_column": {
      "latitude": "30.031241220408774",
      "longitude": "-89.94816285232818"
    }
  },
  {
    "service_request": "2023-986601",
    "request_type": "Safety & Permits",
    "request_reason": "Safety & Permits Request (Cyber Incident Back Up)",
    "date_created": "2023-03-28T14:04:32.000",
    "date_modified": "2023-03-28T14:04:32.000",
    "request_status": "Pending",
    "responsible_agency": "Safety and Permits",
    "status": "Pending",
    "rowid": "986601",
    "longitude": "0.0",
    "latitude": "0.0",
    "geocoded_column": {
      "latitude": "0.0",
      "longitude": "0.0"
    }
  },
  {
    "service_request": "2023-986600",
    "request_type": "Parks & Parkways",
    "request_reason": "Request Tree Service (Right of Way/Public Property)",
    "date_created": "2023-03-28T14:02:19.000",
    "date_modified": "2023-03-28T14:02:19.000",
    "request_status": "Pending",
    "responsible_agency": "Department of Parks & Parkway",
    "final_address": "339 Audubon Blvd",
    "address_councildis": "A",
    "status": "Pending",
    "rowid": "986600",
    "final_x": "3667405.92564",
    "final_y": "530178.264641",
    "longitude": "-90.11261962658106",
    "latitude": "29.952226753392242",
    "geocoded_column": {
      "latitude": "29.952226753392242",
      "longitude": "-90.11261962658106"
    }
  },
  {
    "service_request": "2023-986599",
    "request_type": "Trash/Recycling",
    "request_reason": "Request a Large Item Pick Up",
    "date_created": "2023-03-28T13:55:01.000",
    "date_modified": "2023-03-28T13:55:02.000",
    "request_status": "Pending",
    "responsible_agency": "Department of Sanitation",
    "final_address": "5922 W Hardy St",
    "address_councildis": "E",
    "status": "Assigned to Contractor",
    "contractor": "Waste Pro",
    "rowid": "986599",
    "final_x": "3712570.96408",
    "final_y": "561544.574111",
    "longitude": "-89.96883145224982",
    "latitude": "30.037071814781317",
    "geocoded_column": {
      "latitude": "30.037071814781317",
      "longitude": "-89.96883145224982"
    }
  },
  {
    "service_request": "2023-986598",
    "request_type": "Abandoned Vehicles",
    "request_reason": "Abandoned/Junk Vehicles",
    "date_created": "2023-03-28T13:51:51.000",
    "date_modified": "2023-03-28T13:51:51.000",
    "request_status": "Pending",
    "responsible_agency": "Department of Public Works",
    "final_address": "GENTILLY BLVD & OREILLY ST",
    "address_councildis": "A",
    "status": "Pending",
    "rowid": "986598",
    "final_x": "3678704.5",
    "final_y": "542300.08",
    "longitude": "-90.07652414319307",
    "latitude": "29.985221791694627",
    "geocoded_column": {
      "latitude": "29.985221791694627",
      "longitude": "-90.07652414319307"
    }
  },
  {
    "service_request": "2023-986597",
    "request_type": "Roads/Drainage",
    "request_reason": "Street Subsidence (Sinking)",
    "date_created": "2023-03-28T13:48:50.000",
    "date_modified": "2023-03-28T14:53:15.000",
    "case_close_date": "2023-03-28T09:53:15.000",
    "request_status": "Closed",
    "responsible_agency": "Department of Public Works",
    "final_address": "3934 N Robertson St",
    "address_councildis": "D",
    "status": "Duplicate Request",
    "rowid": "986597",
    "final_x": "3692122.60893",
    "final_y": "536759.254216",
    "longitude": "-90.03434053236792",
    "latitude": "29.969574991433767",
    "geocoded_column": {
      "latitude": "29.969574991433767",
      "longitude": "-90.03434053236792"
    }
  },