[
  {
    "service_request": "2024-1062298",
    "request_type": "Roads/Drainage",
    "request_reason": "Pothole",
    "date_created": "2024-01-18T23:08:13.000",
    "date_modified": "2024-01-18T23:08:13.000",
    "request_status": "Pending",
    "responsible_agency": "Department of Public Works",
    "final_address": "1312 Milan St",
    "address_councildis": "B",
    "status": "Pending",
    "rowid": "1062298",
    "final_x": "3671625.82823",
    "final_y": "520286.919608",
    "longitude": "-90.09963137110304",
    "latitude": "29.92490447494246",
    "geocoded_column": {
      "latitude": "29.92490447494246",
      "longitude": "-90.09963137110304"
    }
  },
  {
    "service_request": "2024-1062297",
    "request_type": "Traffic Signals/Signs/Striping/Streetlights",
    "request_reason": "Street Light Outage/Malfunction",
    "date_created": "2024-01-18T22:53:41.000",
    "date_modified": "2024-01-18T22:53:42.000",
    "request_status": "Pending",
    "responsible_agency": "Department of Public Works",
    "final_address": "2910 Palmyra St",
    "address_councildis": "B",
    "status": "Assigned to Contractor",
    "contractor": "Legacy Professional Services",
    "rowid": "1062297",
    "final_x": "3674001.722",
    "final_y": "535033.510854",
    "longitude": "-90.09162699414354",
    "latitude": "29.96538219685494",
    "geocoded_column": {
      "latitude": "29.96538219685494",
      "longitude": "-90.09162699414354"
    }
  },
  {
    "service_request": "2024-1062296",
    "request_type": "Property Maintenance",
    "request_reason": "Property Maintenance",
    "date_created": "2024-01-18T22:46:03.000",
    "date_modified": "2024-01-18T22:46:03.000",
    "request_status": "Pending",
    "responsible_agency": "Department of Code Enforcement",
    "final_address": "1506 Calhoun St",
    "address_councildis": "A",
    "status": "Pending",
    "rowid": "1062296",
    "final_x": "3664512.35367",
    "final_y": "522325.574394",
    "longitude": "-90.12201834585977",
    "latitude": "29.930718812755316",
    "geocoded_column": {
      "latitude": "29.930718812755316",
      "longitude": "-90.12201834585977"
    }
  },
  {
    "service_request": "2024-1062295",
    "request_type": "Roads/Drainage",
    "request_reason": "Pothole",
    "date_created": "2024-01-18T22:29:29.000",
    "date_modified": "2024-01-18T22:29:29.000",
    "request_status": "Pending",
    "responsible_agency": "Department of Public Works",
    "final_address": "6120 Camp St",
    "address_councildis": "A",
    "status": "Pending",
    "rowid": "1062295",
    "final_x": "3664064.73607",
    "final_y": "519716.749752",
    "longitude": "-90.12351837169366",
    "latitude": "29.92355836866188",
    "geocoded_column": {
      "latitude": "29.92355836866188",
      "longitude": "-90.12351837169366"
    }
  },
  {
    "service_request": "2024-1062294",
    "request_type": "Roads/Drainage",
    "request_reason": "Pothole",
    "date_created": "2024-01-18T22:26:25.000",
    "date_modified": "2024-01-18T22:26:25.000",
    "request_status": "Pending",
    "responsible_agency": "Department of Public Works",
    "final_address": "2117 Perdido St",
    "address_councildis": "B",
    "status": "Pending",
    "rowid": "1062294",
    "final_x": "3675767.14133",
    "final_y": "531951.786371",
    "longitude": "-90.0861578035841",
    "latitude": "29.956855769018517",
    "geocoded_column": {
      "latitude": "29.956855769018517",
      "longitude": "-90.0861578035841"
    }
  },
  {
    "service_request": "2024-1062293",
    "request_type": "Abandoned Vehicles",
    "request_reason": "Abandoned/Junk Vehicles",
    "date_created": "2024-01-18T22:08:13.000",
    "date_modified": "2024-01-18T22:08:13.000",
    "request_status": "Pending",
    "responsible_agency": "Department of Public Works",
    "final_address": "2716 Dryades St",
    "address_councildis": "B",
    "status": "Pending",
    "rowid": "1062293",
    "final_x": "3675482.17102",
    "final_y": "523505.727931",
    "longitude": "-90.08734765962657",
    "latitude": "29.933640423000274",
    "geocoded_column": {
      "latitude": "29.933640423000274",
      "longitude": "-90.08734765962657"
    }
  },
  {
    "service_request": "2024-1062292",
    "request_type": "Roads/Drainage",
    "request_reason": "Pothole",
    "date_created": "2024-01-18T22:00:29.000",
    "date_modified": "2024-01-18T22:00:29.000",
    "request_status": "Pending",
    "responsible_agency": "Department of Public Works",
    "final_address": "1421 Constantinople St",
    "address_councildis": "B",
    "status": "Pending",
    "rowid": "1062292",
    "final_x": "3672433.24257",
    "final_y": "520667.657465",
    "longitude": "-90.09706965638372",
    "latitude": "29.925927453713577",
    "geocoded_column": {
      "latitude": "29.925927453713577",
      "longitude": "-90.09706965638372"
    }
  },
  {
    "service_request": "2024-1062291",
    "request_type": "Roads/Drainage",
    "request_reason": "Pothole",
    "date_created": "2024-01-18T20:42:16.000",
    "date_modified": "2024-01-18T20:42:16.000",
    "request_status": "Pending",
    "responsible_agency": "Department of Public Works",
    "final_address": "6120 Camp St",
    "address_councildis": "A",
    "status": "Pending",
    "rowid": "1062291",
    "final_x": "3664064.73607",
    "final_y": "519716.749752",
    "longitude": "-90.12351837169366",
    "latitude": "29.92355836866188",
    "geocoded_column": {
      "latitude": "29.92355836866188",
      "longitude": "-90.12351837169366"
    }
  },
  {
    "service_request": "2024-1062290",
    "request_type": "Roads/Drainage",
    "request_reason": "Pothole",
    "date_created": "2024-01-18T20:39:39.000",
    "date_modified": "2024-01-18T20:39:39.000",
    "request_status": "Pending",
    "responsible_agency": "Department of Public Works",
    "final_address": "5915 Pitt St",
    "address_councildis": "A",
    "status": "Pending",
    "rowid": "1062290",
    "final_x": "3665542.56448",
    "final_y": "521174.406329",
    "longitude": "-90.11880462457182",
    "latitude": "29.927523478234637",
    "geocoded_column": {
      "latitude": "29.927523478234637",
      "longitude": "-90.11880462457182"
    }
  },
  {
    "service_request": "2024-1062289",
    "request_type": "Trash/Recycling",
    "request_reason": "Missed Trash Pick-Up",
    "date_created": "2024-01-18T20:24:56.000",
    "date_modified": "2024-01-18T20:24:58.000",
    "request_status": "Pending",
    "responsible_agency": "Department of Sanitation",
    "final_address": "6129 Magnolia St",
    "address_councildis": "A",
    "status": "Assigned to Contractor",
    "contractor": "Richards Disposal",
    "rowid": "1062289",
    "final_x": "3666358.56404",
    "final_y": "525234.235069",
    "longitude": "-90.11609255907112",
    "latitude": "29.93866290750563",
    "geocoded_column": {
      "latitude": "29.93866290750563",
      "longitude": "-90.11609255907112"
    }
  },
  {
    "service_request": "2024-1062287",
    "request_type": "Health Related Request",
    "request_reason": "Noise Ordinance Complaint",
    "date_created": "2024-01-18T20:18:16.000",
    "date_modified": "2024-01-18T20:18:16.000",
    "request_status": "Pending",
    "responsible_agency": "Health Department",
    "final_address": "4511 New Orleans St",
    "address_councildis": "D",
    "status": "Pending",
    "rowid": "1062287",
    "final_x": "3681402.33346",
    "final_y": "549099.478419",
    "longitude": "-90.06776561934966",
    "latitude": "30.003836085432262",
    "geocoded_column": {
      "latitude": "30.003836085432262",
      "longitude": "-90.06776561934966"
    }
  },
  {
    "service_request": "2024-1062286",
    "request_type": "Trash/Recycling",
    "request_reason": "Illegal Dumping",
    "date_created": "2024-01-18T19:02:01.000",
    "date_modified": "2024-01-18T19:02:01.000",
    "request_status": "Pending",
    "responsible_agency": "Department of Sanitation",
    "final_address": "PALMETTO ST & BAMBOO RD",
    "status": "Pending",
    "rowid": "1062286",
    "final_x": "3663384.2",
    "final_y": "538847.68",
    "longitude": "-90.12502976847394",
    "latitude": "29.97618200215313",
    "geocoded_column": {
      "latitude": "29.97618200215313",
      "longitude": "-90.12502976847394"
    }
  },
  {
    "service_request": "2024-1062285",
    "request_type": "Trash/Recycling",
    "request_reason": "Repair Trash Cart",
    "date_created": "2024-01-18T19:01:38.000",
    "date_modified": "2024-01-18T19:01:40.000",
    "request_status": "Pending",
    "responsible_agency": "Department of Sanitation",
    "final_address": "4922 Baronne St",
    "address_councildis": "B",
    "status": "Assigned to Contractor",
    "contractor": "Richards Disposal",
    "rowid": "1062285",
    "final_x": "3668888.46945",
    "final_y": "521393.464377",
    "longitude": "-90.10823499607537",
    "latitude": "29.928027877430683",
    "geocoded_column": {
      "latitude": "29.928027877430683",
      "longitude": "-90.10823499607537"
    }
  },
  {
    "service_request": "2024-1062284",
    "request_type": "Trash/Recycling",
    "request_reason": "Repair Recycling Cart",
    "date_created": "2024-01-18T19:00:01.000",
    "date_modified": "2024-01-18T19:00:01.000",
    "request_status": "Pending",
    "responsible_agency": "Department of Sanitation",
    "final_address": "19 Admiralty Ct",
    "address_councildis": "C",
    "status": "Pending",
    "rowid": "1062284",
    "final_x": "3704176.65457",
    "final_y": "522977.891131",
    "longitude": "-89.99678078481891",
    "latitude": "29.931299907333226",
    "geocoded_column": {
      "latitude": "29.931299907333226",
      "longitude": "-89.99678078481891"
    }
  },
  {
    "service_request": "2024-1062283",
    "request_type": "Trash/Recycling",
    "request_reason": "Order Trash Cart",
    "date_created": "2024-01-18T18:40:13.000",
    "date_modified": "2024-01-18T18:40:14.000",
    "request_status": "Pending",
    "responsible_agency": "Department of Sanitation",
    "final_address": "2337 Canal St",
    "address_councildis": "B",
    "status": "Assigned to Contractor",
    "contractor": "Richards Disposal",
    "rowid": "1062283",
    "final_x": "3676540.39515",
    "final_y": "534388.967365",
    "longitude": "-90.08363217714907",
    "latitude": "29.9635340311252",
    "geocoded_column": {
      "latitude": "29.9635340311252",
      "longitude": "-90.08363217714907"
    }
  },
  {
    "service_request": "2024-1062282",
    "request_type": "Trash/Recycling",
    "request_reason": "Request a Large Item Pick Up",
    "date_created": "2024-01-18T18:19:56.000",
    "date_modified": "2024-01-18T18:19:57.000",
    "request_status": "Pending",
    "responsible_agency": "Department of Sanitation",
    "final_address": "8608 Marks St",
    "address_councildis": "A",
    "status": "Assigned to Contractor",
    "contractor": "Richards Disposal",
    "rowid": "1062282",
    "final_x": "3667466.20359",
    "final_y": "537236.656456",
    "longitude": "-90.11219177811225",
    "latitude": "29.97163323545828",
    "geocoded_column": {
      "latitude": "29.97163323545828",
      "longitude": "-90.11219177811225"
    }
  },
  {
    "service_request": "2024-1062281",
    "request_type": "Trash/Recycling",
    "request_reason": "Replace Trash Cart",
    "date_created": "2024-01-18T18:17:46.000",
    "date_modified": "2024-01-18T18:17:48.000",
    "request_status": "Pending",
    "responsible_agency": "Department of Sanitation",
    "final_address": "910 Jackson Ave",
    "address_councildis": "B",
    "status": "Assigned to Contractor",
    "contractor": "Richards Disposal",
    "rowid": "1062281",
    "final_x": "3679195.06914",
    "final_y": "521549.722169",
    "longitude": "-90.07569400624284",
    "latitude": "29.92815051120523",
    "geocoded_column": {
      "latitude": "29.92815051120523",
      "longitude": "-90.07569400624284"
    }
  },
  {
    "service_request": "2024-1062280",
    "request_type": "Trash/Recycling",
    "request_reason": "Request a Large Item Pick Up",
    "date_created": "2024-01-18T17:12:15.000",
    "date_modified": "2024-01-18T17:12:16.000",
    "request_status": "Pending",
    "responsible_agency": "Department of Sanitation",
    "final_address": "428 Belleville St",
    "address_councildis": "C",
    "status": "Assigned to Contractor",
    "contractor": "Richards Disposal",
    "rowid": "1062280",
    "final_x": "3687905.39747",
    "final_y": "530099.002561",
    "longitude": "-90.04789477298706",
    "latitude": "29.95139239059275",
    "geocoded_column": {
      "latitude": "29.95139239059275",
      "longitude": "-90.04789477298706"
    }
  },
  {
    "service_request": "2024-1062279",
    "request_type": "Property Maintenance",
    "request_reason": "Property Maintenance",
    "date_created": "2024-01-18T17:00:25.000",
    "date_modified": "2024-01-18T17:00:25.000",
    "request_status": "Pending",
    "responsible_agency": "Department of Code Enforcement",
    "final_address": "2133 St Anthony St",
    "address_councildis": "D",
    "status": "Pending",
    "rowid": "1062279",
    "final_x": "3683282.0877",
    "final_y": "540168.587083",
    "longitude": "-90.06214017070204",
    "latitude": "29.979222083097596",
    "geocoded_column": {
      "latitude": "29.979222083097596",
      "longitude": "-90.06214017070204"
    }
  },
  {
    "service_request": "2024-1062278",
    "request_type": "Trash/Recycling",
    "request_reason": "Missed Trash Pick-Up",
    "date_created": "2024-01-18T16:58:14.000",
    "date_modified": "2024-01-18T16:58:16.000",
    "request_status": "Pending",
    "responsible_agency": "Department of Sanitation",
    "final_address": "4726 Sandalwood St",
    "address_councildis": "E",
    "status": "Assigned to Contractor",
    "contractor": "Waste Pro",
    "rowid": "1062278",
    "final_x": "3712166.48043",
    "final_y": "556023.035353",
    "longitude": "-89.97031726216025",
    "latitude": "30.021903010060562",
    "geocoded_column": {
      "latitude": "30.021903010060562",
      "longitude": "-89.97031726216025"
    }
  },
  {
    "service_request": "2024-1062277",
    "request_type": "Trash/Recycling",
    "request_reason": "Request a Large Item Pick Up",
    "date_created": "2024-01-18T16:54:29.000",
    "date_modified": "2024-01-18T16:54:30.000",
    "request_status": "Pending",
    "responsible_agency": "Department of Sanitation",
    "final_address": "1111 Erato St",
    "address_councildis": "B",
    "status": "Assigned to Contractor",
    "contractor": "Richards Disposal",
    "rowid": "1062277",
    "final_x": "3680552.30274",
    "final_y": "525692.492349",
    "longitude": "-90.07126548381918",
    "latitude": "29.939500730852806",
    "geocoded_column": {
      "latitude": "29.939500730852806",
      "longitude": "-90.07126548381918"
    }
  },
  {
    "service_request": "2024-1062276",
    "request_type": "Trash/Recycling",
    "request_reason": "Request a Large Item Pick Up",
    "date_created": "2024-01-18T16:45:57.000",
    "date_modified": "2024-01-18T16:45:59.000",
    "request_status": "Pending",
    "responsible_agency": "Department of Sanitation",
    "final_address": "1929 S Carrollton Ave",
    "address_councildis": "A",
    "status": "Assigned to Contractor",
    "contractor": "Richards Disposal",
    "rowid": "1062276",
    "final_x": "3663907.28967",
    "final_y": "530247.499265",
    "longitude": "-90.12366443953397",
    "latitude": "29.952519149437745",
    "geocoded_column": {
      "latitude": "29.952519149437745",
      "longitude": "-90.12366443953397"
    }
  },
  {
    "service_request": "2024-1062274",
    "request_type": "Trash/Recycling",
    "request_reason": "Replace Trash Cart",
    "date_created": "2024-01-18T16:34:00.000",
    "date_modified": "2024-01-18T16:34:01.000",
    "request_status": "Pending",
    "responsible_agency": "Department of Sanitation",
    "final_address": "923 Second St",
    "address_councildis": "B",
    "status": "Assigned to Contractor",
    "contractor": "Richards Disposal",
    "rowid": "1062274",
    "final_x": "3678150.9003",
    "final_y": "520900.100345",
    "longitude": "-90.07901266186379",
    "latitude": "29.926395734114834",
    "geocoded_column": {
      "latitude": "29.926395734114834",
      "longitude": "-90.07901266186379"
    }
  },
  {
    "service_request": "2024-1062273",
    "request_type": "Trash/Recycling",
    "request_reason": "Return Trash Cart",
    "date_created": "2024-01-18T16:32:16.000",
    "date_modified": "2024-01-18T16:32:17.000",
    "request_status": "Pending",
    "responsible_agency": "Department of Sanitation",
    "final_address": "1449 Fourth St",
    "address_councildis": "B",
    "status": "Assigned to Contractor",
    "contractor": "Richards Disposal",
    "rowid": "1062273",
    "final_x": "3676581.35886",
    "final_y": "522240.304378",
    "longitude": "-90.08392113715503",
    "latitude": "29.930128009602623",
    "geocoded_column": {
      "latitude": "29.930128009602623",
      "longitude": "-90.08392113715503"
    }
  },
  {
    "service_request": "2024-1062272",
    "request_type": "Trash/Recycling",
    "request_reason": "Repair Trash Cart",
    "date_created": "2024-01-18T16:31:51.000",
    "date_modified": "2024-01-18T16:31:52.000",
    "request_status": "Pending",
    "responsible_agency": "Department of Sanitation",
    "final_address": "1449 Fourth St",
    "address_councildis": "B",
    "status": "Assigned to Contractor",
    "contractor": "Richards Disposal",
    "rowid": "1062272",
    "final_x": "3676581.35886",
    "final_y": "522240.304378",
    "longitude": "-90.08392113715503",
    "latitude": "29.930128009602623",
    "geocoded_column": {
      "latitude": "29.930128009602623",
      "longitude": "-90.08392113715503"
    }
  },
  {
    "service_request": "2024-1062271",
    "request_type": "Roads/Drainage",
    "request_reason": "Pothole",
    "date_created": "2024-01-18T16:24:27.000",
    "date_modified": "2024-01-18T16:24:27.000",
    "request_status": "Pending",
    "responsible_agency": "Department of Public Works",
    "final_address": "5600 New England Dr",
    "address_councildis": "E",
    "status": "Pending",
    "rowid": "1062271",
    "final_x": "3723588.85503",
    "final_y": "564122.439713",
    "longitude": "-89.93391345737024",
    "latitude": "30.04379451899168",
    "geocoded_column": {
      "latitude": "30.04379451899168",
      "longitude": "-89.93391345737024"
    }
  },
  {
    "service_request": "2024-1062270",
    "request_type": "Roads/Drainage",
    "request_reason": "Pothole",
    "date_created": "2024-01-18T16:13:15.000",
    "date_modified": "2024-01-18T16:13:15.000",
    "request_status": "Pending",
    "responsible_agency": "Department of Public Works",
    "final_address": "5500 BLK New England Dr",
    "address_councildis": "E",
    "status": "Pending",
    "rowid": "1062270",
    "final_x": "3723656.8827",
    "final_y": "564221.637748",
    "longitude": "-89.93369463383284",
    "latitude": "30.0440649879512",
    "geocoded_column": {
      "latitude": "30.0440649879512",
      "longitude": "-89.93369463383284"
    }
  },
  {
    "service_request": "2024-1062269",
    "request_type": "Roads/Drainage",
    "request_reason": "Catch Basin - Clogged",
    "date_created": "2024-01-18T16:09:59.000",
    "date_modified": "2024-01-18T16:09:59.000",
    "request_status": "Pending",
    "responsible_agency": "Department of Public Works",
    "final_address": "4035 Washington Ave",
    "address_councildis": "B",
    "status": "Pending",
    "rowid": "1062269",
    "final_x": "3671181.83918",
    "final_y": "529927.081985",
    "longitude": "-90.10070554508751",
    "latitude": "29.951424934271593",
    "geocoded_column": {
      "latitude": "29.951424934271593",
      "longitude": "-90.10070554508751"
    }
  },
  {
    "service_request": "2024-1062268",
    "request_type": "Trash/Recycling",
    "request_reason": "Request a Large Item Pick Up",
    "date_created": "2024-01-18T15:59:08.000",
    "date_modified": "2024-01-18T15:59:10.000",
    "request_status": "Pending",
    "responsible_agency": "Department of Sanitation",
    "final_address": "4657 Chantilly Dr",
    "address_councildis": "E",
    "status": "Assigned to Contractor",
    "contractor": "Waste Pro",
    "rowid": "1062268",
    "final_x": "3701002.63217",
    "final_y": "553779.226711",
    "longitude": "-90.00567405799599",
    "latitude": "30.016093812742938",
    "geocoded_column": {
      "latitude": "30.016093812742938",
      "longitude": "-90.00567405799599"
    }
  },
  {
    "service_request": "2024-1062267",
    "request_type": "Roads/Drainage",
    "request_reason": "Street Subsidence (Sinking)",
    "date_created": "2024-01-18T15:55:25.000",
    "date_modified": "2024-01-18T15:55:25.000",
    "request_status": "Pending",
    "responsible_agency": "Department of Public Works",
    "final_address": "ST PHILIP ST & N RAMPART ST",
    "address_councildis": "C",
    "status": "Pending",
    "rowid": "1062267",
    "final_x": "3682035.2",
    "final_y": "534261.38",
    "longitude": "-90.06628463453893",
    "latitude": "29.963017282250515",
    "geocoded_column": {
      "latitude": "29.963017282250515",
      "longitude": "-90.06628463453893"
    }
  },
  {
    "service_request": "2024-1062265",
    "request_type": "Parks & Parkways",
    "request_reason": "Request Tree Service (Right of Way/Public Property)",
    "date_created": "2024-01-18T15:50:38.000",
    "date_modified": "2024-01-18T15:50:39.000",
    "request_status": "Pending",
    "responsible_agency": "Department of Parks & Parkway",
    "final_address": "5317 Magazine St",
    "address_councildis": "B",
    "status": "Pending",
    "rowid": "1062265",
    "final_x": "3667359.88205",
    "final_y": "518719.969015",
    "longitude": "-90.11315028545111",
    "latitude": "29.920721459891514",
    "geocoded_column": {
      "latitude": "29.920721459891514",
      "longitude": "-90.11315028545111"
    }
  },
  {
    "service_request": "2024-1062264",
    "request_type": "Trash/Recycling",
    "request_reason": "Replace Trash Cart",
    "date_created": "2024-01-18T15:46:59.000",
    "date_modified": "2024-01-18T15:47:00.000",
    "request_status": "Pending",
    "responsible_agency": "Department of Sanitation",
    "final_address": "4516 Eve St",
    "address_councildis": "B",
    "status": "Assigned to Contractor",
    "contractor": "Richards Disposal",
    "rowid": "1062264",
    "final_x": "3669666.29601",
    "final_y": "531119.105538",
    "longitude": "-90.10545056988445",
    "latitude": "29.954747349250578",
    "geocoded_column": {
      "latitude": "29.954747349250578",
      "longitude": "-90.10545056988445"
    }
  },
  {
    "service_request": "2024-1062263",
    "request_type": "Traffic Signals/Signs/Striping/Streetlights",
    "request_reason": "Traffic Signal Malfunctioning/Damaged",
    "date_created": "2024-01-18T15:45:29.000",
    "date_modified": "2024-01-18T15:45:29.000",
    "request_status": "Pending",
    "responsible_agency": "Department of Public Works",
    "final_address": "3827 Canal St",
    "address_councildis": "A",
    "status": "Pending",
    "rowid": "1062263",
    "final_x": "3671998.41319",
    "final_y": "537899.680905",
    "longitude": "-90.09785576934745",
    "latitude": "29.973322740370623",
    "geocoded_column": {
      "latitude": "29.973322740370623",
      "longitude": "-90.09785576934745"
    }
  },
  {
    "service_request": "2024-1062262",
    "request_type": "Trash/Recycling",
    "request_reason": "Replace Recycling Cart",
    "date_created": "2024-01-18T15:44:18.000",
    "date_modified": "2024-01-18T15:44:19.000",
    "request_status": "Pending",
    "responsible_agency": "Department of Sanitation",
    "final_address": "214 18Th St",
    "address_councildis": "A",
    "status": "Pending",
    "rowid": "1062262",
    "final_x": "3665537.4032",
    "final_y": "548657.522643",
    "longitude": "-90.11790064982566",
    "latitude": "30.003093129392642",
    "geocoded_column": {
      "latitude": "30.003093129392642",
      "longitude": "-90.11790064982566"
    }
  },
  {
    "service_request": "2024-1062261",
    "request_type": "Traffic Signals/Signs/Striping/Streetlights",
    "request_reason": "Traffic Signal Malfunctioning/Damaged",
    "date_created": "2024-01-18T15:41:38.000",
    "date_modified": "2024-01-18T15:41:39.000",
    "request_status": "Pending",
    "responsible_agency": "Department of Public Works",
    "final_address": "TULANE AVE & S GAYOSO ST",
    "address_councildis": "B",
    "status": "Pending",
    "rowid": "1062261",
    "final_x": "3673161.6",
    "final_y": "534311.48",
    "longitude": "-90.09430472033291",
    "latitude": "29.963421860785456",
    "geocoded_column": {
      "latitude": "29.963421860785456",
      "longitude": "-90.09430472033291"
    }
  },
  {
    "service_request": "2024-1062260",
    "request_type": "Trash/Recycling",
    "request_reason": "Request a Large Item Pick Up",
    "date_created": "2024-01-18T15:38:13.000",
    "date_modified": "2024-01-18T15:38:14.000",
    "request_status": "Pending",
    "responsible_agency": "Department of Sanitation",
    "final_address": "4871 Metropolitan Dr",
    "address_councildis": "D",
    "status": "Assigned to Contractor",
    "contractor": "IV Waste",
    "rowid": "1062260",
    "final_x": "3690641.21385",
    "final_y": "551396.126549",
    "longitude": "-90.0384965368346",
    "latitude": "30.00986720823679",
    "geocoded_column": {
      "latitude": "30.00986720823679",
      "longitude": "-90.0384965368346"
    }
  },
  {
    "service_request": "2024-1062259",
    "request_type": "Trash/Recycling",
    "request_reason": "Request a Large Item Pick Up",
    "date_created": "2024-01-18T15:35:14.000",
    "date_modified": "2024-01-18T15:35:16.000",
    "request_status": "Pending",
    "responsible_agency": "Department of Sanitation",
    "final_address": "515 S Gayoso St",
    "address_councildis": "B",
    "status": "Assigned to Contractor",
    "contractor": "Richards Disposal",
    "rowid": "1062259",
    "final_x": "3673236.74612",
    "final_y": "534486.447045",
    "longitude": "-90.09406144087302",
    "latitude": "29.963900726954748",
    "geocoded_column": {
      "latitude": "29.963900726954748",
      "longitude": "-90.09406144087302"
    }
  },
  {
    "service_request": "2024-1062258",
    "request_type": "Trash/Recycling",
    "request_reason": "Repair Trash Cart",
    "date_created": "2024-01-18T15:33:40.000",
    "date_modified": "2024-01-18T15:33:41.000",
    "request_status": "Pending",
    "responsible_agency": "Department of Sanitation",
    "final_address": "8730 Hammond St",
    "address_councildis": "E",
    "status": "Assigned to Contractor",
    "contractor": "Waste Pro",
    "rowid": "1062258",
    "final_x": "3707722.45963",
    "final_y": "555881.200473",
    "longitude": "-89.98436437405931",
    "latitude": "30.02165762448965",
    "geocoded_column": {
      "latitude": "30.02165762448965",
      "longitude": "-89.98436437405931"
    }
  },
  {
    "service_request": "2024-1062257",
    "request_type": "Trash/Recycling",
    "request_reason": "Missed Trash Pick-Up",
    "date_created": "2024-01-18T15:32:38.000",
    "date_modified": "2024-01-18T15:32:39.000",
    "request_status": "Pending",
    "responsible_agency": "Department of Sanitation",
    "final_address": "10151 Plainfield Dr",
    "address_councildis": "E",
    "status": "Assigned to Contractor",
    "contractor": "Waste Pro",
    "rowid": "1062257",
    "final_x": "3710267.83141",
    "final_y": "562792.335712",
    "longitude": "-89.97606308641568",
    "latitude": "30.040577872472923",
    "geocoded_column": {
      "latitude": "30.040577872472923",
      "longitude": "-89.97606308641568"
    }
  },
  {
    "service_request": "2024-1062256",
    "request_type": "Roads/Drainage",
    "request_reason": "Catch Basin - Broken/Damage",
    "date_created": "2024-01-18T15:31:57.000",
    "date_modified": "2024-01-18T15:31:57.000",
    "request_status": "Pending",
    "responsible_agency": "Department of Public Works",
    "final_address": "5829 Macarthur Blvd",
    "address_councildis": "C",
    "status": "Pending",
    "rowid": "1062256",
    "final_x": "3704823.39633",
    "final_y": "519171.324727",
    "longitude": "-89.99487948676662",
    "latitude": "29.92081241641958",
    "geocoded_column": {
      "latitude": "29.92081241641958",
      "longitude": "-89.99487948676662"
    }
  },
  {
    "service_request": "2024-1062255",
    "request_type": "Roads/Drainage",
    "request_reason": "Catch Basin - Broken/Damage",
    "date_created": "2024-01-18T15:31:42.000",
    "date_modified": "2024-01-18T15:31:42.000",
    "request_status": "Pending",
    "responsible_agency": "Department of Public Works",
    "final_address": "5700 BLK MacArthur Blvd",
    "address_councildis": "C",
    "status": "Pending",
    "rowid": "1062255",
    "final_x": "3704666.6802",
    "final_y": "519303.221352",
    "longitude": "-89.99536930258357",
    "latitude": "29.921180119069884",
    "geocoded_column": {
      "latitude": "29.921180119069884",
      "longitude": "-89.99536930258357"
    }
  },
  {
    "service_request": "2024-1062254",
    "request_type": "Roads/Drainage",
    "request_reason": "Catch Basin - Broken/Damage",
    "date_created": "2024-01-18T15:31:24.000",
    "date_modified": "2024-01-18T15:31:25.000",
    "request_status": "Pending",
    "responsible_agency": "Department of Public Works",
    "final_address": "5300 Macarthur Blvd",
    "address_councildis": "C",
    "status": "Pending",
    "rowid": "1062254",
    "final_x": "3703602.1763",
    "final_y": "519865.425208",
    "longitude": "-89.99870877157717",
    "latitude": "29.922760120494747",
    "geocoded_column": {
      "latitude": "29.922760120494747",
      "longitude": "-89.99870877157717"
    }
  },
  {
    "service_request": "2024-1062253",
    "request_type": "Trash/Recycling",
    "request_reason": "Missed Trash Pick-Up",
    "date_created": "2024-01-18T15:29:58.000",
    "date_modified": "2024-01-18T15:29:59.000",
    "request_status": "Pending",
    "responsible_agency": "Department of Sanitation",
    "final_address": "8730 Hammond St",
    "address_councildis": "E",
    "status": "Assigned to Contractor",
    "contractor": "Waste Pro",
    "rowid": "1062253",
    "final_x": "3707722.45963",
    "final_y": "555881.200473",
    "longitude": "-89.98436437405931",
    "latitude": "30.02165762448965",
    "geocoded_column": {
      "latitude": "30.02165762448965",
      "longitude": "-89.98436437405931"
    }
  },
  {
    "service_request": "2024-1062252",
    "request_type": "Trash/Recycling",
    "request_reason": "Request a Large Item Pick Up",
    "date_created": "2024-01-18T15:29:26.000",
    "date_modified": "2024-01-18T15:29:27.000",
    "request_status": "Pending",
    "responsible_agency": "Department of Sanitation",
    "final_address": "806 Joseph St",
    "address_councildis": "A",
    "status": "Assigned to Contractor",
    "contractor": "Richards Disposal",
    "rowid": "1062252",
    "final_x": "3666029.50279",
    "final_y": "519053.500599",
    "longitude": "-90.1173385245845",
    "latitude": "29.921677454626334",
    "geocoded_column": {
      "latitude": "29.921677454626334",
      "longitude": "-90.1173385245845"
    }
  },
  {
    "service_request": "2024-1062251",
    "request_type": "Trash/Recycling",
    "request_reason": "Request a Large Item Pick Up",
    "date_created": "2024-01-18T15:27:22.000",
    "date_modified": "2024-01-18T15:27:23.000",
    "request_status": "Pending",
    "responsible_agency": "Department of Sanitation",
    "final_address": "5355 Magazine St",
    "address_councildis": "B",
    "status": "Assigned to Contractor",
    "contractor": "Richards Disposal",
    "rowid": "1062251",
    "final_x": "3667009.40084",
    "final_y": "518819.188343",
    "longitude": "-90.114253265338",
    "latitude": "29.921004539561938",
    "geocoded_column": {
      "latitude": "29.921004539561938",
      "longitude": "-90.114253265338"
    }
  },
  {
    "service_request": "2024-1062250",
    "request_type": "Trash/Recycling",
    "request_reason": "Request a Large Item Pick Up",
    "date_created": "2024-01-18T15:13:40.000",
    "date_modified": "2024-01-18T15:13:42.000",
    "request_status": "Pending",
    "responsible_agency": "Department of Sanitation",
    "final_address": "7 Heritage Ln Unit 28",
    "address_councildis": "C",
    "status": "Assigned to Contractor",
    "contractor": "Richards Disposal",
    "rowid": "1062250",
    "final_x": "3695954.93923",
    "final_y": "520324.27436",
    "longitude": "-90.02283138403433",
    "latitude": "29.924264502499828",
    "geocoded_column": {
      "latitude": "29.924264502499828",
      "longitude": "-90.02283138403433"
    }
  },
  {
    "service_request": "2024-1062249",
    "request_type": "Trash/Recycling",
    "request_reason": "Replace Trash Cart",
    "date_created": "2024-01-18T15:10:41.000",
    "date_modified": "2024-01-18T15:10:43.000",
    "request_status": "Pending",
    "responsible_agency": "Department of Sanitation",
    "final_address": "655 N Rocheblave St",
    "address_councildis": "D",
    "status": "Assigned to Contractor",
    "contractor": "Richards Disposal",
    "rowid": "1062249",
    "final_x": "3677388.23221",
    "final_y": "536232.260103",
    "longitude": "-90.08089117124365",
    "latitude": "29.96857700693254",
    "geocoded_column": {
      "latitude": "29.96857700693254",
      "longitude": "-90.08089117124365"
    }
  },
  {
    "service_request": "2024-1062248",
    "request_type": "Traffic Signals/Signs/Striping/Streetlights",
    "request_reason": "Street Name Sign Damaged or Missing",
    "date_created": "2024-01-18T15:10:32.000",
    "date_modified": "2024-01-18T15:10:33.000",
    "request_status": "Pending",
    "responsible_agency": "Department of Public Works",
    "final_address": "PLUM ST & S CARROLLTON AVE",
    "address_councildis": "A",
    "status": "Pending",
    "rowid": "1062248",
    "final_x": "3662221.5",
    "final_y": "528608.18",
    "longitude": "-90.12904182711088",
    "latitude": "29.94806037634054",
    "geocoded_column": {
      "latitude": "29.94806037634054",
      "longitude": "-90.12904182711088"
    }
  },
  {
    "service_request": "2024-1062247",
    "request_type": "Traffic Signals/Signs/Striping/Streetlights",
    "request_reason": "Additional signage",
    "date_created": "2024-01-18T15:10:29.000",
    "date_modified": "2024-01-18T15:10:29.000",
    "request_status": "Pending",
    "responsible_agency": "Department of Public Works",
    "final_address": "6000 BLK Bullard Ave",
    "address_councildis": "E",
    "status": "Pending",
    "rowid": "1062247",
    "final_x": "3715421.53008",
    "final_y": "564208.144009",
    "longitude": "-89.95972222426856",
    "latitude": "30.044301909801483",
    "geocoded_column": {
      "latitude": "30.044301909801483",
      "longitude": "-89.95972222426856"
    }
  },
  {
    "service_request": "2024-1062246",
    "request_type": "Trash/Recycling",
    "request_reason": "Illegal Dumping",
    "date_created": "2024-01-18T15:01:57.000",
    "date_modified": "2024-01-18T15:01:57.000",
    "request_status": "Pending",
    "responsible_agency": "Department of Sanitation",
    "final_address": "I 10 E SERVICE RD & WRIGHT RD",
    "address_councildis": "E",
    "status": "Pending",
    "rowid": "1062246",
    "final_x": "3712889.7",
    "final_y": "563191.28",
    "longitude": "-89.96776216765699",
    "latitude": "30.041589154491284",
    "geocoded_column": {
      "latitude": "30.041589154491284",
      "longitude": "-89.96776216765699"
    }
  },
  {
    "service_request": "2024-1062245",
    "request_type": "Safety & Permits",
    "request_reason": "Licenses & Permits",
    "date_created": "2024-01-18T15:00:31.000",
    "date_modified": "2024-01-18T15:00:31.000",
    "request_status": "Pending",
    "responsible_agency": "Safety and Permits",
    "final_address": "8104 Breakwater Dr",
    "address_councildis": "A",
    "status": "Pending",
    "rowid": "1062245",
    "final_x": "3665844.74644",
    "final_y": "557862.957915",
    "longitude": "-90.11662090276575",
    "latitude": "30.028395878876903",
    "geocoded_column": {
      "latitude": "30.028395878876903",
      "longitude": "-90.11662090276575"
    }
  },
  {
    "service_request": "2024-1062244",
    "request_type": "Abandoned Vehicles",
    "request_reason": "Abandoned/Junk Vehicles",
    "date_created": "2024-01-18T14:59:03.000",
    "date_modified": "2024-01-18T15:05:40.000",
    "request_status": "Pending",
    "responsible_agency": "Department of Public Works",
    "final_address": "4900 BLK Tulip St",
    "address_councildis": "E",
    "status": "Pending",
    "rowid": "1062244",
    "final_x": "3701972.10586",
    "final_y": "555398.059267",
    "longitude": "-90.00255156771611",
    "latitude": "30.020514060796415",
    "geocoded_column": {
      "latitude": "30.020514060796415",
      "longitude": "-90.00255156771611"
    }
  },
  {
    "service_request": "2024-1062243",
    "request_type": "Trash/Recycling",
    "request_reason": "Repair Trash Cart",
    "date_created": "2024-01-18T14:56:59.000",
    "date_modified": "2024-01-18T14:57:00.000",
    "request_status": "Pending",
    "responsible_agency": "Department of Sanitation",
    "final_address": "3601 Rue Delphine",
    "address_councildis": "C",
    "status": "Assigned to Contractor",
    "contractor": "Richards Disposal",
    "rowid": "1062243",
    "final_x": "3702987.6778",
    "final_y": "517425.83775",
    "longitude": "-90.00073804500423",
    "latitude": "29.916071761022536",
    "geocoded_column": {
      "latitude": "29.916071761022536",
      "longitude": "-90.00073804500423"
    }
  },
  {
    "service_request": "2024-1062242",
    "request_type": "Trash/Recycling",
    "request_reason": "Request a Large Item Pick Up",
    "date_created": "2024-01-18T14:56:47.000",
    "date_modified": "2024-01-18T14:56:49.000",
    "request_status": "Pending",
    "responsible_agency": "Department of Sanitation",
    "final_address": "7080 E Tamaron Blvd",
    "address_councildis": "E",
    "status": "Assigned to Contractor",
    "contractor": "Waste Pro",
    "rowid": "1062242",
    "final_x": "3718692.8814",
    "final_y": "568654.466789",
    "longitude": "-89.94921365898661",
    "latitude": "30.056419230731255",
    "geocoded_column": {
      "latitude": "30.056419230731255",
      "longitude": "-89.94921365898661"
    }
  },
  {
    "service_request": "2024-1062241",
    "request_type": "Utility Poles",
    "request_reason": "Utility Pole Leaning",
    "date_created": "2024-01-18T14:52:55.000",
    "date_modified": "2024-01-18T14:52:59.000",
    "request_status": "Pending",
    "responsible_agency": "Utility Company Collective",
    "final_address": "4139 Magazine St",
    "address_councildis": "B",
    "status": "Pending",
    "rowid": "1062241",
    "final_x": "3671885.98791",
    "final_y": "518914.511799",
    "longitude": "-90.09885680409236",
    "latitude": "29.92112308681152",
    "geocoded_column": {
      "latitude": "29.92112308681152",
      "longitude": "-90.09885680409236"
    }
  },
  {
    "service_request": "2024-1062240",
    "request_type": "Traffic Signals/Signs/Striping/Streetlights",
    "request_reason": "Traffic Signal Malfunctioning/Damaged",
    "date_created": "2024-01-18T14:51:47.000",
    "date_modified": "2024-01-18T14:51:48.000",
    "request_status": "Pending",
    "responsible_agency": "Department of Public Works",
    "final_address": "CHEF MENTEUR HWY & OLD GENTILLY RD",
    "address_councildis": "D",
    "status": "Pending",
    "rowid": "1062240",
    "final_x": "3688819.89",
    "final_y": "548773.68",
    "longitude": "-90.0443439430475",
    "latitude": "30.002712905669537",
    "geocoded_column": {
      "latitude": "30.002712905669537",
      "longitude": "-90.0443439430475"
    }
  },
  {
    "service_request": "2024-1062239",
    "request_type": "Trash/Recycling",
    "request_reason": "Illegal Dumping",
    "date_created": "2024-01-18T14:45:41.000",
    "date_modified": "2024-01-18T14:45:41.000",
    "request_status": "Pending",
    "responsible_agency": "Department of Sanitation",
    "final_address": "6600 N Interstate 10 Service Rd",
    "address_councildis": "D",
    "status": "Pending",
    "rowid": "1062239",
    "final_x": "3697898.10384",
    "final_y": "557523.675035",
    "longitude": "-90.01534685794017",
    "latitude": "30.02648816505581",
    "geocoded_column": {
      "latitude": "30.02648816505581",
      "longitude": "-90.01534685794017"
    }
  },
  {
    "service_request": "2024-1062238",
    "request_type": "Property Maintenance",
    "request_reason": "Property Maintenance",
    "date_created": "2024-01-18T14:38:25.000",
    "date_modified": "2024-01-18T14:38:25.000",
    "request_status": "Pending",
    "responsible_agency": "Department of Code Enforcement",
    "final_address": "1727 Valence St",
    "address_councildis": "B",
    "status": "Pending",
    "rowid": "1062238",
    "final_x": "3669733.44673",
    "final_y": "521347.442809",
    "longitude": "-90.10556914539352",
    "latitude": "29.927876464521137",
    "geocoded_column": {
      "latitude": "29.927876464521137",
      "longitude": "-90.10556914539352"
    }
  },
  {
    "service_request": "2024-1062237",
    "request_type": "Property Maintenance",
    "request_reason": "Property Maintenance",
    "date_created": "2024-01-18T14:38:06.000",
    "date_modified": "2024-01-18T14:41:07.000",
    "request_status": "Pending",
    "responsible_agency": "Department of Code Enforcement",
    "final_address": "3025 Seine St",
    "address_councildis": "C",
    "status": "Pending",
    "rowid": "1062237",
    "final_x": "3694706.17046",
    "final_y": "520290.236088",
    "longitude": "-90.02677451883866",
    "latitude": "29.924210121091697",
    "geocoded_column": {
      "latitude": "29.924210121091697",
      "longitude": "-90.02677451883866"
    }
  },
  {
    "service_request": "2024-1062236",
    "request_type": "Trash/Recycling",
    "request_reason": "Missed Trash Pick-Up",
    "date_created": "2024-01-18T14:34:24.000",
    "date_modified": "2024-01-18T15:07:21.000",
    "case_close_date": "2024-01-18T09:07:21.000",
    "request_status": "Closed",
    "responsible_agency": "Department of Sanitation",
    "final_address": "2318 Benefit St",
    "address_councildis": "D",
    "status": "Invalid Request",
    "contractor": "IV Waste",
    "contractor_action": "Invalid Pick-Up",
    "rowid": "1062236",
    "final_x": "3685278.9005",
    "final_y": "544433.800015",
    "longitude": "-90.0556832589209",
    "latitude": "29.990888845944614",
    "geocoded_column": {
      "latitude": "29.990888845944614",
      "longitude": "-90.0556832589209"
    }
  },
  {
    "service_request": "2024-1062235",
    "request_type": "Trash/Recycling",
    "request_reason": "Missed Trash Pick-Up",
    "date_created": "2024-01-18T14:30:52.000",
    "date_modified": "2024-01-18T14:30:53.000",
    "request_status": "Pending",
    "responsible_agency": "Department of Sanitation",
    "final_address": "7848 Chef Menteur Hwy",
    "address_councildis": "E",
    "status": "Assigned to Contractor",
    "contractor": "Waste Pro",
    "rowid": "1062235",
    "final_x": "3704492.44638",
    "final_y": "552569.03471",
    "longitude": "-89.99469254340046",
    "latitude": "30.012654603202897",
    "geocoded_column": {
      "latitude": "30.012654603202897",
      "longitude": "-89.99469254340046"
    }
  },
  {
    "service_request": "2024-1062234",
    "request_type": "Roads/Drainage",
    "request_reason": "Pothole",
    "date_created": "2024-01-18T14:28:07.000",
    "date_modified": "2024-01-18T14:30:25.000",
    "request_status": "Pending",
    "responsible_agency": "Department of Public Works",
    "final_address": "4221 Willow St",
    "address_councildis": "B",
    "status": "Pending",
    "rowid": "1062234",
    "final_x": "3670954.09115",
    "final_y": "525540.148541",
    "longitude": "-90.10157356841883",
    "latitude": "29.939369034531186",
    "geocoded_column": {
      "latitude": "29.939369034531186",
      "longitude": "-90.10157356841883"
    }
  },
  {
    "service_request": "2024-1062233",
    "request_type": "Trash/Recycling",
    "request_reason": "Replace Trash Cart",
    "date_created": "2024-01-18T14:27:27.000",
    "date_modified": "2024-01-18T14:27:29.000",
    "request_status": "Pending",
    "responsible_agency": "Department of Sanitation",
    "final_address": "4714 Pitt St",
    "address_councildis": "B",
    "status": "Assigned to Contractor",
    "contractor": "Richards Disposal",
    "rowid": "1062233",
    "final_x": "3669620.48858",
    "final_y": "520377.683448",
    "longitude": "-90.10595852028284",
    "latitude": "29.925213262764057",
    "geocoded_column": {
      "latitude": "29.925213262764057",
      "longitude": "-90.10595852028284"
    }
  },
  {
    "service_request": "2024-1062232",
    "request_type": "Abandoned Vehicles",
    "request_reason": "Abandoned/Junk Vehicles",
    "date_created": "2024-01-18T14:27:21.000",
    "date_modified": "2024-01-18T14:27:21.000",
    "request_status": "Pending",
    "responsible_agency": "Department of Public Works",
    "final_address": "1223 Mandeville St",
    "address_councildis": "C",
    "status": "Pending",
    "rowid": "1062232",
    "final_x": "3685780.25218",
    "final_y": "536945.44276",
    "longitude": "-90.05436363367757",
    "latitude": "29.97028312300386",
    "geocoded_column": {
      "latitude": "29.97028312300386",
      "longitude": "-90.05436363367757"
    }
  },
  {
    "service_request": "2024-1062231",
    "request_type": "Traffic Signals/Signs/Striping/Streetlights",
    "request_reason": "Street Light Outage/Malfunction",
    "date_created": "2024-01-18T14:22:58.000",
    "date_modified": "2024-01-18T14:22:59.000",
    "request_status": "Pending",
    "responsible_agency": "Department of Public Works",
    "final_address": "820 Esplanade Ave",
    "address_councildis": "C",
    "status": "Assigned to Contractor",
    "contractor": "Legacy Professional Services",
    "rowid": "1062231",
    "final_x": "3683590.77884",
    "final_y": "534693.878022",
    "longitude": "-90.06135715182383",
    "latitude": "29.96415911366659",
    "geocoded_column": {
      "latitude": "29.96415911366659",
      "longitude": "-90.06135715182383"
    }
  },
  {
    "service_request": "2024-1062230",
    "request_type": "Trash/Recycling",
    "request_reason": "Missed Trash Pick-Up",
    "date_created": "2024-01-18T14:19:20.000",
    "date_modified": "2024-01-18T14:19:22.000",
    "request_status": "Pending",
    "responsible_agency": "Department of Sanitation",
    "final_address": "10127 Boulevard Way",
    "address_councildis": "E",
    "status": "Assigned to Contractor",
    "contractor": "Waste Pro",
    "rowid": "1062230",
    "final_x": "3708641.16529",
    "final_y": "564821.91933",
    "longitude": "-89.9811281543265",
    "latitude": "30.04621129629488",
    "geocoded_column": {
      "latitude": "30.04621129629488",
      "longitude": "-89.9811281543265"
    }
  },
  {
    "service_request": "2024-1062229",
    "request_type": "Abandoned Vehicles",
    "request_reason": "Abandoned/Junk Vehicles",
    "date_created": "2024-01-18T14:17:15.000",
    "date_modified": "2024-01-18T14:17:15.000",
    "request_status": "Pending",
    "responsible_agency": "Department of Public Works",
    "final_address": "3311 St Claude Ave",
    "address_councildis": "C",
    "status": "Pending",
    "rowid": "1062229",
    "final_x": "3689959.75401",
    "final_y": "535873.057479",
    "longitude": "-90.04120255042993",
    "latitude": "29.96720550432674",
    "geocoded_column": {
      "latitude": "29.96720550432674",
      "longitude": "-90.04120255042993"
    }
  },
  {
    "service_request": "2024-1062228",
    "request_type": "Trash/Recycling",
    "request_reason": "Request a Large Item Pick Up",
    "date_created": "2024-01-18T14:16:43.000",
    "date_modified": "2024-01-18T14:16:44.000",
    "request_status": "Pending",
    "responsible_agency": "Department of Sanitation",
    "final_address": "13400 Wales St",
    "address_councildis": "E",
    "status": "Assigned to Contractor",
    "contractor": "Waste Pro",
    "rowid": "1062228",
    "final_x": "3716481.08792",
    "final_y": "571066.783207",
    "longitude": "-89.9561130476811",
    "latitude": "30.06312537842503",
    "geocoded_column": {
      "latitude": "30.06312537842503",
      "longitude": "-89.9561130476811"
    }
  },
  {
    "service_request": "2024-1062227",
    "request_type": "Trash/Recycling",
    "request_reason": "Replace Trash Cart",
    "date_created": "2024-01-18T14:11:44.000",
    "date_modified": "2024-01-18T14:11:45.000",
    "request_status": "Pending",
    "responsible_agency": "Department of Sanitation",
    "final_address": "3910 Perrier St",
    "address_councildis": "B",
    "status": "Assigned to Contractor",
    "contractor": "Richards Disposal",
    "rowid": "1062227",
    "final_x": "3672657.9044",
    "final_y": "520208.866872",
    "longitude": "-90.09637609828512",
    "latitude": "29.92465925978624",
    "geocoded_column": {
      "latitude": "29.92465925978624",
      "longitude": "-90.09637609828512"
    }
  },
  {
    "service_request": "2024-1062226",
    "request_type": "Traffic Signals/Signs/Striping/Streetlights",
    "request_reason": "Striping/Road Surface Markings",
    "date_created": "2024-01-18T14:10:50.000",
    "date_modified": "2024-01-18T14:10:50.000",
    "request_status": "Pending",
    "responsible_agency": "Department of Public Works",
    "final_address": "DREXEL DR & PALMETTO ST & S CARROLLTON AVE",
    "address_councildis": "B",
    "status": "Pending",
    "rowid": "1062226",
    "final_x": "3668281.8",
    "final_y": "535135.68",
    "longitude": "-90.10968685098715",
    "latitude": "29.96583232544349",
    "geocoded_column": {
      "latitude": "29.96583232544349",
      "longitude": "-90.10968685098715"
    }
  },
  {
    "service_request": "2024-1062225",
    "request_type": "Property Maintenance",
    "request_reason": "Property Maintenance",
    "date_created": "2024-01-18T14:09:07.000",
    "date_modified": "2024-01-18T14:09:07.000",
    "request_status": "Pending",
    "responsible_agency": "Department of Code Enforcement",
    "final_address": "1000 Pleasant St",
    "address_councildis": "B",
    "status": "Pending",
    "rowid": "1062225",
    "final_x": "3675668.42184",
    "final_y": "519543.564343",
    "longitude": "-90.08689573974308",
    "latitude": "29.922740187043527",
    "geocoded_column": {
      "latitude": "29.922740187043527",
      "longitude": "-90.08689573974308"
    }
  },
  {
    "service_request": "2024-1062224",
    "request_type": "Abandoned Vehicles",
    "request_reason": "Abandoned/Junk Vehicles",
    "date_created": "2024-01-18T14:09:06.000",
    "date_modified": "2024-01-18T14:09:06.000",
    "request_status": "Pending",
    "responsible_agency": "Department of Public Works",
    "final_address": "7918 Breakwater Dr",
    "address_councildis": "A",
    "status": "Pending",
    "rowid": "1062224",
    "final_x": "3665172.66823",
    "final_y": "557800.884827",
    "longitude": "-90.11874672315837",
    "latitude": "30.028244805552447",
    "geocoded_column": {
      "latitude": "30.028244805552447",
      "longitude": "-90.11874672315837"
    }
  },
  {
    "service_request": "2024-1062223",
    "request_type": "Trash/Recycling",
    "request_reason": "Missed Trash Pick-Up",
    "date_created": "2024-01-18T14:08:48.000",
    "date_modified": "2024-01-18T14:08:49.000",
    "request_status": "Pending",
    "responsible_agency": "Department of Sanitation",
    "final_address": "7301 Northgate Dr",
    "address_councildis": "E",
    "status": "Assigned to Contractor",
    "contractor": "Waste Pro",
    "rowid": "1062223",
    "final_x": "3713436.54962",
    "final_y": "565573.384994",
    "longitude": "-89.96594410225418",
    "latitude": "30.04812104858399",
    "geocoded_column": {
      "latitude": "30.04812104858399",
      "longitude": "-89.96594410225418"
    }
  },
  {
    "service_request": "2024-1062222",
    "request_type": "Trash/Recycling",
    "request_reason": "Missed Trash Pick-Up",
    "date_created": "2024-01-18T14:07:21.000",
    "date_modified": "2024-01-18T14:44:01.000",
    "case_close_date": "2024-01-18T08:44:01.000",
    "request_status": "Closed",
    "responsible_agency": "Department of Sanitation",
    "final_address": "5001 Chef Menteur Hwy",
    "address_councildis": "D",
    "status": "Invalid Request",
    "contractor": "IV Waste",
    "contractor_action": "Invalid Pick-Up",
    "rowid": "1062222",
    "final_x": "3692863.13731",
    "final_y": "550616.073172",
    "longitude": "-90.03150470718755",
    "latitude": "30.007653124038132",
    "geocoded_column": {
      "latitude": "30.007653124038132",
      "longitude": "-90.03150470718755"
    }
  },
  {
    "service_request": "2024-1062221",
    "request_type": "Abandoned Vehicles",
    "request_reason": "Abandoned/Junk Vehicles",
    "date_created": "2024-01-18T14:04:48.000",
    "date_modified": "2024-01-18T14:04:48.000",
    "request_status": "Pending",
    "responsible_agency": "Department of Public Works",
    "final_address": "7812 Breakwater Dr",
    "address_councildis": "A",
    "status": "Pending",
    "rowid": "1062221",
    "final_x": "3664818.22829",
    "final_y": "557447.273371",
    "longitude": "-90.1198785714188",
    "latitude": "30.027282825442974",
    "geocoded_column": {
      "latitude": "30.027282825442974",
      "longitude": "-90.1198785714188"
    }
  },
  {
    "service_request": "2024-1062220",
    "request_type": "Trash/Recycling",
    "request_reason": "Repair Trash Cart",
    "date_created": "2024-01-18T14:04:14.000",
    "date_modified": "2024-01-18T14:04:15.000",
    "request_status": "Pending",
    "responsible_agency": "Department of Sanitation",
    "final_address": "2417 Clover St",
    "address_councildis": "D",
    "status": "Assigned to Contractor",
    "contractor": "IV Waste",
    "rowid": "1062220",
    "final_x": "3686200.09244",
    "final_y": "546613.129489",
    "longitude": "-90.0526965027075",
    "latitude": "29.996852945585726",
    "geocoded_column": {
      "latitude": "29.996852945585726",
      "longitude": "-90.0526965027075"
    }
  },
  {
    "service_request": "2024-1062219",
    "request_type": "Trash/Recycling",
    "request_reason": "Request a Large Item Pick Up",
    "date_created": "2024-01-18T14:02:24.000",
    "date_modified": "2024-01-18T14:02:25.000",
    "request_status": "Pending",
    "responsible_agency": "Department of Sanitation",
    "final_address": "2730 S Carrollton Ave",
    "address_councildis": "A",
    "status": "Assigned to Contractor",
    "contractor": "Richards Disposal",
    "rowid": "1062219",
    "final_x": "3665756.24762",
    "final_y": "532553.364036",
    "longitude": "-90.1177490064648",
    "latitude": "29.958805723588696",
    "geocoded_column": {
      "latitude": "29.958805723588696",
      "longitude": "-90.1177490064648"
    }
  },
  {
    "service_request": "2024-1062218",
    "request_type": "Safety & Permits",
    "request_reason": "Licenses & Permits",
    "date_created": "2024-01-18T14:00:51.000",
    "date_modified": "2024-01-18T14:00:51.000",
    "request_status": "Pending",
    "responsible_agency": "Safety and Permits",
    "final_address": "149 N Roadway St",
    "address_councildis": "A",
    "status": "Pending",
    "rowid": "1062218",
    "final_x": "3666046.50311",
    "final_y": "556847.570074",
    "longitude": "-90.1160174468542",
    "latitude": "30.025598031481397",
    "geocoded_column": {
      "latitude": "30.025598031481397",
      "longitude": "-90.1160174468542"
    }
  },
  {
    "service_request": "2024-1062217",
    "request_type": "Property Maintenance",
    "request_reason": "Property Maintenance",
    "date_created": "2024-01-18T13:58:12.000",
    "date_modified": "2024-01-18T13:58:12.000",
    "request_status": "Pending",
    "responsible_agency": "Department of Code Enforcement",
    "final_address": "151 N Roadway St",
    "address_councildis": "A",
    "status": "Pending",
    "rowid": "1062217",
    "final_x": "3666030.25325",
    "final_y": "556809.236698",
    "longitude": "-90.11607008111616",
    "latitude": "30.02549310299008",
    "geocoded_column": {
      "latitude": "30.02549310299008",
      "longitude": "-90.11607008111616"
    }
  },
  {
    "service_request": "2024-1062216",
    "request_type": "Trash/Recycling",
    "request_reason": "Order Recycling Cart",
    "date_created": "2024-01-18T13:57:58.000",
    "date_modified": "2024-01-18T13:57:59.000",
    "request_status": "Pending",
    "responsible_agency": "Department of Sanitation",
    "final_address": "2505 Palmer Ave",
    "address_councildis": "A",
    "status": "Pending",
    "rowid": "1062216",
    "final_x": "3666518.59501",
    "final_y": "525941.458621",
    "longitude": "-90.11556359275956",
    "latitude": "29.94060286989595",
    "geocoded_column": {
      "latitude": "29.94060286989595",
      "longitude": "-90.11556359275956"
    }
  },
  {
    "service_request": "2024-1062215",
    "request_type": "Property Maintenance",
    "request_reason": "Property Maintenance",
    "date_created": "2024-01-18T13:57:05.000",
    "date_modified": "2024-01-18T13:57:05.000",
    "request_status": "Pending",
    "responsible_agency": "Department of Code Enforcement",
    "final_address": "151 N Roadway St",
    "address_councildis": "A",
    "status": "Pending",
    "rowid": "1062215",
    "final_x": "3666030.25325",
    "final_y": "556809.236698",
    "longitude": "-90.11607008111616",
    "latitude": "30.02549310299008",
    "geocoded_column": {
      "latitude": "30.02549310299008",
      "longitude": "-90.11607008111616"
    }
  },
  {
    "service_request": "2024-1062214",
    "request_type": "Trash/Recycling",
    "request_reason": "Order Trash Cart",
    "date_created": "2024-01-18T13:56:44.000",
    "date_modified": "2024-01-18T13:56:46.000",
    "request_status": "Pending",
    "responsible_agency": "Department of Sanitation",
    "final_address": "2505 Palmer Ave",
    "address_councildis": "A",
    "status": "Assigned to Contractor",
    "contractor": "Richards Disposal",
    "rowid": "1062214",
    "final_x": "3666518.59501",
    "final_y": "525941.458621",
    "longitude": "-90.11556359275956",
    "latitude": "29.94060286989595",
    "geocoded_column": {
      "latitude": "29.94060286989595",
      "longitude": "-90.11556359275956"
    }
  },
  {
    "service_request": "2024-1062213",
    "request_type": "Traffic Signals/Signs/Striping/Streetlights",
    "request_reason": "Traffic Signal Malfunctioning/Damaged",
    "date_created": "2024-01-18T13:56:36.000",
    "date_modified": "2024-01-18T13:56:37.000",
    "request_status": "Pending",
    "responsible_agency": "Department of Public Works",
    "final_address": "BULLARD AVE & HAYNE BLVD",
    "address_councildis": "E",
    "status": "Pending",
    "rowid": "1062213",
    "final_x": "3712142.2",
    "final_y": "568794.68",
    "longitude": "-89.96991380312626",
    "latitude": "30.057020706348293",
    "geocoded_column": {
      "latitude": "30.057020706348293",
      "longitude": "-89.96991380312626"
    }
  },
  {
    "service_request": "2024-1062212",
    "request_type": "Trash/Recycling",
    "request_reason": "Request a Large Item Pick Up",
    "date_created": "2024-01-18T13:56:00.000",
    "date_modified": "2024-01-18T13:56:01.000",
    "request_status": "Pending",
    "responsible_agency": "Department of Sanitation",
    "final_address": "36 Yellowstone Dr",
    "address_councildis": "C",
    "status": "Assigned to Contractor",
    "contractor": "Richards Disposal",
    "rowid": "1062212",
    "final_x": "3700268.07325",
    "final_y": "517527.834742",
    "longitude": "-90.0093184095809",
    "latitude": "29.91643890610397",
    "geocoded_column": {
      "latitude": "29.91643890610397",
      "longitude": "-90.0093184095809"
    }
  },
  {
    "service_request": "2024-1062211",
    "request_type": "Trash/Recycling",
    "request_reason": "Illegal Dumping",
    "date_created": "2024-01-18T13:50:22.000",
    "date_modified": "2024-01-18T13:50:22.000",
    "request_status": "Pending",
    "responsible_agency": "Department of Sanitation",
    "final_address": "3120 Josephine St",
    "address_councildis": "B",
    "status": "Pending",
    "rowid": "1062211",
    "final_x": "3674491.78382",
    "final_y": "528333.391808",
    "longitude": "-90.09030893216686",
    "latitude": "29.946944492677588",
    "geocoded_column": {
      "latitude": "29.946944492677588",
      "longitude": "-90.09030893216686"
    }
  },
  {
    "service_request": "2024-1062210",
    "request_type": "Trash/Recycling",
    "request_reason": "Request a Large Item Pick Up",
    "date_created": "2024-01-18T13:47:38.000",
    "date_modified": "2024-01-18T13:47:40.000",
    "request_status": "Pending",
    "responsible_agency": "Department of Sanitation",
    "final_address": "2421 Kerlerec St",
    "address_councildis": "D",
    "status": "Assigned to Contractor",
    "contractor": "IV Waste",
    "rowid": "1062210",
    "final_x": "3679145.6685",
    "final_y": "538767.159625",
    "longitude": "-90.07525319766822",
    "latitude": "29.975494173494894",
    "geocoded_column": {
      "latitude": "29.975494173494894",
      "longitude": "-90.07525319766822"
    }
  },
  {
    "service_request": "2024-1062209",
    "request_type": "Trash/Recycling",
    "request_reason": "Replace Trash Cart",
    "date_created": "2024-01-18T13:42:11.000",
    "date_modified": "2024-01-18T13:42:13.000",
    "request_status": "Pending",
    "responsible_agency": "Department of Sanitation",
    "final_address": "4425 General Pershing St",
    "address_councildis": "B",
    "status": "Assigned to Contractor",
    "contractor": "Richards Disposal",
    "rowid": "1062209",
    "final_x": "3669291.42714",
    "final_y": "529956.654593",
    "longitude": "-90.10667356015675",
    "latitude": "29.951562030931022",
    "geocoded_column": {
      "latitude": "29.951562030931022",
      "longitude": "-90.10667356015675"
    }
  },
  {
    "service_request": "2024-1062208",
    "request_type": "Trash/Recycling",
    "request_reason": "Repair Trash Cart",
    "date_created": "2024-01-18T13:41:18.000",
    "date_modified": "2024-01-18T13:41:19.000",
    "request_status": "Pending",
    "responsible_agency": "Department of Sanitation",
    "final_address": "4817 Laine Ave",
    "address_councildis": "E",
    "status": "Assigned to Contractor",
    "contractor": "Waste Pro",
    "rowid": "1062208",
    "final_x": "3705724.55844",
    "final_y": "555878.333017",
    "longitude": "-89.99067726561027",
    "latitude": "30.021714262174278",
    "geocoded_column": {
      "latitude": "30.021714262174278",
      "longitude": "-89.99067726561027"
    }
  },
  {
    "service_request": "2024-1062207",
    "request_type": "Abandoned Vehicles",
    "request_reason": "Abandoned/Junk Vehicles",
    "date_created": "2024-01-18T13:40:32.000",
    "date_modified": "2024-01-18T13:40:32.000",
    "request_status": "Pending",
    "responsible_agency": "Department of Public Works",
    "final_address": "233 N Roadway St",
    "address_councildis": "A",
    "status": "Pending",
    "rowid": "1062207",
    "final_x": "3665673.52813",
    "final_y": "556813.340506",
    "longitude": "-90.11719714813415",
    "latitude": "30.02551480222416",
    "geocoded_column": {
      "latitude": "30.02551480222416",
      "longitude": "-90.11719714813415"
    }
  },
  {
    "service_request": "2024-1062205",
    "request_type": "Trash/Recycling",
    "request_reason": "Request a Large Item Pick Up",
    "date_created": "2024-01-18T13:38:52.000",
    "date_modified": "2024-01-18T13:38:54.000",
    "request_status": "Pending",
    "responsible_agency": "Department of Sanitation",
    "final_address": "2059 Stephen Girard St",
    "address_councildis": "D",
    "status": "Assigned to Contractor",
    "contractor": "IV Waste",
    "rowid": "1062205",
    "final_x": "3683068.51746",
    "final_y": "548798.093587",
    "longitude": "-90.06251242647349",
    "latitude": "30.002956679169362",
    "geocoded_column": {
      "latitude": "30.002956679169362",
      "longitude": "-90.06251242647349"
    }
  },
  {
    "service_request": "2024-1062204",
    "request_type": "Parks & Parkways",
    "request_reason": "Tree Stump (removal, grind)",
    "date_created": "2024-01-18T13:38:21.000",
    "date_modified": "2024-01-18T13:38:22.000",
    "request_status": "Pending",
    "responsible_agency": "Department of Parks & Parkway",
    "final_address": "1727 Valence St",
    "address_councildis": "B",
    "status": "Pending",
    "rowid": "1062204",
    "final_x": "3669733.44673",
    "final_y": "521347.442809",
    "longitude": "-90.10556914539352",
    "latitude": "29.927876464521137",
    "geocoded_column": {
      "latitude": "29.927876464521137",
      "longitude": "-90.10556914539352"
    }
  },
  {
    "service_request": "2024-1062203",
    "request_type": "Trash/Recycling",
    "request_reason": "Order Recycling Cart",
    "date_created": "2024-01-18T13:36:23.000",
    "date_modified": "2024-01-18T13:36:42.000",
    "request_status": "Pending",
    "responsible_agency": "Department of Sanitation",
    "final_address": "2442 Oriole St",
    "address_councildis": "D",
    "status": "Pending",
    "rowid": "1062203",
    "final_x": "3684927.40348",
    "final_y": "558130.602139",
    "longitude": "-90.05631137104932",
    "latitude": "30.02856083767257",
    "geocoded_column": {
      "latitude": "30.02856083767257",
      "longitude": "-90.05631137104932"
    }
  },
  {
    "service_request": "2024-1062202",
    "request_type": "Trash/Recycling",
    "request_reason": "Replace Trash Cart",
    "date_created": "2024-01-18T13:31:58.000",
    "date_modified": "2024-01-18T13:31:58.000",
    "request_status": "Pending",
    "responsible_agency": "Department of Sanitation",
    "final_address": "3634 Piedmont Dr",
    "address_councildis": "D",
    "status": "Assigned to Contractor",
    "contractor": "IV Waste",
    "rowid": "1062202",
    "final_x": "3685958.62518",
    "final_y": "546007.626448",
    "longitude": "-90.05348064849095",
    "latitude": "29.995195447984575",
    "geocoded_column": {
      "latitude": "29.995195447984575",
      "longitude": "-90.05348064849095"
    }
  },
  {
    "service_request": "2024-1062201",
    "request_type": "Trash/Recycling",
    "request_reason": "MIssed Recycling Pick-Up",
    "date_created": "2024-01-18T13:27:13.000",
    "date_modified": "2024-01-18T16:39:53.000",
    "case_close_date": "2024-01-18T10:39:53.000",
    "request_status": "Closed",
    "responsible_agency": "Department of Sanitation",
    "final_address": "4548 Schemkel Dr",
    "address_councildis": "E",
    "status": "Invalid Request",
    "contractor": "Waste Pro",
    "contractor_action": "Invalid Request",
    "rowid": "1062201",
    "final_x": "3784711.1262",
    "final_y": "607604.479946",
    "longitude": "-89.73883508000559",
    "latitude": "30.161154082799523",
    "geocoded_column": {
      "latitude": "30.161154082799523",
      "longitude": "-89.73883508000559"
    }
  },
  {
    "service_request": "2024-1062200",
    "request_type": "Trash/Recycling",
    "request_reason": "Illegal Dumping",
    "date_created": "2024-01-18T13:20:41.000",
    "date_modified": "2024-01-18T13:20:41.000",
    "request_status": "Pending",
    "responsible_agency": "Department of Sanitation",
    "final_address": "0 BLK Seabrook Pl",
    "address_councildis": "D",
    "status": "Pending",
    "rowid": "1062200",
    "final_x": "3694453.44209",
    "final_y": "557675.103269",
    "longitude": "-90.02622609291674",
    "latitude": "30.027013030391966",
    "geocoded_column": {
      "latitude": "30.027013030391966",
      "longitude": "-90.02622609291674"
    }
  },
  {
    "service_request": "2024-1062198",
    "request_type": "Trash/Recycling",
    "request_reason": "Repair Trash Cart",
    "date_created": "2024-01-18T13:16:39.000",
    "date_modified": "2024-01-18T13:16:40.000",
    "request_status": "Pending",
    "responsible_agency": "Department of Sanitation",
    "final_address": "2420 Camp St",
    "address_councildis": "B",
    "status": "Assigned to Contractor",
    "contractor": "Richards Disposal",
    "rowid": "1062198",
    "final_x": "3677780.43573",
    "final_y": "521651.899257",
    "longitude": "-90.08015615976566",
    "latitude": "29.928474082126506",
    "geocoded_column": {
      "latitude": "29.928474082126506",
      "longitude": "-90.08015615976566"
    }
  },
  {
    "service_request": "2024-1062197",
    "request_type": "Roads/Drainage",
    "request_reason": "Street Flooding / Drainage",
    "date_created": "2024-01-18T13:14:06.000",
    "date_modified": "2024-01-18T13:14:06.000",
    "request_status": "Pending",
    "responsible_agency": "Department of Public Works",
    "final_address": "3217 Laurel St",
    "address_councildis": "B",
    "status": "Pending",
    "rowid": "1062197",
    "final_x": "3675994.90523",
    "final_y": "519299.841463",
    "longitude": "-90.08587353568628",
    "latitude": "29.92206025825879",
    "geocoded_column": {
      "latitude": "29.92206025825879",
      "longitude": "-90.08587353568628"
    }
  },
  {
    "service_request": "2024-1062196",
    "request_type": "Traffic Signals/Signs/Striping/Streetlights",
    "request_reason": "Request for Stop Sign",
    "date_created": "2024-01-18T13:14:05.000",
    "date_modified": "2024-01-18T13:14:05.000",
    "request_status": "Pending",
    "responsible_agency": "Department of Public Works",
    "final_address": "601 N Solomon St",
    "address_councildis": "A",
    "status": "Pending",
    "rowid": "1062196",
    "final_x": "3671665.16615",
    "final_y": "540215.281099",
    "longitude": "-90.09882944364074",
    "latitude": "29.979699731232508",
    "geocoded_column": {
      "latitude": "29.979699731232508",
      "longitude": "-90.09882944364074"
    }
  },
  {
    "service_request": "2024-1062195",
    "request_type": "Trash/Recycling",
    "request_reason": "Order Recycling Cart",
    "date_created": "2024-01-18T13:13:14.000",
    "date_modified": "2024-01-18T13:13:15.000",
    "request_status": "Pending",
    "responsible_agency": "Department of Sanitation",
    "final_address": "7304 Oak St",
    "address_councildis": "A",
    "status": "Pending",
    "rowid": "1062195",
    "final_x": "3663852.12986",
    "final_y": "526655.809854",
    "longitude": "-90.12395830768335",
    "latitude": "29.942644759867914",
    "geocoded_column": {
      "latitude": "29.942644759867914",
      "longitude": "-90.12395830768335"
    }
  },
  {
    "service_request": "2024-1062194",
    "request_type": "Abandoned Vehicles",
    "request_reason": "Abandoned/Junk Vehicles",
    "date_created": "2024-01-18T13:11:34.000",
    "date_modified": "2024-01-18T13:13:03.000",
    "request_status": "Pending",
    "responsible_agency": "Department of Public Works",
    "final_address": "156 Millaudon St",
    "address_councildis": "A",
    "status": "Pending",
    "rowid": "1062194",
    "final_x": "3660951.45619",
    "final_y": "523633.768187",
    "longitude": "-90.1332163934246",
    "latitude": "29.934418962918983",
    "geocoded_column": {
      "latitude": "29.934418962918983",
      "longitude": "-90.1332163934246"
    }
  },
  {
    "service_request": "2024-1062193",
    "request_type": "Traffic Signals/Signs/Striping/Streetlights",
    "request_reason": "Street Light Outage/Malfunction",
    "date_created": "2024-01-18T13:11:07.000",
    "date_modified": "2024-01-18T13:11:09.000",
    "request_status": "Pending",
    "responsible_agency": "Department of Public Works",
    "final_address": "1552 Crete St",
    "address_councildis": "A",
    "status": "Assigned to Contractor",
    "contractor": "Legacy Professional Services",
    "rowid": "1062193",
    "final_x": "3678124.91669",
    "final_y": "540060.046987",
    "longitude": "-90.07843229201514",
    "latitude": "29.97907994488191",
    "geocoded_column": {
      "latitude": "29.97907994488191",
      "longitude": "-90.07843229201514"
    }
  },
  {
    "service_request": "2024-1062192",
    "request_type": "Property Maintenance",
    "request_reason": "Property Maintenance",
    "date_created": "2024-01-18T13:02:56.000",
    "date_modified": "2024-01-18T13:02:56.000",
    "request_status": "Pending",
    "responsible_agency": "Department of Code Enforcement",
    "final_address": "1801 N Broad St",
    "address_councildis": "D",
    "status": "Pending",
    "rowid": "1062192",
    "final_x": "3679928.41947",
    "final_y": "541436.347852",
    "longitude": "-90.07268831064353",
    "latitude": "29.982809860304386",
    "geocoded_column": {
      "latitude": "29.982809860304386",
      "longitude": "-90.07268831064353"
    }
  },
  {
    "service_request": "2024-1062191",
    "request_type": "Trash/Recycling",
    "request_reason": "Missed Trash Pick-Up",
    "date_created": "2024-01-18T13:02:14.000",
    "date_modified": "2024-01-18T14:00:22.000",
    "case_close_date": "2024-01-18T08:00:22.000",
    "request_status": "Closed",
    "responsible_agency": "Department of Sanitation",
    "final_address": "1723 N Villere St",
    "address_councildis": "C",
    "status": "Invalid Request",
    "contractor": "IV Waste",
    "contractor_action": "Invalid Pick-Up",
    "rowid": "1062191",
    "final_x": "3683247.111",
    "final_y": "537300.158408",
    "longitude": "-90.0623511311688",
    "latitude": "29.9713359702068",
    "geocoded_column": {
      "latitude": "29.9713359702068",
      "longitude": "-90.0623511311688"
    }
  },
  {
    "service_request": "2024-1062190",
    "request_type": "Trash/Recycling",
    "request_reason": "Missed Trash Pick-Up",
    "date_created": "2024-01-18T12:57:14.000",
    "date_modified": "2024-01-18T12:57:15.000",
    "request_status": "Pending",
    "responsible_agency": "Department of Sanitation",
    "final_address": "9809 Old Gentilly Rd",
    "address_councildis": "E",
    "status": "Assigned to Contractor",
    "contractor": "Waste Pro",
    "rowid": "1062190",
    "final_x": "3712027.72824",
    "final_y": "553014.867159",
    "longitude": "-89.97086869832809",
    "latitude": "30.013636261663233",
    "geocoded_column": {
      "latitude": "30.013636261663233",
      "longitude": "-89.97086869832809"
    }
  },
  {
    "service_request": "2024-1062189",
    "request_type": "Trash/Recycling",
    "request_reason": "Dead Animal Pick Up",
    "date_created": "2024-01-18T12:54:50.000",
    "date_modified": "2024-01-18T12:54:51.000",
    "request_status": "Pending",
    "responsible_agency": "Department of Sanitation",
    "final_address": "6725 Tara Ln",
    "address_councildis": "E",
    "status": "Assigned to Contractor",
    "contractor": "Waste Pro",
    "rowid": "1062189",
    "final_x": "3707621.37265",
    "final_y": "558798.922268",
    "longitude": "-89.98457526091174",
    "latitude": "30.029683491476074",
    "geocoded_column": {
      "latitude": "30.029683491476074",
      "longitude": "-89.98457526091174"
    }
  },
  {
    "service_request": "2024-1062187",
    "request_type": "Trash/Recycling",
    "request_reason": "Request a Large Item Pick Up",
    "date_created": "2024-01-18T12:52:24.000",
    "date_modified": "2024-01-18T12:52:25.000",
    "request_status": "Pending",
    "responsible_agency": "Department of Sanitation",
    "final_address": "2401 Mazant St",
    "address_councildis": "D",
    "status": "Assigned to Contractor",
    "contractor": "IV Waste",
    "rowid": "1062187",
    "final_x": "3693367.33981",
    "final_y": "540150.941643",
    "longitude": "-90.03028777544714",
    "latitude": "29.978862063694496",
    "geocoded_column": {
      "latitude": "29.978862063694496",
      "longitude": "-90.03028777544714"
    }
  },
  {
    "service_request": "2024-1062186",
    "request_type": "Trash/Recycling",
    "request_reason": "MIssed Recycling Pick-Up",
    "date_created": "2024-01-18T12:51:28.000",
    "date_modified": "2024-01-18T12:51:29.000",
    "request_status": "Pending",
    "responsible_agency": "Department of Sanitation",
    "final_address": "2118 Freret St",
    "address_councildis": "B",
    "status": "Assigned to Contractor",
    "contractor": "Richards Disposal",
    "rowid": "1062186",
    "final_x": "3675801.34357",
    "final_y": "526418.156094",
    "longitude": "-90.08623997872645",
    "latitude": "29.941639099133855",
    "geocoded_column": {
      "latitude": "29.941639099133855",
      "longitude": "-90.08623997872645"
    }
  },
  {
    "service_request": "2024-1062185",
    "request_type": "Trash/Recycling",
    "request_reason": "Request a Large Item Pick Up",
    "date_created": "2024-01-18T12:49:45.000",
    "date_modified": "2024-01-18T12:49:46.000",
    "request_status": "Pending",
    "responsible_agency": "Department of Sanitation",
    "final_address": "5719 Painters St",
    "address_councildis": "D",
    "status": "Assigned to Contractor",
    "contractor": "IV Waste",
    "rowid": "1062185",
    "final_x": "3686180.99516",
    "final_y": "554229.031576",
    "longitude": "-90.0524879017767",
    "latitude": "30.01779449074635",
    "geocoded_column": {
      "latitude": "30.01779449074635",
      "longitude": "-90.0524879017767"
    }
  },
  {
    "service_request": "2024-1062184",
    "request_type": "Trash/Recycling",
    "request_reason": "Replace Trash Cart",
    "date_created": "2024-01-18T12:48:34.000",
    "date_modified": "2024-01-18T12:48:35.000",
    "request_status": "Pending",
    "responsible_agency": "Department of Sanitation",
    "final_address": "2137 Ap Tureaud Ave",
    "address_councildis": "D",
    "status": "Assigned to Contractor",
    "contractor": "IV Waste",
    "rowid": "1062184",
    "final_x": "3681755.81199",
    "final_y": "540073.182091",
    "longitude": "-90.06696407236916",
    "latitude": "29.979006222766337",
    "geocoded_column": {
      "latitude": "29.979006222766337",
      "longitude": "-90.06696407236916"
    }
  },
  {
    "service_request": "2024-1062183",
    "request_type": "Mosquito, Termite & Rodent Control",
    "request_reason": "Rodent Complaint (Rats)",
    "date_created": "2024-01-18T12:46:18.000",
    "date_modified": "2024-01-18T12:46:20.000",
    "request_status": "Pending",
    "responsible_agency": "Mosquito, Termite & Rodent Control Board",
    "final_address": "1820 Delery St",
    "address_councildis": "E",
    "status": "Pending",
    "rowid": "1062183",
    "final_x": "3701442.44509",
    "final_y": "535599.918406",
    "longitude": "-90.0049503420245",
    "latitude": "29.966093430061058",
    "geocoded_column": {
      "latitude": "29.966093430061058",
      "longitude": "-90.0049503420245"
    }
  },
  {
    "service_request": "2024-1062182",
    "request_type": "Trash/Recycling",
    "request_reason": "Replace Trash Cart",
    "date_created": "2024-01-18T12:43:50.000",
    "date_modified": "2024-01-18T12:43:52.000",
    "request_status": "Pending",
    "responsible_agency": "Department of Sanitation",
    "final_address": "2132 Cadiz St",
    "address_councildis": "B",
    "status": "Assigned to Contractor",
    "contractor": "Richards Disposal",
    "rowid": "1062182",
    "final_x": "3669861.59258",
    "final_y": "522843.451003",
    "longitude": "-90.10511399702398",
    "latitude": "29.931986232239865",
    "geocoded_column": {
      "latitude": "29.931986232239865",
      "longitude": "-90.10511399702398"
    }
  },
  {
    "service_request": "2024-1062181",
    "request_type": "Trash/Recycling",
    "request_reason": "Request a Large Item Pick Up",
    "date_created": "2024-01-18T12:35:55.000",
    "date_modified": "2024-01-18T12:36:44.000",
    "request_status": "Pending",
    "responsible_agency": "Department of Sanitation",
    "final_address": "4549 Camelot Dr",
    "address_councildis": "E",
    "status": "Assigned to Contractor",
    "contractor": "Waste Pro",
    "rowid": "1062181",
    "final_x": "3708562.19179",
    "final_y": "554456.480536",
    "longitude": "-89.98176416744379",
    "latitude": "30.017712989241385",
    "geocoded_column": {
      "latitude": "30.017712989241385",
      "longitude": "-89.98176416744379"
    }
  },
  {
    "service_request": "2024-1062180",
    "request_type": "Roads/Drainage",
    "request_reason": "Street Subsidence (Sinking)",
    "date_created": "2024-01-18T12:35:31.000",
    "date_modified": "2024-01-18T12:35:31.000",
    "request_status": "Pending",
    "responsible_agency": "Department of Public Works",
    "final_address": "1924 St Claude Ave",
    "address_councildis": "C",
    "status": "Pending",
    "rowid": "1062180",
    "final_x": "3684094.58242",
    "final_y": "536133.410247",
    "longitude": "-90.05971565729871",
    "latitude": "29.968101942661107",
    "geocoded_column": {
      "latitude": "29.968101942661107",
      "longitude": "-90.05971565729871"
    }
  },
  {
    "service_request": "2024-1062179",
    "request_type": "Trash/Recycling",
    "request_reason": "Request a Large Item Pick Up",
    "date_created": "2024-01-18T12:33:02.000",
    "date_modified": "2024-01-18T12:33:03.000",
    "request_status": "Pending",
    "responsible_agency": "Department of Sanitation",
    "final_address": "2315 St Roch Ave",
    "address_councildis": "D",
    "status": "Assigned to Contractor",
    "contractor": "IV Waste",
    "rowid": "1062179",
    "final_x": "3686204.47106",
    "final_y": "540974.112459",
    "longitude": "-90.05288173124053",
    "latitude": "29.981347523971692",
    "geocoded_column": {
      "latitude": "29.981347523971692",
      "longitude": "-90.05288173124053"
    }
  },
  {
    "service_request": "2024-1062178",
    "request_type": "Trash/Recycling",
    "request_reason": "Repair Trash Cart",
    "date_created": "2024-01-18T12:31:46.000",
    "date_modified": "2024-01-18T12:31:48.000",
    "request_status": "Pending",
    "responsible_agency": "Department of Sanitation",
    "final_address": "1420 Valence St",
    "address_councildis": "B",
    "status": "Assigned to Contractor",
    "contractor": "Richards Disposal",
    "rowid": "1062178",
    "final_x": "3669700.59668",
    "final_y": "520355.41356",
    "longitude": "-90.10570639693285",
    "latitude": "29.925149667961925",
    "geocoded_column": {
      "latitude": "29.925149667961925",
      "longitude": "-90.10570639693285"
    }
  },
  {
    "service_request": "2024-1062177",
    "request_type": "Trash/Recycling",
    "request_reason": "Request a Large Item Pick Up",
    "date_created": "2024-01-18T12:26:28.000",
    "date_modified": "2024-01-18T12:26:30.000",
    "request_status": "Pending",
    "responsible_agency": "Department of Sanitation",
    "final_address": "3633 Pin Oak Ave",
    "address_councildis": "C",
    "status": "Assigned to Contractor",
    "contractor": "Richards Disposal",
    "rowid": "1062177",
    "final_x": "3703864.39934",
    "final_y": "514745.901747",
    "longitude": "-89.99806936138764",
    "latitude": "29.908674789904655",
    "geocoded_column": {
      "latitude": "29.908674789904655",
      "longitude": "-89.99806936138764"
    }
  },
  {
    "service_request": "2024-1062176",
    "request_type": "Traffic Signals/Signs/Striping/Streetlights",
    "request_reason": "Disabled Parking Sign ",
    "date_created": "2024-01-18T12:25:25.000",
    "date_modified": "2024-01-18T12:25:26.000",
    "request_status": "Pending",
    "responsible_agency": "Department of Public Works",
    "final_address": "1922 Fourth St",
    "address_councildis": "B",
    "status": "Pending",
    "rowid": "1062176",
    "final_x": "3675447.11899",
    "final_y": "523764.941243",
    "longitude": "-90.08744941949348",
    "latitude": "29.93435422310727",
    "geocoded_column": {
      "latitude": "29.93435422310727",
      "longitude": "-90.08744941949348"
    }
  },
  {
    "service_request": "2024-1062175",
    "request_type": "Roads/Drainage",
    "request_reason": "Accessibility Ramps, Curbs and Sidewalk Repair",
    "date_created": "2024-01-18T12:21:47.000",
    "date_modified": "2024-01-18T12:21:48.000",
    "request_status": "Pending",
    "responsible_agency": "Department of Public Works",
    "final_address": "5231 St Charles Ave",
    "address_councildis": "B",
    "status": "Pending",
    "rowid": "1062175",
    "final_x": "3667943.80679",
    "final_y": "521403.149305",
    "longitude": "-90.11121676372267",
    "latitude": "29.928082245970227",
    "geocoded_column": {
      "latitude": "29.928082245970227",
      "longitude": "-90.11121676372267"
    }
  },
  {
    "service_request": "2024-1062174",
    "request_type": "Roads/Drainage",
    "request_reason": "Pothole",
    "date_created": "2024-01-18T12:20:14.000",
    "date_modified": "2024-01-18T12:20:15.000",
    "request_status": "Pending",
    "responsible_agency": "Department of Public Works",
    "final_address": "5231 St Charles Ave",
    "address_councildis": "B",
    "status": "Pending",
    "rowid": "1062174",
    "final_x": "3667943.80679",
    "final_y": "521403.149305",
    "longitude": "-90.11121676372267",
    "latitude": "29.928082245970227",
    "geocoded_column": {
      "latitude": "29.928082245970227",
      "longitude": "-90.11121676372267"
    }
  },
  {
    "service_request": "2024-1062173",
    "request_type": "Abandoned Vehicles",
    "request_reason": "Abandoned/Junk Vehicles",
    "date_created": "2024-01-18T12:14:50.000",
    "date_modified": "2024-01-18T12:14:50.000",
    "request_status": "Pending",
    "responsible_agency": "Department of Public Works",
    "final_address": "2200 BLK N Derbigny St",
    "address_councildis": "D",
    "status": "Pending",
    "rowid": "1062173",
    "final_x": "3685065.05208",
    "final_y": "538531.803958",
    "longitude": "-90.05656648529671",
    "latitude": "29.974666994106624",
    "geocoded_column": {
      "latitude": "29.974666994106624",
      "longitude": "-90.05656648529671"
    }
  },
  {
    "service_request": "2024-1062172",
    "request_type": "Roads/Drainage",
    "request_reason": "Catch Basin - Clogged",
    "date_created": "2024-01-18T12:12:50.000",
    "date_modified": "2024-01-18T12:12:51.000",
    "request_status": "Pending",
    "responsible_agency": "Department of Public Works",
    "final_address": "6202 Warrington Dr",
    "address_councildis": "D",
    "status": "Pending",
    "rowid": "1062172",
    "final_x": "3680785.19739",
    "final_y": "555597.856025",
    "longitude": "-90.0694888192446",
    "latitude": "30.021723000195372",
    "geocoded_column": {
      "latitude": "30.021723000195372",
      "longitude": "-90.0694888192446"
    }
  },
  {
    "service_request": "2024-1062171",
    "request_type": "Trash/Recycling",
    "request_reason": "Repair Trash Cart",
    "date_created": "2024-01-18T12:07:03.000",
    "date_modified": "2024-01-18T12:07:04.000",
    "request_status": "Pending",
    "responsible_agency": "Department of Sanitation",
    "final_address": "5314 Annunciation St",
    "address_councildis": "B",
    "status": "Assigned to Contractor",
    "contractor": "Richards Disposal",
    "rowid": "1062171",
    "final_x": "3667199.5321",
    "final_y": "517539.75423",
    "longitude": "-90.11369609159591",
    "latitude": "29.917480933957982",
    "geocoded_column": {
      "latitude": "29.917480933957982",
      "longitude": "-90.11369609159591"
    }
  },
  {
    "service_request": "2024-1062170",
    "request_type": "Trash/Recycling",
    "request_reason": "Order Trash Cart",
    "date_created": "2024-01-18T12:04:36.000",
    "date_modified": "2024-01-18T12:04:37.000",
    "request_status": "Pending",
    "responsible_agency": "Department of Sanitation",
    "final_address": "2400 Philip St",
    "address_councildis": "B",
    "status": "Assigned to Contractor",
    "contractor": "Richards Disposal",
    "rowid": "1062170",
    "final_x": "3675380.98305",
    "final_y": "525818.746365",
    "longitude": "-90.08758771773465",
    "latitude": "29.940003492472794",
    "geocoded_column": {
      "latitude": "29.940003492472794",
      "longitude": "-90.08758771773465"
    }
  },
  {
    "service_request": "2024-1062169",
    "request_type": "Trash/Recycling",
    "request_reason": "Request a Large Item Pick Up",
    "date_created": "2024-01-18T12:03:49.000",
    "date_modified": "2024-01-18T12:03:50.000",
    "request_status": "Pending",
    "responsible_agency": "Department of Sanitation",
    "final_address": "1514 St Philip St",
    "address_councildis": "C",
    "status": "Assigned to Contractor",
    "contractor": "Richards Disposal",
    "rowid": "1062169",
    "final_x": "3680844.37039",
    "final_y": "535120.897862",
    "longitude": "-90.07001520186485",
    "latitude": "29.96541681618586",
    "geocoded_column": {
      "latitude": "29.96541681618586",
      "longitude": "-90.07001520186485"
    }
  },
  {
    "service_request": "2024-1062168",
    "request_type": "Abandoned Vehicles",
    "request_reason": "Abandoned/Junk Vehicles",
    "date_created": "2024-01-18T12:00:07.000",
    "date_modified": "2024-01-18T12:00:07.000",
    "request_status": "Pending",
    "responsible_agency": "Department of Public Works",
    "final_address": "5113 LaSalle St",
    "address_councildis": "B",
    "status": "Pending",
    "rowid": "1062168",
    "final_x": "3668382.61498",
    "final_y": "523614.200891",
    "longitude": "-90.10975700835965",
    "latitude": "29.934149055783077",
    "geocoded_column": {
      "latitude": "29.934149055783077",
      "longitude": "-90.10975700835965"
    }
  },
  {
    "service_request": "2024-1062167",
    "request_type": "Property Maintenance",
    "request_reason": "Property Maintenance",
    "date_created": "2024-01-18T11:56:25.000",
    "date_modified": "2024-01-18T11:56:26.000",
    "request_status": "Pending",
    "responsible_agency": "Department of Code Enforcement",
    "final_address": "2701 Elmwood Park Dr",
    "address_councildis": "C",
    "status": "Pending",
    "rowid": "1062167",
    "final_x": "3692727.1624",
    "final_y": "520251.242808",
    "longitude": "-90.03302292607229",
    "latitude": "29.9241648031198",
    "geocoded_column": {
      "latitude": "29.9241648031198",
      "longitude": "-90.03302292607229"
    }
  },
  {
    "service_request": "2024-1062166",
    "request_type": "Trash/Recycling",
    "request_reason": "Missed Trash Pick-Up",
    "date_created": "2024-01-18T11:55:55.000",
    "date_modified": "2024-01-18T11:55:56.000",
    "request_status": "Pending",
    "responsible_agency": "Department of Sanitation",
    "final_address": "6904 Downman Rd",
    "address_councildis": "D",
    "status": "Assigned to Contractor",
    "contractor": "Waste Pro",
    "rowid": "1062166",
    "final_x": "3695234.95626",
    "final_y": "556270.036634",
    "longitude": "-90.02380733618763",
    "latitude": "30.023125094101015",
    "geocoded_column": {
      "latitude": "30.023125094101015",
      "longitude": "-90.02380733618763"
    }
  },
  {
    "service_request": "2024-1062165",
    "request_type": "Trash/Recycling",
    "request_reason": "Missed Trash Pick-Up",
    "date_created": "2024-01-18T11:53:54.000",
    "date_modified": "2024-01-18T12:15:46.000",
    "case_close_date": "2024-01-18T06:15:46.000",
    "request_status": "Closed",
    "responsible_agency": "Department of Sanitation",
    "final_address": "5218 Arts St",
    "address_councildis": "D",
    "status": "Invalid Request",
    "contractor": "IV Waste",
    "contractor_action": "Invalid Request",
    "rowid": "1062165",
    "final_x": "3685728.71305",
    "final_y": "552291.58863",
    "longitude": "-90.05398528326633",
    "latitude": "30.012481127287916",
    "geocoded_column": {
      "latitude": "30.012481127287916",
      "longitude": "-90.05398528326633"
    }
  },
  {
    "service_request": "2024-1062164",
    "request_type": "Trash/Recycling",
    "request_reason": "Return Recycling Cart",
    "date_created": "2024-01-18T11:51:43.000",
    "date_modified": "2024-01-18T11:51:43.000",
    "request_status": "Pending",
    "responsible_agency": "Department of Sanitation",
    "final_address": "5 Navigation Ct",
    "address_councildis": "C",
    "status": "Pending",
    "rowid": "1062164",
    "final_x": "3703608.51319",
    "final_y": "522718.278714",
    "longitude": "-89.99858386900479",
    "latitude": "29.930604273631786",
    "geocoded_column": {
      "latitude": "29.930604273631786",
      "longitude": "-89.99858386900479"
    }
  },
  {
    "service_request": "2024-1062163",
    "request_type": "Traffic Signals/Signs/Striping/Streetlights",
    "request_reason": "Street Light Outage/Malfunction",
    "date_created": "2024-01-18T11:38:31.000",
    "date_modified": "2024-01-18T11:38:32.000",
    "request_status": "Pending",
    "responsible_agency": "Department of Public Works",
    "final_address": "2429 Danneel St",
    "address_councildis": "B",
    "status": "Assigned to Contractor",
    "contractor": "Legacy Professional Services",
    "rowid": "1062163",
    "final_x": "3675933.16091",
    "final_y": "524305.863356",
    "longitude": "-90.08589640680816",
    "latitude": "29.93582704177316",
    "geocoded_column": {
      "latitude": "29.93582704177316",
      "longitude": "-90.08589640680816"
    }
  },
  {
    "service_request": "2024-1062162",
    "request_type": "Trash/Recycling",
    "request_reason": "Order Trash Cart",
    "date_created": "2024-01-18T11:34:58.000",
    "date_modified": "2024-01-18T11:35:00.000",
    "request_status": "Pending",
    "responsible_agency": "Department of Sanitation",
    "final_address": "3430 Bacchus Dr",
    "address_councildis": "C",
    "status": "Assigned to Contractor",
    "contractor": "Richards Disposal",
    "rowid": "1062162",
    "final_x": "3710207.33489",
    "final_y": "518029.561526",
    "longitude": "-89.97792765085347",
    "latitude": "29.91749894434082",
    "geocoded_column": {
      "latitude": "29.91749894434082",
      "longitude": "-89.97792765085347"
    }
  },
  {
    "service_request": "2024-1062161",
    "request_type": "Trash/Recycling",
    "request_reason": "Request a Large Item Pick Up",
    "date_created": "2024-01-18T11:28:06.000",
    "date_modified": "2024-01-18T11:28:08.000",
    "request_status": "Pending",
    "responsible_agency": "Department of Sanitation",
    "final_address": "5621 Rickert Dr",
    "address_councildis": "E",
    "status": "Assigned to Contractor",
    "contractor": "Waste Pro",
    "rowid": "1062161",
    "final_x": "3703125.57636",
    "final_y": "556554.177946",
    "longitude": "-89.99886443260884",
    "latitude": "30.023656056309985",
    "geocoded_column": {
      "latitude": "30.023656056309985",
      "longitude": "-89.99886443260884"
    }
  },
  {
    "service_request": "2024-1062160",
    "request_type": "Trash/Recycling",
    "request_reason": "Illegal Dumping",
    "date_created": "2024-01-18T11:23:46.000",
    "date_modified": "2024-01-18T11:23:47.000",
    "request_status": "Pending",
    "responsible_agency": "Department of Sanitation",
    "final_address": "1001 Pacific Ave",
    "address_councildis": "C",
    "status": "Pending",
    "rowid": "1062160",
    "final_x": "3688368.63964",
    "final_y": "527893.175679",
    "longitude": "-90.04651030392984",
    "latitude": "29.945312823864455",
    "geocoded_column": {
      "latitude": "29.945312823864455",
      "longitude": "-90.04651030392984"
    }
  },
  {
    "service_request": "2024-1062159",
    "request_type": "Trash/Recycling",
    "request_reason": "Missed Trash Pick-Up",
    "date_created": "2024-01-18T11:23:07.000",
    "date_modified": "2024-01-18T11:23:08.000",
    "request_status": "Pending",
    "responsible_agency": "Department of Sanitation",
    "final_address": "6102 Todd Pl",
    "address_councildis": "E",
    "status": "Assigned to Contractor",
    "contractor": "Waste Pro",
    "rowid": "1062159",
    "final_x": "3699325.83543",
    "final_y": "532704.06234",
    "longitude": "-90.01173997848773",
    "latitude": "29.9581981607967",
    "geocoded_column": {
      "latitude": "29.9581981607967",
      "longitude": "-90.01173997848773"
    }
  },
  {
    "service_request": "2024-1062158",
    "request_type": "Roads/Drainage",
    "request_reason": "Pothole",
    "date_created": "2024-01-18T11:14:54.000",
    "date_modified": "2024-01-18T11:15:17.000",
    "case_close_date": "2024-01-18T05:15:17.000",
    "request_status": "Closed",
    "responsible_agency": "Department of Public Works",
    "final_address": "4637 S Carrollton Ave",
    "address_councildis": "A",
    "status": "Resolved",
    "rowid": "1062158",
    "final_x": "3670684.36443",
    "final_y": "538059.221321",
    "longitude": "-90.10200039952493",
    "latitude": "29.973800315661638",
    "geocoded_column": {
      "latitude": "29.973800315661638",
      "longitude": "-90.10200039952493"
    }
  },
  {
    "service_request": "2024-1062157",
    "request_type": "Roads/Drainage",
    "request_reason": "Pothole",
    "date_created": "2024-01-18T11:13:24.000",
    "date_modified": "2024-01-18T11:13:49.000",
    "case_close_date": "2024-01-18T05:13:49.000",
    "request_status": "Closed",
    "responsible_agency": "Department of Public Works",
    "final_address": "1500 BLK Seventh St",
    "address_councildis": "B",
    "status": "Resolved",
    "rowid": "1062157",
    "final_x": "3675394.43986",
    "final_y": "521849.162782",
    "longitude": "-90.08768147508924",
    "latitude": "29.929088030105262",
    "geocoded_column": {
      "latitude": "29.929088030105262",
      "longitude": "-90.08768147508924"
    }
  },
  {
    "service_request": "2024-1062156",
    "request_type": "Roads/Drainage",
    "request_reason": "Pothole",
    "date_created": "2024-01-18T11:12:24.000",
    "date_modified": "2024-01-18T11:12:48.000",
    "case_close_date": "2024-01-18T05:12:48.000",
    "request_status": "Closed",
    "responsible_agency": "Department of Public Works",
    "final_address": "1000 BLK Eighth St",
    "address_councildis": "B",
    "status": "Resolved",
    "rowid": "1062156",
    "final_x": "3676218.15704",
    "final_y": "520052.855351",
    "longitude": "-90.08514292966248",
    "latitude": "29.92412411843894",
    "geocoded_column": {
      "latitude": "29.92412411843894",
      "longitude": "-90.08514292966248"
    }
  },
  {
    "service_request": "2024-1062155",
    "request_type": "Roads/Drainage",
    "request_reason": "Pothole",
    "date_created": "2024-01-18T11:10:59.000",
    "date_modified": "2024-01-18T11:11:34.000",
    "case_close_date": "2024-01-18T05:11:34.000",
    "request_status": "Closed",
    "responsible_agency": "Department of Public Works",
    "final_address": "615 Eighth St",
    "address_councildis": "B",
    "status": "Resolved",
    "rowid": "1062155",
    "final_x": "3677088.91522",
    "final_y": "518826.639543",
    "longitude": "-90.08243650739018",
    "latitude": "29.92072631087233",
    "geocoded_column": {
      "latitude": "29.92072631087233",
      "longitude": "-90.08243650739018"
    }
  },