[
  {
    "service_request": "2025-1201234",
    "request_type": "Streetlights",
    "request_reason": "Streetlight Outage/Malfunction",
    "date_created": "2025-06-15T23:18:30.000",
    "date_modified": "2025-06-15T23:18:32.000",
    "request_status": "Pending",
    "responsible_agency": "Department of Public Works",
    "final_address": "1339 Tennessee St",
    "address_councildis": "E",
    "status": "Pending",
    "contractor": "Legacy Professional Services",
    "rowid": "1201234",
    "final_x": "3696054.26774",
    "final_y": "535322.558022",
    "longitude": "-90.02197600846553",
    "latitude": "29.965501446335917",
    "geocoded_column": {
      "latitude": "29.965501446335917",
      "longitude": "-90.02197600846553"
    }
  },
  {
    "service_request": "2025-1201233",
    "request_type": "Alley Ways",
    "request_reason": "Alley Way Regrading",
    "date_created": "2025-06-15T22:20:34.000",
    "date_modified": "2025-06-15T22:20:36.000",
    "request_status": "Pending",
    "responsible_agency": "Department of Public Works",
    "final_address": "6964 Colbert St",
    "address_councildis": "A",
    "status": "Pending",
    "rowid": "1201233",
    "final_x": "3667915.27092",
    "final_y": "553940.186008",
    "longitude": "-90.110210448589",
    "latitude": "30.017549035544498",
    "geocoded_column": {
      "latitude": "30.017549035544498",
      "longitude": "-90.110210448589"
    }
  },
  {
    "service_request": "2025-1201231",
    "request_type": "Trash/Recycling",
    "request_reason": "Request a Large Item Pick Up",
    "date_created": "2025-06-15T22:18:42.000",
    "date_modified": "2025-06-15T22:18:44.000",
    "request_status": "Pending",
    "responsible_agency": "Department of Sanitation",
    "final_address": "4314 N Derbigny St",
    "address_councildis": "D",
    "status": "Assigned to Contractor",
    "contractor": "IV Waste",
    "rowid": "1201231",
    "final_x": "3693395.84131",
    "final_y": "537207.219592",
    "longitude": "-90.03030348545148",
    "latitude": "29.970766986985588",
    "geocoded_column": {
      "latitude": "29.970766986985588",
      "longitude": "-90.03030348545148"
    }
  },
  {
    "service_request": "2025-1201232",
    "request_type": "Trash/Recycling",
    "request_reason": "Request a Large Item Pick Up",
    "date_created": "2025-06-15T22:18:42.000",
    "date_modified": "2025-06-15T22:18:44.000",
    "request_status": "Pending",
    "responsible_agency": "Department of Sanitation",
    "final_address": "4314 N Derbigny St",
    "address_councildis": "D",
    "status": "Assigned to Contractor",
    "contractor": "IV Waste",
    "rowid": "1201232",
    "final_x": "3693395.84131",
    "final_y": "537207.219592",
    "longitude": "-90.03030348545148",
    "latitude": "29.970766986985588",
    "geocoded_column": {
      "latitude": "29.970766986985588",
      "longitude": "-90.03030348545148"
    }
  },
  {
    "service_request": "2025-1201230",
    "request_type": "Trash/Recycling",
    "request_reason": "Request a Large Item Pick Up",
    "date_created": "2025-06-15T22:10:25.000",
    "date_modified": "2025-06-15T22:10:27.000",
    "request_status": "Pending",
    "responsible_agency": "Department of Sanitation",
    "final_address": "31 Honeysuckle Ln",
    "address_councildis": "E",
    "status": "Assigned to Contractor",
    "contractor": "Waste Pro",
    "rowid": "1201230",
    "final_x": "3713101.01355",
    "final_y": "568474.356453",
    "longitude": "-89.96689523863546",
    "latitude": "30.05610854322975",
    "geocoded_column": {
      "latitude": "30.05610854322975",
      "longitude": "-89.96689523863546"
    }
  },
  {
    "service_request": "2025-1201229",
    "request_type": "Trash/Recycling",
    "request_reason": "Request a Large Item Pick Up",
    "date_created": "2025-06-15T22:07:25.000",
    "date_modified": "2025-06-15T22:07:27.000",
    "request_status": "Pending",
    "responsible_agency": "Department of Sanitation",
    "final_address": "4854 Crowder Blvd",
    "address_councildis": "E",
    "status": "Assigned to Contractor",
    "contractor": "Waste Pro",
    "rowid": "1201229",
    "final_x": "3706272.78187",
    "final_y": "556222.575706",
    "longitude": "-89.98893227669144",
    "latitude": "30.022643121328972",
    "geocoded_column": {
      "latitude": "30.022643121328972",
      "longitude": "-89.98893227669144"
    }
  },
  {
    "service_request": "2025-1201228",
    "request_type": "Trash/Recycling",
    "request_reason": "Request a Large Item Pick Up",
    "date_created": "2025-06-15T22:07:18.000",
    "date_modified": "2025-06-15T22:07:21.000",
    "request_status": "Pending",
    "responsible_agency": "Department of Sanitation",
    "final_address": "13190 Wales St",
    "address_councildis": "E",
    "status": "Assigned to Contractor",
    "contractor": "Waste Pro",
    "rowid": "1201228",
    "final_x": "3716399.82744",
    "final_y": "571009.647847",
    "longitude": "-89.95637208337995",
    "latitude": "30.06297096521088",
    "geocoded_column": {
      "latitude": "30.06297096521088",
      "longitude": "-89.95637208337995"
    }
  },
  {
    "service_request": "2025-1201227",
    "request_type": "Streetlights",
    "request_reason": "Streetlight Outage/Malfunction",
    "date_created": "2025-06-15T21:58:34.000",
    "date_modified": "2025-06-15T21:58:36.000",
    "request_status": "Pending",
    "responsible_agency": "Department of Public Works",
    "final_address": "2776 Dreux Ave",
    "address_councildis": "D",
    "status": "Pending",
    "contractor": "Legacy Professional Services",
    "rowid": "1201227",
    "final_x": "3688006.84265",
    "final_y": "552296.080982",
    "longitude": "-90.04678752035544",
    "latitude": "30.0124233440232",
    "geocoded_column": {
      "latitude": "30.0124233440232",
      "longitude": "-90.04678752035544"
    }
  },
  {
    "service_request": "2025-1201226",
    "request_type": "Trash/Recycling",
    "request_reason": "Request a Large Item Pick Up",
    "date_created": "2025-06-15T21:48:15.000",
    "date_modified": "2025-06-15T21:48:17.000",
    "request_status": "Pending",
    "responsible_agency": "Department of Sanitation",
    "final_address": "1606 Charlton Dr",
    "address_councildis": "D",
    "status": "Assigned to Contractor",
    "contractor": "IV Waste",
    "rowid": "1201226",
    "final_x": "3679557.94613",
    "final_y": "550636.902356",
    "longitude": "-90.07353895206228",
    "latitude": "30.008119335195715",
    "geocoded_column": {
      "latitude": "30.008119335195715",
      "longitude": "-90.07353895206228"
    }
  },
  {
    "service_request": "2025-1201225",
    "request_type": "Trash/Recycling",
    "request_reason": "Replace Trash Cart",
    "date_created": "2025-06-15T21:44:13.000",
    "date_modified": "2025-06-15T21:44:15.000",
    "request_status": "Pending",
    "responsible_agency": "Department of Sanitation",
    "final_address": "6128 Magnolia St",
    "address_councildis": "A",
    "status": "Assigned to Contractor",
    "contractor": "IV Waste",
    "rowid": "1201225",
    "final_x": "3666340.62567",
    "final_y": "525149.214717",
    "longitude": "-90.11615204395488",
    "latitude": "29.938429652736477",
    "geocoded_column": {
      "latitude": "29.938429652736477",
      "longitude": "-90.11615204395488"
    }
  },
  {
    "service_request": "2025-1201224",
    "request_type": "Street and Traffic Signs",
    "request_reason": "Street Name Sign Damaged or Missing",
    "date_created": "2025-06-15T21:40:17.000",
    "date_modified": "2025-06-15T21:40:18.000",
    "request_status": "Pending",
    "responsible_agency": "Department of Public Works",
    "final_address": "525 Second St",
    "address_councildis": "B",
    "status": "Pending",
    "rowid": "1201224",
    "final_x": "3678965.56341",
    "final_y": "519676.466424",
    "longitude": "-90.0764833676686",
    "latitude": "29.923006592754785",
    "geocoded_column": {
      "latitude": "29.923006592754785",
      "longitude": "-90.0764833676686"
    }
  },
  {
    "service_request": "2025-1201223",
    "request_type": "Street and Traffic Signs",
    "request_reason": "Street Name Sign Damaged or Missing",
    "date_created": "2025-06-15T21:38:24.000",
    "date_modified": "2025-06-15T21:38:26.000",
    "request_status": "Pending",
    "responsible_agency": "Department of Public Works",
    "final_address": "522 First St",
    "address_councildis": "B",
    "status": "Pending",
    "rowid": "1201223",
    "final_x": "3679146.37218",
    "final_y": "519797.43852",
    "longitude": "-90.07590843399552",
    "latitude": "29.923333772135187",
    "geocoded_column": {
      "latitude": "29.923333772135187",
      "longitude": "-90.07590843399552"
    }
  },
  {
    "service_request": "2025-1201222",
    "request_type": "Trash/Recycling",
    "request_reason": "Return Recycling Cart",
    "date_created": "2025-06-15T21:22:49.000",
    "date_modified": "2025-06-15T21:22:51.000",
    "request_status": "Pending",
    "responsible_agency": "Department of Sanitation",
    "final_address": "8235 Zimple St",
    "address_councildis": "A",
    "status": "Pending",
    "rowid": "1201222",
    "final_x": "3661258.78528",
    "final_y": "528585.669568",
    "longitude": "-90.1320822683009",
    "latitude": "29.948026266569553",
    "geocoded_column": {
      "latitude": "29.948026266569553",
      "longitude": "-90.1320822683009"
    }
  },
  {
    "service_request": "2025-1201221",
    "request_type": "Trash/Recycling",
    "request_reason": "Request a Large Item Pick Up",
    "date_created": "2025-06-15T20:22:04.000",
    "date_modified": "2025-06-15T20:22:05.000",
    "request_status": "Pending",
    "responsible_agency": "Department of Sanitation",
    "final_address": "2608 DAbadie St",
    "address_councildis": "D",
    "status": "Assigned to Contractor",
    "contractor": "IV Waste",
    "rowid": "1201221",
    "final_x": "3679417.01685",
    "final_y": "540802.400267",
    "longitude": "-90.07432557879501",
    "latitude": "29.981082185683896",
    "geocoded_column": {
      "latitude": "29.981082185683896",
      "longitude": "-90.07432557879501"
    }
  },
  {
    "service_request": "2025-1201220",
    "request_type": "Trash/Recycling",
    "request_reason": "Replace Trash Cart",
    "date_created": "2025-06-15T20:21:11.000",
    "date_modified": "2025-06-15T20:21:13.000",
    "request_status": "Pending",
    "responsible_agency": "Department of Sanitation",
    "final_address": "1830 Rivertree Ct",
    "address_councildis": "C",
    "status": "Assigned to Contractor",
    "contractor": "Richards Disposal",
    "rowid": "1201220",
    "final_x": "3701483.02001",
    "final_y": "524065.699388",
    "longitude": "-90.00524438955027",
    "latitude": "29.934377120274277",
    "geocoded_column": {
      "latitude": "29.934377120274277",
      "longitude": "-90.00524438955027"
    }
  },
  {
    "service_request": "2025-1201219",
    "request_type": "Abandoned Vehicles",
    "request_reason": "Abandoned/Junk Vehicles",
    "date_created": "2025-06-15T20:19:44.000",
    "date_modified": "2025-06-15T20:19:45.000",
    "request_status": "Pending",
    "responsible_agency": "Department of Public Works",
    "final_address": "221 Millaudon St",
    "address_councildis": "A",
    "status": "Pending",
    "rowid": "1201219",
    "final_x": "3661172.5008",
    "final_y": "523781.036411",
    "longitude": "-90.13251368550243",
    "latitude": "29.934817536425708",
    "geocoded_column": {
      "latitude": "29.934817536425708",
      "longitude": "-90.13251368550243"
    }
  },
  {
    "service_request": "2025-1201218",
    "request_type": "Abandoned Vehicles",
    "request_reason": "Abandoned/Junk Vehicles",
    "date_created": "2025-06-15T20:17:12.000",
    "date_modified": "2025-06-15T20:17:13.000",
    "request_status": "Pending",
    "responsible_agency": "Department of Public Works",
    "final_address": "221 Millaudon St",
    "address_councildis": "A",
    "status": "Pending",
    "rowid": "1201218",
    "final_x": "3661172.5008",
    "final_y": "523781.036411",
    "longitude": "-90.13251368550243",
    "latitude": "29.934817536425708",
    "geocoded_column": {
      "latitude": "29.934817536425708",
      "longitude": "-90.13251368550243"
    }
  },
  {
    "service_request": "2025-1201217",
    "request_type": "Trash/Recycling",
    "request_reason": "Request a Large Item Pick Up",
    "date_created": "2025-06-15T19:39:04.000",
    "date_modified": "2025-06-15T19:39:07.000",
    "request_status": "Pending",
    "responsible_agency": "Department of Sanitation",
    "final_address": "1008 Clouet St",
    "address_councildis": "C",
    "status": "Assigned to Contractor",
    "contractor": "IV Waste",
    "rowid": "1201217",
    "final_x": "3688888.60131",
    "final_y": "535656.367174",
    "longitude": "-90.04459294833742",
    "latitude": "29.96664285159957",
    "geocoded_column": {
      "latitude": "29.96664285159957",
      "longitude": "-90.04459294833742"
    }
  },
  {
    "service_request": "2025-1201216",
    "request_type": "Mosquito, Termite & Rodent Control",
    "request_reason": "Mosquito Complaint",
    "date_created": "2025-06-15T19:26:54.000",
    "date_modified": "2025-06-15T19:26:56.000",
    "request_status": "Pending",
    "responsible_agency": "Mosquito, Termite & Rodent Control Board",
    "final_address": "2503 Annunciation St",
    "address_councildis": "B",
    "status": "Pending",
    "rowid": "1201216",
    "final_x": "3678370.0667",
    "final_y": "520423.410488",
    "longitude": "-90.07833729610664",
    "latitude": "29.925078393427984",
    "geocoded_column": {
      "latitude": "29.925078393427984",
      "longitude": "-90.07833729610664"
    }
  },
  {
    "service_request": "2025-1201215",
    "request_type": "Roads and Streets",
    "request_reason": "Street Subsidence (Sinking)",
    "date_created": "2025-06-15T19:22:25.000",
    "date_modified": "2025-06-15T19:22:27.000",
    "request_status": "Pending",
    "responsible_agency": "Department of Public Works",
    "final_address": "633 Harmony St",
    "address_councildis": "B",
    "status": "Pending",
    "rowid": "1201215",
    "final_x": "3676545.82497",
    "final_y": "518607.671415",
    "longitude": "-90.08415833008416",
    "latitude": "29.92014051024334",
    "geocoded_column": {
      "latitude": "29.92014051024334",
      "longitude": "-90.08415833008416"
    }
  },
  {
    "service_request": "2025-1201214",
    "request_type": "Roads and Streets",
    "request_reason": "Push-up/Pavement Expansion",
    "date_created": "2025-06-15T19:02:33.000",
    "date_modified": "2025-06-15T19:02:35.000",
    "request_status": "Pending",
    "responsible_agency": "Department of Public Works",
    "final_address": "HAMMOND ST & BUNDY RD",
    "address_councildis": "E",
    "status": "Pending",
    "rowid": "1201214",
    "final_x": "3709369.4",
    "final_y": "556079.88",
    "longitude": "-89.97915310956321",
    "latitude": "30.022150500209186",
    "geocoded_column": {
      "latitude": "30.022150500209186",
      "longitude": "-89.97915310956321"
    }
  },
  {
    "service_request": "2025-1201213",
    "request_type": "Property Maintenance",
    "request_reason": "Property Maintenance",
    "date_created": "2025-06-15T18:56:58.000",
    "date_modified": "2025-06-15T18:56:59.000",
    "request_status": "Pending",
    "responsible_agency": "Department of Code Enforcement",
    "final_address": "4519 Arthur Dr",
    "address_councildis": "E",
    "status": "Pending",
    "rowid": "1201213",
    "final_x": "3707901.45534",
    "final_y": "554096.2758",
    "longitude": "-89.98386522153844",
    "latitude": "30.01674397885752",
    "geocoded_column": {
      "latitude": "30.01674397885752",
      "longitude": "-89.98386522153844"
    }
  },
  {
    "service_request": "2025-1201212",
    "request_type": "Roads and Streets",
    "request_reason": "Pothole",
    "date_created": "2025-06-15T18:49:56.000",
    "date_modified": "2025-06-15T18:49:58.000",
    "request_status": "Pending",
    "responsible_agency": "Department of Public Works",
    "final_address": "517 Cadiz St",
    "address_councildis": "B",
    "status": "Pending",
    "rowid": "1201212",
    "final_x": "3670462.15572",
    "final_y": "517547.024886",
    "longitude": "-90.10339755066921",
    "latitude": "29.91740503332874",
    "geocoded_column": {
      "latitude": "29.91740503332874",
      "longitude": "-90.10339755066921"
    }
  },
  {
    "service_request": "2025-1201211",
    "request_type": "Property Maintenance",
    "request_reason": "Property Maintenance",
    "date_created": "2025-06-15T18:47:46.000",
    "date_modified": "2025-06-15T18:47:47.000",
    "request_status": "Pending",
    "responsible_agency": "Department of Code Enforcement",
    "final_address": "2157 Robin St",
    "address_councildis": "D",
    "status": "Pending",
    "rowid": "1201211",
    "final_x": "3683477.85871",
    "final_y": "551868.282838",
    "longitude": "-90.06111157152644",
    "latitude": "30.011386099776928",
    "geocoded_column": {
      "latitude": "30.011386099776928",
      "longitude": "-90.06111157152644"
    }
  },
  {
    "service_request": "2025-1201210",
    "request_type": "Roads and Streets",
    "request_reason": "Pothole",
    "date_created": "2025-06-15T18:46:06.000",
    "date_modified": "2025-06-15T18:46:08.000",
    "request_status": "Pending",
    "responsible_agency": "Department of Public Works",
    "final_address": "517 Cadiz St",
    "address_councildis": "B",
    "status": "Pending",
    "rowid": "1201210",
    "final_x": "3670462.15572",
    "final_y": "517547.024886",
    "longitude": "-90.10339755066921",
    "latitude": "29.91740503332874",
    "geocoded_column": {
      "latitude": "29.91740503332874",
      "longitude": "-90.10339755066921"
    }
  },
  {
    "service_request": "2025-1201209",
    "request_type": "Trash/Recycling",
    "request_reason": "Start Trash Service",
    "date_created": "2025-06-15T18:40:56.000",
    "date_modified": "2025-06-15T18:40:58.000",
    "request_status": "Pending",
    "responsible_agency": "Department of Sanitation",
    "final_address": "1427 Esplanade Ave Apt D",
    "address_councildis": "C",
    "status": "Assigned to Contractor",
    "contractor": "IV Waste",
    "rowid": "1201209",
    "final_x": "3681691.95093",
    "final_y": "536368.240519",
    "longitude": "-90.06729506113913",
    "latitude": "29.968820857519077",
    "geocoded_column": {
      "latitude": "29.968820857519077",
      "longitude": "-90.06729506113913"
    }
  },
  {
    "service_request": "2025-1201208",
    "request_type": "Trash/Recycling",
    "request_reason": "Order Trash Cart",
    "date_created": "2025-06-15T18:39:48.000",
    "date_modified": "2025-06-15T18:39:50.000",
    "request_status": "Pending",
    "responsible_agency": "Department of Sanitation",
    "final_address": "1427 Esplanade Ave Apt D",
    "address_councildis": "C",
    "status": "Assigned to Contractor",
    "contractor": "IV Waste",
    "rowid": "1201208",
    "final_x": "3681691.95093",
    "final_y": "536368.240519",
    "longitude": "-90.06729506113913",
    "latitude": "29.968820857519077",
    "geocoded_column": {
      "latitude": "29.968820857519077",
      "longitude": "-90.06729506113913"
    }
  },
  {
    "service_request": "2025-1201207",
    "request_type": "General Services",
    "request_reason": "General Service Request",
    "date_created": "2025-06-15T18:27:42.000",
    "date_modified": "2025-06-15T18:27:44.000",
    "request_status": "Pending",
    "responsible_agency": "Orleans Parish Communication District",
    "final_address": "2428 Ursulines Ave",
    "address_councildis": "D",
    "status": "Pending",
    "rowid": "1201207",
    "final_x": "3678485.03355",
    "final_y": "537415.26132",
    "longitude": "-90.07738646298472",
    "latitude": "29.971796845754305",
    "geocoded_column": {
      "latitude": "29.971796845754305",
      "longitude": "-90.07738646298472"
    }
  },
  {
    "service_request": "2025-1201206",
    "request_type": "General Services",
    "request_reason": "General Service Request",
    "date_created": "2025-06-15T18:21:46.000",
    "date_modified": "2025-06-15T18:21:48.000",
    "request_status": "Pending",
    "responsible_agency": "Orleans Parish Communication District",
    "final_address": "3600 BLK Paris Rd",
    "address_councildis": "E",
    "status": "Pending",
    "rowid": "1201206",
    "final_x": "3721962.58228",
    "final_y": "551688.308156",
    "longitude": "-89.93953112944516",
    "latitude": "30.00966019473765",
    "geocoded_column": {
      "latitude": "30.00966019473765",
      "longitude": "-89.93953112944516"
    }
  },
  {
    "service_request": "2025-1201205",
    "request_type": "Abandoned Vehicles",
    "request_reason": "Abandoned/Junk Vehicles",
    "date_created": "2025-06-15T18:19:33.000",
    "date_modified": "2025-06-15T18:19:35.000",
    "request_status": "Pending",
    "responsible_agency": "Department of Public Works",
    "final_address": "4532 Toulouse St",
    "address_councildis": "A",
    "status": "Pending",
    "rowid": "1201205",
    "final_x": "3670570.81262",
    "final_y": "540943.448971",
    "longitude": "-90.10226115602062",
    "latitude": "29.98173431926716",
    "geocoded_column": {
      "latitude": "29.98173431926716",
      "longitude": "-90.10226115602062"
    }
  },
  {
    "service_request": "2025-1201204",
    "request_type": "Property Maintenance",
    "request_reason": "Property Maintenance",
    "date_created": "2025-06-15T18:11:21.000",
    "date_modified": "2025-06-15T18:11:23.000",
    "request_status": "Pending",
    "responsible_agency": "Department of Code Enforcement",
    "final_address": "2132 Second St",
    "address_councildis": "B",
    "status": "Pending",
    "rowid": "1201204",
    "final_x": "3675541.91822",
    "final_y": "524731.476028",
    "longitude": "-90.0871169545331",
    "latitude": "29.93700904339676",
    "geocoded_column": {
      "latitude": "29.93700904339676",
      "longitude": "-90.0871169545331"
    }
  },
  {
    "service_request": "2025-1201203",
    "request_type": "Trash/Recycling",
    "request_reason": "Request a Large Item Pick Up",
    "date_created": "2025-06-15T17:42:32.000",
    "date_modified": "2025-06-15T17:42:34.000",
    "request_status": "Pending",
    "responsible_agency": "Department of Sanitation",
    "final_address": "0 BLK W Park Pl",
    "address_councildis": "A",
    "status": "Assigned to Contractor",
    "contractor": "IV Waste",
    "rowid": "1201203",
    "final_x": "3669813.54813",
    "final_y": "544547.472372",
    "longitude": "-90.10453088627072",
    "latitude": "29.991666500963955",
    "geocoded_column": {
      "latitude": "29.991666500963955",
      "longitude": "-90.10453088627072"
    }
  },
  {
    "service_request": "2025-1201202",
    "request_type": "Drainage",
    "request_reason": "Catch Basin Clogged",
    "date_created": "2025-06-15T17:34:49.000",
    "date_modified": "2025-06-15T17:34:50.000",
    "request_status": "Pending",
    "responsible_agency": "Sewerage & Water Board",
    "final_address": "2008 Milan St",
    "address_councildis": "B",
    "status": "Pending",
    "rowid": "1201202",
    "final_x": "3671392.90279",
    "final_y": "522519.984698",
    "longitude": "-90.1002907869365",
    "latitude": "29.931051581963143",
    "geocoded_column": {
      "latitude": "29.931051581963143",
      "longitude": "-90.1002907869365"
    }
  },
  {
    "service_request": "2025-1201201",
    "request_type": "Trash/Recycling",
    "request_reason": "Request a Large Item Pick Up",
    "date_created": "2025-06-15T17:34:43.000",
    "date_modified": "2025-06-15T17:34:44.000",
    "request_status": "Pending",
    "responsible_agency": "Department of Sanitation",
    "final_address": "139 Middle Park Pl",
    "address_councildis": "A",
    "status": "Assigned to Contractor",
    "contractor": "IV Waste",
    "rowid": "1201201",
    "final_x": "3670253.52494",
    "final_y": "544283.748239",
    "longitude": "-90.10315003415758",
    "latitude": "29.990928369254114",
    "geocoded_column": {
      "latitude": "29.990928369254114",
      "longitude": "-90.10315003415758"
    }
  },
  {
    "service_request": "2025-1201200",
    "request_type": "Trash/Recycling",
    "request_reason": "Request a Large Item Pick Up",
    "date_created": "2025-06-15T17:34:42.000",
    "date_modified": "2025-06-15T17:34:44.000",
    "request_status": "Pending",
    "responsible_agency": "Department of Sanitation",
    "final_address": "5950 General Diaz St",
    "address_councildis": "A",
    "status": "Assigned to Contractor",
    "contractor": "IV Waste",
    "rowid": "1201200",
    "final_x": "3669386.33018",
    "final_y": "546941.042769",
    "longitude": "-90.10579938146695",
    "latitude": "29.998260584672455",
    "geocoded_column": {
      "latitude": "29.998260584672455",
      "longitude": "-90.10579938146695"
    }
  },
  {
    "service_request": "2025-1201199",
    "request_type": "Parks & Parkways",
    "request_reason": "Request Tree Service (Right of Way/Public Property)",
    "date_created": "2025-06-15T17:26:09.000",
    "date_modified": "2025-06-15T17:26:11.000",
    "request_status": "Pending",
    "responsible_agency": "Department of Parks & Parkway",
    "final_address": "128 N Norman C Francis Prkwy",
    "address_councildis": "B",
    "status": "Pending",
    "rowid": "1201199",
    "final_x": "3673529.33723",
    "final_y": "536902.178248",
    "longitude": "-90.09305489016792",
    "latitude": "29.970534469081773",
    "geocoded_column": {
      "latitude": "29.970534469081773",
      "longitude": "-90.09305489016792"
    }
  },
  {
    "service_request": "2025-1201198",
    "request_type": "Property Maintenance",
    "request_reason": "Property Maintenance",
    "date_created": "2025-06-15T17:08:29.000",
    "date_modified": "2025-06-15T17:08:30.000",
    "request_status": "Pending",
    "responsible_agency": "Department of Code Enforcement",
    "final_address": "12150 S Interstate 10 Service Rd",
    "address_councildis": "E",
    "status": "Pending",
    "rowid": "1201198",
    "final_x": "3715649.55538",
    "final_y": "565056.46013",
    "longitude": "-89.95896941195382",
    "latitude": "30.04662691592126",
    "geocoded_column": {
      "latitude": "30.04662691592126",
      "longitude": "-89.95896941195382"
    }
  },
  {
    "service_request": "2025-1201197",
    "request_type": "Abandoned Vehicles",
    "request_reason": "Abandoned/Junk Vehicles",
    "date_created": "2025-06-15T17:07:46.000",
    "date_modified": "2025-06-15T17:07:50.000",
    "request_status": "Pending",
    "responsible_agency": "Department of Public Works",
    "final_address": "2017 Marais St A",
    "address_councildis": "C",
    "status": "Pending",
    "rowid": "1201197",
    "final_x": "3684308.51119",
    "final_y": "536640.726215",
    "longitude": "-90.05902224547503",
    "latitude": "29.969490345732055",
    "geocoded_column": {
      "latitude": "29.969490345732055",
      "longitude": "-90.05902224547503"
    }
  },
  {
    "service_request": "2025-1201196",
    "request_type": "Trash/Recycling",
    "request_reason": "Order Recycling Cart",
    "date_created": "2025-06-15T16:59:13.000",
    "date_modified": "2025-06-15T16:59:15.000",
    "request_status": "Pending",
    "responsible_agency": "Department of Sanitation",
    "final_address": "6662 Avenue A",
    "address_councildis": "A",
    "status": "Pending",
    "rowid": "1201196",
    "final_x": "3665998.52839",
    "final_y": "552498.374934",
    "longitude": "-90.11631500633739",
    "latitude": "30.013640679942064",
    "geocoded_column": {
      "latitude": "30.013640679942064",
      "longitude": "-90.11631500633739"
    }
  },
  {
    "service_request": "2025-1201195",
    "request_type": "Trash/Recycling",
    "request_reason": "Request a Large Item Pick Up",
    "date_created": "2025-06-15T16:58:00.000",
    "date_modified": "2025-06-15T16:58:02.000",
    "request_status": "Pending",
    "responsible_agency": "Department of Sanitation",
    "final_address": "908 Jourdan Ave",
    "address_councildis": "E",
    "status": "Assigned to Contractor",
    "contractor": "Waste Pro",
    "rowid": "1201195",
    "final_x": "3694761.50787",
    "final_y": "533819.467141",
    "longitude": "-90.02611262048153",
    "latitude": "29.961409095472472",
    "geocoded_column": {
      "latitude": "29.961409095472472",
      "longitude": "-90.02611262048153"
    }
  },
  {
    "service_request": "2025-1201194",
    "request_type": "Trash/Recycling",
    "request_reason": "Request a Large Item Pick Up",
    "date_created": "2025-06-15T16:34:22.000",
    "date_modified": "2025-06-15T16:34:24.000",
    "request_status": "Pending",
    "responsible_agency": "Department of Sanitation",
    "final_address": "1606 Charlton Dr",
    "address_councildis": "D",
    "status": "Assigned to Contractor",
    "contractor": "IV Waste",
    "rowid": "1201194",
    "final_x": "3679557.94613",
    "final_y": "550636.902356",
    "longitude": "-90.07353895206228",
    "latitude": "30.008119335195715",
    "geocoded_column": {
      "latitude": "30.008119335195715",
      "longitude": "-90.07353895206228"
    }
  },
  {
    "service_request": "2025-1201193",
    "request_type": "Mosquito, Termite & Rodent Control",
    "request_reason": "Non-Rodent Complaint (Possums & Snakes)",
    "date_created": "2025-06-15T16:21:36.000",
    "date_modified": "2025-06-15T16:21:38.000",
    "request_status": "Pending",
    "responsible_agency": "Mosquito, Termite & Rodent Control Board",
    "final_address": "5939 Memphis St",
    "address_councildis": "A",
    "status": "Pending",
    "rowid": "1201193",
    "final_x": "3669242.46068",
    "final_y": "546878.752465",
    "longitude": "-90.1062559729096",
    "latitude": "29.99809354505497",
    "geocoded_column": {
      "latitude": "29.99809354505497",
      "longitude": "-90.1062559729096"
    }
  },
  {
    "service_request": "2025-1201192",
    "request_type": "Utility Poles",
    "request_reason": "Wires Sagging/Hanging Low",
    "date_created": "2025-06-15T16:20:40.000",
    "date_modified": "2025-06-15T16:20:43.000",
    "request_status": "Pending",
    "responsible_agency": "Utility Company Collective",
    "final_address": "2021 Jena St",
    "address_councildis": "B",
    "status": "Pending",
    "rowid": "1201192",
    "final_x": "3670329.91578",
    "final_y": "522438.125946",
    "longitude": "-90.10364927735274",
    "latitude": "29.930857906923514",
    "geocoded_column": {
      "latitude": "29.930857906923514",
      "longitude": "-90.10364927735274"
    }
  },
  {
    "service_request": "2025-1201191",
    "request_type": "Property Maintenance",
    "request_reason": "Property Maintenance",
    "date_created": "2025-06-15T16:00:17.000",
    "date_modified": "2025-06-15T16:00:19.000",
    "request_status": "Pending",
    "responsible_agency": "Department of Code Enforcement",
    "final_address": "6330 Bertha Dr",
    "address_councildis": "D",
    "status": "Pending",
    "rowid": "1201191",
    "final_x": "3678138.68283",
    "final_y": "556542.553114",
    "longitude": "-90.07781840435179",
    "latitude": "30.02440057133694",
    "geocoded_column": {
      "latitude": "30.02440057133694",
      "longitude": "-90.07781840435179"
    }
  },
  {
    "service_request": "2025-1201190",
    "request_type": "Roads and Streets",
    "request_reason": "Pothole",
    "date_created": "2025-06-15T15:35:34.000",
    "date_modified": "2025-06-15T15:35:36.000",
    "request_status": "Pending",
    "responsible_agency": "Department of Public Works",
    "final_address": "4001 France Prkwy",
    "address_councildis": "D",
    "status": "Pending",
    "rowid": "1201190",
    "final_x": "3693749.16073",
    "final_y": "543831.154894",
    "longitude": "-90.02894952785397",
    "latitude": "29.98896937793405",
    "geocoded_column": {
      "latitude": "29.98896937793405",
      "longitude": "-90.02894952785397"
    }
  },
  {
    "service_request": "2025-1201189",
    "request_type": "Trash/Recycling",
    "request_reason": "Order Second Trash Cart",
    "date_created": "2025-06-15T15:30:50.000",
    "date_modified": "2025-06-15T15:30:52.000",
    "request_status": "Pending",
    "responsible_agency": "Department of Sanitation",
    "final_address": "200 Alonzo St",
    "address_councildis": "A",
    "status": "Assigned to Contractor",
    "contractor": "IV Waste",
    "rowid": "1201189",
    "final_x": "3664456.84813",
    "final_y": "517096.615925",
    "longitude": "-90.12236802251839",
    "latitude": "29.916342428615057",
    "geocoded_column": {
      "latitude": "29.916342428615057",
      "longitude": "-90.12236802251839"
    }
  },
  {
    "service_request": "2025-1201188",
    "request_type": "Healthy Homes",
    "request_reason": "Healthy Homes",
    "date_created": "2025-06-15T15:20:22.000",
    "date_modified": "2025-06-15T15:20:24.000",
    "request_status": "Pending",
    "responsible_agency": "Department of Code Enforcement",
    "final_address": "2837 Josephine St",
    "address_councildis": "B",
    "status": "Pending",
    "rowid": "1201188",
    "final_x": "3675190.75464",
    "final_y": "527551.453951",
    "longitude": "-90.08812885005447",
    "latitude": "29.94477355379382",
    "geocoded_column": {
      "latitude": "29.94477355379382",
      "longitude": "-90.08812885005447"
    }
  },
  {
    "service_request": "2025-1201187",
    "request_type": "Drainage",
    "request_reason": "Catch Basin Clogged",
    "date_created": "2025-06-15T15:08:54.000",
    "date_modified": "2025-06-15T15:08:56.000",
    "request_status": "Pending",
    "responsible_agency": "Sewerage & Water Board",
    "final_address": "6520 Congress Dr",
    "address_councildis": "D",
    "status": "Pending",
    "rowid": "1201187",
    "final_x": "3690557.38883",
    "final_y": "557767.340891",
    "longitude": "-90.03853391240037",
    "latitude": "30.027388277841048",
    "geocoded_column": {
      "latitude": "30.027388277841048",
      "longitude": "-90.03853391240037"
    }
  },
  {
    "service_request": "2025-1201186",
    "request_type": "Drainage",
    "request_reason": "Street Flooding",
    "date_created": "2025-06-15T15:07:25.000",
    "date_modified": "2025-06-15T15:07:27.000",
    "request_status": "Pending",
    "responsible_agency": "Sewerage & Water Board",
    "final_address": "4401 N Robertson St",
    "address_councildis": "D",
    "status": "Pending",
    "rowid": "1201186",
    "final_x": "3693548.93232",
    "final_y": "536536.338375",
    "longitude": "-90.02984410955717",
    "latitude": "29.96891751391031",
    "geocoded_column": {
      "latitude": "29.96891751391031",
      "longitude": "-90.02984410955717"
    }
  },
  {
    "service_request": "2025-1201185",
    "request_type": "Drainage",
    "request_reason": "Ditch and Culvert Maintenance",
    "date_created": "2025-06-15T15:05:20.000",
    "date_modified": "2025-06-15T15:05:22.000",
    "request_status": "Pending",
    "responsible_agency": "Department of Public Works",
    "final_address": "1219 Kentucky St",
    "address_councildis": "D",
    "status": "Pending",
    "rowid": "1201185",
    "final_x": "3693523.56374",
    "final_y": "535413.52199",
    "longitude": "-90.02996455891095",
    "latitude": "29.965830959720016",
    "geocoded_column": {
      "latitude": "29.965830959720016",
      "longitude": "-90.02996455891095"
    }
  },
  {
    "service_request": "2025-1201184",
    "request_type": "Trash/Recycling",
    "request_reason": "Illegal Dumping",
    "date_created": "2025-06-15T15:04:15.000",
    "date_modified": "2025-06-15T15:04:17.000",
    "request_status": "Pending",
    "responsible_agency": "Department of Sanitation",
    "final_address": "1475 N Robertson St",
    "address_councildis": "C",
    "status": "Pending",
    "rowid": "1201184",
    "final_x": "3681951.25871",
    "final_y": "536886.065928",
    "longitude": "-90.06645807125678",
    "latitude": "29.970236818224457",
    "geocoded_column": {
      "latitude": "29.970236818224457",
      "longitude": "-90.06645807125678"
    }
  },
  {
    "service_request": "2025-1201183",
    "request_type": "Property Maintenance",
    "request_reason": "Property Maintenance",
    "date_created": "2025-06-15T15:03:23.000",
    "date_modified": "2025-06-15T15:03:24.000",
    "request_status": "Pending",
    "responsible_agency": "Department of Code Enforcement",
    "final_address": "3313 General Taylor St",
    "address_councildis": "B",
    "status": "Pending",
    "rowid": "1201183",
    "final_x": "3671252.6043",
    "final_y": "527142.247103",
    "longitude": "-90.10057670436798",
    "latitude": "29.943765457335047",
    "geocoded_column": {
      "latitude": "29.943765457335047",
      "longitude": "-90.10057670436798"
    }
  },
  {
    "service_request": "2025-1201182",
    "request_type": "Trash/Recycling",
    "request_reason": "Request a Large Item Pick Up",
    "date_created": "2025-06-15T15:02:08.000",
    "date_modified": "2025-06-15T15:02:20.000",
    "request_status": "Pending",
    "responsible_agency": "Department of Sanitation",
    "final_address": "6038 Orleans Ave",
    "address_councildis": "A",
    "status": "Assigned to Contractor",
    "contractor": "IV Waste",
    "rowid": "1201182",
    "final_x": "3670817.81396",
    "final_y": "547399.079505",
    "longitude": "-90.10126176371953",
    "latitude": "29.999477781764828",
    "geocoded_column": {
      "latitude": "29.999477781764828",
      "longitude": "-90.10126176371953"
    }
  },
  {
    "service_request": "2025-1201181",
    "request_type": "Streetlights",
    "request_reason": "Streetlight Outage/Malfunction",
    "date_created": "2025-06-15T15:00:45.000",
    "date_modified": "2025-06-15T15:00:47.000",
    "request_status": "Pending",
    "responsible_agency": "Department of Public Works",
    "final_address": "1475 N Robertson St",
    "address_councildis": "C",
    "status": "Pending",
    "contractor": "Legacy Professional Services",
    "rowid": "1201181",
    "final_x": "3681951.25871",
    "final_y": "536886.065928",
    "longitude": "-90.06645807125678",
    "latitude": "29.970236818224457",
    "geocoded_column": {
      "latitude": "29.970236818224457",
      "longitude": "-90.06645807125678"
    }
  },
  {
    "service_request": "2025-1201180",
    "request_type": "Streetlights",
    "request_reason": "New Streetlight Request",
    "date_created": "2025-06-15T14:57:28.000",
    "date_modified": "2025-06-15T14:57:30.000",
    "request_status": "Pending",
    "responsible_agency": "Department of Public Works",
    "final_address": "1475 N Robertson St",
    "address_councildis": "C",
    "status": "Pending",
    "contractor": "Legacy Professional Services",
    "rowid": "1201180",
    "final_x": "3681951.25871",
    "final_y": "536886.065928",
    "longitude": "-90.06645807125678",
    "latitude": "29.970236818224457",
    "geocoded_column": {
      "latitude": "29.970236818224457",
      "longitude": "-90.06645807125678"
    }
  },
  {
    "service_request": "2025-1201179",
    "request_type": "Property Maintenance",
    "request_reason": "Property Maintenance",
    "date_created": "2025-06-15T14:47:11.000",
    "date_modified": "2025-06-15T14:47:13.000",
    "request_status": "Pending",
    "responsible_agency": "Department of Code Enforcement",
    "final_address": "7340 Bullard Ave",
    "address_councildis": "E",
    "status": "Pending",
    "rowid": "1201179",
    "final_x": "3713896.64152",
    "final_y": "566206.732643",
    "longitude": "-89.96446605045972",
    "latitude": "30.04984739213936",
    "geocoded_column": {
      "latitude": "30.04984739213936",
      "longitude": "-89.96446605045972"
    }
  },
  {
    "service_request": "2025-1201178",
    "request_type": "Trash/Recycling",
    "request_reason": "Illegal Dumping",
    "date_created": "2025-06-15T14:45:14.000",
    "date_modified": "2025-06-15T14:45:16.000",
    "request_status": "Pending",
    "responsible_agency": "Department of Sanitation",
    "final_address": "1727 N Broad St",
    "address_councildis": "D",
    "status": "Pending",
    "rowid": "1201178",
    "final_x": "3679638.50082",
    "final_y": "540973.825803",
    "longitude": "-90.07362008044231",
    "latitude": "29.981546852930087",
    "geocoded_column": {
      "latitude": "29.981546852930087",
      "longitude": "-90.07362008044231"
    }
  },
  {
    "service_request": "2025-1201177",
    "request_type": "Trash/Recycling",
    "request_reason": "Replace Trash Cart",
    "date_created": "2025-06-15T14:37:46.000",
    "date_modified": "2025-06-15T14:37:48.000",
    "request_status": "Pending",
    "responsible_agency": "Department of Sanitation",
    "final_address": "1139 Louisiana Ave",
    "address_councildis": "B",
    "status": "Assigned to Contractor",
    "contractor": "IV Waste",
    "rowid": "1201177",
    "final_x": "3674980.13825",
    "final_y": "519945.326584",
    "longitude": "-90.08905460956093",
    "latitude": "29.923865473092864",
    "geocoded_column": {
      "latitude": "29.923865473092864",
      "longitude": "-90.08905460956093"
    }
  },
  {
    "service_request": "2025-1201176",
    "request_type": "Trash/Recycling",
    "request_reason": "Repair Trash Cart",
    "date_created": "2025-06-15T14:36:59.000",
    "date_modified": "2025-06-15T14:37:01.000",
    "request_status": "Pending",
    "responsible_agency": "Department of Sanitation",
    "final_address": "5654 Hawthorne Pl",
    "address_councildis": "A",
    "status": "Assigned to Contractor",
    "contractor": "IV Waste",
    "rowid": "1201176",
    "final_x": "3667779.39156",
    "final_y": "545105.731535",
    "longitude": "-90.11093755864148",
    "latitude": "29.993261347467786",
    "geocoded_column": {
      "latitude": "29.993261347467786",
      "longitude": "-90.11093755864148"
    }
  },
  {
    "service_request": "2025-1201175",
    "request_type": "Drainage",
    "request_reason": "Catch Basin Clogged",
    "date_created": "2025-06-15T14:15:44.000",
    "date_modified": "2025-06-15T14:15:45.000",
    "request_status": "Pending",
    "responsible_agency": "Sewerage & Water Board",
    "final_address": "4442 Music St",
    "address_councildis": "D",
    "status": "Pending",
    "rowid": "1201175",
    "final_x": "3685652.11535",
    "final_y": "549153.546195",
    "longitude": "-90.05433795489168",
    "latitude": "30.00385500396897",
    "geocoded_column": {
      "latitude": "30.00385500396897",
      "longitude": "-90.05433795489168"
    }
  },
  {
    "service_request": "2025-1201174",
    "request_type": "Drainage",
    "request_reason": "Catch Basin Clogged",
    "date_created": "2025-06-15T14:11:35.000",
    "date_modified": "2025-06-15T14:11:37.000",
    "request_status": "Pending",
    "responsible_agency": "Sewerage & Water Board",
    "final_address": "4442 Music St",
    "address_councildis": "D",
    "status": "Pending",
    "rowid": "1201174",
    "final_x": "3685652.11535",
    "final_y": "549153.546195",
    "longitude": "-90.05433795489168",
    "latitude": "30.00385500396897",
    "geocoded_column": {
      "latitude": "30.00385500396897",
      "longitude": "-90.05433795489168"
    }
  },
  {
    "service_request": "2025-1201173",
    "request_type": "Trash/Recycling",
    "request_reason": "Repair Trash Cart",
    "date_created": "2025-06-15T14:08:40.000",
    "date_modified": "2025-06-15T14:08:42.000",
    "request_status": "Pending",
    "responsible_agency": "Department of Sanitation",
    "final_address": "607 N Solomon St",
    "address_councildis": "A",
    "status": "Assigned to Contractor",
    "contractor": "IV Waste",
    "rowid": "1201173",
    "final_x": "3671703.04494",
    "final_y": "540254.325643",
    "longitude": "-90.09870847803816",
    "latitude": "29.97980596824982",
    "geocoded_column": {
      "latitude": "29.97980596824982",
      "longitude": "-90.09870847803816"
    }
  },
  {
    "service_request": "2025-1201172",
    "request_type": "Trash/Recycling",
    "request_reason": "Request a Large Item Pick Up",
    "date_created": "2025-06-15T14:01:43.000",
    "date_modified": "2025-06-15T14:01:44.000",
    "request_status": "Pending",
    "responsible_agency": "Department of Sanitation",
    "final_address": "7309 Cohn St",
    "address_councildis": "A",
    "status": "Assigned to Contractor",
    "contractor": "IV Waste",
    "rowid": "1201172",
    "final_x": "3665238.39437",
    "final_y": "528813.814592",
    "longitude": "-90.11950935328315",
    "latitude": "29.94853827396418",
    "geocoded_column": {
      "latitude": "29.94853827396418",
      "longitude": "-90.11950935328315"
    }
  },
  {
    "service_request": "2025-1201171",
    "request_type": "Trash/Recycling",
    "request_reason": "Request a Large Item Pick Up",
    "date_created": "2025-06-15T13:49:37.000",
    "date_modified": "2025-06-15T13:49:39.000",
    "request_status": "Pending",
    "responsible_agency": "Department of Sanitation",
    "final_address": "237 Adams St",
    "address_councildis": "A",
    "status": "Assigned to Contractor",
    "contractor": "IV Waste",
    "rowid": "1201171",
    "final_x": "3660917.43552",
    "final_y": "524980.091837",
    "longitude": "-90.13327928222685",
    "latitude": "29.938121908461333",
    "geocoded_column": {
      "latitude": "29.938121908461333",
      "longitude": "-90.13327928222685"
    }
  },
  {
    "service_request": "2025-1201170",
    "request_type": "Parks & Parkways",
    "request_reason": "Request Tree Service (Right of Way/Public Property)",
    "date_created": "2025-06-15T13:31:09.000",
    "date_modified": "2025-06-15T13:31:14.000",
    "request_status": "Pending",
    "responsible_agency": "Department of Parks & Parkway",
    "final_address": "0 BLK Across St",
    "address_councildis": "E",
    "status": "Pending",
    "rowid": "1201170",
    "final_x": "3711887.63918",
    "final_y": "553972.247814",
    "longitude": "-89.97127534652184",
    "latitude": "30.01627326470007",
    "geocoded_column": {
      "latitude": "30.01627326470007",
      "longitude": "-89.97127534652184"
    }
  },
  {
    "service_request": "2025-1201169",
    "request_type": "General Services",
    "request_reason": "General Service Request",
    "date_created": "2025-06-15T13:07:28.000",
    "date_modified": "2025-06-15T13:07:30.000",
    "request_status": "Pending",
    "responsible_agency": "Orleans Parish Communication District",
    "final_address": "2646 Gallinghouse St",
    "address_councildis": "C",
    "status": "Pending",
    "rowid": "1201169",
    "final_x": "3700141.84855",
    "final_y": "521329.711993",
    "longitude": "-90.00957818807589",
    "latitude": "29.926896776047872",
    "geocoded_column": {
      "latitude": "29.926896776047872",
      "longitude": "-90.00957818807589"
    }
  },
  {
    "service_request": "2025-1201168",
    "request_type": "Abandoned Vehicles",
    "request_reason": "Abandoned/Junk Vehicles",
    "date_created": "2025-06-15T12:02:19.000",
    "date_modified": "2025-06-15T12:02:22.000",
    "request_status": "Pending",
    "responsible_agency": "Department of Public Works",
    "final_address": "7101 Benson Ct",
    "address_councildis": "E",
    "status": "Pending",
    "rowid": "1201168",
    "final_x": "3705513.73239",
    "final_y": "560268.594141",
    "longitude": "-89.9911809282197",
    "latitude": "30.03379256032376",
    "geocoded_column": {
      "latitude": "30.03379256032376",
      "longitude": "-89.9911809282197"
    }
  },
  {
    "service_request": "2025-1201167",
    "request_type": "Streetlights",
    "request_reason": "Streetlight Outage/Malfunction",
    "date_created": "2025-06-15T11:27:08.000",
    "date_modified": "2025-06-15T11:27:10.000",
    "request_status": "Pending",
    "responsible_agency": "Department of Public Works",
    "final_address": "1900 Gentilly Blvd",
    "address_councildis": "D",
    "status": "Pending",
    "contractor": "Legacy Professional Services",
    "rowid": "1201167",
    "final_x": "3679083.68034",
    "final_y": "543040.608077",
    "longitude": "-90.07530079106067",
    "latitude": "29.98724654398129",
    "geocoded_column": {
      "latitude": "29.98724654398129",
      "longitude": "-90.07530079106067"
    }
  },
  {
    "service_request": "2025-1201166",
    "request_type": "Abandoned Vehicles",
    "request_reason": "Abandoned/Junk Vehicles",
    "date_created": "2025-06-15T11:25:01.000",
    "date_modified": "2025-06-15T11:25:03.000",
    "request_status": "Pending",
    "responsible_agency": "Department of Public Works",
    "final_address": "4725 Crowder Blvd",
    "address_councildis": "E",
    "status": "Pending",
    "rowid": "1201166",
    "final_x": "3706512.90871",
    "final_y": "555631.709401",
    "longitude": "-89.98819545579224",
    "latitude": "30.021010719294235",
    "geocoded_column": {
      "latitude": "30.021010719294235",
      "longitude": "-89.98819545579224"
    }
  },
  {
    "service_request": "2025-1201165",
    "request_type": "Streetlights",
    "request_reason": "Streetlight Outage/Malfunction",
    "date_created": "2025-06-15T11:22:55.000",
    "date_modified": "2025-06-15T11:22:57.000",
    "request_status": "Pending",
    "responsible_agency": "Department of Public Works",
    "final_address": "1900 Gentilly Blvd",
    "address_councildis": "D",
    "status": "Pending",
    "contractor": "Legacy Professional Services",
    "rowid": "1201165",
    "final_x": "3679083.68034",
    "final_y": "543040.608077",
    "longitude": "-90.07530079106067",
    "latitude": "29.98724654398129",
    "geocoded_column": {
      "latitude": "29.98724654398129",
      "longitude": "-90.07530079106067"
    }
  },
  {
    "service_request": "2025-1201164",
    "request_type": "Trash/Recycling",
    "request_reason": "Request a Large Item Pick Up",
    "date_created": "2025-06-15T11:13:57.000",
    "date_modified": "2025-06-15T11:13:59.000",
    "request_status": "Pending",
    "responsible_agency": "Department of Sanitation",
    "final_address": "1319 Kentucky St",
    "address_councildis": "D",
    "status": "Assigned to Contractor",
    "contractor": "IV Waste",
    "rowid": "1201164",
    "final_x": "3693628.44169",
    "final_y": "535806.251655",
    "longitude": "-90.02961924824854",
    "latitude": "29.966907546772642",
    "geocoded_column": {
      "latitude": "29.966907546772642",
      "longitude": "-90.02961924824854"
    }
  },
  {
    "service_request": "2025-1201163",
    "request_type": "Abandoned Vehicles",
    "request_reason": "Abandoned/Junk Vehicles",
    "date_created": "2025-06-15T10:38:26.000",
    "date_modified": "2025-06-15T10:38:28.000",
    "request_status": "Pending",
    "responsible_agency": "Department of Public Works",
    "final_address": "1912 Dublin St",
    "address_councildis": "A",
    "status": "Pending",
    "rowid": "1201163",
    "final_x": "3663420.2176",
    "final_y": "530550.568706",
    "longitude": "-90.12519230918494",
    "latitude": "29.9533666223316",
    "geocoded_column": {
      "latitude": "29.9533666223316",
      "longitude": "-90.12519230918494"
    }
  },
  {
    "service_request": "2025-1201162",
    "request_type": "Trash/Recycling",
    "request_reason": "Request a Large Item Pick Up",
    "date_created": "2025-06-15T10:27:07.000",
    "date_modified": "2025-06-15T10:27:08.000",
    "request_status": "Pending",
    "responsible_agency": "Department of Sanitation",
    "final_address": "3661 Plymouth Pl",
    "address_councildis": "C",
    "status": "Assigned to Contractor",
    "contractor": "Richards Disposal",
    "rowid": "1201162",
    "final_x": "3702688.25585",
    "final_y": "517129.575989",
    "longitude": "-90.00169399889872",
    "latitude": "29.915266714296404",
    "geocoded_column": {
      "latitude": "29.915266714296404",
      "longitude": "-90.00169399889872"
    }
  },
  {
    "service_request": "2025-1201161",
    "request_type": "Abandoned Vehicles",
    "request_reason": "Abandoned/Junk Vehicles",
    "date_created": "2025-06-15T10:08:38.000",
    "date_modified": "2025-06-15T10:08:40.000",
    "request_status": "Pending",
    "responsible_agency": "Department of Public Works",
    "final_address": "4600 Gabriel Dr",
    "address_councildis": "E",
    "status": "Pending",
    "rowid": "1201161",
    "final_x": "3708908.6355",
    "final_y": "554789.224664",
    "longitude": "-89.980657139579",
    "latitude": "30.01861666553566",
    "geocoded_column": {
      "latitude": "30.01861666553566",
      "longitude": "-89.980657139579"
    }
  },
  {
    "service_request": "2025-1201160",
    "request_type": "New Orleans Recreation Development Commission (NORDC)",
    "request_reason": "Facilities and Parks Maintenance/Clean Up",
    "date_created": "2025-06-15T09:43:56.000",
    "date_modified": "2025-06-15T09:43:58.000",
    "request_status": "Pending",
    "responsible_agency": "New Orleans Recreation Development Commission",
    "final_address": "3301 Royal St",
    "address_councildis": "C",
    "status": "Pending",
    "rowid": "1201160",
    "final_x": "3689507.60585",
    "final_y": "534299.647045",
    "longitude": "-90.04268640237082",
    "latitude": "29.962893187662416",
    "geocoded_column": {
      "latitude": "29.962893187662416",
      "longitude": "-90.04268640237082"
    }
  },
  {
    "service_request": "2025-1201159",
    "request_type": "Trash/Recycling",
    "request_reason": "Repair Trash Cart",
    "date_created": "2025-06-15T09:42:39.000",
    "date_modified": "2025-06-15T09:42:40.000",
    "request_status": "Pending",
    "responsible_agency": "Department of Sanitation",
    "final_address": "5340 Pitt St",
    "address_councildis": "B",
    "status": "Assigned to Contractor",
    "contractor": "IV Waste",
    "rowid": "1201159",
    "final_x": "3667354.74484",
    "final_y": "520458.620984",
    "longitude": "-90.11310805726619",
    "latitude": "29.925502354694995",
    "geocoded_column": {
      "latitude": "29.925502354694995",
      "longitude": "-90.11310805726619"
    }
  },
  {
    "service_request": "2025-1201158",
    "request_type": "Abandoned Vehicles",
    "request_reason": "Abandoned/Junk Vehicles",
    "date_created": "2025-06-15T09:24:46.000",
    "date_modified": "2025-06-15T09:25:08.000",
    "request_status": "Pending",
    "responsible_agency": "Department of Public Works",
    "final_address": "433 Bolivar St",
    "address_councildis": "B",
    "status": "Pending",
    "rowid": "1201158",
    "final_x": "3676726.67566",
    "final_y": "532103.592963",
    "longitude": "-90.08312266593896",
    "latitude": "29.95724443401302",
    "geocoded_column": {
      "latitude": "29.95724443401302",
      "longitude": "-90.08312266593896"
    }
  },
  {
    "service_request": "2025-1201157",
    "request_type": "Trash/Recycling",
    "request_reason": "Request a Large Item Pick Up",
    "date_created": "2025-06-15T09:23:12.000",
    "date_modified": "2025-06-15T09:23:15.000",
    "request_status": "Pending",
    "responsible_agency": "Department of Sanitation",
    "final_address": "5543 Cherlyn Dr",
    "address_councildis": "A",
    "status": "Assigned to Contractor",
    "contractor": "IV Waste",
    "rowid": "1201157",
    "final_x": "3665271.58612",
    "final_y": "544727.440335",
    "longitude": "-90.11887200109466",
    "latitude": "29.992294500122178",
    "geocoded_column": {
      "latitude": "29.992294500122178",
      "longitude": "-90.11887200109466"
    }
  },
  {
    "service_request": "2025-1201156",
    "request_type": "Mosquito, Termite & Rodent Control",
    "request_reason": "Rodent Complaint (Mice & Rats)",
    "date_created": "2025-06-15T08:44:56.000",
    "date_modified": "2025-06-15T08:44:58.000",
    "request_status": "Pending",
    "responsible_agency": "Mosquito, Termite & Rodent Control Board",
    "final_address": "5247 Laurel St",
    "address_councildis": "B",
    "status": "Pending",
    "rowid": "1201156",
    "final_x": "3667598.1817",
    "final_y": "517920.807606",
    "longitude": "-90.11242495898337",
    "latitude": "29.918517037560097",
    "geocoded_column": {
      "latitude": "29.918517037560097",
      "longitude": "-90.11242495898337"
    }
  },
  {
    "service_request": "2025-1201155",
    "request_type": "Mosquito, Termite & Rodent Control",
    "request_reason": "Rodent Complaint (Mice & Rats)",
    "date_created": "2025-06-15T08:41:22.000",
    "date_modified": "2025-06-15T08:41:24.000",
    "request_status": "Pending",
    "responsible_agency": "Mosquito, Termite & Rodent Control Board",
    "final_address": "5241 Laurel St",
    "address_councildis": "B",
    "status": "Pending",
    "rowid": "1201155",
    "final_x": "3667637.65953",
    "final_y": "517916.995254",
    "longitude": "-90.11230047618886",
    "latitude": "29.918505398100972",
    "geocoded_column": {
      "latitude": "29.918505398100972",
      "longitude": "-90.11230047618886"
    }
  },
  {
    "service_request": "2025-1201154",
    "request_type": "Mosquito, Termite & Rodent Control",
    "request_reason": "Rodent Complaint (Mice & Rats)",
    "date_created": "2025-06-15T08:24:22.000",
    "date_modified": "2025-06-15T08:24:25.000",
    "request_status": "Pending",
    "responsible_agency": "Mosquito, Termite & Rodent Control Board",
    "final_address": "5241 Laurel St",
    "address_councildis": "B",
    "status": "Pending",
    "rowid": "1201154",
    "final_x": "3667637.65953",
    "final_y": "517916.995254",
    "longitude": "-90.11230047618886",
    "latitude": "29.918505398100972",
    "geocoded_column": {
      "latitude": "29.918505398100972",
      "longitude": "-90.11230047618886"
    }
  },
  {
    "service_request": "2025-1201153",
    "request_type": "Property Maintenance",
    "request_reason": "Property Maintenance",
    "date_created": "2025-06-15T07:25:43.000",
    "date_modified": "2025-06-15T07:25:45.000",
    "request_status": "Pending",
    "responsible_agency": "Department of Code Enforcement",
    "final_address": "3316 General Taylor St",
    "address_councildis": "B",
    "status": "Pending",
    "rowid": "1201153",
    "final_x": "3671155.12212",
    "final_y": "527142.900415",
    "longitude": "-90.10088446036826",
    "latitude": "29.943770137128652",
    "geocoded_column": {
      "latitude": "29.943770137128652",
      "longitude": "-90.10088446036826"
    }
  },
  {
    "service_request": "2025-1201152",
    "request_type": "Street and Traffic Signs",
    "request_reason": "Additional Signage Request",
    "date_created": "2025-06-15T07:17:36.000",
    "date_modified": "2025-06-15T07:17:38.000",
    "request_status": "Pending",
    "responsible_agency": "Department of Public Works",
    "final_address": "1138 St Andrew St",
    "address_councildis": "B",
    "status": "Pending",
    "rowid": "1201152",
    "final_x": "3679267.91471",
    "final_y": "522826.788603",
    "longitude": "-90.07541979200163",
    "latitude": "29.93165982677079",
    "geocoded_column": {
      "latitude": "29.93165982677079",
      "longitude": "-90.07541979200163"
    }
  },
  {
    "service_request": "2025-1201151",
    "request_type": "Abandoned Vehicles",
    "request_reason": "Abandoned/Junk Vehicles",
    "date_created": "2025-06-15T07:15:48.000",
    "date_modified": "2025-06-15T07:15:50.000",
    "request_status": "Pending",
    "responsible_agency": "Department of Public Works",
    "final_address": "610 Upperline St",
    "address_councildis": "B",
    "status": "Pending",
    "rowid": "1201151",
    "final_x": "3668916.35086",
    "final_y": "517647.622518",
    "longitude": "-90.10827340358922",
    "latitude": "29.917727178823306",
    "geocoded_column": {
      "latitude": "29.917727178823306",
      "longitude": "-90.10827340358922"
    }
  },
  {
    "service_request": "2025-1201150",
    "request_type": "Abandoned Vehicles",
    "request_reason": "Abandoned/Junk Vehicles",
    "date_created": "2025-06-15T05:50:52.000",
    "date_modified": "2025-06-15T05:50:55.000",
    "request_status": "Pending",
    "responsible_agency": "Department of Public Works",
    "final_address": "119 30Th St",
    "address_councildis": "A",
    "status": "Pending",
    "rowid": "1201150",
    "final_x": "3666075.22893",
    "final_y": "550525.21218",
    "longitude": "-90.11613889544748",
    "latitude": "30.00821293067425",
    "geocoded_column": {
      "latitude": "30.00821293067425",
      "longitude": "-90.11613889544748"
    }
  },
  {
    "service_request": "2025-1201149",
    "request_type": "Property Maintenance",
    "request_reason": "Property Maintenance",
    "date_created": "2025-06-15T03:27:59.000",
    "date_modified": "2025-06-15T03:28:02.000",
    "request_status": "Pending",
    "responsible_agency": "Department of Code Enforcement",
    "final_address": "3200 BLK Chartres St",
    "address_councildis": "C",
    "status": "Pending",
    "rowid": "1201149",
    "final_x": "3689234.88626",
    "final_y": "533979.865227",
    "longitude": "-90.04355898060956",
    "latitude": "29.962022342754192",
    "geocoded_column": {
      "latitude": "29.962022342754192",
      "longitude": "-90.04355898060956"
    }
  },
  {
    "service_request": "2025-1200328",
    "request_type": "Parks & Parkways",
    "request_reason": "Park Maintenance/Clean Up",
    "date_created": "2025-06-11T23:08:16.000",
    "date_modified": "2025-06-11T23:08:18.000",
    "request_status": "Pending",
    "responsible_agency": "Department of Parks & Parkway",
    "final_address": "1100 Milton St",
    "address_councildis": "D",
    "status": "Pending",
    "rowid": "1200328",
    "final_x": "3676273.71758",
    "final_y": "545961.403984",
    "longitude": "-90.08407588901012",
    "latitude": "29.995362243362468",
    "geocoded_column": {
      "latitude": "29.995362243362468",
      "longitude": "-90.08407588901012"
    }
  },
  {
    "service_request": "2025-1200327",
    "request_type": "Street and Traffic Signs",
    "request_reason": "Stop Sign Missing or Damaged",
    "date_created": "2025-06-11T23:06:09.000",
    "date_modified": "2025-06-11T23:06:11.000",
    "request_status": "Pending",
    "responsible_agency": "Department of Public Works",
    "final_address": "POYDRAS ST & CLARA ST",
    "address_councildis": "B",
    "status": "Pending",
    "rowid": "1200327",
    "final_x": "3677291.8",
    "final_y": "530616.58",
    "longitude": "-90.08138947781661",
    "latitude": "29.95313868069464",
    "geocoded_column": {
      "latitude": "29.95313868069464",
      "longitude": "-90.08138947781661"
    }
  },
  {
    "service_request": "2025-1200326",
    "request_type": "Traffic Signals",
    "request_reason": "Traffic Signal Malfunctioning or Damaged",
    "date_created": "2025-06-11T23:01:06.000",
    "date_modified": "2025-06-11T23:02:40.000",
    "request_status": "Pending",
    "responsible_agency": "Department of Public Works",
    "final_address": "NAPOLEON AVE & PRYTANIA ST",
    "address_councildis": "B",
    "status": "Pending",
    "rowid": "1200326",
    "final_x": "3670865.7",
    "final_y": "520323.88",
    "longitude": "-90.10202959904824",
    "latitude": "29.92502858607668",
    "geocoded_column": {
      "latitude": "29.92502858607668",
      "longitude": "-90.10202959904824"
    }
  },
  {
    "service_request": "2025-1200325",
    "request_type": "Trash/Recycling",
    "request_reason": "Request a Large Item Pick Up",
    "date_created": "2025-06-11T22:38:19.000",
    "date_modified": "2025-06-11T22:38:21.000",
    "request_status": "Pending",
    "responsible_agency": "Department of Sanitation",
    "final_address": "31 Honeysuckle Ln",
    "address_councildis": "E",
    "status": "Assigned to Contractor",
    "contractor": "Waste Pro",
    "rowid": "1200325",
    "final_x": "3713101.01355",
    "final_y": "568474.356453",
    "longitude": "-89.96689523863546",
    "latitude": "30.05610854322975",
    "geocoded_column": {
      "latitude": "30.05610854322975",
      "longitude": "-89.96689523863546"
    }
  },
  {
    "service_request": "2025-1200324",
    "request_type": "Trash/Recycling",
    "request_reason": "Replace Trash Cart",
    "date_created": "2025-06-11T22:29:27.000",
    "date_modified": "2025-06-11T22:29:28.000",
    "request_status": "Pending",
    "responsible_agency": "Department of Sanitation",
    "final_address": "5024 Papania Dr",
    "address_councildis": "E",
    "status": "Assigned to Contractor",
    "contractor": "Waste Pro",
    "rowid": "1200324",
    "final_x": "3715368.39333",
    "final_y": "558235.26358",
    "longitude": "-89.96011638655844",
    "latitude": "30.0278806428792",
    "geocoded_column": {
      "latitude": "30.0278806428792",
      "longitude": "-89.96011638655844"
    }
  },
  {
    "service_request": "2025-1200323",
    "request_type": "Trash/Recycling",
    "request_reason": "Replace Trash Cart",
    "date_created": "2025-06-11T22:16:21.000",
    "date_modified": "2025-06-11T22:16:23.000",
    "request_status": "Pending",
    "responsible_agency": "Department of Sanitation",
    "final_address": "3538 Pin Oak Ave",
    "address_councildis": "C",
    "status": "Assigned to Contractor",
    "contractor": "Richards Disposal",
    "rowid": "1200323",
    "final_x": "3703481.70487",
    "final_y": "515035.288051",
    "longitude": "-89.99926656308327",
    "latitude": "29.909482760409695",
    "geocoded_column": {
      "latitude": "29.909482760409695",
      "longitude": "-89.99926656308327"
    }
  },
  {
    "service_request": "2025-1200322",
    "request_type": "Mosquito, Termite & Rodent Control",
    "request_reason": "Termite Complaint",
    "date_created": "2025-06-11T22:11:58.000",
    "date_modified": "2025-06-11T22:12:00.000",
    "request_status": "Pending",
    "responsible_agency": "Mosquito, Termite & Rodent Control Board",
    "final_address": "4554 Laine Ave",
    "address_councildis": "E",
    "status": "Pending",
    "rowid": "1200322",
    "final_x": "3705783.18903",
    "final_y": "554226.147736",
    "longitude": "-89.99055318707688",
    "latitude": "30.017169501683206",
    "geocoded_column": {
      "latitude": "30.017169501683206",
      "longitude": "-89.99055318707688"
    }
  },
  {
    "service_request": "2025-1200321",
    "request_type": "Mosquito, Termite & Rodent Control",
    "request_reason": "Termite Complaint",
    "date_created": "2025-06-11T22:09:09.000",
    "date_modified": "2025-06-11T22:09:11.000",
    "request_status": "Pending",
    "responsible_agency": "Mosquito, Termite & Rodent Control Board",
    "final_address": "4554 Laine Ave",
    "address_councildis": "E",
    "status": "Pending",
    "rowid": "1200321",
    "final_x": "3705783.18903",
    "final_y": "554226.147736",
    "longitude": "-89.99055318707688",
    "latitude": "30.017169501683206",
    "geocoded_column": {
      "latitude": "30.017169501683206",
      "longitude": "-89.99055318707688"
    }
  },
  {
    "service_request": "2025-1200320",
    "request_type": "Trash/Recycling",
    "request_reason": "Request a Large Item Pick Up",
    "date_created": "2025-06-11T22:08:12.000",
    "date_modified": "2025-06-11T22:08:14.000",
    "request_status": "Pending",
    "responsible_agency": "Department of Sanitation",
    "final_address": "5805 Fontainebleau Dr",
    "address_councildis": "B",
    "status": "Assigned to Contractor",
    "contractor": "IV Waste",
    "rowid": "1200320",
    "final_x": "3668477.80218",
    "final_y": "529867.832577",
    "longitude": "-90.10924559784861",
    "latitude": "29.951341724272368",
    "geocoded_column": {
      "latitude": "29.951341724272368",
      "longitude": "-90.10924559784861"
    }
  },
  {
    "service_request": "2025-1200319",
    "request_type": "Mosquito, Termite & Rodent Control",
    "request_reason": "Mosquito Complaint",
    "date_created": "2025-06-11T22:00:15.000",
    "date_modified": "2025-06-11T22:00:17.000",
    "request_status": "Pending",
    "responsible_agency": "Mosquito, Termite & Rodent Control Board",
    "final_address": "3631 State Street Dr",
    "address_councildis": "A",
    "status": "Pending",
    "rowid": "1200319",
    "final_x": "3668010.29383",
    "final_y": "529280.573249",
    "longitude": "-90.11074154918275",
    "latitude": "29.949740677107595",
    "geocoded_column": {
      "latitude": "29.949740677107595",
      "longitude": "-90.11074154918275"
    }
  },
  {
    "service_request": "2025-1200318",
    "request_type": "Traffic Signals",
    "request_reason": "Traffic Signal Malfunctioning or Damaged",
    "date_created": "2025-06-11T21:43:13.000",
    "date_modified": "2025-06-11T21:43:15.000",
    "request_status": "Pending",
    "responsible_agency": "Department of Public Works",
    "final_address": "1800 BLK Shirley Dr",
    "address_councildis": "C",
    "status": "Pending",
    "rowid": "1200318",
    "final_x": "3692910.15023",
    "final_y": "522352.971814",
    "longitude": "-90.03236997446685",
    "latitude": "29.929938135951453",
    "geocoded_column": {
      "latitude": "29.929938135951453",
      "longitude": "-90.03236997446685"
    }
  },
  {
    "service_request": "2025-1200317",
    "request_type": "Streetlights",
    "request_reason": "Streetlight Outage/Malfunction",
    "date_created": "2025-06-11T21:38:07.000",
    "date_modified": "2025-06-11T21:38:15.000",
    "request_status": "Pending",
    "responsible_agency": "Department of Public Works",
    "final_address": "1460 Athis St",
    "address_councildis": "D",
    "status": "Pending",
    "contractor": "Legacy Professional Services",
    "rowid": "1200317",
    "final_x": "3677977.50094",
    "final_y": "553660.911127",
    "longitude": "-90.07842743227152",
    "latitude": "30.016481956494907",
    "geocoded_column": {
      "latitude": "30.016481956494907",
      "longitude": "-90.07842743227152"
    }
  },
  {
    "service_request": "2025-1200316",
    "request_type": "Trash/Recycling",
    "request_reason": "Order Trash Cart",
    "date_created": "2025-06-11T21:04:14.000",
    "date_modified": "2025-06-11T21:04:16.000",
    "request_status": "Pending",
    "responsible_agency": "Department of Sanitation",
    "final_address": "523 Henry Clay Ave",
    "address_councildis": "A",
    "status": "Assigned to Contractor",
    "contractor": "IV Waste",
    "rowid": "1200316",
    "final_x": "3663528.67418",
    "final_y": "518769.867255",
    "longitude": "-90.12524204189457",
    "latitude": "29.92097028939595",
    "geocoded_column": {
      "latitude": "29.92097028939595",
      "longitude": "-90.12524204189457"
    }
  },
  {
    "service_request": "2025-1200315",
    "request_type": "Abandoned Vehicles",
    "request_reason": "Abandoned/Junk Vehicles",
    "date_created": "2025-06-11T20:09:33.000",
    "date_modified": "2025-06-11T20:09:36.000",
    "request_status": "Pending",
    "responsible_agency": "Department of Public Works",
    "final_address": "4134 Erato St",
    "address_councildis": "B",
    "status": "Pending",
    "rowid": "1200315",
    "final_x": "3671161.34119",
    "final_y": "531274.729602",
    "longitude": "-90.10072449346983",
    "latitude": "29.955131127205956",
    "geocoded_column": {
      "latitude": "29.955131127205956",
      "longitude": "-90.10072449346983"
    }
  },
  {
    "service_request": "2025-1200314",
    "request_type": "Roads and Streets",
    "request_reason": "Sidewalk Damaged or Missing",
    "date_created": "2025-06-11T19:41:33.000",
    "date_modified": "2025-06-11T19:41:34.000",
    "request_status": "Pending",
    "responsible_agency": "Department of Public Works",
    "final_address": "1000 BLK France St",
    "address_councildis": "C",
    "status": "Pending",
    "rowid": "1200314",
    "final_x": "3692334.03491",
    "final_y": "534940.807859",
    "longitude": "-90.03373796775521",
    "latitude": "29.964568313231904",
    "geocoded_column": {
      "latitude": "29.964568313231904",
      "longitude": "-90.03373796775521"
    }
  },
  {
    "service_request": "2025-1200313",
    "request_type": "Trash/Recycling",
    "request_reason": "Repair Trash Cart",
    "date_created": "2025-06-11T19:41:25.000",
    "date_modified": "2025-06-11T19:41:27.000",
    "request_status": "Pending",
    "responsible_agency": "Department of Sanitation",
    "final_address": "3500 N Rampart St",
    "address_councildis": "C",
    "status": "Assigned to Contractor",
    "contractor": "IV Waste",
    "rowid": "1200313",
    "final_x": "3690382.14403",
    "final_y": "535157.667398",
    "longitude": "-90.03989414511348",
    "latitude": "29.96522532869635",
    "geocoded_column": {
      "latitude": "29.96522532869635",
      "longitude": "-90.03989414511348"
    }
  },
  {
    "service_request": "2025-1200312",
    "request_type": "Street and Traffic Signs",
    "request_reason": "One Way Sign Missing or Damaged",
    "date_created": "2025-06-11T19:38:32.000",
    "date_modified": "2025-06-11T19:38:34.000",
    "request_status": "Pending",
    "responsible_agency": "Department of Public Works",
    "final_address": "1030 France St",
    "address_councildis": "C",
    "status": "Pending",
    "rowid": "1200312",
    "final_x": "3692337.86768",
    "final_y": "535061.66695",
    "longitude": "-90.03372153536841",
    "latitude": "29.96490051367773",
    "geocoded_column": {
      "latitude": "29.96490051367773",
      "longitude": "-90.03372153536841"
    }
  },
  {
    "service_request": "2025-1200311",
    "request_type": "Drainage",
    "request_reason": "Street Flooding",
    "date_created": "2025-06-11T19:37:20.000",
    "date_modified": "2025-06-11T19:37:21.000",
    "request_status": "Pending",
    "responsible_agency": "Sewerage & Water Board",
    "final_address": "2605 St Ann St",
    "address_councildis": "D",
    "status": "Pending",
    "rowid": "1200311",
    "final_x": "3677333.83355",
    "final_y": "536957.728136",
    "longitude": "-90.08103792603404",
    "latitude": "29.970573431394616",
    "geocoded_column": {
      "latitude": "29.970573431394616",
      "longitude": "-90.08103792603404"
    }
  },
  {
    "service_request": "2025-1200310",
    "request_type": "Drainage",
    "request_reason": "Street Flooding",
    "date_created": "2025-06-11T19:37:19.000",
    "date_modified": "2025-06-11T19:37:21.000",
    "request_status": "Pending",
    "responsible_agency": "Sewerage & Water Board",
    "final_address": "2605 St Ann St",
    "address_councildis": "D",
    "status": "Pending",
    "rowid": "1200310",
    "final_x": "3677333.83355",
    "final_y": "536957.728136",
    "longitude": "-90.08103792603404",
    "latitude": "29.970573431394616",
    "geocoded_column": {
      "latitude": "29.970573431394616",
      "longitude": "-90.08103792603404"
    }
  },
  {
    "service_request": "2025-1200309",
    "request_type": "Drainage",
    "request_reason": "Drainage Manhole Cover Missing or Damaged",
    "date_created": "2025-06-11T19:34:16.000",
    "date_modified": "2025-06-11T19:34:17.000",
    "request_status": "Pending",
    "responsible_agency": "Sewerage & Water Board",
    "final_address": "930 France St",
    "address_councildis": "C",
    "status": "Pending",
    "rowid": "1200309",
    "final_x": "3692219.21366",
    "final_y": "534605.497286",
    "longitude": "-90.03411256968401",
    "latitude": "29.96364990735731",
    "geocoded_column": {
      "latitude": "29.96364990735731",
      "longitude": "-90.03411256968401"
    }
  },
  {
    "service_request": "2025-1200308",
    "request_type": "Trash/Recycling",
    "request_reason": "Order Trash Cart",
    "date_created": "2025-06-11T19:33:24.000",
    "date_modified": "2025-06-11T19:33:26.000",
    "request_status": "Pending",
    "responsible_agency": "Department of Sanitation",
    "final_address": "2111 Cadiz St",
    "address_councildis": "B",
    "status": "Assigned to Contractor",
    "contractor": "IV Waste",
    "rowid": "1200308",
    "final_x": "3669951.66055",
    "final_y": "522681.717306",
    "longitude": "-90.10483513508949",
    "latitude": "29.931538861508102",
    "geocoded_column": {
      "latitude": "29.931538861508102",
      "longitude": "-90.10483513508949"
    }
  },
  {
    "service_request": "2025-1200307",
    "request_type": "Roads and Streets",
    "request_reason": "Sidewalk Damaged or Missing",
    "date_created": "2025-06-11T19:23:48.000",
    "date_modified": "2025-06-11T19:23:51.000",
    "request_status": "Pending",
    "responsible_agency": "Department of Public Works",
    "final_address": "812 Lesseps St",
    "address_councildis": "C",
    "status": "Pending",
    "rowid": "1200307",
    "final_x": "3692414.08208",
    "final_y": "534060.280773",
    "longitude": "-90.03351672860072",
    "latitude": "29.96214467653445",
    "geocoded_column": {
      "latitude": "29.96214467653445",
      "longitude": "-90.03351672860072"
    }
  },
  {
    "service_request": "2025-1200305",
    "request_type": "Mosquito, Termite & Rodent Control",
    "request_reason": "Mosquito Complaint",
    "date_created": "2025-06-11T19:16:33.000",
    "date_modified": "2025-06-11T19:16:35.000",
    "request_status": "Pending",
    "responsible_agency": "Mosquito, Termite & Rodent Control Board",
    "final_address": "1336 Bartholomew St",
    "address_councildis": "D",
    "status": "Pending",
    "rowid": "1200305",
    "final_x": "3692022.60432",
    "final_y": "536346.700039",
    "longitude": "-90.03467112068562",
    "latitude": "29.968443730121805",
    "geocoded_column": {
      "latitude": "29.968443730121805",
      "longitude": "-90.03467112068562"
    }
  },
  {
    "service_request": "2025-1200303",
    "request_type": "Property Maintenance",
    "request_reason": "Property Maintenance",
    "date_created": "2025-06-11T18:59:38.000",
    "date_modified": "2025-06-11T18:59:40.000",
    "request_status": "Pending",
    "responsible_agency": "Department of Code Enforcement",
    "final_address": "4735 Evangeline Dr",
    "address_councildis": "E",
    "status": "Pending",
    "rowid": "1200303",
    "final_x": "3709178.83467",
    "final_y": "555741.274969",
    "longitude": "-89.97976788138713",
    "latitude": "30.021225659706683",
    "geocoded_column": {
      "latitude": "30.021225659706683",
      "longitude": "-89.97976788138713"
    }
  },
  {
    "service_request": "2025-1200302",
    "request_type": "Drainage",
    "request_reason": "Drainage Manhole Cover Missing or Damaged",
    "date_created": "2025-06-11T18:38:54.000",
    "date_modified": "2025-06-11T18:38:56.000",
    "request_status": "Pending",
    "responsible_agency": "Sewerage & Water Board",
    "final_address": "6535 Louisville St",
    "address_councildis": "A",
    "status": "Pending",
    "rowid": "1200302",
    "final_x": "3668175.33069",
    "final_y": "551071.415509",
    "longitude": "-90.10948557252463",
    "latitude": "30.009653290328632",
    "geocoded_column": {
      "latitude": "30.009653290328632",
      "longitude": "-90.10948557252463"
    }
  },
  {
    "service_request": "2025-1200301",
    "request_type": "Trash/Recycling",
    "request_reason": "Order Second Trash Cart",
    "date_created": "2025-06-11T18:31:55.000",
    "date_modified": "2025-06-11T18:32:01.000",
    "request_status": "Pending",
    "responsible_agency": "Department of Sanitation",
    "final_address": "3549 Bacchus Dr",
    "address_councildis": "C",
    "status": "Assigned to Contractor",
    "contractor": "Richards Disposal",
    "rowid": "1200301",
    "final_x": "3710044.87051",
    "final_y": "517530.740726",
    "longitude": "-89.97845907188523",
    "latitude": "29.916132644783897",
    "geocoded_column": {
      "latitude": "29.916132644783897",
      "longitude": "-89.97845907188523"
    }
  },
  {
    "service_request": "2025-1200300",
    "request_type": "Trash/Recycling",
    "request_reason": "Damaged Caused By Contractor",
    "date_created": "2025-06-11T18:25:18.000",
    "date_modified": "2025-06-11T18:25:20.000",
    "request_status": "Pending",
    "responsible_agency": "Department of Sanitation",
    "final_address": "3549 Bacchus Dr",
    "address_councildis": "C",
    "status": "Assigned to Contractor",
    "contractor": "Richards Disposal",
    "rowid": "1200300",
    "final_x": "3710044.87051",
    "final_y": "517530.740726",
    "longitude": "-89.97845907188523",
    "latitude": "29.916132644783897",
    "geocoded_column": {
      "latitude": "29.916132644783897",
      "longitude": "-89.97845907188523"
    }
  },
  {
    "service_request": "2025-1200299",
    "request_type": "Drainage",
    "request_reason": "Drainage Manhole Cover Missing or Damaged",
    "date_created": "2025-06-11T18:24:22.000",
    "date_modified": "2025-06-11T18:24:23.000",
    "request_status": "Pending",
    "responsible_agency": "Sewerage & Water Board",
    "final_address": "4800 Lincoln Beach Blvd",
    "address_councildis": "D",
    "status": "Pending",
    "rowid": "1200299",
    "final_x": "3689936.6632",
    "final_y": "558199.119323",
    "longitude": "-90.04047995263457",
    "latitude": "30.02859477792518",
    "geocoded_column": {
      "latitude": "30.02859477792518",
      "longitude": "-90.04047995263457"
    }
  },
  {
    "service_request": "2025-1200298",
    "request_type": "Streetlights",
    "request_reason": "Streetlight Outage/Malfunction",
    "date_created": "2025-06-11T18:08:08.000",
    "date_modified": "2025-06-11T18:08:09.000",
    "request_status": "Pending",
    "responsible_agency": "Department of Public Works",
    "final_address": "4933 S Rocheblave St",
    "address_councildis": "B",
    "status": "Pending",
    "contractor": "Legacy Professional Services",
    "rowid": "1200298",
    "final_x": "3669054.59034",
    "final_y": "528462.2272",
    "longitude": "-90.10747186044654",
    "latitude": "29.947459813034556",
    "geocoded_column": {
      "latitude": "29.947459813034556",
      "longitude": "-90.10747186044654"
    }
  },
  {
    "service_request": "2025-1200296",
    "request_type": "Abandoned Vehicles",
    "request_reason": "Abandoned/Junk Vehicles",
    "date_created": "2025-06-11T18:06:39.000",
    "date_modified": "2025-06-11T18:06:41.000",
    "request_status": "Pending",
    "responsible_agency": "Department of Public Works",
    "final_address": "4503 S Galvez St",
    "address_councildis": "B",
    "status": "Pending",
    "rowid": "1200296",
    "final_x": "3669733.59502",
    "final_y": "527545.712319",
    "longitude": "-90.1053589869403",
    "latitude": "29.944919704046228",
    "geocoded_column": {
      "latitude": "29.944919704046228",
      "longitude": "-90.1053589869403"
    }
  },
  {
    "service_request": "2025-1200295",
    "request_type": "Streetlights",
    "request_reason": "Streetlight Outage/Malfunction",
    "date_created": "2025-06-11T18:04:03.000",
    "date_modified": "2025-06-11T18:04:05.000",
    "request_status": "Pending",
    "responsible_agency": "Department of Public Works",
    "final_address": "4933 S Rocheblave St",
    "address_councildis": "B",
    "status": "Pending",
    "contractor": "Legacy Professional Services",
    "rowid": "1200295",
    "final_x": "3669054.59034",
    "final_y": "528462.2272",
    "longitude": "-90.10747186044654",
    "latitude": "29.947459813034556",
    "geocoded_column": {
      "latitude": "29.947459813034556",
      "longitude": "-90.10747186044654"
    }
  },
  {
    "service_request": "2025-1200294",
    "request_type": "Abandoned Vehicles",
    "request_reason": "Abandoned/Junk Vehicles",
    "date_created": "2025-06-11T18:02:19.000",
    "date_modified": "2025-06-11T18:02:20.000",
    "request_status": "Pending",
    "responsible_agency": "Department of Public Works",
    "final_address": "4503 S Galvez St",
    "address_councildis": "B",
    "status": "Pending",
    "rowid": "1200294",
    "final_x": "3669733.59502",
    "final_y": "527545.712319",
    "longitude": "-90.1053589869403",
    "latitude": "29.944919704046228",
    "geocoded_column": {
      "latitude": "29.944919704046228",
      "longitude": "-90.1053589869403"
    }
  },
  {
    "service_request": "2025-1200293",
    "request_type": "Property Maintenance",
    "request_reason": "Property Maintenance",
    "date_created": "2025-06-11T18:01:18.000",
    "date_modified": "2025-06-11T18:01:19.000",
    "request_status": "Pending",
    "responsible_agency": "Department of Code Enforcement",
    "final_address": "825 Pauline St",
    "address_councildis": "C",
    "status": "Pending",
    "rowid": "1200293",
    "final_x": "3691014.1112",
    "final_y": "534499.517061",
    "longitude": "-90.03792193005633",
    "latitude": "29.9633960155594",
    "geocoded_column": {
      "latitude": "29.9633960155594",
      "longitude": "-90.03792193005633"
    }
  },
  {
    "service_request": "2025-1200292",
    "request_type": "Trash/Recycling",
    "request_reason": "Request a Large Item Pick Up",
    "date_created": "2025-06-11T17:48:48.000",
    "date_modified": "2025-06-11T17:48:51.000",
    "request_status": "Pending",
    "responsible_agency": "Department of Sanitation",
    "final_address": "4650 Evangeline Dr",
    "address_councildis": "E",
    "status": "Assigned to Contractor",
    "contractor": "Waste Pro",
    "rowid": "1200292",
    "final_x": "3709096.80069",
    "final_y": "555182.927577",
    "longitude": "-89.98004791957973",
    "latitude": "30.01969308623968",
    "geocoded_column": {
      "latitude": "30.01969308623968",
      "longitude": "-89.98004791957973"
    }
  },
  {
    "service_request": "2025-1200291",
    "request_type": "Trash/Recycling",
    "request_reason": "Order Trash Cart",
    "date_created": "2025-06-11T17:45:47.000",
    "date_modified": "2025-06-11T17:45:50.000",
    "request_status": "Pending",
    "responsible_agency": "Department of Sanitation",
    "final_address": "3319 Constance St",
    "address_councildis": "B",
    "status": "Assigned to Contractor",
    "contractor": "IV Waste",
    "rowid": "1200291",
    "final_x": "3675385.52251",
    "final_y": "519412.656951",
    "longitude": "-90.08779323365124",
    "latitude": "29.922388692558616",
    "geocoded_column": {
      "latitude": "29.922388692558616",
      "longitude": "-90.08779323365124"
    }
  },
  {
    "service_request": "2025-1200290",
    "request_type": "Abandoned Vehicles",
    "request_reason": "Abandoned/Junk Vehicles",
    "date_created": "2025-06-11T17:39:31.000",
    "date_modified": "2025-06-11T17:39:32.000",
    "request_status": "Pending",
    "responsible_agency": "Department of Public Works",
    "final_address": "2041 Seventh St",
    "address_councildis": "B",
    "status": "Pending",
    "rowid": "1200290",
    "final_x": "523559.899003",
    "final_y": "523559.899003",
    "longitude": "-100.02226418554419",
    "latitude": "29.652084969540375",
    "geocoded_column": {
      "latitude": "29.652084969540375",
      "longitude": "-100.02226418554419"
    }
  },
  {
    "service_request": "2025-1200289",
    "request_type": "Trash/Recycling",
    "request_reason": "Order Trash Cart",
    "date_created": "2025-06-11T17:35:22.000",
    "date_modified": "2025-06-11T18:03:42.000",
    "case_close_date": "2025-06-11T13:03:41.000",
    "request_status": "Closed",
    "responsible_agency": "Department of Sanitation",
    "final_address": "10123 Hillwood St, New Orleans, Louisiana, 70127",
    "address_councildis": "E",
    "status": "Assigned to Contractor",
    "contractor": "Waste Pro",
    "contractor_action": "Completed",
    "rowid": "1200289",
    "final_x": "3712953.93125",
    "final_y": "556739.377882",
    "longitude": "-89.96780217266685",
    "latitude": "30.023846890394523",
    "geocoded_column": {
      "latitude": "30.023846890394523",
      "longitude": "-89.96780217266685"
    }
  },
  {
    "service_request": "2025-1200288",
    "request_type": "Street and Traffic Signs",
    "request_reason": "Additional Signage Request",
    "date_created": "2025-06-11T17:31:43.000",
    "date_modified": "2025-06-11T17:31:45.000",
    "request_status": "Pending",
    "responsible_agency": "Department of Public Works",
    "final_address": "1331 S Broad St",
    "address_councildis": "B",
    "status": "Pending",
    "rowid": "1200288",
    "final_x": "3671861.20257",
    "final_y": "530701.01581",
    "longitude": "-90.09853410865675",
    "latitude": "29.95353288434971",
    "geocoded_column": {
      "latitude": "29.95353288434971",
      "longitude": "-90.09853410865675"
    }
  },
  {
    "service_request": "2025-1200286",
    "request_type": "Roads and Streets",
    "request_reason": "Debris in Driving Lanes",
    "date_created": "2025-06-11T17:30:01.000",
    "date_modified": "2025-06-11T17:30:03.000",
    "request_status": "Pending",
    "responsible_agency": "Department of Public Works",
    "final_address": "2041 Seventh St",
    "address_councildis": "B",
    "status": "Pending",
    "rowid": "1200286",
    "final_x": "523559.899003",
    "final_y": "523559.899003",
    "longitude": "-100.02226418554419",
    "latitude": "29.652084969540375",
    "geocoded_column": {
      "latitude": "29.652084969540375",
      "longitude": "-100.02226418554419"
    }
  },
  {
    "service_request": "2025-1200285",
    "request_type": "Roads and Streets",
    "request_reason": "Abandoned Service Cut",
    "date_created": "2025-06-11T17:28:07.000",
    "date_modified": "2025-06-11T17:28:09.000",
    "request_status": "Pending",
    "responsible_agency": "Department of Public Works",
    "final_address": "1456 Jackson Ave",
    "address_councildis": "B",
    "status": "Pending",
    "rowid": "1200285",
    "final_x": "3677909.41557",
    "final_y": "523215.455803",
    "longitude": "-90.07969499634846",
    "latitude": "29.932769472252428",
    "geocoded_column": {
      "latitude": "29.932769472252428",
      "longitude": "-90.07969499634846"
    }
  },
  {
    "service_request": "2025-1200284",
    "request_type": "Street and Traffic Signs",
    "request_reason": "Stop Sign Missing or Damaged",
    "date_created": "2025-06-11T17:27:56.000",
    "date_modified": "2025-06-11T17:27:58.000",
    "request_status": "Pending",
    "responsible_agency": "Department of Public Works",
    "final_address": "4360 Washington Ave",
    "address_councildis": "B",
    "status": "Pending",
    "rowid": "1200284",
    "final_x": "3670418.96833",
    "final_y": "531194.343618",
    "longitude": "-90.10307136254022",
    "latitude": "29.954932029896785",
    "geocoded_column": {
      "latitude": "29.954932029896785",
      "longitude": "-90.10307136254022"
    }
  },
  {
    "service_request": "2025-1200283",
    "request_type": "Trash/Recycling",
    "request_reason": "Order Second Trash Cart",
    "date_created": "2025-06-11T17:23:05.000",
    "date_modified": "2025-06-11T17:23:07.000",
    "request_status": "Pending",
    "responsible_agency": "Department of Sanitation",
    "final_address": "8407 Jeannette St",
    "address_councildis": "A",
    "status": "Assigned to Contractor",
    "contractor": "IV Waste",
    "rowid": "1200283",
    "final_x": "3661835.00422",
    "final_y": "529973.487745",
    "longitude": "-90.13021689377668",
    "latitude": "29.95182569830373",
    "geocoded_column": {
      "latitude": "29.95182569830373",
      "longitude": "-90.13021689377668"
    }
  },
  {
    "service_request": "2025-1200282",
    "request_type": "Drainage",
    "request_reason": "Catch Basin Clogged",
    "date_created": "2025-06-11T17:22:11.000",
    "date_modified": "2025-06-11T17:22:13.000",
    "request_status": "Pending",
    "responsible_agency": "Sewerage & Water Board",
    "final_address": "300 Royal St",
    "address_councildis": "C",
    "status": "Pending",
    "rowid": "1200282",
    "final_x": "3681702.18197",
    "final_y": "531305.219074",
    "longitude": "-90.06743939675142",
    "latitude": "29.954898967814863",
    "geocoded_column": {
      "latitude": "29.954898967814863",
      "longitude": "-90.06743939675142"
    }
  },
  {
    "service_request": "2025-1200281",
    "request_type": "Traffic Signals",
    "request_reason": "Traffic Signal Malfunctioning or Damaged",
    "date_created": "2025-06-11T17:12:52.000",
    "date_modified": "2025-06-11T17:12:54.000",
    "request_status": "Pending",
    "responsible_agency": "Department of Public Works",
    "final_address": "4360 Washington Ave",
    "address_councildis": "B",
    "status": "Pending",
    "rowid": "1200281",
    "final_x": "3670418.96833",
    "final_y": "531194.343618",
    "longitude": "-90.10307136254022",
    "latitude": "29.954932029896785",
    "geocoded_column": {
      "latitude": "29.954932029896785",
      "longitude": "-90.10307136254022"
    }
  },
  {
    "service_request": "2025-1200280",
    "request_type": "Abandoned Vehicles",
    "request_reason": "Abandoned/Junk Vehicles",
    "date_created": "2025-06-11T17:02:43.000",
    "date_modified": "2025-06-11T17:02:45.000",
    "request_status": "Pending",
    "responsible_agency": "Department of Public Works",
    "final_address": "4134 Erato St",
    "address_councildis": "B",
    "status": "Pending",
    "rowid": "1200280",
    "final_x": "3671161.34119",
    "final_y": "531274.729602",
    "longitude": "-90.10072449346983",
    "latitude": "29.955131127205956",
    "geocoded_column": {
      "latitude": "29.955131127205956",
      "longitude": "-90.10072449346983"
    }
  },
  {
    "service_request": "2025-1200278",
    "request_type": "Trash/Recycling",
    "request_reason": "Replace Trash Cart",
    "date_created": "2025-06-11T16:57:57.000",
    "date_modified": "2025-06-11T16:57:58.000",
    "request_status": "Pending",
    "responsible_agency": "Department of Sanitation",
    "final_address": "823 Eleonore St",
    "address_councildis": "A",
    "status": "Assigned to Contractor",
    "contractor": "IV Waste",
    "rowid": "1200278",
    "final_x": "3665306.05754",
    "final_y": "519248.081655",
    "longitude": "-90.11961563380379",
    "latitude": "29.922233582058627",
    "geocoded_column": {
      "latitude": "29.922233582058627",
      "longitude": "-90.11961563380379"
    }
  },
  {
    "service_request": "2025-1200277",
    "request_type": "Trash/Recycling",
    "request_reason": "Replace Trash Cart",
    "date_created": "2025-06-11T16:57:01.000",
    "date_modified": "2025-06-11T16:57:04.000",
    "request_status": "Pending",
    "responsible_agency": "Department of Sanitation",
    "final_address": "15 Marywood Ct",
    "address_councildis": "E",
    "status": "Assigned to Contractor",
    "contractor": "Waste Pro",
    "rowid": "1200277",
    "final_x": "3712685.74206",
    "final_y": "566605.847715",
    "longitude": "-89.96827818506276",
    "latitude": "30.050984516387746",
    "geocoded_column": {
      "latitude": "30.050984516387746",
      "longitude": "-89.96827818506276"
    }
  },
  {
    "service_request": "2025-1200276",
    "request_type": "Utility Poles",
    "request_reason": "Utility Pole Leaning",
    "date_created": "2025-06-11T16:44:17.000",
    "date_modified": "2025-06-11T16:44:19.000",
    "request_status": "Pending",
    "responsible_agency": "Utility Company Collective",
    "final_address": "3538 Franklin Ave",
    "address_councildis": "D",
    "status": "Pending",
    "rowid": "1200276",
    "final_x": "3687099.52079",
    "final_y": "546005.878032",
    "longitude": "-90.04987674784888",
    "latitude": "29.99515555159787",
    "geocoded_column": {
      "latitude": "29.99515555159787",
      "longitude": "-90.04987674784888"
    }
  },
  {
    "service_request": "2025-1200275",
    "request_type": "Property Maintenance",
    "request_reason": "Property Maintenance",
    "date_created": "2025-06-11T16:41:59.000",
    "date_modified": "2025-06-11T16:42:01.000",
    "request_status": "Pending",
    "responsible_agency": "Department of Code Enforcement",
    "final_address": "4624 Cleveland Ave",
    "address_councildis": "A",
    "status": "Pending",
    "rowid": "1200275",
    "final_x": "3668953.49556",
    "final_y": "539399.402314",
    "longitude": "-90.10742159589572",
    "latitude": "29.97753639263195",
    "geocoded_column": {
      "latitude": "29.97753639263195",
      "longitude": "-90.10742159589572"
    }
  },
  {
    "service_request": "2025-1200274",
    "request_type": "Parks & Parkways",
    "request_reason": "Request Tree Service (Right of Way/Public Property)",
    "date_created": "2025-06-11T16:38:06.000",
    "date_modified": "2025-06-11T16:38:08.000",
    "request_status": "Pending",
    "responsible_agency": "Department of Parks & Parkway",
    "final_address": "3634 Banks St",
    "address_councildis": "B",
    "status": "Pending",
    "rowid": "1200274",
    "final_x": "3671604.07681",
    "final_y": "536360.388423",
    "longitude": "-90.09915352891912",
    "latitude": "29.969101890063904",
    "geocoded_column": {
      "latitude": "29.969101890063904",
      "longitude": "-90.09915352891912"
    }
  },
  {
    "service_request": "2025-1200273",
    "request_type": "Trash/Recycling",
    "request_reason": "Request a Large Item Pick Up",
    "date_created": "2025-06-11T16:33:45.000",
    "date_modified": "2025-06-11T16:33:47.000",
    "request_status": "Pending",
    "responsible_agency": "Department of Sanitation",
    "final_address": "4834 Michoud Blvd",
    "address_councildis": "E",
    "status": "Assigned to Contractor",
    "contractor": "Waste Pro",
    "rowid": "1200273",
    "final_x": "3724987.40089",
    "final_y": "560760.549662",
    "longitude": "-89.92962366832438",
    "latitude": "30.034503669224947",
    "geocoded_column": {
      "latitude": "30.034503669224947",
      "longitude": "-89.92962366832438"
    }
  },
  {
    "service_request": "2025-1200272",
    "request_type": "Trash/Recycling",
    "request_reason": "Request a Large Item Pick Up",
    "date_created": "2025-06-11T16:31:46.000",
    "date_modified": "2025-06-11T16:31:47.000",
    "request_status": "Pending",
    "responsible_agency": "Department of Sanitation",
    "final_address": "7836 Darleen Ct",
    "address_councildis": "E",
    "status": "Assigned to Contractor",
    "contractor": "Waste Pro",
    "rowid": "1200272",
    "final_x": "3716864.84658",
    "final_y": "572016.551592",
    "longitude": "-89.95486386450136",
    "latitude": "30.065724157460508",
    "geocoded_column": {
      "latitude": "30.065724157460508",
      "longitude": "-89.95486386450136"
    }
  },
  {
    "service_request": "2025-1200271",
    "request_type": "Property Maintenance",
    "request_reason": "Property Maintenance",
    "date_created": "2025-06-11T16:26:59.000",
    "date_modified": "2025-06-11T16:27:00.000",
    "request_status": "Pending",
    "responsible_agency": "Department of Code Enforcement",
    "final_address": "2661 Frankfort St",
    "address_councildis": "D",
    "status": "Pending",
    "rowid": "1200271",
    "final_x": "3686825.88188",
    "final_y": "557213.057499",
    "longitude": "-90.05034474591704",
    "latitude": "30.025979618328385",
    "geocoded_column": {
      "latitude": "30.025979618328385",
      "longitude": "-90.05034474591704"
    }
  },