[
  {
    "service_request": "2023-997441",
    "request_type": "Trash/Recycling",
    "request_reason": "Illegal Dumping",
    "date_created": "2023-05-08T01:18:10.000",
    "date_modified": "2023-05-08T01:18:10.000",
    "request_status": "Pending",
    "responsible_agency": "Department of Sanitation",
    "final_address": "5410 Peoples Ave",
    "address_councildis": "D",
    "status": "Pending",
    "rowid": "997441",
    "final_x": "3687951.43017",
    "final_y": "553122.985751",
    "longitude": "-90.04693326205012",
    "latitude": "30.01469873829396",
    "geocoded_column": {
      "latitude": "30.01469873829396",
      "longitude": "-90.04693326205012"
    }
  },
  {
    "service_request": "2023-997439",
    "request_type": "Trash/Recycling",
    "request_reason": "Request a Large Item Pick Up",
    "date_created": "2023-05-07T22:23:46.000",
    "date_modified": "2023-05-07T22:23:46.000",
    "request_status": "Pending",
    "responsible_agency": "Department of Sanitation",
    "final_address": "4515 Iberville St",
    "address_councildis": "A",
    "status": "Assigned to Contractor",
    "contractor": "Richards Disposal",
    "rowid": "997439",
    "final_x": "3669912.73908",
    "final_y": "539907.085834",
    "longitude": "-90.10437477525458",
    "latitude": "29.9789040965688",
    "geocoded_column": {
      "latitude": "29.9789040965688",
      "longitude": "-90.10437477525458"
    }
  },
  {
    "service_request": "2023-997438",
    "request_type": "Trash/Recycling",
    "request_reason": "Order Recycling Cart",
    "date_created": "2023-05-07T22:01:28.000",
    "date_modified": "2023-05-07T22:01:28.000",
    "request_status": "Pending",
    "responsible_agency": "Department of Sanitation",
    "final_address": "2717 Peniston St",
    "address_councildis": "B",
    "status": "Pending",
    "rowid": "997438",
    "final_x": "3671965.39758",
    "final_y": "525068.448189",
    "longitude": "-90.09839678606183",
    "latitude": "29.938042080351664",
    "geocoded_column": {
      "latitude": "29.938042080351664",
      "longitude": "-90.09839678606183"
    }
  },
  {
    "service_request": "2023-997437",
    "request_type": "Traffic Signals/Signs/Striping/Streetlights",
    "request_reason": "Street Light Outage/Malfunction",
    "date_created": "2023-05-07T21:35:05.000",
    "date_modified": "2023-05-07T21:35:05.000",
    "request_status": "Pending",
    "responsible_agency": "Department of Public Works",
    "final_address": "LAFOURCHE ST & WALES ST",
    "address_councildis": "E",
    "status": "Assigned to Contractor",
    "contractor": "Legacy Professional Services",
    "rowid": "997437",
    "final_x": "3709692.0",
    "final_y": "566376.68",
    "longitude": "-89.97774887665699",
    "latitude": "30.050452122403502",
    "geocoded_column": {
      "latitude": "30.050452122403502",
      "longitude": "-89.97774887665699"
    }
  },
  {
    "service_request": "2023-997436",
    "request_type": "Trash/Recycling",
    "request_reason": "Missed Trash Pick-Up",
    "date_created": "2023-05-07T21:09:34.000",
    "date_modified": "2023-05-07T21:09:35.000",
    "request_status": "Pending",
    "responsible_agency": "Department of Sanitation",
    "final_address": "5006 Bienville Ave Apt A",
    "address_councildis": "A",
    "status": "Assigned to Contractor",
    "contractor": "Richards Disposal",
    "rowid": "997436",
    "final_x": "3668603.27982",
    "final_y": "541147.112908",
    "longitude": "-90.10846869338467",
    "latitude": "29.98235230390455",
    "geocoded_column": {
      "latitude": "29.98235230390455",
      "longitude": "-90.10846869338467"
    }
  },
  {
    "service_request": "2023-997435",
    "request_type": "Trash/Recycling",
    "request_reason": "Request a Large Item Pick Up",
    "date_created": "2023-05-07T21:03:19.000",
    "date_modified": "2023-05-07T21:03:20.000",
    "request_status": "Pending",
    "responsible_agency": "Department of Sanitation",
    "final_address": "806 Opelousas Ave, New Orleans, Louisiana, 70114",
    "address_councildis": "C",
    "status": "Assigned to Contractor",
    "contractor": "Richards Disposal",
    "rowid": "997435",
    "final_x": "3687901.85539",
    "final_y": "529190.67392",
    "longitude": "-90.0479381307274",
    "latitude": "29.94889490713998",
    "geocoded_column": {
      "latitude": "29.94889490713998",
      "longitude": "-90.0479381307274"
    }
  },
  {
    "service_request": "2023-997434",
    "request_type": "Mosquito, Termite & Rodent Control",
    "request_reason": "Mosquito Complaint",
    "date_created": "2023-05-07T20:16:31.000",
    "date_modified": "2023-05-07T20:16:31.000",
    "request_status": "Pending",
    "responsible_agency": "Mosquito, Termite & Rodent Control Board",
    "final_address": "7021 General Meyer Ave",
    "address_councildis": "C",
    "status": "Pending",
    "rowid": "997434",
    "final_x": "3709931.64401",
    "final_y": "519281.244087",
    "longitude": "-89.97875113780219",
    "latitude": "29.92094959698623",
    "geocoded_column": {
      "latitude": "29.92094959698623",
      "longitude": "-89.97875113780219"
    }
  },
  {
    "service_request": "2023-997433",
    "request_type": "Trash/Recycling",
    "request_reason": "Return Recycling Cart",
    "date_created": "2023-05-07T20:07:11.000",
    "date_modified": "2023-05-07T20:07:11.000",
    "request_status": "Pending",
    "responsible_agency": "Department of Sanitation",
    "final_address": "2231 Amelia St",
    "address_councildis": "B",
    "status": "Pending",
    "rowid": "997433",
    "final_x": "3672588.72654",
    "final_y": "523519.092027",
    "longitude": "-90.09648167764865",
    "latitude": "29.933763366540227",
    "geocoded_column": {
      "latitude": "29.933763366540227",
      "longitude": "-90.09648167764865"
    }
  },
  {
    "service_request": "2023-997432",
    "request_type": "Abandoned Vehicles",
    "request_reason": "Abandoned/Junk Vehicles",
    "date_created": "2023-05-07T20:06:30.000",
    "date_modified": "2023-05-07T20:06:30.000",
    "request_status": "Pending",
    "responsible_agency": "Department of Public Works",
    "final_address": "2742 Ursulines Ave, New Orleans, Louisiana, 70119",
    "address_councildis": "A",
    "status": "Pending",
    "rowid": "997432",
    "final_x": "3677164.37685",
    "final_y": "538420.949129",
    "longitude": "-90.08152260657188",
    "latitude": "29.974601879771495",
    "geocoded_column": {
      "latitude": "29.974601879771495",
      "longitude": "-90.08152260657188"
    }
  },
  {
    "service_request": "2023-997431",
    "request_type": "Trash/Recycling",
    "request_reason": "Request a Large Item Pick Up",
    "date_created": "2023-05-07T20:04:41.000",
    "date_modified": "2023-05-07T20:04:42.000",
    "request_status": "Pending",
    "responsible_agency": "Department of Sanitation",
    "final_address": "2231 Amelia St",
    "address_councildis": "B",
    "status": "Assigned to Contractor",
    "contractor": "Richards Disposal",
    "rowid": "997431",
    "final_x": "3672588.72654",
    "final_y": "523519.092027",
    "longitude": "-90.09648167764865",
    "latitude": "29.933763366540227",
    "geocoded_column": {
      "latitude": "29.933763366540227",
      "longitude": "-90.09648167764865"
    }
  },
  {
    "service_request": "2023-997430",
    "request_type": "Trash/Recycling",
    "request_reason": "Order Recycling Cart",
    "date_created": "2023-05-07T19:46:47.000",
    "date_modified": "2023-05-07T19:46:47.000",
    "request_status": "Pending",
    "responsible_agency": "Department of Sanitation",
    "final_address": "2527 Palmer Ave",
    "address_councildis": "A",
    "status": "Pending",
    "rowid": "997430",
    "final_x": "3666583.90906",
    "final_y": "526106.76243",
    "longitude": "-90.11535183700217",
    "latitude": "29.941055493436398",
    "geocoded_column": {
      "latitude": "29.941055493436398",
      "longitude": "-90.11535183700217"
    }
  },
  {
    "service_request": "2023-997428",
    "request_type": "Trash/Recycling",
    "request_reason": "Request a Large Item Pick Up",
    "date_created": "2023-05-07T19:30:01.000",
    "date_modified": "2023-05-07T19:30:02.000",
    "request_status": "Pending",
    "responsible_agency": "Department of Sanitation",
    "final_address": "3530 Rue Mignon",
    "address_councildis": "C",
    "status": "Assigned to Contractor",
    "contractor": "Richards Disposal",
    "rowid": "997428",
    "final_x": "3703388.43287",
    "final_y": "517644.477366",
    "longitude": "-89.99946508049301",
    "latitude": "29.91666012332781",
    "geocoded_column": {
      "latitude": "29.91666012332781",
      "longitude": "-89.99946508049301"
    }
  },
  {
    "service_request": "2023-997427",
    "request_type": "Trash/Recycling",
    "request_reason": "Missed Trash Pick-Up",
    "date_created": "2023-05-07T19:22:47.000",
    "date_modified": "2023-05-07T19:22:47.000",
    "request_status": "Pending",
    "responsible_agency": "Department of Sanitation",
    "final_address": "6900 BLK Dorchester St",
    "address_councildis": "E",
    "status": "Assigned to Contractor",
    "contractor": "Waste Pro",
    "rowid": "997427",
    "final_x": "3699147.03376",
    "final_y": "559468.209263",
    "longitude": "-90.0113295123767",
    "latitude": "30.031795326835415",
    "geocoded_column": {
      "latitude": "30.031795326835415",
      "longitude": "-90.0113295123767"
    }
  },
  {
    "service_request": "2023-997425",
    "request_type": "Roads/Drainage",
    "request_reason": "Pothole",
    "date_created": "2023-05-07T19:08:21.000",
    "date_modified": "2023-05-07T19:08:21.000",
    "request_status": "Pending",
    "responsible_agency": "Department of Public Works",
    "final_address": "7131 Boston Dr",
    "address_councildis": "E",
    "status": "Pending",
    "rowid": "997425",
    "final_x": "3706230.58884",
    "final_y": "561155.243998",
    "longitude": "-89.98888271982645",
    "latitude": "30.036207391162073",
    "geocoded_column": {
      "latitude": "30.036207391162073",
      "longitude": "-89.98888271982645"
    }
  },
  {
    "service_request": "2023-997424",
    "request_type": "Trash/Recycling",
    "request_reason": "Order Recycling Cart",
    "date_created": "2023-05-07T18:55:22.000",
    "date_modified": "2023-05-07T18:55:22.000",
    "request_status": "Pending",
    "responsible_agency": "Department of Sanitation",
    "final_address": "1435 General Collins Ave",
    "address_councildis": "C",
    "status": "Pending",
    "rowid": "997424",
    "final_x": "3698440.79882",
    "final_y": "525787.571709",
    "longitude": "-90.01478598670313",
    "latitude": "29.939208277616363",
    "geocoded_column": {
      "latitude": "29.939208277616363",
      "longitude": "-90.01478598670313"
    }
  },
  {
    "service_request": "2023-997423",
    "request_type": "Roads/Drainage",
    "request_reason": "Service Cut",
    "date_created": "2023-05-07T18:53:59.000",
    "date_modified": "2023-05-07T18:53:59.000",
    "request_status": "Pending",
    "responsible_agency": "Department of Public Works",
    "final_address": "6200 BLK Fleur-de-lis Dr",
    "address_councildis": "A",
    "status": "Pending",
    "rowid": "997423",
    "final_x": "3665236.95033",
    "final_y": "549775.030487",
    "longitude": "-90.11881240861688",
    "latitude": "30.006174649494522",
    "geocoded_column": {
      "latitude": "30.006174649494522",
      "longitude": "-90.11881240861688"
    }
  },
  {
    "service_request": "2023-997422",
    "request_type": "Trash/Recycling",
    "request_reason": "Repair Trash Cart",
    "date_created": "2023-05-07T18:51:08.000",
    "date_modified": "2023-05-07T18:51:09.000",
    "request_status": "Pending",
    "responsible_agency": "Department of Sanitation",
    "final_address": "325 S Hennessey St",
    "address_councildis": "A",
    "status": "Assigned to Contractor",
    "contractor": "Richards Disposal",
    "rowid": "997422",
    "final_x": "3669642.09806",
    "final_y": "538172.349769",
    "longitude": "-90.10528828541594",
    "latitude": "29.97414213668305",
    "geocoded_column": {
      "latitude": "29.97414213668305",
      "longitude": "-90.10528828541594"
    }
  },
  {
    "service_request": "2023-997421",
    "request_type": "Trash/Recycling",
    "request_reason": "Replace Trash Cart",
    "date_created": "2023-05-07T18:40:06.000",
    "date_modified": "2023-05-07T18:40:06.000",
    "request_status": "Pending",
    "responsible_agency": "Department of Sanitation",
    "final_address": "422 S Cortez St",
    "address_councildis": "B",
    "status": "Assigned to Contractor",
    "contractor": "Richards Disposal",
    "rowid": "997421",
    "final_x": "3671272.36315",
    "final_y": "536453.084743",
    "longitude": "-90.10019795608473",
    "latitude": "29.96936659381687",
    "geocoded_column": {
      "latitude": "29.96936659381687",
      "longitude": "-90.10019795608473"
    }
  },
  {
    "service_request": "2023-997420",
    "request_type": "Taxi Issues",
    "request_reason": "Taxi Lost & Found Item",
    "date_created": "2023-05-07T18:32:33.000",
    "date_modified": "2023-05-07T18:32:33.000",
    "request_status": "Pending",
    "responsible_agency": "Ground Transportation Bureau",
    "final_address": "1319 St Charles Ave",
    "address_councildis": "B",
    "status": "Pending",
    "rowid": "997420",
    "final_x": "3679374.23752",
    "final_y": "525919.747901",
    "longitude": "-90.07497691396279",
    "latitude": "29.94016123436805",
    "geocoded_column": {
      "latitude": "29.94016123436805",
      "longitude": "-90.07497691396279"
    }
  },
  {
    "service_request": "2023-997418",
    "request_type": "Trash/Recycling",
    "request_reason": "Repair Trash Cart",
    "date_created": "2023-05-07T18:11:03.000",
    "date_modified": "2023-05-07T18:11:04.000",
    "request_status": "Pending",
    "responsible_agency": "Department of Sanitation",
    "final_address": "2105 Milan St",
    "address_councildis": "B",
    "status": "Assigned to Contractor",
    "contractor": "Richards Disposal",
    "rowid": "997418",
    "final_x": "3671449.51105",
    "final_y": "522794.027899",
    "longitude": "-90.10010277080632",
    "latitude": "29.93180343745689",
    "geocoded_column": {
      "latitude": "29.93180343745689",
      "longitude": "-90.10010277080632"
    }
  },
  {
    "service_request": "2023-997417",
    "request_type": "Trash/Recycling",
    "request_reason": "Request a Large Item Pick Up",
    "date_created": "2023-05-07T18:03:05.000",
    "date_modified": "2023-05-07T18:03:06.000",
    "request_status": "Pending",
    "responsible_agency": "Department of Sanitation",
    "final_address": "7160 Edgefield Dr",
    "address_councildis": "E",
    "status": "Assigned to Contractor",
    "contractor": "Waste Pro",
    "rowid": "997417",
    "final_x": "3718291.53913",
    "final_y": "569683.056422",
    "longitude": "-89.95044298258121",
    "latitude": "30.059260749424876",
    "geocoded_column": {
      "latitude": "30.059260749424876",
      "longitude": "-89.95044298258121"
    }
  },
  {
    "service_request": "2023-997415",
    "request_type": "Parks & Parkways",
    "request_reason": "Request Tree Service (Right of Way/Public Property)",
    "date_created": "2023-05-07T17:52:50.000",
    "date_modified": "2023-05-07T17:52:50.000",
    "request_status": "Pending",
    "responsible_agency": "Department of Parks & Parkway",
    "final_address": "1303 Chimney Wood Ln",
    "address_councildis": "E",
    "status": "Pending",
    "rowid": "997415",
    "final_x": "3696050.55466",
    "final_y": "557836.373723",
    "longitude": "-90.0211735604779",
    "latitude": "30.027406270702404",
    "geocoded_column": {
      "latitude": "30.027406270702404",
      "longitude": "-90.0211735604779"
    }
  },
  {
    "service_request": "2023-997414",
    "request_type": "Trash/Recycling",
    "request_reason": "Missed Trash Pick-Up",
    "date_created": "2023-05-07T17:52:32.000",
    "date_modified": "2023-05-07T17:52:33.000",
    "request_status": "Pending",
    "responsible_agency": "Department of Sanitation",
    "final_address": "5900 BLK Tchoupitoulas St",
    "address_councildis": "A",
    "status": "Assigned to Contractor",
    "contractor": "Richards Disposal",
    "rowid": "997414",
    "final_x": "3664354.46784",
    "final_y": "517450.559375",
    "longitude": "-90.1226793734256",
    "latitude": "29.91731863780942",
    "geocoded_column": {
      "latitude": "29.91731863780942",
      "longitude": "-90.1226793734256"
    }
  },
  {
    "service_request": "2023-997413",
    "request_type": "Property Maintenance",
    "request_reason": "Property Maintenance",
    "date_created": "2023-05-07T17:35:57.000",
    "date_modified": "2023-05-07T17:35:57.000",
    "request_status": "Pending",
    "responsible_agency": "Department of Code Enforcement",
    "final_address": "901 Piety St",
    "address_councildis": "C",
    "status": "Pending",
    "rowid": "997413",
    "final_x": "3689679.88809",
    "final_y": "535029.022342",
    "longitude": "-90.04211640355143",
    "latitude": "29.96489337804015",
    "geocoded_column": {
      "latitude": "29.96489337804015",
      "longitude": "-90.04211640355143"
    }
  },
  {
    "service_request": "2023-997412",
    "request_type": "Abandoned Vehicles",
    "request_reason": "Abandoned/Junk Vehicles",
    "date_created": "2023-05-07T17:35:48.000",
    "date_modified": "2023-05-07T17:35:48.000",
    "request_status": "Pending",
    "responsible_agency": "Department of Public Works",
    "final_address": "3025 Jackson Ave",
    "address_councildis": "B",
    "status": "Pending",
    "rowid": "997412",
    "final_x": "3674294.97889",
    "final_y": "528163.599616",
    "longitude": "-90.09093613166249",
    "latitude": "29.94648348912882",
    "geocoded_column": {
      "latitude": "29.94648348912882",
      "longitude": "-90.09093613166249"
    }
  },
  {
    "service_request": "2023-997410",
    "request_type": "Trash/Recycling",
    "request_reason": "MIssed Recycling Pick-Up",
    "date_created": "2023-05-07T17:19:45.000",
    "date_modified": "2023-05-07T17:19:46.000",
    "request_status": "Pending",
    "responsible_agency": "Department of Sanitation",
    "final_address": "4355 General Meyer Ave",
    "address_councildis": "C",
    "status": "Assigned to Contractor",
    "contractor": "Richards Disposal",
    "rowid": "997410",
    "final_x": "3699953.95274",
    "final_y": "524186.90854",
    "longitude": "-90.01006716171995",
    "latitude": "29.934759046262933",
    "geocoded_column": {
      "latitude": "29.934759046262933",
      "longitude": "-90.01006716171995"
    }
  },
  {
    "service_request": "2023-997409",
    "request_type": "Abandoned Vehicles",
    "request_reason": "Abandoned/Junk Vehicles",
    "date_created": "2023-05-07T17:01:30.000",
    "date_modified": "2023-05-07T17:01:30.000",
    "request_status": "Pending",
    "responsible_agency": "Department of Public Works",
    "final_address": "3400 BLK Marais St",
    "address_councildis": "C",
    "status": "Pending",
    "rowid": "997409",
    "final_x": "3690409.40884",
    "final_y": "536020.561277",
    "longitude": "-90.0397772819708",
    "latitude": "29.967597137827436",
    "geocoded_column": {
      "latitude": "29.967597137827436",
      "longitude": "-90.0397772819708"
    }
  },
  {
    "service_request": "2023-997408",
    "request_type": "Trash/Recycling",
    "request_reason": "Order Recycling Cart",
    "date_created": "2023-05-07T17:00:40.000",
    "date_modified": "2023-05-07T17:00:40.000",
    "request_status": "Pending",
    "responsible_agency": "Department of Sanitation",
    "final_address": "8405 Pritchard Pl",
    "address_councildis": "A",
    "status": "Pending",
    "rowid": "997408",
    "final_x": "3665233.88442",
    "final_y": "533689.400197",
    "longitude": "-90.11936049669319",
    "latitude": "29.961944677982007",
    "geocoded_column": {
      "latitude": "29.961944677982007",
      "longitude": "-90.11936049669319"
    }
  },
  {
    "service_request": "2023-997407",
    "request_type": "Roads/Drainage",
    "request_reason": "Debris in Roadway",
    "date_created": "2023-05-07T16:36:18.000",
    "date_modified": "2023-05-07T16:36:18.000",
    "request_status": "Pending",
    "responsible_agency": "Department of Public Works",
    "final_address": "4701 N Villere St",
    "address_councildis": "E",
    "status": "Pending",
    "rowid": "997407",
    "final_x": "3695039.10774",
    "final_y": "535795.836231",
    "longitude": "-90.02516476070039",
    "latitude": "29.966834699953225",
    "geocoded_column": {
      "latitude": "29.966834699953225",
      "longitude": "-90.02516476070039"
    }
  },
  {
    "service_request": "2023-997406",
    "request_type": "Trash/Recycling",
    "request_reason": "Request a Large Item Pick Up",
    "date_created": "2023-05-07T16:23:08.000",
    "date_modified": "2023-05-07T16:23:09.000",
    "request_status": "Pending",
    "responsible_agency": "Department of Sanitation",
    "final_address": "13300 Granville St",
    "address_councildis": "E",
    "status": "Assigned to Contractor",
    "contractor": "Waste Pro",
    "rowid": "997406",
    "final_x": "3725160.63174",
    "final_y": "561961.397087",
    "longitude": "-89.92902973418255",
    "latitude": "30.037799669448507",
    "geocoded_column": {
      "latitude": "30.037799669448507",
      "longitude": "-89.92902973418255"
    }
  },
  {
    "service_request": "2023-997405",
    "request_type": "Abandoned Vehicles",
    "request_reason": "Vehicle Blocking Your Driveway",
    "date_created": "2023-05-07T16:11:55.000",
    "date_modified": "2023-05-07T16:11:55.000",
    "request_status": "Pending",
    "responsible_agency": "Department of Public Works",
    "final_address": "3012 Castiglione St",
    "address_councildis": "D",
    "status": "Pending",
    "rowid": "997405",
    "final_x": "3678934.59272",
    "final_y": "542572.261325",
    "longitude": "-90.07578794152543",
    "latitude": "29.985963253920254",
    "geocoded_column": {
      "latitude": "29.985963253920254",
      "longitude": "-90.07578794152543"
    }
  },
  {
    "service_request": "2023-997404",
    "request_type": "Abandoned Vehicles",
    "request_reason": "Abandoned/Junk Vehicles",
    "date_created": "2023-05-07T15:42:06.000",
    "date_modified": "2023-05-07T15:42:06.000",
    "request_status": "Pending",
    "responsible_agency": "Department of Public Works",
    "final_address": "The Esplanade",
    "status": "Pending",
    "rowid": "997404",
    "longitude": "0.0",
    "latitude": "0.0",
    "geocoded_column": {
      "latitude": "0.0",
      "longitude": "0.0"
    }
  },
  {
    "service_request": "2023-997403",
    "request_type": "Traffic Signals/Signs/Striping/Streetlights",
    "request_reason": "Street Light Outage/Malfunction",
    "date_created": "2023-05-07T15:38:13.000",
    "date_modified": "2023-05-07T15:38:14.000",
    "request_status": "Pending",
    "responsible_agency": "Department of Public Works",
    "final_address": "21 Park Island Dr",
    "address_councildis": "A",
    "status": "Assigned to Contractor",
    "contractor": "Legacy Professional Services",
    "rowid": "997403",
    "final_x": "3676304.27195",
    "final_y": "548299.191762",
    "longitude": "-90.08389884568001",
    "latitude": "30.00178942073375",
    "geocoded_column": {
      "latitude": "30.00178942073375",
      "longitude": "-90.08389884568001"
    }
  },
  {
    "service_request": "2023-997402",
    "request_type": "Roads/Drainage",
    "request_reason": "Debris in Roadway",
    "date_created": "2023-05-07T15:24:57.000",
    "date_modified": "2023-05-07T15:25:21.000",
    "request_status": "Pending",
    "responsible_agency": "Department of Public Works",
    "final_address": "E PONTCHARTRAIN EXPRESSWAY & LOYOLA AVE",
    "address_councildis": "B",
    "status": "Pending",
    "rowid": "997402",
    "final_x": "3678355.84",
    "final_y": "527594.99",
    "longitude": "-90.07813421557249",
    "latitude": "29.944798307696782",
    "geocoded_column": {
      "latitude": "29.944798307696782",
      "longitude": "-90.07813421557249"
    }
  },
  {
    "service_request": "2023-997401",
    "request_type": "Abandoned Vehicles",
    "request_reason": "Abandoned/Junk Vehicles",
    "date_created": "2023-05-07T15:24:21.000",
    "date_modified": "2023-05-07T15:35:24.000",
    "request_status": "Pending",
    "responsible_agency": "Department of Public Works",
    "final_address": "10200 Almonaster Ave",
    "address_councildis": "E",
    "status": "Inspected",
    "rowid": "997401",
    "final_x": "3713684.56383",
    "final_y": "551626.395989",
    "longitude": "-89.96568637555853",
    "latitude": "30.00976423388402",
    "geocoded_column": {
      "latitude": "30.00976423388402",
      "longitude": "-89.96568637555853"
    }
  },
  {
    "service_request": "2023-997400",
    "request_type": "Trash/Recycling",
    "request_reason": "Order Trash Cart",
    "date_created": "2023-05-07T15:21:35.000",
    "date_modified": "2023-05-07T15:21:36.000",
    "request_status": "Pending",
    "responsible_agency": "Department of Sanitation",
    "final_address": "5355 Magazine St",
    "address_councildis": "B",
    "status": "Assigned to Contractor",
    "contractor": "Richards Disposal",
    "rowid": "997400",
    "final_x": "3667009.40084",
    "final_y": "518819.188343",
    "longitude": "-90.114253265338",
    "latitude": "29.921004539561938",
    "geocoded_column": {
      "latitude": "29.921004539561938",
      "longitude": "-90.114253265338"
    }
  },
  {
    "service_request": "2023-997399",
    "request_type": "Trash/Recycling",
    "request_reason": "Order Trash Cart",
    "date_created": "2023-05-07T15:18:58.000",
    "date_modified": "2023-05-07T15:18:59.000",
    "request_status": "Pending",
    "responsible_agency": "Department of Sanitation",
    "final_address": "0 BLK Blanc Pl",
    "address_councildis": "B",
    "status": "Assigned to Contractor",
    "contractor": "Richards Disposal",
    "rowid": "997399",
    "final_x": "3667951.08401",
    "final_y": "520874.262829",
    "longitude": "-90.11121159835395",
    "latitude": "29.926627762655404",
    "geocoded_column": {
      "latitude": "29.926627762655404",
      "longitude": "-90.11121159835395"
    }
  },
  {
    "service_request": "2023-997398",
    "request_type": "Abandoned Vehicles",
    "request_reason": "Abandoned/Junk Vehicles",
    "date_created": "2023-05-07T15:17:27.000",
    "date_modified": "2023-05-07T19:02:43.000",
    "request_status": "Pending",
    "responsible_agency": "Department of Public Works",
    "final_address": "3200 Desoto St, New Orleans, Louisiana, 70119",
    "address_councildis": "A",
    "status": "Pending",
    "rowid": "997398",
    "final_x": "3675996.87528",
    "final_y": "539916.263498",
    "longitude": "-90.08515842219782",
    "latitude": "29.978748501190882",
    "geocoded_column": {
      "latitude": "29.978748501190882",
      "longitude": "-90.08515842219782"
    }
  },
  {
    "service_request": "2023-997397",
    "request_type": "Abandoned Vehicles",
    "request_reason": "Abandoned/Junk Vehicles",
    "date_created": "2023-05-07T15:11:11.000",
    "date_modified": "2023-05-07T15:11:35.000",
    "request_status": "Pending",
    "responsible_agency": "Department of Public Works",
    "final_address": "10200 Almonaster Ave",
    "address_councildis": "E",
    "status": "Inspected",
    "rowid": "997397",
    "final_x": "3713684.56383",
    "final_y": "551626.395989",
    "longitude": "-89.96568637555853",
    "latitude": "30.00976423388402",
    "geocoded_column": {
      "latitude": "30.00976423388402",
      "longitude": "-89.96568637555853"
    }
  },
  {
    "service_request": "2023-997396",
    "request_type": "Abandoned Vehicles",
    "request_reason": "Abandoned/Junk Vehicles",
    "date_created": "2023-05-07T15:10:40.000",
    "date_modified": "2023-05-07T15:39:26.000",
    "request_status": "Pending",
    "responsible_agency": "Department of Public Works",
    "final_address": "10200 Almonaster Ave",
    "address_councildis": "E",
    "status": "Inspected",
    "rowid": "997396",
    "final_x": "3713684.56383",
    "final_y": "551626.395989",
    "longitude": "-89.96568637555853",
    "latitude": "30.00976423388402",
    "geocoded_column": {
      "latitude": "30.00976423388402",
      "longitude": "-89.96568637555853"
    }
  },
  {
    "service_request": "2023-997395",
    "request_type": "Abandoned Vehicles",
    "request_reason": "Abandoned/Junk Vehicles",
    "date_created": "2023-05-07T15:10:00.000",
    "date_modified": "2023-05-07T16:15:13.000",
    "request_status": "Pending",
    "responsible_agency": "Department of Public Works",
    "final_address": "10200 Almonaster Ave",
    "address_councildis": "E",
    "status": "Inspected",
    "rowid": "997395",
    "final_x": "3713684.56383",
    "final_y": "551626.395989",
    "longitude": "-89.96568637555853",
    "latitude": "30.00976423388402",
    "geocoded_column": {
      "latitude": "30.00976423388402",
      "longitude": "-89.96568637555853"
    }
  },
  {
    "service_request": "2023-997394",
    "request_type": "Trash/Recycling",
    "request_reason": "Replace Trash Cart",
    "date_created": "2023-05-07T15:02:19.000",
    "date_modified": "2023-05-07T15:02:41.000",
    "request_status": "Pending",
    "responsible_agency": "Department of Sanitation",
    "final_address": "4518 Coliseum St",
    "address_councildis": "B",
    "status": "Assigned to Contractor",
    "contractor": "Richards Disposal",
    "rowid": "997394",
    "final_x": "3670395.48046",
    "final_y": "519680.00524",
    "longitude": "-90.10353574808536",
    "latitude": "29.923272020946975",
    "geocoded_column": {
      "latitude": "29.923272020946975",
      "longitude": "-90.10353574808536"
    }
  },
  {
    "service_request": "2023-997393",
    "request_type": "Parks & Parkways",
    "request_reason": "Request Tree Service (Right of Way/Public Property)",
    "date_created": "2023-05-07T14:59:12.000",
    "date_modified": "2023-05-07T15:00:11.000",
    "request_status": "Pending",
    "responsible_agency": "Department of Parks & Parkway",
    "final_address": "4843 Hauck Dr",
    "address_councildis": "E",
    "status": "Pending",
    "rowid": "997393",
    "final_x": "3714580.51186",
    "final_y": "557261.872283",
    "longitude": "-89.96264280465529",
    "latitude": "30.025230142663535",
    "geocoded_column": {
      "latitude": "30.025230142663535",
      "longitude": "-89.96264280465529"
    }
  },
  {
    "service_request": "2023-997392",
    "request_type": "Trash/Recycling",
    "request_reason": "Illegal Dumping",
    "date_created": "2023-05-07T14:55:04.000",
    "date_modified": "2023-05-07T14:55:04.000",
    "request_status": "Pending",
    "responsible_agency": "Department of Sanitation",
    "final_address": "2123 Rev. John Raphael, Jr. Way",
    "address_councildis": "B",
    "status": "Pending",
    "rowid": "997392",
    "final_x": "3675928.25153",
    "final_y": "526193.70611",
    "longitude": "-90.08584701928534",
    "latitude": "29.941018137030994",
    "geocoded_column": {
      "latitude": "29.941018137030994",
      "longitude": "-90.08584701928534"
    }
  },
  {
    "service_request": "2023-997391",
    "request_type": "Trash/Recycling",
    "request_reason": "Illegal Dumping",
    "date_created": "2023-05-07T14:53:20.000",
    "date_modified": "2023-05-07T14:53:20.000",
    "request_status": "Pending",
    "responsible_agency": "Department of Sanitation",
    "final_address": "2016 Rev. John Raphael, Jr. Way",
    "address_councildis": "B",
    "status": "Pending",
    "rowid": "997391",
    "final_x": "3676249.63745",
    "final_y": "526344.026878",
    "longitude": "-90.08482717345066",
    "latitude": "29.941421844753748",
    "geocoded_column": {
      "latitude": "29.941421844753748",
      "longitude": "-90.08482717345066"
    }
  },
  {
    "service_request": "2023-997390",
    "request_type": "Abandoned Vehicles",
    "request_reason": "Abandoned/Junk Vehicles",
    "date_created": "2023-05-07T14:48:49.000",
    "date_modified": "2023-05-07T14:48:49.000",
    "request_status": "Pending",
    "responsible_agency": "Department of Public Works",
    "final_address": "714 Pontalba St, New Orleans, Louisiana, 70124",
    "address_councildis": "A",
    "status": "Pending",
    "rowid": "997390",
    "final_x": "3668450.28026",
    "final_y": "544392.668111",
    "longitude": "-90.10884239552396",
    "latitude": "29.991280970991884",
    "geocoded_column": {
      "latitude": "29.991280970991884",
      "longitude": "-90.10884239552396"
    }
  },
  {
    "service_request": "2023-997389",
    "request_type": "Trash/Recycling",
    "request_reason": "Order Recycling Cart",
    "date_created": "2023-05-07T14:33:58.000",
    "date_modified": "2023-05-07T14:33:58.000",
    "request_status": "Pending",
    "responsible_agency": "Department of Sanitation",
    "final_address": "3503 Danneel St",
    "address_councildis": "B",
    "status": "Pending",
    "rowid": "997389",
    "final_x": "3673211.51278",
    "final_y": "522730.341562",
    "longitude": "-90.09454248799527",
    "latitude": "29.931576058634487",
    "geocoded_column": {
      "latitude": "29.931576058634487",
      "longitude": "-90.09454248799527"
    }
  },
  {
    "service_request": "2023-997388",
    "request_type": "Trash/Recycling",
    "request_reason": "Request a Large Item Pick Up",
    "date_created": "2023-05-07T14:31:55.000",
    "date_modified": "2023-05-07T14:31:56.000",
    "request_status": "Pending",
    "responsible_agency": "Department of Sanitation",
    "final_address": "2105 Iberville St",
    "address_councildis": "B",
    "status": "Assigned to Contractor",
    "contractor": "Richards Disposal",
    "rowid": "997388",
    "final_x": "3677484.33813",
    "final_y": "534078.382085",
    "longitude": "-90.08066202586188",
    "latitude": "29.9626516851833",
    "geocoded_column": {
      "latitude": "29.9626516851833",
      "longitude": "-90.08066202586188"
    }
  },
  {
    "service_request": "2023-997387",
    "request_type": "Trash/Recycling",
    "request_reason": "Missed Trash Pick-Up",
    "date_created": "2023-05-07T14:13:35.000",
    "date_modified": "2023-05-07T14:13:35.000",
    "request_status": "Pending",
    "responsible_agency": "Department of Sanitation",
    "final_address": "Alonzo St, New Orleans, Louisiana, 70115",
    "address_councildis": "A",
    "status": "Assigned to Contractor",
    "contractor": "Richards Disposal",
    "rowid": "997387",
    "final_x": "3664633.28365",
    "final_y": "517570.918774",
    "longitude": "-90.12179528947192",
    "latitude": "29.91764148554684",
    "geocoded_column": {
      "latitude": "29.91764148554684",
      "longitude": "-90.12179528947192"
    }
  },
  {
    "service_request": "2023-997386",
    "request_type": "Trash/Recycling",
    "request_reason": "Request a Large Item Pick Up",
    "date_created": "2023-05-07T14:00:03.000",
    "date_modified": "2023-05-07T14:00:04.000",
    "request_status": "Pending",
    "responsible_agency": "Department of Sanitation",
    "final_address": "6225 Cameron Blvd",
    "address_councildis": "D",
    "status": "Assigned to Contractor",
    "contractor": "IV Waste",
    "rowid": "997386",
    "final_x": "3682276.18133",
    "final_y": "555989.941209",
    "longitude": "-90.0647639910081",
    "latitude": "30.022755787565814",
    "geocoded_column": {
      "latitude": "30.022755787565814",
      "longitude": "-90.0647639910081"
    }
  },
  {
    "service_request": "2023-997385",
    "request_type": "Trash/Recycling",
    "request_reason": "Missed Trash Pick-Up",
    "date_created": "2023-05-07T13:56:43.000",
    "date_modified": "2023-05-07T13:56:43.000",
    "request_status": "Pending",
    "responsible_agency": "Department of Sanitation",
    "final_address": "PLUM ST & BROADWAY ST",
    "address_councildis": "A",
    "status": "Assigned to Contractor",
    "contractor": "Richards Disposal",
    "rowid": "997385",
    "final_x": "3664335.4",
    "final_y": "526790.68",
    "longitude": "-90.12242800438692",
    "latitude": "29.943001575576933",
    "geocoded_column": {
      "latitude": "29.943001575576933",
      "longitude": "-90.12242800438692"
    }
  },
  {
    "service_request": "2023-997384",
    "request_type": "Trash/Recycling",
    "request_reason": "Replace Trash Cart",
    "date_created": "2023-05-07T13:56:08.000",
    "date_modified": "2023-05-07T13:56:09.000",
    "request_status": "Pending",
    "responsible_agency": "Department of Sanitation",
    "final_address": "1238 Broadway St",
    "address_councildis": "A",
    "status": "Assigned to Contractor",
    "contractor": "Richards Disposal",
    "rowid": "997384",
    "final_x": "3664296.55239",
    "final_y": "526772.964286",
    "longitude": "-90.12255124736728",
    "latitude": "29.942953991816836",
    "geocoded_column": {
      "latitude": "29.942953991816836",
      "longitude": "-90.12255124736728"
    }
  },
  {
    "service_request": "2023-997383",
    "request_type": "Roads/Drainage",
    "request_reason": "Catch Basin - Clogged",
    "date_created": "2023-05-07T13:28:04.000",
    "date_modified": "2023-05-07T13:28:04.000",
    "request_status": "Pending",
    "responsible_agency": "Department of Public Works",
    "final_address": "1100 BLK Elysian Fields Ave",
    "address_councildis": "C",
    "status": "Pending",
    "rowid": "997383",
    "final_x": "3684946.53263",
    "final_y": "536481.558386",
    "longitude": "-90.05701292353032",
    "latitude": "29.969033163717345",
    "geocoded_column": {
      "latitude": "29.969033163717345",
      "longitude": "-90.05701292353032"
    }
  },
  {
    "service_request": "2023-997382",
    "request_type": "Trash/Recycling",
    "request_reason": "Missed Trash Pick-Up",
    "date_created": "2023-05-07T13:20:50.000",
    "date_modified": "2023-05-07T13:20:51.000",
    "request_status": "Pending",
    "responsible_agency": "Department of Sanitation",
    "final_address": "612 Moss St",
    "address_councildis": "A",
    "status": "Assigned to Contractor",
    "contractor": "Richards Disposal",
    "rowid": "997382",
    "final_x": "3674346.33147",
    "final_y": "538326.226953",
    "longitude": "-90.09042594106351",
    "latitude": "29.974425777838345",
    "geocoded_column": {
      "latitude": "29.974425777838345",
      "longitude": "-90.09042594106351"
    }
  },
  {
    "service_request": "2023-997381",
    "request_type": "Property Maintenance",
    "request_reason": "Property Maintenance",
    "date_created": "2023-05-07T13:12:35.000",
    "date_modified": "2023-05-07T13:12:35.000",
    "request_status": "Pending",
    "responsible_agency": "Department of Code Enforcement",
    "final_address": "4118 N Roman St",
    "address_councildis": "D",
    "status": "Pending",
    "rowid": "997381",
    "final_x": "3692951.8223",
    "final_y": "537764.63604",
    "longitude": "-90.03168574865765",
    "latitude": "29.972313560670244",
    "geocoded_column": {
      "latitude": "29.972313560670244",
      "longitude": "-90.03168574865765"
    }
  },
  {
    "service_request": "2023-997380",
    "request_type": "Roads/Drainage",
    "request_reason": "Street Flooding / Drainage",
    "date_created": "2023-05-07T12:58:26.000",
    "date_modified": "2023-05-07T12:58:26.000",
    "request_status": "Pending",
    "responsible_agency": "Department of Public Works",
    "final_address": "8600 BLK Green St",
    "address_councildis": "A",
    "status": "Pending",
    "rowid": "997380",
    "final_x": "3661698.23136",
    "final_y": "530988.003428",
    "longitude": "-90.13061513584258",
    "latitude": "29.954619237782747",
    "geocoded_column": {
      "latitude": "29.954619237782747",
      "longitude": "-90.13061513584258"
    }
  },
  {
    "service_request": "2023-997379",
    "request_type": "Parks & Parkways",
    "request_reason": "Tree Stump (removal, grind)",
    "date_created": "2023-05-07T12:54:10.000",
    "date_modified": "2023-05-07T12:54:10.000",
    "request_status": "Pending",
    "responsible_agency": "Department of Parks & Parkway",
    "final_address": "5177 Feliciana Dr",
    "address_councildis": "D",
    "status": "Pending",
    "rowid": "997379",
    "final_x": "3690091.79644",
    "final_y": "552668.000278",
    "longitude": "-90.04018699022848",
    "latitude": "30.013381451362985",
    "geocoded_column": {
      "latitude": "30.013381451362985",
      "longitude": "-90.04018699022848"
    }
  },
  {
    "service_request": "2023-997378",
    "request_type": "Abandoned Vehicles",
    "request_reason": "Abandoned/Junk Vehicles",
    "date_created": "2023-05-07T12:44:12.000",
    "date_modified": "2023-05-07T12:44:12.000",
    "request_status": "Pending",
    "responsible_agency": "Department of Public Works",
    "final_address": "4924 S Tonti St",
    "address_councildis": "B",
    "status": "Pending",
    "rowid": "997378",
    "final_x": "3669127.77345",
    "final_y": "527995.023423",
    "longitude": "-90.10725657684269",
    "latitude": "29.94617300174058",
    "geocoded_column": {
      "latitude": "29.94617300174058",
      "longitude": "-90.10725657684269"
    }
  },
  {
    "service_request": "2023-997377",
    "request_type": "Parks & Parkways",
    "request_reason": "Tree Stump (removal, grind)",
    "date_created": "2023-05-07T12:42:42.000",
    "date_modified": "2023-05-07T12:42:42.000",
    "request_status": "Pending",
    "responsible_agency": "Department of Parks & Parkway",
    "final_address": "5177 Feliciana Dr",
    "address_councildis": "D",
    "status": "Pending",
    "rowid": "997377",
    "final_x": "3690091.79644",
    "final_y": "552668.000278",
    "longitude": "-90.04018699022848",
    "latitude": "30.013381451362985",
    "geocoded_column": {
      "latitude": "30.013381451362985",
      "longitude": "-90.04018699022848"
    }
  },
  {
    "service_request": "2023-997376",
    "request_type": "Trash/Recycling",
    "request_reason": "Request a Large Item Pick Up",
    "date_created": "2023-05-07T12:41:39.000",
    "date_modified": "2023-05-07T12:41:40.000",
    "request_status": "Pending",
    "responsible_agency": "Department of Sanitation",
    "final_address": "12930 Mcraven Ct",
    "address_councildis": "E",
    "status": "Assigned to Contractor",
    "contractor": "Waste Pro",
    "rowid": "997376",
    "final_x": "3716487.34981",
    "final_y": "568210.974437",
    "longitude": "-89.95620174883621",
    "latitude": "30.055272879584454",
    "geocoded_column": {
      "latitude": "30.055272879584454",
      "longitude": "-89.95620174883621"
    }
  },
  {
    "service_request": "2023-997375",
    "request_type": "Abandoned Vehicles",
    "request_reason": "Vehicle Blocking Your Driveway",
    "date_created": "2023-05-07T12:39:14.000",
    "date_modified": "2023-05-07T12:39:15.000",
    "request_status": "Pending",
    "responsible_agency": "Department of Public Works",
    "final_address": "1418 France St",
    "address_councildis": "D",
    "status": "Pending",
    "rowid": "997375",
    "final_x": "3692646.34761",
    "final_y": "536401.059335",
    "longitude": "-90.03269936795655",
    "latitude": "29.968573746024724",
    "geocoded_column": {
      "latitude": "29.968573746024724",
      "longitude": "-90.03269936795655"
    }
  },
  {
    "service_request": "2023-997374",
    "request_type": "Trash/Recycling",
    "request_reason": "Request a Large Item Pick Up",
    "date_created": "2023-05-07T12:38:53.000",
    "date_modified": "2023-05-07T12:38:53.000",
    "request_status": "Pending",
    "responsible_agency": "Department of Sanitation",
    "final_address": "4627 S Claiborne Ave, New Orleans, Louisiana, 70125",
    "address_councildis": "B",
    "status": "Assigned to Contractor",
    "contractor": "Richards Disposal",
    "rowid": "997374",
    "final_x": "3669366.70708",
    "final_y": "525879.283709",
    "longitude": "-90.1065736974965",
    "latitude": "29.94034837190073",
    "geocoded_column": {
      "latitude": "29.94034837190073",
      "longitude": "-90.1065736974965"
    }
  },
  {
    "service_request": "2023-997373",
    "request_type": "Trash/Recycling",
    "request_reason": "Missed Trash Pick-Up",
    "date_created": "2023-05-07T12:37:59.000",
    "date_modified": "2023-05-07T19:07:52.000",
    "request_status": "Pending",
    "responsible_agency": "Department of Sanitation",
    "final_address": "New Orleans,LA",
    "address_councildis": "B",
    "status": "Assigned to Contractor",
    "contractor": "Richards Disposal",
    "rowid": "997373",
    "final_x": "3677970.68021",
    "final_y": "521172.040313",
    "longitude": "-90.07957217343221",
    "latitude": "29.92714890389848",
    "geocoded_column": {
      "latitude": "29.92714890389848",
      "longitude": "-90.07957217343221"
    }
  },
  {
    "service_request": "2023-997372",
    "request_type": "Traffic Signals/Signs/Striping/Streetlights",
    "request_reason": "Street Light Outage/Malfunction",
    "date_created": "2023-05-07T12:36:21.000",
    "date_modified": "2023-05-07T12:36:22.000",
    "request_status": "Pending",
    "responsible_agency": "Department of Public Works",
    "final_address": "2326 Painters St",
    "address_councildis": "D",
    "status": "Assigned to Contractor",
    "contractor": "Legacy Professional Services",
    "rowid": "997372",
    "final_x": "3687155.76329",
    "final_y": "541159.135756",
    "longitude": "-90.04987057613717",
    "latitude": "29.98182700811001",
    "geocoded_column": {
      "latitude": "29.98182700811001",
      "longitude": "-90.04987057613717"
    }
  },
  {
    "service_request": "2023-997371",
    "request_type": "Abandoned Vehicles",
    "request_reason": "Abandoned/Junk Vehicles",
    "date_created": "2023-05-07T12:19:10.000",
    "date_modified": "2023-05-07T12:19:10.000",
    "request_status": "Pending",
    "responsible_agency": "Department of Public Works",
    "final_address": "4320 General Pershing St",
    "address_councildis": "B",
    "status": "Pending",
    "rowid": "997371",
    "final_x": "3669436.20046",
    "final_y": "529679.795329",
    "longitude": "-90.10622579671623",
    "latitude": "29.950796496270243",
    "geocoded_column": {
      "latitude": "29.950796496270243",
      "longitude": "-90.10622579671623"
    }
  },
  {
    "service_request": "2023-997370",
    "request_type": "Roads/Drainage",
    "request_reason": "Pothole",
    "date_created": "2023-05-07T12:17:54.000",
    "date_modified": "2023-05-07T12:17:54.000",
    "request_status": "Pending",
    "responsible_agency": "Department of Public Works",
    "final_address": "1920 S Lopez St",
    "address_councildis": "B",
    "status": "Pending",
    "rowid": "997370",
    "final_x": "3669590.86881",
    "final_y": "529860.909633",
    "longitude": "-90.1057313046256",
    "latitude": "29.95128994587979",
    "geocoded_column": {
      "latitude": "29.95128994587979",
      "longitude": "-90.1057313046256"
    }
  },
  {
    "service_request": "2023-997368",
    "request_type": "Abandoned Vehicles",
    "request_reason": "Abandoned/Junk Vehicles",
    "date_created": "2023-05-07T12:15:30.000",
    "date_modified": "2023-05-07T12:15:30.000",
    "request_status": "Pending",
    "responsible_agency": "Department of Public Works",
    "final_address": "1825 S Lopez St",
    "address_councildis": "B",
    "status": "Pending",
    "rowid": "997368",
    "final_x": "3669628.61646",
    "final_y": "530244.990657",
    "longitude": "-90.10559912167514",
    "latitude": "29.952344930708325",
    "geocoded_column": {
      "latitude": "29.952344930708325",
      "longitude": "-90.10559912167514"
    }
  },
  {
    "service_request": "2023-997367",
    "request_type": "Abandoned Vehicles",
    "request_reason": "Abandoned/Junk Vehicles",
    "date_created": "2023-05-07T12:13:24.000",
    "date_modified": "2023-05-07T12:13:24.000",
    "request_status": "Pending",
    "responsible_agency": "Department of Public Works",
    "final_address": "4216 Walmsley Ave",
    "address_councildis": "B",
    "status": "Pending",
    "rowid": "997367",
    "final_x": "3669959.97396",
    "final_y": "529791.424833",
    "longitude": "-90.10456820213875",
    "latitude": "29.95108800694676",
    "geocoded_column": {
      "latitude": "29.95108800694676",
      "longitude": "-90.10456820213875"
    }
  },
  {
    "service_request": "2023-997366",
    "request_type": "Abandoned Vehicles",
    "request_reason": "Abandoned/Junk Vehicles",
    "date_created": "2023-05-07T12:11:30.000",
    "date_modified": "2023-05-07T12:11:30.000",
    "request_status": "Pending",
    "responsible_agency": "Department of Public Works",
    "final_address": "4204 Walmsley Ave",
    "address_councildis": "B",
    "status": "Pending",
    "rowid": "997366",
    "final_x": "3670037.27028",
    "final_y": "529754.607425",
    "longitude": "-90.10432538519318",
    "latitude": "29.950984491715452",
    "geocoded_column": {
      "latitude": "29.950984491715452",
      "longitude": "-90.10432538519318"
    }
  },
  {
    "service_request": "2023-997365",
    "request_type": "Abandoned Vehicles",
    "request_reason": "Abandoned/Junk Vehicles",
    "date_created": "2023-05-07T12:06:08.000",
    "date_modified": "2023-05-07T12:06:08.000",
    "request_status": "Pending",
    "responsible_agency": "Department of Public Works",
    "final_address": "4241 Elba St",
    "address_councildis": "B",
    "status": "Pending",
    "rowid": "997365",
    "final_x": "3670097.61716",
    "final_y": "530234.590145",
    "longitude": "-90.1041185813676",
    "latitude": "29.95230250674769",
    "geocoded_column": {
      "latitude": "29.95230250674769",
      "longitude": "-90.1041185813676"
    }
  },
  {
    "service_request": "2023-997362",
    "request_type": "Parks & Parkways",
    "request_reason": "Request Tree Service (Right of Way/Public Property)",
    "date_created": "2023-05-07T11:48:28.000",
    "date_modified": "2023-05-07T11:48:29.000",
    "request_status": "Pending",
    "responsible_agency": "Department of Parks & Parkway",
    "final_address": "1300 BLK Burbank Dr",
    "address_councildis": "D",
    "status": "Pending",
    "rowid": "997362",
    "final_x": "3677328.35495",
    "final_y": "554178.726404",
    "longitude": "-90.08046056713115",
    "latitude": "30.017925293792015",
    "geocoded_column": {
      "latitude": "30.017925293792015",
      "longitude": "-90.08046056713115"
    }
  },
  {
    "service_request": "2023-997361",
    "request_type": "Abandoned Vehicles",
    "request_reason": "Vehicle Blocking Your Driveway",
    "date_created": "2023-05-07T11:45:16.000",
    "date_modified": "2023-05-07T11:45:16.000",
    "request_status": "Pending",
    "responsible_agency": "Department of Public Works",
    "final_address": " & BALDWIN ST",
    "address_councildis": "D",
    "status": "Pending",
    "rowid": "997361",
    "final_x": "3687880.8",
    "final_y": "560035.64",
    "longitude": "-90.04691121641319",
    "latitude": "30.03370814054373",
    "geocoded_column": {
      "latitude": "30.03370814054373",
      "longitude": "-90.04691121641319"
    }
  },
  {
    "service_request": "2023-997359",
    "request_type": "Parks & Parkways",
    "request_reason": "Request Tree Service (Right of Way/Public Property)",
    "date_created": "2023-05-07T11:39:55.000",
    "date_modified": "2023-05-07T12:16:28.000",
    "request_status": "Pending",
    "responsible_agency": "Department of Parks & Parkway",
    "final_address": "1300 BLK Burbank Dr",
    "address_councildis": "D",
    "status": "Pending",
    "rowid": "997359",
    "final_x": "3677328.35495",
    "final_y": "554178.726404",
    "longitude": "-90.08046056713115",
    "latitude": "30.017925293792015",
    "geocoded_column": {
      "latitude": "30.017925293792015",
      "longitude": "-90.08046056713115"
    }
  },
  {
    "service_request": "2023-997358",
    "request_type": "Property Maintenance",
    "request_reason": "Property Maintenance",
    "date_created": "2023-05-07T11:10:56.000",
    "date_modified": "2023-05-07T11:10:56.000",
    "request_status": "Pending",
    "responsible_agency": "Department of Code Enforcement",
    "final_address": "2608 Banks St",
    "address_councildis": "B",
    "status": "Pending",
    "rowid": "997358",
    "final_x": "3674970.98062",
    "final_y": "533805.454981",
    "longitude": "-90.08860824553368",
    "latitude": "29.961976540160162",
    "geocoded_column": {
      "latitude": "29.961976540160162",
      "longitude": "-90.08860824553368"
    }
  },
  {
    "service_request": "2023-997357",
    "request_type": "Abandoned Vehicles",
    "request_reason": "Abandoned/Junk Vehicles",
    "date_created": "2023-05-07T10:56:07.000",
    "date_modified": "2023-05-07T10:56:07.000",
    "request_status": "Pending",
    "responsible_agency": "Department of Public Works",
    "final_address": "1174 Magazine St, New Orleans, Louisiana, 70130",
    "address_councildis": "B",
    "status": "Pending",
    "rowid": "997357",
    "final_x": "3680700.06165",
    "final_y": "525675.960637",
    "longitude": "-90.0707995644507",
    "latitude": "29.93945079831763",
    "geocoded_column": {
      "latitude": "29.93945079831763",
      "longitude": "-90.0707995644507"
    }
  },
  {
    "service_request": "2023-997356",
    "request_type": "Trash/Recycling",
    "request_reason": "Request a Large Item Pick Up",
    "date_created": "2023-05-07T10:46:36.000",
    "date_modified": "2023-05-07T10:46:37.000",
    "request_status": "Pending",
    "responsible_agency": "Department of Sanitation",
    "final_address": "6200 BLK Cartier Dr",
    "address_councildis": "D",
    "status": "Assigned to Contractor",
    "contractor": "IV Waste",
    "rowid": "997356",
    "final_x": "3677628.74477",
    "final_y": "555441.86561",
    "longitude": "-90.07946777710787",
    "latitude": "30.02138943455197",
    "geocoded_column": {
      "latitude": "30.02138943455197",
      "longitude": "-90.07946777710787"
    }
  },
  {
    "service_request": "2023-997355",
    "request_type": "Traffic Signals/Signs/Striping/Streetlights",
    "request_reason": "Street Light Outage/Malfunction",
    "date_created": "2023-05-07T10:42:28.000",
    "date_modified": "2023-05-07T10:42:28.000",
    "request_status": "Pending",
    "responsible_agency": "Department of Public Works",
    "final_address": "10 Painters St",
    "address_councildis": "D",
    "status": "Assigned to Contractor",
    "contractor": "Legacy Professional Services",
    "rowid": "997355",
    "final_x": "3687370.34934",
    "final_y": "540271.079051",
    "longitude": "-90.04922424720968",
    "latitude": "29.979378555690563",
    "geocoded_column": {
      "latitude": "29.979378555690563",
      "longitude": "-90.04922424720968"
    }
  },
  {
    "service_request": "2023-997354",
    "request_type": "Roads/Drainage",
    "request_reason": "Pothole",
    "date_created": "2023-05-07T10:40:23.000",
    "date_modified": "2023-05-07T10:40:24.000",
    "request_status": "Pending",
    "responsible_agency": "Department of Public Works",
    "final_address": "10150 S Interstate 10 Service Rd",
    "address_councildis": "E",
    "status": "Pending",
    "rowid": "997354",
    "final_x": "3711578.54949",
    "final_y": "562129.474527",
    "longitude": "-89.97194571063051",
    "latitude": "30.038712514746106",
    "geocoded_column": {
      "latitude": "30.038712514746106",
      "longitude": "-89.97194571063051"
    }
  },
  {
    "service_request": "2023-997353",
    "request_type": "Trash/Recycling",
    "request_reason": "Order Recycling Cart",
    "date_created": "2023-05-07T10:39:06.000",
    "date_modified": "2023-05-07T10:39:06.000",
    "request_status": "Pending",
    "responsible_agency": "Department of Sanitation",
    "final_address": "1733 Hollygrove St",
    "address_councildis": "A",
    "status": "Pending",
    "rowid": "997353",
    "final_x": "3661011.44454",
    "final_y": "531992.799235",
    "longitude": "-90.13275051052906",
    "latitude": "29.957401906005387",
    "geocoded_column": {
      "latitude": "29.957401906005387",
      "longitude": "-90.13275051052906"
    }
  },
  {
    "service_request": "2023-997352",
    "request_type": "Property Maintenance",
    "request_reason": "Property Maintenance",
    "date_created": "2023-05-07T10:38:17.000",
    "date_modified": "2023-05-07T10:38:17.000",
    "request_status": "Pending",
    "responsible_agency": "Department of Code Enforcement",
    "final_address": "1958 Evergreen Ave",
    "address_councildis": "C",
    "status": "Pending",
    "rowid": "997352",
    "final_x": "3688196.10102",
    "final_y": "524494.964412",
    "longitude": "-90.04717549270661",
    "latitude": "29.935974222159242",
    "geocoded_column": {
      "latitude": "29.935974222159242",
      "longitude": "-90.04717549270661"
    }
  },
  {
    "service_request": "2023-997351",
    "request_type": "Trash/Recycling",
    "request_reason": "Replace Trash Cart",
    "date_created": "2023-05-07T10:36:20.000",
    "date_modified": "2023-05-07T10:36:21.000",
    "request_status": "Pending",
    "responsible_agency": "Department of Sanitation",
    "final_address": "2024 Evergreen Ave",
    "address_councildis": "C",
    "status": "Assigned to Contractor",
    "contractor": "Richards Disposal",
    "rowid": "997351",
    "final_x": "3688188.16182",
    "final_y": "524427.850876",
    "longitude": "-90.04720293506868",
    "latitude": "29.935789927609154",
    "geocoded_column": {
      "latitude": "29.935789927609154",
      "longitude": "-90.04720293506868"
    }
  },
  {
    "service_request": "2023-997350",
    "request_type": "Trash/Recycling",
    "request_reason": "Replace Trash Cart",
    "date_created": "2023-05-07T10:36:13.000",
    "date_modified": "2023-05-07T10:36:14.000",
    "request_status": "Pending",
    "responsible_agency": "Department of Sanitation",
    "final_address": "2024 Evergreen Ave",
    "address_councildis": "C",
    "status": "Assigned to Contractor",
    "contractor": "Richards Disposal",
    "rowid": "997350",
    "final_x": "3688188.16182",
    "final_y": "524427.850876",
    "longitude": "-90.04720293506868",
    "latitude": "29.935789927609154",
    "geocoded_column": {
      "latitude": "29.935789927609154",
      "longitude": "-90.04720293506868"
    }
  },
  {
    "service_request": "2023-997349",
    "request_type": "Trash/Recycling",
    "request_reason": "Order Recycling Cart",
    "date_created": "2023-05-07T10:30:47.000",
    "date_modified": "2023-05-07T10:30:47.000",
    "request_status": "Pending",
    "responsible_agency": "Department of Sanitation",
    "final_address": "1033 Kentucky St",
    "address_councildis": "C",
    "status": "Pending",
    "rowid": "997349",
    "final_x": "3693314.30621",
    "final_y": "534738.269894",
    "longitude": "-90.03064962748157",
    "latitude": "29.963980797889906",
    "geocoded_column": {
      "latitude": "29.963980797889906",
      "longitude": "-90.03064962748157"
    }
  },
  {
    "service_request": "2023-997348",
    "request_type": "Trash/Recycling",
    "request_reason": "Replace Trash Cart",
    "date_created": "2023-05-07T10:29:53.000",
    "date_modified": "2023-05-07T10:29:54.000",
    "request_status": "Pending",
    "responsible_agency": "Department of Sanitation",
    "final_address": "2024 Evergreen Ave",
    "address_councildis": "C",
    "status": "Assigned to Contractor",
    "contractor": "Richards Disposal",
    "rowid": "997348",
    "final_x": "3688188.16182",
    "final_y": "524427.850876",
    "longitude": "-90.04720293506868",
    "latitude": "29.935789927609154",
    "geocoded_column": {
      "latitude": "29.935789927609154",
      "longitude": "-90.04720293506868"
    }
  },
  {
    "service_request": "2023-997347",
    "request_type": "Abandoned Vehicles",
    "request_reason": "Abandoned/Junk Vehicles",
    "date_created": "2023-05-07T10:28:29.000",
    "date_modified": "2023-05-07T10:28:29.000",
    "request_status": "Pending",
    "responsible_agency": "Department of Public Works",
    "final_address": "729 Ninth St",
    "address_councildis": "B",
    "status": "Pending",
    "rowid": "997347",
    "final_x": "3676595.10632",
    "final_y": "519021.726071",
    "longitude": "-90.08398852199231",
    "latitude": "29.921277549772597",
    "geocoded_column": {
      "latitude": "29.921277549772597",
      "longitude": "-90.08398852199231"
    }
  },
  {
    "service_request": "2023-997346",
    "request_type": "Safety & Permits",
    "request_reason": "Licenses & Permits",
    "date_created": "2023-05-07T10:27:44.000",
    "date_modified": "2023-05-07T10:27:44.000",
    "request_status": "Pending",
    "responsible_agency": "Safety and Permits",
    "final_address": "1700 BLK Port St",
    "address_councildis": "D",
    "status": "Pending",
    "rowid": "997346",
    "final_x": "3688039.48346",
    "final_y": "538825.684603",
    "longitude": "-90.04716210467404",
    "latitude": "29.97538359543975",
    "geocoded_column": {
      "latitude": "29.97538359543975",
      "longitude": "-90.04716210467404"
    }
  },
  {
    "service_request": "2023-997345",
    "request_type": "Abandoned Vehicles",
    "request_reason": "Abandoned/Junk Vehicles",
    "date_created": "2023-05-07T10:23:40.000",
    "date_modified": "2023-05-07T10:23:40.000",
    "request_status": "Pending",
    "responsible_agency": "Department of Public Works",
    "final_address": "3126 Chippewa St",
    "address_councildis": "B",
    "status": "Pending",
    "rowid": "997345",
    "final_x": "3676761.96853",
    "final_y": "518798.376119",
    "longitude": "-90.08346950164137",
    "latitude": "29.920658405738592",
    "geocoded_column": {
      "latitude": "29.920658405738592",
      "longitude": "-90.08346950164137"
    }
  },
  {
    "service_request": "2023-997344",
    "request_type": "Trash/Recycling",
    "request_reason": "Request a Large Item Pick Up",
    "date_created": "2023-05-07T10:12:53.000",
    "date_modified": "2023-05-07T10:12:54.000",
    "request_status": "Pending",
    "responsible_agency": "Department of Sanitation",
    "final_address": "5747 Sutton Pl",
    "address_councildis": "C",
    "status": "Assigned to Contractor",
    "contractor": "Richards Disposal",
    "rowid": "997344",
    "final_x": "3705313.92849",
    "final_y": "518498.411831",
    "longitude": "-89.99335595308492",
    "latitude": "29.918946374672664",
    "geocoded_column": {
      "latitude": "29.918946374672664",
      "longitude": "-89.99335595308492"
    }
  },
  {
    "service_request": "2023-997343",
    "request_type": "Roads/Drainage",
    "request_reason": "Alley Way",
    "date_created": "2023-05-07T09:21:54.000",
    "date_modified": "2023-05-07T09:21:54.000",
    "request_status": "Pending",
    "responsible_agency": "Department of Public Works",
    "final_address": "5900 BLK Memphis St",
    "address_councildis": "A",
    "status": "Pending",
    "rowid": "997343",
    "final_x": "3669153.43922",
    "final_y": "546882.982137",
    "longitude": "-90.1065370484525",
    "latitude": "29.998107796207044",
    "geocoded_column": {
      "latitude": "29.998107796207044",
      "longitude": "-90.1065370484525"
    }
  },
  {
    "service_request": "2023-997342",
    "request_type": "Abandoned Vehicles",
    "request_reason": "Abandoned/Junk Vehicles",
    "date_created": "2023-05-07T09:19:49.000",
    "date_modified": "2023-05-07T09:19:49.000",
    "request_status": "Pending",
    "responsible_agency": "Department of Public Works",
    "final_address": "2141 S Roman St",
    "address_councildis": "B",
    "status": "Pending",
    "rowid": "997342",
    "final_x": "3674185.35969",
    "final_y": "528339.914048",
    "longitude": "-90.09127620456125",
    "latitude": "29.94697156339113",
    "geocoded_column": {
      "latitude": "29.94697156339113",
      "longitude": "-90.09127620456125"
    }
  },
  {
    "service_request": "2023-997341",
    "request_type": "Trash/Recycling",
    "request_reason": "Request a Large Item Pick Up",
    "date_created": "2023-05-07T09:15:13.000",
    "date_modified": "2023-05-07T09:15:14.000",
    "request_status": "Pending",
    "responsible_agency": "Department of Sanitation",
    "final_address": "2258 Athis St",
    "address_councildis": "D",
    "status": "Assigned to Contractor",
    "contractor": "IV Waste",
    "rowid": "997341",
    "final_x": "3684186.00655",
    "final_y": "554196.057432",
    "longitude": "-90.05879244172537",
    "latitude": "30.01776499109079",
    "geocoded_column": {
      "latitude": "30.01776499109079",
      "longitude": "-90.05879244172537"
    }
  },
  {
    "service_request": "2023-997340",
    "request_type": "Trash/Recycling",
    "request_reason": "Request a Large Item Pick Up",
    "date_created": "2023-05-07T08:57:37.000",
    "date_modified": "2023-05-07T08:57:38.000",
    "request_status": "Pending",
    "responsible_agency": "Department of Sanitation",
    "final_address": "4818 Perrier St",
    "address_councildis": "B",
    "status": "Assigned to Contractor",
    "contractor": "Richards Disposal",
    "rowid": "997340",
    "final_x": "3669306.08404",
    "final_y": "519871.443512",
    "longitude": "-90.10696810181273",
    "latitude": "29.923830520231217",
    "geocoded_column": {
      "latitude": "29.923830520231217",
      "longitude": "-90.10696810181273"
    }
  },
  {
    "service_request": "2023-997339",
    "request_type": "Trash/Recycling",
    "request_reason": "Replace Trash Cart",
    "date_created": "2023-05-07T08:54:35.000",
    "date_modified": "2023-05-07T08:54:36.000",
    "request_status": "Pending",
    "responsible_agency": "Department of Sanitation",
    "final_address": "2023 Second St",
    "address_councildis": "B",
    "status": "Assigned to Contractor",
    "contractor": "Richards Disposal",
    "rowid": "997339",
    "final_x": "3675819.00635",
    "final_y": "524426.980604",
    "longitude": "-90.08625263360554",
    "latitude": "29.93616349128475",
    "geocoded_column": {
      "latitude": "29.93616349128475",
      "longitude": "-90.08625263360554"
    }
  },
  {
    "service_request": "2023-997338",
    "request_type": "Abandoned Vehicles",
    "request_reason": "Abandoned/Junk Vehicles",
    "date_created": "2023-05-07T08:50:17.000",
    "date_modified": "2023-05-07T08:50:17.000",
    "request_status": "Pending",
    "responsible_agency": "Department of Public Works",
    "final_address": "2200 BLK Madrid St",
    "address_councildis": "D",
    "status": "Pending",
    "rowid": "997338",
    "final_x": "3683715.50392",
    "final_y": "555347.130563",
    "longitude": "-90.06023863663341",
    "latitude": "30.020944401411022",
    "geocoded_column": {
      "latitude": "30.020944401411022",
      "longitude": "-90.06023863663341"
    }
  },
  {
    "service_request": "2023-997337",
    "request_type": "Property Maintenance",
    "request_reason": "Property Maintenance",
    "date_created": "2023-05-07T08:37:38.000",
    "date_modified": "2023-05-07T08:40:40.000",
    "request_status": "Pending",
    "responsible_agency": "Department of Code Enforcement",
    "final_address": "5500 BLK Bundy Rd",
    "address_councildis": "E",
    "status": "Pending",
    "rowid": "997337",
    "final_x": "3708316.41338",
    "final_y": "558330.862457",
    "longitude": "-89.98239639789261",
    "latitude": "30.02837399712745",
    "geocoded_column": {
      "latitude": "30.02837399712745",
      "longitude": "-89.98239639789261"
    }
  },
  {
    "service_request": "2023-997336",
    "request_type": "Abandoned Vehicles",
    "request_reason": "Abandoned/Junk Vehicles",
    "date_created": "2023-05-07T08:07:07.000",
    "date_modified": "2023-05-07T08:08:09.000",
    "request_status": "Pending",
    "responsible_agency": "Department of Public Works",
    "final_address": "10200 Almonaster Ave",
    "address_councildis": "E",
    "status": "Inspected",
    "rowid": "997336",
    "final_x": "3713684.56383",
    "final_y": "551626.395989",
    "longitude": "-89.96568637555853",
    "latitude": "30.00976423388402",
    "geocoded_column": {
      "latitude": "30.00976423388402",
      "longitude": "-89.96568637555853"
    }
  },
  {
    "service_request": "2023-997335",
    "request_type": "Abandoned Vehicles",
    "request_reason": "Abandoned/Junk Vehicles",
    "date_created": "2023-05-07T07:43:31.000",
    "date_modified": "2023-05-07T07:43:58.000",
    "request_status": "Pending",
    "responsible_agency": "Department of Public Works",
    "final_address": "10200 Almonaster Ave",
    "address_councildis": "E",
    "status": "Inspected",
    "rowid": "997335",
    "final_x": "3713684.56383",
    "final_y": "551626.395989",
    "longitude": "-89.96568637555853",
    "latitude": "30.00976423388402",
    "geocoded_column": {
      "latitude": "30.00976423388402",
      "longitude": "-89.96568637555853"
    }
  },
  {
    "service_request": "2023-997334",
    "request_type": "Abandoned Vehicles",
    "request_reason": "Abandoned/Junk Vehicles",
    "date_created": "2023-05-07T07:42:55.000",
    "date_modified": "2023-05-07T07:47:03.000",
    "request_status": "Pending",
    "responsible_agency": "Department of Public Works",
    "final_address": "10200 Almonaster Ave",
    "address_councildis": "E",
    "status": "Inspected",
    "rowid": "997334",
    "final_x": "3713684.56383",
    "final_y": "551626.395989",
    "longitude": "-89.96568637555853",
    "latitude": "30.00976423388402",
    "geocoded_column": {
      "latitude": "30.00976423388402",
      "longitude": "-89.96568637555853"
    }
  },
  {
    "service_request": "2023-997333",
    "request_type": "Health Related Request",
    "request_reason": "Noise Ordinance Complaint",
    "date_created": "2023-05-07T07:40:10.000",
    "date_modified": "2023-05-07T07:40:10.000",
    "request_status": "Pending",
    "responsible_agency": "Health Department",
    "final_address": "5134 Paris Ave",
    "address_councildis": "D",
    "status": "Pending",
    "rowid": "997333",
    "final_x": "3679142.41999",
    "final_y": "551128.688597",
    "longitude": "-90.07483466163104",
    "latitude": "30.009484126134296",
    "geocoded_column": {
      "latitude": "30.009484126134296",
      "longitude": "-90.07483466163104"
    }
  },
  {
    "service_request": "2023-997332",
    "request_type": "Roads/Drainage",
    "request_reason": "Catch Basin - Clogged",
    "date_created": "2023-05-07T07:39:55.000",
    "date_modified": "2023-05-07T07:39:55.000",
    "request_status": "Pending",
    "responsible_agency": "Department of Public Works",
    "final_address": "5534 Willow St Apt A",
    "address_councildis": "A",
    "status": "Pending",
    "rowid": "997332",
    "final_x": "3667601.70605",
    "final_y": "525390.607485",
    "longitude": "-90.11216255126764",
    "latitude": "29.939056510528175",
    "geocoded_column": {
      "latitude": "29.939056510528175",
      "longitude": "-90.11216255126764"
    }
  },
  {
    "service_request": "2023-997331",
    "request_type": "Trash/Recycling",
    "request_reason": "Missed Trash Pick-Up",
    "date_created": "2023-05-07T06:40:11.000",
    "date_modified": "2023-05-07T06:40:12.000",
    "request_status": "Pending",
    "responsible_agency": "Department of Sanitation",
    "final_address": "1364 Camp St",
    "address_councildis": "B",
    "status": "Assigned to Contractor",
    "contractor": "Richards Disposal",
    "rowid": "997331",
    "final_x": "3680055.92335",
    "final_y": "524783.040828",
    "longitude": "-90.07286420458927",
    "latitude": "29.937015064467577",
    "geocoded_column": {
      "latitude": "29.937015064467577",
      "longitude": "-90.07286420458927"
    }
  },
  {
    "service_request": "2023-997330",
    "request_type": "Trash/Recycling",
    "request_reason": "Missed Trash Pick-Up",
    "date_created": "2023-05-07T06:38:24.000",
    "date_modified": "2023-05-07T06:38:24.000",
    "request_status": "Pending",
    "responsible_agency": "Department of Sanitation",
    "final_address": "1558 Camp St",
    "address_councildis": "B",
    "status": "Assigned to Contractor",
    "contractor": "Richards Disposal",
    "rowid": "997330",
    "final_x": "3679739.57269",
    "final_y": "523444.613435",
    "longitude": "-90.07390938442909",
    "latitude": "29.933344395825817",
    "geocoded_column": {
      "latitude": "29.933344395825817",
      "longitude": "-90.07390938442909"
    }
  },
  {
    "service_request": "2023-997329",
    "request_type": "Traffic Signals/Signs/Striping/Streetlights",
    "request_reason": "Traffic Sign Missing/Damaged",
    "date_created": "2023-05-07T00:31:50.000",
    "date_modified": "2023-05-07T00:31:50.000",
    "request_status": "Pending",
    "responsible_agency": "Department of Public Works",
    "final_address": "2651 Poydras St",
    "address_councildis": "B",
    "status": "Pending",
    "rowid": "997329",
    "final_x": "3673793.03764",
    "final_y": "532622.131972",
    "longitude": "-90.0923684825923",
    "latitude": "29.95875792984164",
    "geocoded_column": {
      "latitude": "29.95875792984164",
      "longitude": "-90.0923684825923"
    }
  },
  {
    "service_request": "2023-997328",
    "request_type": "Traffic Signals/Signs/Striping/Streetlights",
    "request_reason": "Traffic Sign Missing/Damaged",
    "date_created": "2023-05-07T00:22:18.000",
    "date_modified": "2023-05-07T00:22:18.000",
    "request_status": "Pending",
    "responsible_agency": "Department of Public Works",
    "final_address": "2228 Gravier St",
    "address_councildis": "B",
    "status": "Pending",
    "rowid": "997328",
    "final_x": "3675569.69505",
    "final_y": "532479.666372",
    "longitude": "-90.08676314289572",
    "latitude": "29.95831316996966",
    "geocoded_column": {
      "latitude": "29.95831316996966",
      "longitude": "-90.08676314289572"
    }
  },
  {
    "service_request": "2023-997326",
    "request_type": "Parks & Parkways",
    "request_reason": "Request Tree Service (Right of Way/Public Property)",
    "date_created": "2023-05-07T00:10:54.000",
    "date_modified": "2023-05-07T00:10:54.000",
    "request_status": "Pending",
    "responsible_agency": "Department of Parks & Parkway",
    "final_address": "2222 Tulane Ave",
    "address_councildis": "B",
    "status": "Pending",
    "rowid": "997326",
    "final_x": "3675891.51131",
    "final_y": "532857.471172",
    "longitude": "-90.0857339437974",
    "latitude": "29.959342375659908",
    "geocoded_column": {
      "latitude": "29.959342375659908",
      "longitude": "-90.0857339437974"
    }
  },
  {
    "service_request": "2023-997325",
    "request_type": "Traffic Signals/Signs/Striping/Streetlights",
    "request_reason": "Street Light Outage/Malfunction",
    "date_created": "2023-05-07T00:04:16.000",
    "date_modified": "2023-05-07T00:04:17.000",
    "request_status": "Pending",
    "responsible_agency": "Department of Public Works",
    "final_address": "2532 Tulane Ave",
    "address_councildis": "B",
    "status": "Assigned to Contractor",
    "contractor": "Legacy Professional Services",
    "rowid": "997325",
    "final_x": "3674929.07323",
    "final_y": "533361.176196",
    "longitude": "-90.08875582132038",
    "latitude": "29.960756174419004",
    "geocoded_column": {
      "latitude": "29.960756174419004",
      "longitude": "-90.08875582132038"
    }
  },
  {
    "service_request": "2023-997324",
    "request_type": "Traffic Signals/Signs/Striping/Streetlights",
    "request_reason": "Street Light Outage/Malfunction",
    "date_created": "2023-05-07T00:02:22.000",
    "date_modified": "2023-05-07T00:02:23.000",
    "request_status": "Pending",
    "responsible_agency": "Department of Public Works",
    "final_address": "2532 Tulane Ave",
    "address_councildis": "B",
    "status": "Assigned to Contractor",
    "contractor": "Legacy Professional Services",
    "rowid": "997324",
    "final_x": "3674929.07323",
    "final_y": "533361.176196",
    "longitude": "-90.08875582132038",
    "latitude": "29.960756174419004",
    "geocoded_column": {
      "latitude": "29.960756174419004",
      "longitude": "-90.08875582132038"
    }
  },
  {
    "service_request": "2023-997323",
    "request_type": "Traffic Signals/Signs/Striping/Streetlights",
    "request_reason": "Traffic Sign Missing/Damaged",
    "date_created": "2023-05-06T23:56:22.000",
    "date_modified": "2023-05-06T23:56:22.000",
    "request_status": "Pending",
    "responsible_agency": "Department of Public Works",
    "final_address": "524 S Rocheblave St",
    "address_councildis": "B",
    "status": "Pending",
    "rowid": "997323",
    "final_x": "3675071.02414",
    "final_y": "533046.281284",
    "longitude": "-90.08831837170277",
    "latitude": "29.959886078820862",
    "geocoded_column": {
      "latitude": "29.959886078820862",
      "longitude": "-90.08831837170277"
    }
  },
  {
    "service_request": "2023-997322",
    "request_type": "Property Maintenance",
    "request_reason": "Property Maintenance",
    "date_created": "2023-05-06T23:54:12.000",
    "date_modified": "2023-05-06T23:54:12.000",
    "request_status": "Pending",
    "responsible_agency": "Department of Code Enforcement",
    "final_address": "5190 Metropolitan Dr",
    "address_councildis": "D",
    "status": "Pending",
    "rowid": "997322",
    "final_x": "3690215.94115",
    "final_y": "552708.73711",
    "longitude": "-90.03979330678092",
    "latitude": "30.013489609629787",
    "geocoded_column": {
      "latitude": "30.013489609629787",
      "longitude": "-90.03979330678092"
    }
  },
  {
    "service_request": "2023-997320",
    "request_type": "Abandoned Vehicles",
    "request_reason": "Abandoned/Junk Vehicles",
    "date_created": "2023-05-06T23:01:24.000",
    "date_modified": "2023-05-06T23:01:24.000",
    "request_status": "Pending",
    "responsible_agency": "Department of Public Works",
    "final_address": "1933 Wilton Dr",
    "address_councildis": "D",
    "status": "Pending",
    "rowid": "997320",
    "final_x": "3681632.35637",
    "final_y": "550995.719701",
    "longitude": "-90.06697273200152",
    "latitude": "30.009043078991517",
    "geocoded_column": {
      "latitude": "30.009043078991517",
      "longitude": "-90.06697273200152"
    }
  },
  {
    "service_request": "2023-997319",
    "request_type": "Trash/Recycling",
    "request_reason": "Request a Large Item Pick Up",
    "date_created": "2023-05-06T22:56:02.000",
    "date_modified": "2023-05-06T22:56:03.000",
    "request_status": "Pending",
    "responsible_agency": "Department of Sanitation",
    "final_address": "602 S Cortez St",
    "address_councildis": "B",
    "status": "Assigned to Contractor",
    "contractor": "Richards Disposal",
    "rowid": "997319",
    "final_x": "3670877.9602",
    "final_y": "535970.364231",
    "longitude": "-90.10145990413255",
    "latitude": "29.968050939378738",
    "geocoded_column": {
      "latitude": "29.968050939378738",
      "longitude": "-90.10145990413255"
    }
  },
  {
    "service_request": "2023-997318",
    "request_type": "Safety & Permits",
    "request_reason": "Licenses & Permits",
    "date_created": "2023-05-06T22:38:31.000",
    "date_modified": "2023-05-06T22:38:31.000",
    "request_status": "Pending",
    "responsible_agency": "Safety and Permits",
    "final_address": "1775 Joseph Guillaume Pl",
    "address_councildis": "C",
    "status": "Pending",
    "rowid": "997318",
    "final_x": "3683462.43785",
    "final_y": "536121.270855",
    "longitude": "-90.06171241725919",
    "latitude": "29.96808786850646",
    "geocoded_column": {
      "latitude": "29.96808786850646",
      "longitude": "-90.06171241725919"
    }
  },
  {
    "service_request": "2023-997317",
    "request_type": "Health Related Request",
    "request_reason": "Noise Ordinance Complaint",
    "date_created": "2023-05-06T22:35:29.000",
    "date_modified": "2023-05-06T22:35:29.000",
    "request_status": "Pending",
    "responsible_agency": "Health Department",
    "final_address": "1775 Joseph Guillaume Pl",
    "address_councildis": "C",
    "status": "Pending",
    "rowid": "997317",
    "final_x": "3683462.43785",
    "final_y": "536121.270855",
    "longitude": "-90.06171241725919",
    "latitude": "29.96808786850646",
    "geocoded_column": {
      "latitude": "29.96808786850646",
      "longitude": "-90.06171241725919"
    }
  },
  {
    "service_request": "2023-997316",
    "request_type": "Trash/Recycling",
    "request_reason": "Order Recycling Cart",
    "date_created": "2023-05-06T22:09:46.000",
    "date_modified": "2023-05-06T22:09:46.000",
    "request_status": "Pending",
    "responsible_agency": "Department of Sanitation",
    "final_address": "4740 Elysian Fields Ave",
    "address_councildis": "D",
    "status": "Pending",
    "rowid": "997316",
    "final_x": "3683777.29922",
    "final_y": "550236.425236",
    "longitude": "-90.06022280124701",
    "latitude": "30.006889938291994",
    "geocoded_column": {
      "latitude": "30.006889938291994",
      "longitude": "-90.06022280124701"
    }
  },
  {
    "service_request": "2023-997315",
    "request_type": "Trash/Recycling",
    "request_reason": "Illegal Dumping",
    "date_created": "2023-05-06T21:36:49.000",
    "date_modified": "2023-05-06T21:36:49.000",
    "request_status": "Pending",
    "responsible_agency": "Department of Sanitation",
    "final_address": "2710 St Roch Ave",
    "address_councildis": "D",
    "status": "Pending",
    "rowid": "997315",
    "final_x": "3685870.35689",
    "final_y": "542898.444493",
    "longitude": "-90.05386914766552",
    "latitude": "29.98664901780683",
    "geocoded_column": {
      "latitude": "29.98664901780683",
      "longitude": "-90.05386914766552"
    }
  },
  {
    "service_request": "2023-997314",
    "request_type": "Trash/Recycling",
    "request_reason": "Request a Large Item Pick Up",
    "date_created": "2023-05-06T21:34:18.000",
    "date_modified": "2023-05-06T21:34:19.000",
    "request_status": "Pending",
    "responsible_agency": "Department of Sanitation",
    "final_address": "1611 Pine St",
    "address_councildis": "A",
    "status": "Assigned to Contractor",
    "contractor": "Richards Disposal",
    "rowid": "997314",
    "final_x": "3664849.26778",
    "final_y": "527898.989375",
    "longitude": "-90.12076856144992",
    "latitude": "29.946034128266426",
    "geocoded_column": {
      "latitude": "29.946034128266426",
      "longitude": "-90.12076856144992"
    }
  },
  {
    "service_request": "2023-997313",
    "request_type": "Roads/Drainage",
    "request_reason": "Catch Basin - Clogged",
    "date_created": "2023-05-06T21:19:28.000",
    "date_modified": "2023-05-06T21:19:28.000",
    "request_status": "Pending",
    "responsible_agency": "Department of Public Works",
    "final_address": "4700 BLK Old Gentilly Rd",
    "address_councildis": "D",
    "status": "Pending",
    "rowid": "997313",
    "final_x": "3691912.88615",
    "final_y": "549507.937845",
    "longitude": "-90.03454649767157",
    "latitude": "30.004635811360387",
    "geocoded_column": {
      "latitude": "30.004635811360387",
      "longitude": "-90.03454649767157"
    }
  },
  {
    "service_request": "2023-997312",
    "request_type": "Roads/Drainage",
    "request_reason": "Catch Basin - Clogged",
    "date_created": "2023-05-06T21:13:56.000",
    "date_modified": "2023-05-06T21:13:56.000",
    "request_status": "Pending",
    "responsible_agency": "Department of Public Works",
    "final_address": "1600 BLK N Claiborne Ave",
    "address_councildis": "D",
    "status": "Pending",
    "rowid": "997312",
    "final_x": "3682407.33298",
    "final_y": "537944.883215",
    "longitude": "-90.06498072780943",
    "latitude": "29.973134326246434",
    "geocoded_column": {
      "latitude": "29.973134326246434",
      "longitude": "-90.06498072780943"
    }
  },
  {
    "service_request": "2023-997311",
    "request_type": "Abandoned Vehicles",
    "request_reason": "Abandoned/Junk Vehicles",
    "date_created": "2023-05-06T20:55:43.000",
    "date_modified": "2023-05-06T20:55:43.000",
    "request_status": "Pending",
    "responsible_agency": "Department of Public Works",
    "final_address": "2734 Spain St",
    "address_councildis": "D",
    "status": "Pending",
    "rowid": "997311",
    "final_x": "3685564.69942",
    "final_y": "542951.768845",
    "longitude": "-90.05483272408624",
    "latitude": "29.986805021919714",
    "geocoded_column": {
      "latitude": "29.986805021919714",
      "longitude": "-90.05483272408624"
    }
  },
  {
    "service_request": "2023-997310",
    "request_type": "Trash/Recycling",
    "request_reason": "MIssed Recycling Pick-Up",
    "date_created": "2023-05-06T20:39:05.000",
    "date_modified": "2023-05-06T20:39:05.000",
    "request_status": "Pending",
    "responsible_agency": "Department of Sanitation",
    "final_address": "5236 Burgundy St",
    "address_councildis": "E",
    "status": "Assigned to Contractor",
    "contractor": "Waste Pro",
    "rowid": "997310",
    "final_x": "3696494.45469",
    "final_y": "533270.833092",
    "longitude": "-90.02066015079049",
    "latitude": "29.959846071063588",
    "geocoded_column": {
      "latitude": "29.959846071063588",
      "longitude": "-90.02066015079049"
    }
  },
  {
    "service_request": "2023-997309",
    "request_type": "Abandoned Vehicles",
    "request_reason": "Abandoned/Junk Vehicles",
    "date_created": "2023-05-06T20:36:34.000",
    "date_modified": "2023-05-06T20:36:34.000",
    "request_status": "Pending",
    "responsible_agency": "Department of Public Works",
    "final_address": "3124 Arts St",
    "address_councildis": "D",
    "status": "Pending",
    "rowid": "997309",
    "final_x": "3686508.87996",
    "final_y": "544408.997775",
    "longitude": "-90.0517989336697",
    "latitude": "29.990782880787553",
    "geocoded_column": {
      "latitude": "29.990782880787553",
      "longitude": "-90.0517989336697"
    }
  },
  {
    "service_request": "2023-997308",
    "request_type": "Trash/Recycling",
    "request_reason": "Order Recycling Cart",
    "date_created": "2023-05-06T20:33:26.000",
    "date_modified": "2023-05-06T20:33:26.000",
    "request_status": "Pending",
    "responsible_agency": "Department of Sanitation",
    "final_address": "3623 Iberville St",
    "address_councildis": "B",
    "status": "Pending",
    "rowid": "997308",
    "final_x": "3672728.49665",
    "final_y": "537687.0658",
    "longitude": "-90.09555726588867",
    "latitude": "29.972716455425083",
    "geocoded_column": {
      "latitude": "29.972716455425083",
      "longitude": "-90.09555726588867"
    }
  },
  {
    "service_request": "2023-997307",
    "request_type": "Trash/Recycling",
    "request_reason": "Order Trash Cart",
    "date_created": "2023-05-06T20:29:55.000",
    "date_modified": "2023-05-06T20:29:56.000",
    "request_status": "Pending",
    "responsible_agency": "Department of Sanitation",
    "final_address": "3623 Iberville St",
    "address_councildis": "B",
    "status": "Assigned to Contractor",
    "contractor": "Richards Disposal",
    "rowid": "997307",
    "final_x": "3672728.49665",
    "final_y": "537687.0658",
    "longitude": "-90.09555726588867",
    "latitude": "29.972716455425083",
    "geocoded_column": {
      "latitude": "29.972716455425083",
      "longitude": "-90.09555726588867"
    }
  },
  {
    "service_request": "2023-997303",
    "request_type": "Trash/Recycling",
    "request_reason": "Replace Trash Cart",
    "date_created": "2023-05-06T20:16:11.000",
    "date_modified": "2023-05-06T20:16:12.000",
    "request_status": "Pending",
    "responsible_agency": "Department of Sanitation",
    "final_address": "1840 Broadway St",
    "address_councildis": "A",
    "status": "Assigned to Contractor",
    "contractor": "Richards Disposal",
    "rowid": "997303",
    "final_x": "3665480.36692",
    "final_y": "528549.099904",
    "longitude": "-90.11875420081938",
    "latitude": "29.94780334370108",
    "geocoded_column": {
      "latitude": "29.94780334370108",
      "longitude": "-90.11875420081938"
    }
  },
  {
    "service_request": "2023-997302",
    "request_type": "Trash/Recycling",
    "request_reason": "Repair Trash Cart",
    "date_created": "2023-05-06T19:38:47.000",
    "date_modified": "2023-05-06T19:38:48.000",
    "request_status": "Pending",
    "responsible_agency": "Department of Sanitation",
    "final_address": "725 Ursulines Ave",
    "address_councildis": "C",
    "status": "Assigned to Contractor",
    "contractor": "Empire Services",
    "rowid": "997302",
    "final_x": "3683297.887",
    "final_y": "533771.517253",
    "longitude": "-90.06231438732512",
    "latitude": "29.9616318751545",
    "geocoded_column": {
      "latitude": "29.9616318751545",
      "longitude": "-90.06231438732512"
    }
  },
  {
    "service_request": "2023-997301",
    "request_type": "Trash/Recycling",
    "request_reason": "Request a Large Item Pick Up",
    "date_created": "2023-05-06T19:36:57.000",
    "date_modified": "2023-05-06T19:36:58.000",
    "request_status": "Pending",
    "responsible_agency": "Department of Sanitation",
    "final_address": "725 Ursulines Ave",
    "address_councildis": "C",
    "status": "Assigned to Contractor",
    "contractor": "Empire Services",
    "rowid": "997301",
    "final_x": "3683297.887",
    "final_y": "533771.517253",
    "longitude": "-90.06231438732512",
    "latitude": "29.9616318751545",
    "geocoded_column": {
      "latitude": "29.9616318751545",
      "longitude": "-90.06231438732512"
    }
  },
  {
    "service_request": "2023-997300",
    "request_type": "Trash/Recycling",
    "request_reason": "MIssed Recycling Pick-Up",
    "date_created": "2023-05-06T19:36:36.000",
    "date_modified": "2023-05-06T19:36:37.000",
    "request_status": "Pending",
    "responsible_agency": "Department of Sanitation",
    "final_address": "1901 Ellen Park Pl",
    "address_councildis": "C",
    "status": "Assigned to Contractor",
    "contractor": "Richards Disposal",
    "rowid": "997300",
    "final_x": "3702880.71447",
    "final_y": "523961.918012",
    "longitude": "-90.00083575010268",
    "latitude": "29.93404713917782",
    "geocoded_column": {
      "latitude": "29.93404713917782",
      "longitude": "-90.00083575010268"
    }
  },
  {
    "service_request": "2023-997299",
    "request_type": "Abandoned Vehicles",
    "request_reason": "Abandoned/Junk Vehicles",
    "date_created": "2023-05-06T19:26:49.000",
    "date_modified": "2023-05-06T19:26:49.000",
    "request_status": "Pending",
    "responsible_agency": "Department of Public Works",
    "final_address": "REPUBLIC ST & HUMANITY ST",
    "address_councildis": "D",
    "status": "Pending",
    "rowid": "997299",
    "final_x": "3680546.6",
    "final_y": "544465.68",
    "longitude": "-90.07063034554373",
    "latitude": "29.99112074579677",
    "geocoded_column": {
      "latitude": "29.99112074579677",
      "longitude": "-90.07063034554373"
    }
  },
  {
    "service_request": "2023-997298",
    "request_type": "Roads/Drainage",
    "request_reason": "Catch Basin - Clogged",
    "date_created": "2023-05-06T19:12:29.000",
    "date_modified": "2023-05-06T19:12:29.000",
    "request_status": "Pending",
    "responsible_agency": "Department of Public Works",
    "final_address": "2600 BLK Freret St",
    "address_councildis": "B",
    "status": "Pending",
    "rowid": "997298",
    "final_x": "3674364.0994",
    "final_y": "525446.552897",
    "longitude": "-90.09081091860524",
    "latitude": "29.93901044186899",
    "geocoded_column": {
      "latitude": "29.93901044186899",
      "longitude": "-90.09081091860524"
    }
  },
  {
    "service_request": "2023-997297",
    "request_type": "Property Maintenance",
    "request_reason": "Property Maintenance",
    "date_created": "2023-05-06T19:10:01.000",
    "date_modified": "2023-05-06T19:10:01.000",
    "request_status": "Pending",
    "responsible_agency": "Department of Code Enforcement",
    "final_address": "2504 First St",
    "address_councildis": "B",
    "status": "Pending",
    "rowid": "997297",
    "final_x": "3675069.59637",
    "final_y": "525992.792765",
    "longitude": "-90.08856484402853",
    "latitude": "29.940491367942496",
    "geocoded_column": {
      "latitude": "29.940491367942496",
      "longitude": "-90.08856484402853"
    }
  },
  {
    "service_request": "2023-997296",
    "request_type": "Roads/Drainage",
    "request_reason": "Catch Basin - Clogged",
    "date_created": "2023-05-06T19:06:04.000",
    "date_modified": "2023-05-06T19:06:04.000",
    "request_status": "Pending",
    "responsible_agency": "Department of Public Works",
    "final_address": "604 Baronne St",
    "address_councildis": "B",
    "status": "Pending",
    "rowid": "997296",
    "final_x": "3679848.20885",
    "final_y": "529044.463616",
    "longitude": "-90.07337203598827",
    "latitude": "29.948738839536052",
    "geocoded_column": {
      "latitude": "29.948738839536052",
      "longitude": "-90.07337203598827"
    }
  },
  {
    "service_request": "2023-997295",
    "request_type": "Property Maintenance",
    "request_reason": "Property Maintenance",
    "date_created": "2023-05-06T19:05:17.000",
    "date_modified": "2023-05-06T19:05:17.000",
    "request_status": "Pending",
    "responsible_agency": "Department of Code Enforcement",
    "final_address": "2405 Felicity St",
    "address_councildis": "B",
    "status": "Pending",
    "rowid": "997295",
    "final_x": "3676130.01153",
    "final_y": "526983.825854",
    "longitude": "-90.08518285281482",
    "latitude": "29.943184664528992",
    "geocoded_column": {
      "latitude": "29.943184664528992",
      "longitude": "-90.08518285281482"
    }
  },
  {
    "service_request": "2023-997294",
    "request_type": "Roads/Drainage",
    "request_reason": "Catch Basin - Clogged",
    "date_created": "2023-05-06T19:02:02.000",
    "date_modified": "2023-05-06T19:02:02.000",
    "request_status": "Pending",
    "responsible_agency": "Department of Public Works",
    "final_address": "2500 BLK Saint Andrew St",
    "address_councildis": "B",
    "status": "Pending",
    "rowid": "997294",
    "final_x": "3675951.73303",
    "final_y": "526813.945504",
    "longitude": "-90.08575156302429",
    "latitude": "29.942722888141684",
    "geocoded_column": {
      "latitude": "29.942722888141684",
      "longitude": "-90.08575156302429"
    }
  },
  {
    "service_request": "2023-997293",
    "request_type": "Trash/Recycling",
    "request_reason": "Missed Trash Pick-Up",
    "date_created": "2023-05-06T18:59:32.000",
    "date_modified": "2023-05-06T18:59:33.000",
    "request_status": "Pending",
    "responsible_agency": "Department of Sanitation",
    "final_address": "1915 Mandeville St",
    "address_councildis": "D",
    "status": "Assigned to Contractor",
    "contractor": "IV Waste",
    "rowid": "997293",
    "final_x": "3685644.24898",
    "final_y": "539455.311498",
    "longitude": "-90.05470469558078",
    "latitude": "29.97718855773438",
    "geocoded_column": {
      "latitude": "29.97718855773438",
      "longitude": "-90.05470469558078"
    }
  },
  {
    "service_request": "2023-997292",
    "request_type": "Trash/Recycling",
    "request_reason": "Replace Trash Cart",
    "date_created": "2023-05-06T18:53:05.000",
    "date_modified": "2023-05-06T18:53:06.000",
    "request_status": "Pending",
    "responsible_agency": "Department of Sanitation",
    "final_address": "3626 Blair St",
    "address_councildis": "C",
    "status": "Assigned to Contractor",
    "contractor": "Richards Disposal",
    "rowid": "997292",
    "final_x": "3709348.40357",
    "final_y": "517364.905653",
    "longitude": "-89.98066355501977",
    "latitude": "29.915699281915867",
    "geocoded_column": {
      "latitude": "29.915699281915867",
      "longitude": "-89.98066355501977"
    }
  },
  {
    "service_request": "2023-997291",
    "request_type": "Trash/Recycling",
    "request_reason": "Request a Large Item Pick Up",
    "date_created": "2023-05-06T18:33:34.000",
    "date_modified": "2023-05-06T18:33:35.000",
    "request_status": "Pending",
    "responsible_agency": "Department of Sanitation",
    "final_address": "1671 Milton St",
    "address_councildis": "D",
    "status": "Assigned to Contractor",
    "contractor": "IV Waste",
    "rowid": "997291",
    "final_x": "3680311.90235",
    "final_y": "546351.183056",
    "longitude": "-90.0713061027805",
    "latitude": "29.996312322393745",
    "geocoded_column": {
      "latitude": "29.996312322393745",
      "longitude": "-90.0713061027805"
    }
  },
  {
    "service_request": "2023-997290",
    "request_type": "Trash/Recycling",
    "request_reason": "Missed Trash Pick-Up",
    "date_created": "2023-05-06T17:31:49.000",
    "date_modified": "2023-05-06T17:31:50.000",
    "request_status": "Pending",
    "responsible_agency": "Department of Sanitation",
    "final_address": "7800 BLK Beach Dr",
    "address_councildis": "E",
    "status": "Assigned to Contractor",
    "contractor": "Waste Pro",
    "rowid": "997290",
    "final_x": "3702209.74548",
    "final_y": "562110.571433",
    "longitude": "-90.00155419173852",
    "latitude": "30.03896327603979",
    "geocoded_column": {
      "latitude": "30.03896327603979",
      "longitude": "-90.00155419173852"
    }
  },
  {
    "service_request": "2023-997289",
    "request_type": "Trash/Recycling",
    "request_reason": "Repair Trash Cart",
    "date_created": "2023-05-06T17:28:32.000",
    "date_modified": "2023-05-06T17:28:33.000",
    "request_status": "Pending",
    "responsible_agency": "Department of Sanitation",
    "final_address": "127 S Murat St",
    "address_councildis": "A",
    "status": "Assigned to Contractor",
    "contractor": "Richards Disposal",
    "rowid": "997289",
    "final_x": "3669500.31777",
    "final_y": "539201.472458",
    "longitude": "-90.1057012393438",
    "latitude": "29.976976054610677",
    "geocoded_column": {
      "latitude": "29.976976054610677",
      "longitude": "-90.1057012393438"
    }
  },
  {
    "service_request": "2023-997288",
    "request_type": "Trash/Recycling",
    "request_reason": "Request a Large Item Pick Up",
    "date_created": "2023-05-06T16:59:33.000",
    "date_modified": "2023-05-06T16:59:34.000",
    "request_status": "Pending",
    "responsible_agency": "Department of Sanitation",
    "final_address": "4628 New Orleans Street",
    "address_councildis": "A",
    "status": "Assigned to Contractor",
    "contractor": "Richards Disposal",
    "rowid": "997288",
    "final_x": "3668687.96826",
    "final_y": "539075.689418",
    "longitude": "-90.10827115417224",
    "latitude": "29.97665409987838",
    "geocoded_column": {
      "latitude": "29.97665409987838",
      "longitude": "-90.10827115417224"
    }
  },