[
  {
    "service_request": "2022-879540",
    "request_type": "Health Related Questions",
    "request_reason": "Noise Ordinance Complaint",
    "date_created": "2022-05-02T23:48:24.000",
    "date_modified": "2022-05-02T23:48:24.000",
    "request_status": "Pending",
    "responsible_agency": "Health Department",
    "final_address": "718 Bourbon St, New Orleans, Louisiana, 70116",
    "address_councildis": "C",
    "status": "Pending",
    "rowid": "879540",
    "final_x": "3682364.17781",
    "final_y": "532746.008004",
    "longitude": "-90.06529872053143",
    "latitude": "29.95884052062511",
    "geocoded_column": {
      "latitude": "29.95884052062511",
      "longitude": "-90.06529872053143"
    }
  },
  {
    "service_request": "2022-879539",
    "request_type": "Trash/Recycling",
    "request_reason": "MIssed Recycling Pick-Up",
    "date_created": "2022-05-02T22:42:39.000",
    "date_modified": "2022-05-02T22:42:40.000",
    "request_status": "Pending",
    "responsible_agency": "Department of Sanitation",
    "final_address": "2122 Philip St, New Orleans, Louisiana, 70113",
    "address_councildis": "B",
    "status": "Assigned to Contractor",
    "contractor": "Richards Disposal",
    "rowid": "879539",
    "final_x": "3676019.70984",
    "final_y": "524977.932477",
    "longitude": "-90.08560006596343",
    "latitude": "29.93767242065711",
    "geocoded_column": {
      "latitude": "29.93767242065711",
      "longitude": "-90.08560006596343"
    }
  },
  {
    "service_request": "2022-879538",
    "request_type": "Trash/Recycling",
    "request_reason": "MIssed Recycling Pick-Up",
    "date_created": "2022-05-02T22:40:49.000",
    "date_modified": "2022-05-02T22:40:50.000",
    "request_status": "Pending",
    "responsible_agency": "Department of Sanitation",
    "final_address": "2120 Philip St, New Orleans, Louisiana, 70113",
    "address_councildis": "B",
    "status": "Assigned to Contractor",
    "contractor": "Richards Disposal",
    "rowid": "879538",
    "final_x": "3676027.93307",
    "final_y": "524969.019901",
    "longitude": "-90.08557441098043",
    "latitude": "29.937647667773895",
    "geocoded_column": {
      "latitude": "29.937647667773895",
      "longitude": "-90.08557441098043"
    }
  },
  {
    "service_request": "2022-879537",
    "request_type": "Health Related Questions",
    "request_reason": "Noise Ordinance Complaint",
    "date_created": "2022-05-02T22:30:25.000",
    "date_modified": "2022-05-02T22:30:25.000",
    "request_status": "Pending",
    "responsible_agency": "Health Department",
    "final_address": "718 Bourbon St, New Orleans, Louisiana, 70116",
    "address_councildis": "C",
    "status": "Pending",
    "rowid": "879537",
    "final_x": "3682364.17781",
    "final_y": "532746.008004",
    "longitude": "-90.06529872053143",
    "latitude": "29.95884052062511",
    "geocoded_column": {
      "latitude": "29.95884052062511",
      "longitude": "-90.06529872053143"
    }
  },
  {
    "service_request": "2022-879536",
    "request_type": "Health Related Questions",
    "request_reason": "Noise Ordinance Complaint",
    "date_created": "2022-05-02T22:29:34.000",
    "date_modified": "2022-05-02T22:29:34.000",
    "request_status": "Pending",
    "responsible_agency": "Health Department",
    "final_address": "1500 N Claiborne Ave",
    "address_councildis": "C",
    "status": "Pending",
    "rowid": "879536",
    "final_x": "3681846.67516",
    "final_y": "537148.826504",
    "longitude": "-90.0667791844965",
    "latitude": "29.970962498120493",
    "geocoded_column": {
      "latitude": "29.970962498120493",
      "longitude": "-90.0667791844965"
    }
  },
  {
    "service_request": "2022-879535",
    "request_type": "Traffic Signals/Signs/Striping/Streetlights",
    "request_reason": "Street Light Outage/Malfunction",
    "date_created": "2022-05-02T22:23:18.000",
    "date_modified": "2022-05-02T22:23:19.000",
    "request_status": "Pending",
    "responsible_agency": "Department of Public Works",
    "final_address": "5515 Woodlawn Pl",
    "address_councildis": "A",
    "status": "Pending",
    "contractor": "Royal Engineering",
    "rowid": "879535",
    "final_x": "3667511.45812",
    "final_y": "544122.398094",
    "longitude": "-90.1118170325795",
    "latitude": "29.990565373621934",
    "geocoded_column": {
      "latitude": "29.990565373621934",
      "longitude": "-90.1118170325795"
    }
  },
  {
    "service_request": "2022-879534",
    "request_type": "Trash/Recycling",
    "request_reason": "Order Recycling Cart",
    "date_created": "2022-05-02T22:17:10.000",
    "date_modified": "2022-05-02T22:17:10.000",
    "request_status": "Pending",
    "responsible_agency": "Department of Sanitation",
    "final_address": "127 Elk Pl",
    "address_councildis": "B",
    "status": "Pending",
    "rowid": "879534",
    "final_x": "3679578.0884",
    "final_y": "531587.434243",
    "longitude": "-90.07413668563346",
    "latitude": "29.955739318102275",
    "geocoded_column": {
      "latitude": "29.955739318102275",
      "longitude": "-90.07413668563346"
    }
  },
  {
    "service_request": "2022-879533",
    "request_type": "Trash/Recycling",
    "request_reason": "Order Recycling Cart",
    "date_created": "2022-05-02T21:51:57.000",
    "date_modified": "2022-05-02T21:51:57.000",
    "request_status": "Pending",
    "responsible_agency": "Department of Sanitation",
    "final_address": "820 Dauphine St",
    "address_councildis": "C",
    "status": "Pending",
    "rowid": "879533",
    "final_x": "3682403.12565",
    "final_y": "533385.683268",
    "longitude": "-90.06515337731648",
    "latitude": "29.960598223978153",
    "geocoded_column": {
      "latitude": "29.960598223978153",
      "longitude": "-90.06515337731648"
    }
  },
  {
    "service_request": "2022-879532",
    "request_type": "Trash/Recycling",
    "request_reason": "Order Recycling Cart",
    "date_created": "2022-05-02T21:47:04.000",
    "date_modified": "2022-05-02T21:47:04.000",
    "request_status": "Pending",
    "responsible_agency": "Department of Sanitation",
    "final_address": "2354 Odin St",
    "address_councildis": "D",
    "status": "Pending",
    "rowid": "879532",
    "final_x": "3684931.01449",
    "final_y": "553102.187991",
    "longitude": "-90.05647702407892",
    "latitude": "30.01473444444264",
    "geocoded_column": {
      "latitude": "30.01473444444264",
      "longitude": "-90.05647702407892"
    }
  },
  {
    "service_request": "2022-879531",
    "request_type": "Property Maintenance",
    "request_reason": "Property Maintenance",
    "date_created": "2022-05-02T21:42:42.000",
    "date_modified": "2022-05-02T21:42:42.000",
    "request_status": "Pending",
    "responsible_agency": "Department of Code Enforcement",
    "final_address": "7300 Vanderkloot Ave",
    "address_councildis": "E",
    "status": "Pending",
    "rowid": "879531",
    "final_x": "3706281.51268",
    "final_y": "562299.183839",
    "longitude": "-89.98867936879219",
    "latitude": "30.039351130995716",
    "geocoded_column": {
      "latitude": "30.039351130995716",
      "longitude": "-89.98867936879219"
    }
  },
  {
    "service_request": "2022-879530",
    "request_type": "Traffic Signals/Signs/Striping/Streetlights",
    "request_reason": "Street Light Outage/Malfunction",
    "date_created": "2022-05-02T21:33:14.000",
    "date_modified": "2022-05-02T21:33:15.000",
    "request_status": "Pending",
    "responsible_agency": "Department of Public Works",
    "final_address": "816 Greenwood St",
    "address_councildis": "A",
    "status": "Pending",
    "contractor": "Royal Engineering",
    "rowid": "879530",
    "final_x": "3668677.96366",
    "final_y": "542809.530317",
    "longitude": "-90.10817666253753",
    "latitude": "29.986921191100542",
    "geocoded_column": {
      "latitude": "29.986921191100542",
      "longitude": "-90.10817666253753"
    }
  },
  {
    "service_request": "2022-879529",
    "request_type": "Health Related Questions",
    "request_reason": "Noise Ordinance Complaint",
    "date_created": "2022-05-02T21:32:34.000",
    "date_modified": "2022-05-02T21:32:34.000",
    "request_status": "Pending",
    "responsible_agency": "Health Department",
    "final_address": "718 Bourbon St, New Orleans, Louisiana, 70116",
    "address_councildis": "C",
    "status": "Pending",
    "rowid": "879529",
    "final_x": "3682364.17781",
    "final_y": "532746.008004",
    "longitude": "-90.06529872053143",
    "latitude": "29.95884052062511",
    "geocoded_column": {
      "latitude": "29.95884052062511",
      "longitude": "-90.06529872053143"
    }
  },
  {
    "service_request": "2022-879528",
    "request_type": "Traffic Signals/Signs/Striping/Streetlights",
    "request_reason": "Request for Stop Sign",
    "date_created": "2022-05-02T21:28:01.000",
    "date_modified": "2022-05-02T21:28:01.000",
    "request_status": "Pending",
    "responsible_agency": "Department of Public Works",
    "final_address": "1900 General Pershing St, New Orleans, Louisiana, 70115",
    "address_councildis": "B",
    "status": "Pending",
    "rowid": "879528",
    "final_x": "3671048.9154",
    "final_y": "522033.148474",
    "longitude": "-90.10139323551876",
    "latitude": "29.92972311254409",
    "geocoded_column": {
      "latitude": "29.92972311254409",
      "longitude": "-90.10139323551876"
    }
  },
  {
    "service_request": "2022-879527",
    "request_type": "Traffic Signals/Signs/Striping/Streetlights",
    "request_reason": "Street Name Sign Damaged or Missing",
    "date_created": "2022-05-02T21:22:18.000",
    "date_modified": "2022-05-02T21:22:18.000",
    "request_status": "Pending",
    "responsible_agency": "Department of Public Works",
    "final_address": "5701 Crowder Blvd",
    "address_councildis": "E",
    "status": "Pending",
    "rowid": "879527",
    "final_x": "3705377.62999",
    "final_y": "558023.320475",
    "longitude": "-89.99169410197185",
    "latitude": "30.02762331816234",
    "geocoded_column": {
      "latitude": "30.02762331816234",
      "longitude": "-89.99169410197185"
    }
  },
  {
    "service_request": "2022-879526",
    "request_type": "Property Maintenance",
    "request_reason": "Property Maintenance",
    "date_created": "2022-05-02T21:20:09.000",
    "date_modified": "2022-05-02T21:20:09.000",
    "request_status": "Pending",
    "responsible_agency": "Department of Code Enforcement",
    "final_address": "5701 Crowder Blvd",
    "address_councildis": "E",
    "status": "Pending",
    "rowid": "879526",
    "final_x": "3705377.62999",
    "final_y": "558023.320475",
    "longitude": "-89.99169410197185",
    "latitude": "30.02762331816234",
    "geocoded_column": {
      "latitude": "30.02762331816234",
      "longitude": "-89.99169410197185"
    }
  },
  {
    "service_request": "2022-879525",
    "request_type": "Property Maintenance",
    "request_reason": "Property Maintenance",
    "date_created": "2022-05-02T21:16:08.000",
    "date_modified": "2022-05-02T21:16:08.000",
    "request_status": "Pending",
    "responsible_agency": "Department of Code Enforcement",
    "final_address": "5427 Crowder Blvd",
    "address_councildis": "E",
    "status": "Pending",
    "rowid": "879525",
    "final_x": "3706397.2691",
    "final_y": "557043.012442",
    "longitude": "-89.98850850384686",
    "latitude": "30.02489498675801",
    "geocoded_column": {
      "latitude": "30.02489498675801",
      "longitude": "-89.98850850384686"
    }
  },
  {
    "service_request": "2022-879524",
    "request_type": "Property Maintenance",
    "request_reason": "Property Maintenance",
    "date_created": "2022-05-02T21:12:32.000",
    "date_modified": "2022-05-02T21:12:32.000",
    "request_status": "Pending",
    "responsible_agency": "Department of Code Enforcement",
    "final_address": "2233 St Andrew St",
    "address_councildis": "B",
    "status": "Pending",
    "rowid": "879524",
    "final_x": "3676622.13134",
    "final_y": "526178.686846",
    "longitude": "-90.08365682997042",
    "latitude": "29.940956048861572",
    "geocoded_column": {
      "latitude": "29.940956048861572",
      "longitude": "-90.08365682997042"
    }
  },
  {
    "service_request": "2022-879523",
    "request_type": "Traffic Signals/Signs/Striping/Streetlights",
    "request_reason": "Traffic Signal Malfunctioning/Damaged",
    "date_created": "2022-05-02T20:38:37.000",
    "date_modified": "2022-05-02T20:38:38.000",
    "request_status": "Pending",
    "responsible_agency": "Department of Public Works",
    "final_address": "1000 St Charles Ave",
    "address_councildis": "B",
    "status": "Pending",
    "rowid": "879523",
    "final_x": "3680334.074",
    "final_y": "526964.819646",
    "longitude": "-90.0719102399457",
    "latitude": "29.943005814995683",
    "geocoded_column": {
      "latitude": "29.943005814995683",
      "longitude": "-90.0719102399457"
    }
  },
  {
    "service_request": "2022-879522",
    "request_type": "Trash/Recycling",
    "request_reason": "Replace Trash Cart",
    "date_created": "2022-05-02T20:18:23.000",
    "date_modified": "2022-05-02T20:18:24.000",
    "request_status": "Pending",
    "responsible_agency": "Department of Sanitation",
    "final_address": "816 Octavia St",
    "address_councildis": "A",
    "status": "Assigned to Contractor",
    "contractor": "Richards Disposal",
    "rowid": "879522",
    "final_x": "3666435.90362",
    "final_y": "518971.053879",
    "longitude": "-90.11605845169049",
    "latitude": "29.921438886903584",
    "geocoded_column": {
      "latitude": "29.921438886903584",
      "longitude": "-90.11605845169049"
    }
  },
  {
    "service_request": "2022-879521",
    "request_type": "Property Maintenance",
    "request_reason": "Property Maintenance",
    "date_created": "2022-05-02T20:08:01.000",
    "date_modified": "2022-05-02T20:08:01.000",
    "request_status": "Pending",
    "responsible_agency": "Department of Code Enforcement",
    "final_address": "8326 Belfast St",
    "address_councildis": "A",
    "status": "Pending",
    "rowid": "879521",
    "final_x": "3664882.55962",
    "final_y": "532960.986308",
    "longitude": "-90.12049427749008",
    "latitude": "29.959952008371992",
    "geocoded_column": {
      "latitude": "29.959952008371992",
      "longitude": "-90.12049427749008"
    }
  },
  {
    "service_request": "2022-879520",
    "request_type": "Trash/Recycling",
    "request_reason": "Missed Trash Pick-Up",
    "date_created": "2022-05-02T19:57:15.000",
    "date_modified": "2022-05-02T19:57:16.000",
    "request_status": "Pending",
    "responsible_agency": "Department of Sanitation",
    "final_address": "2526 Annette St",
    "address_councildis": "D",
    "status": "Assigned to Contractor",
    "contractor": "Metro Disposal",
    "rowid": "879520",
    "final_x": "3682671.54357",
    "final_y": "541531.970188",
    "longitude": "-90.06402080456965",
    "latitude": "29.982989519508624",
    "geocoded_column": {
      "latitude": "29.982989519508624",
      "longitude": "-90.06402080456965"
    }
  },
  {
    "service_request": "2022-879519",
    "request_type": "Property Maintenance",
    "request_reason": "Property Maintenance",
    "date_created": "2022-05-02T19:35:04.000",
    "date_modified": "2022-05-02T19:35:04.000",
    "request_status": "Pending",
    "responsible_agency": "Department of Code Enforcement",
    "final_address": "2157 Humanity St",
    "address_councildis": "D",
    "status": "Pending",
    "rowid": "879519",
    "final_x": "3684046.2742",
    "final_y": "544790.738703",
    "longitude": "-90.05956429042625",
    "latitude": "29.9919080345291",
    "geocoded_column": {
      "latitude": "29.9919080345291",
      "longitude": "-90.05956429042625"
    }
  },
  {
    "service_request": "2022-879518",
    "request_type": "Traffic Signals/Signs/Striping/Streetlights",
    "request_reason": "Road Surface Marking Maintenance-Parking Lane",
    "date_created": "2022-05-02T19:32:43.000",
    "date_modified": "2022-05-02T19:32:43.000",
    "request_status": "Pending",
    "responsible_agency": "Department of Public Works",
    "final_address": "9325 Hammond St",
    "address_councildis": "E",
    "status": "Pending",
    "rowid": "879518",
    "final_x": "3709825.46891",
    "final_y": "556192.746778",
    "longitude": "-89.97770784031816",
    "latitude": "30.022446011533383",
    "geocoded_column": {
      "latitude": "30.022446011533383",
      "longitude": "-89.97770784031816"
    }
  },
  {
    "service_request": "2022-879517",
    "request_type": "Traffic Signals/Signs/Striping/Streetlights",
    "request_reason": "Additional signage",
    "date_created": "2022-05-02T19:27:27.000",
    "date_modified": "2022-05-02T19:27:27.000",
    "request_status": "Pending",
    "responsible_agency": "Department of Public Works",
    "final_address": "6325 Freret St",
    "address_councildis": "A",
    "status": "Pending",
    "rowid": "879517",
    "final_x": "3665462.71552",
    "final_y": "524926.78566",
    "longitude": "-90.11893114791883",
    "latitude": "29.937843657289616",
    "geocoded_column": {
      "latitude": "29.937843657289616",
      "longitude": "-90.11893114791883"
    }
  },
  {
    "service_request": "2022-879516",
    "request_type": "Trash/Recycling",
    "request_reason": "Order Trash Cart",
    "date_created": "2022-05-02T19:20:16.000",
    "date_modified": "2022-05-02T19:20:17.000",
    "request_status": "Pending",
    "responsible_agency": "Department of Sanitation",
    "final_address": "2135 St Roch Ave",
    "address_councildis": "D",
    "status": "Assigned to Contractor",
    "contractor": "Metro Disposal",
    "rowid": "879516",
    "final_x": "3686286.99151",
    "final_y": "540441.457675",
    "longitude": "-90.05263989804939",
    "latitude": "29.97988037550232",
    "geocoded_column": {
      "latitude": "29.97988037550232",
      "longitude": "-90.05263989804939"
    }
  },
  {
    "service_request": "2022-879515",
    "request_type": "Trash/Recycling",
    "request_reason": "Illegal Dumping",
    "date_created": "2022-05-02T19:08:23.000",
    "date_modified": "2022-05-02T19:08:23.000",
    "request_status": "Pending",
    "responsible_agency": "Department of Sanitation",
    "final_address": "8532 Belfast St",
    "address_councildis": "A",
    "status": "Pending",
    "rowid": "879515",
    "final_x": "3664323.01805",
    "final_y": "533465.250372",
    "longitude": "-90.12224436465765",
    "latitude": "29.96135484291623",
    "geocoded_column": {
      "latitude": "29.96135484291623",
      "longitude": "-90.12224436465765"
    }
  },
  {
    "service_request": "2022-879514",
    "request_type": "Roads/Drainage",
    "request_reason": "Accessibility Ramps, Curbs and Sidewalk Repair",
    "date_created": "2022-05-02T19:01:52.000",
    "date_modified": "2022-05-02T19:01:52.000",
    "request_status": "Pending",
    "responsible_agency": "Department of Public Works",
    "final_address": "810 St Charles Ave",
    "address_councildis": "B",
    "status": "Pending",
    "rowid": "879514",
    "final_x": "3680411.89621",
    "final_y": "527913.019391",
    "longitude": "-90.0716315722206",
    "latitude": "29.945610691724017",
    "geocoded_column": {
      "latitude": "29.945610691724017",
      "longitude": "-90.0716315722206"
    }
  },
  {
    "service_request": "2022-879512",
    "request_type": "Traffic Signals/Signs/Striping/Streetlights",
    "request_reason": "Traffic Signal Malfunctioning/Damaged",
    "date_created": "2022-05-02T18:52:24.000",
    "date_modified": "2022-05-02T18:52:24.000",
    "request_status": "Pending",
    "responsible_agency": "Department of Public Works",
    "final_address": "500 Tchoupitoulas St",
    "address_councildis": "B",
    "status": "Pending",
    "rowid": "879512",
    "final_x": "3681901.37282",
    "final_y": "528999.051136",
    "longitude": "-90.06689091252004",
    "latitude": "29.948551732990598",
    "geocoded_column": {
      "latitude": "29.948551732990598",
      "longitude": "-90.06689091252004"
    }
  },
  {
    "service_request": "2022-879511",
    "request_type": "Property Maintenance",
    "request_reason": "Property Maintenance",
    "date_created": "2022-05-02T18:41:23.000",
    "date_modified": "2022-05-02T18:41:23.000",
    "request_status": "Pending",
    "responsible_agency": "Department of Code Enforcement",
    "final_address": "2501 Gravier St",
    "address_councildis": "B",
    "status": "Pending",
    "rowid": "879511",
    "final_x": "3674902.39278",
    "final_y": "532927.285124",
    "longitude": "-90.0888549540379",
    "latitude": "29.959563916310575",
    "geocoded_column": {
      "latitude": "29.959563916310575",
      "longitude": "-90.0888549540379"
    }
  },
  {
    "service_request": "2022-879510",
    "request_type": "Parks & Parkways",
    "request_reason": "Tree Stump (removal, grind)",
    "date_created": "2022-05-02T18:03:22.000",
    "date_modified": "2022-05-02T18:03:22.000",
    "request_status": "Pending",
    "responsible_agency": "Department of Parks & Parkway",
    "final_address": "7900 Sandpiper Dr",
    "address_councildis": "E",
    "status": "Pending",
    "rowid": "879510",
    "final_x": "3715319.95218",
    "final_y": "570376.098855",
    "longitude": "-89.95980958385081",
    "latitude": "30.061264605113873",
    "geocoded_column": {
      "latitude": "30.061264605113873",
      "longitude": "-89.95980958385081"
    }
  },
  {
    "service_request": "2022-879509",
    "request_type": "Trash/Recycling",
    "request_reason": "Missed Trash Pick-Up",
    "date_created": "2022-05-02T17:58:15.000",
    "date_modified": "2022-05-02T17:58:16.000",
    "request_status": "Pending",
    "responsible_agency": "Department of Sanitation",
    "final_address": "222 N Tonti St",
    "address_councildis": "B",
    "status": "Assigned to Contractor",
    "contractor": "Richards Disposal",
    "rowid": "879509",
    "final_x": "3676831.96449",
    "final_y": "534776.733574",
    "longitude": "-90.08269806618439",
    "latitude": "29.964591509861442",
    "geocoded_column": {
      "latitude": "29.964591509861442",
      "longitude": "-90.08269806618439"
    }
  },
  {
    "service_request": "2022-879508",
    "request_type": "Traffic Signals/Signs/Striping/Streetlights",
    "request_reason": "Street Light Outage/Malfunction",
    "date_created": "2022-05-02T17:56:24.000",
    "date_modified": "2022-05-02T17:56:24.000",
    "request_status": "Pending",
    "responsible_agency": "Department of Public Works",
    "final_address": "3131 Yupon St",
    "address_councildis": "D",
    "status": "Pending",
    "contractor": "Royal Engineering",
    "rowid": "879508",
    "final_x": "3675633.76597",
    "final_y": "543957.594062",
    "longitude": "-90.08616633139685",
    "latitude": "29.989871634484086",
    "geocoded_column": {
      "latitude": "29.989871634484086",
      "longitude": "-90.08616633139685"
    }
  },
  {
    "service_request": "2022-879506",
    "request_type": "Roads/Drainage",
    "request_reason": "Catch Basin - Clogged",
    "date_created": "2022-05-02T17:48:32.000",
    "date_modified": "2022-05-02T17:48:32.000",
    "request_status": "Pending",
    "responsible_agency": "Department of Public Works",
    "final_address": "320 BLK Lane St",
    "address_councildis": "A",
    "status": "Pending",
    "rowid": "879506",
    "final_x": "3667643.22865",
    "final_y": "550806.535642",
    "longitude": "-90.11117560315118",
    "latitude": "30.008940579506145",
    "geocoded_column": {
      "latitude": "30.008940579506145",
      "longitude": "-90.11117560315118"
    }
  },
  {
    "service_request": "2022-879505",
    "request_type": "Roads/Drainage",
    "request_reason": "Catch Basin - Clogged",
    "date_created": "2022-05-02T17:47:01.000",
    "date_modified": "2022-05-02T17:47:01.000",
    "request_status": "Pending",
    "responsible_agency": "Department of Public Works",
    "final_address": "4649 Clara St",
    "address_councildis": "B",
    "status": "Pending",
    "rowid": "879505",
    "final_x": "3669319.73703",
    "final_y": "525020.378813",
    "longitude": "-90.10675101777124",
    "latitude": "29.937988043424895",
    "geocoded_column": {
      "latitude": "29.937988043424895",
      "longitude": "-90.10675101777124"
    }
  },
  {
    "service_request": "2022-879504",
    "request_type": "Roads/Drainage",
    "request_reason": "Catch Basin - Broken/Damage",
    "date_created": "2022-05-02T17:41:49.000",
    "date_modified": "2022-05-02T17:41:49.000",
    "request_status": "Pending",
    "responsible_agency": "Department of Public Works",
    "final_address": "1101 Port St",
    "address_councildis": "C",
    "status": "Pending",
    "rowid": "879504",
    "final_x": "3687476.43042",
    "final_y": "536514.701831",
    "longitude": "-90.04902218053681",
    "latitude": "29.969046569231885",
    "geocoded_column": {
      "latitude": "29.969046569231885",
      "longitude": "-90.04902218053681"
    }
  },
  {
    "service_request": "2022-879503",
    "request_type": "Roads/Drainage",
    "request_reason": "Accessibility Ramps, Curbs and Sidewalk Repair",
    "date_created": "2022-05-02T17:37:33.000",
    "date_modified": "2022-05-02T17:37:33.000",
    "request_status": "Pending",
    "responsible_agency": "Department of Public Works",
    "final_address": "114 Baronne St",
    "address_councildis": "B",
    "status": "Pending",
    "rowid": "879503",
    "final_x": "3680524.88155",
    "final_y": "530965.13645",
    "longitude": "-90.07116869250204",
    "latitude": "29.953999566478295",
    "geocoded_column": {
      "latitude": "29.953999566478295",
      "longitude": "-90.07116869250204"
    }
  },
  {
    "service_request": "2022-879502",
    "request_type": "Trash/Recycling",
    "request_reason": "Missed Trash Pick-Up",
    "date_created": "2022-05-02T17:36:12.000",
    "date_modified": "2022-05-02T17:36:13.000",
    "request_status": "Pending",
    "responsible_agency": "Department of Sanitation",
    "final_address": "222 N Tonti St",
    "address_councildis": "B",
    "status": "Assigned to Contractor",
    "contractor": "Richards Disposal",
    "rowid": "879502",
    "final_x": "3676831.96449",
    "final_y": "534776.733574",
    "longitude": "-90.08269806618439",
    "latitude": "29.964591509861442",
    "geocoded_column": {
      "latitude": "29.964591509861442",
      "longitude": "-90.08269806618439"
    }
  },
  {
    "service_request": "2022-879501",
    "request_type": "Roads/Drainage",
    "request_reason": "Damaged Sidewalk",
    "date_created": "2022-05-02T17:33:26.000",
    "date_modified": "2022-05-02T17:33:27.000",
    "request_status": "Pending",
    "responsible_agency": "Department of Public Works",
    "final_address": "2419 N Robertson St",
    "address_councildis": "C",
    "status": "Pending",
    "rowid": "879501",
    "final_x": "3686560.80572",
    "final_y": "537947.978761",
    "longitude": "-90.05186315817309",
    "latitude": "29.973015767243012",
    "geocoded_column": {
      "latitude": "29.973015767243012",
      "longitude": "-90.05186315817309"
    }
  },
  {
    "service_request": "2022-879500",
    "request_type": "Roads/Drainage",
    "request_reason": "Catch Basin - Broken/Damage",
    "date_created": "2022-05-02T17:32:52.000",
    "date_modified": "2022-05-02T17:32:52.000",
    "request_status": "Pending",
    "responsible_agency": "Department of Public Works",
    "final_address": "2239 Columbus St",
    "address_councildis": "D",
    "status": "Pending",
    "rowid": "879500",
    "final_x": "3679852.66178",
    "final_y": "538747.920649",
    "longitude": "-90.07302098877905",
    "latitude": "29.97541990992771",
    "geocoded_column": {
      "latitude": "29.97541990992771",
      "longitude": "-90.07302098877905"
    }
  },
  {
    "service_request": "2022-879498",
    "request_type": "Abandoned Vehicles",
    "request_reason": "Abandoned/Junk Vehicles",
    "date_created": "2022-05-02T17:28:50.000",
    "date_modified": "2022-05-02T17:28:50.000",
    "request_status": "Pending",
    "responsible_agency": "Department of Public Works",
    "final_address": "6361 Louisville St",
    "address_councildis": "A",
    "status": "Pending",
    "rowid": "879498",
    "final_x": "3668066.15316",
    "final_y": "549814.744788",
    "longitude": "-90.10987289640458",
    "latitude": "30.006201090675304",
    "geocoded_column": {
      "latitude": "30.006201090675304",
      "longitude": "-90.10987289640458"
    }
  },
  {
    "service_request": "2022-879496",
    "request_type": "Roads/Drainage",
    "request_reason": "Catch Basin - Broken/Damage",
    "date_created": "2022-05-02T17:22:09.000",
    "date_modified": "2022-05-02T17:22:09.000",
    "request_status": "Pending",
    "responsible_agency": "Department of Public Works",
    "final_address": "3331 Esplanade Ave",
    "address_councildis": "A",
    "status": "Pending",
    "rowid": "879496",
    "final_x": "3675891.07681",
    "final_y": "540853.410187",
    "longitude": "-90.08546033959573",
    "latitude": "29.981328500611447",
    "geocoded_column": {
      "latitude": "29.981328500611447",
      "longitude": "-90.08546033959573"
    }
  },
  {
    "service_request": "2022-879495",
    "request_type": "Roads/Drainage",
    "request_reason": "Catch Basin - Clogged",
    "date_created": "2022-05-02T17:19:31.000",
    "date_modified": "2022-05-02T17:19:31.000",
    "request_status": "Pending",
    "responsible_agency": "Department of Public Works",
    "final_address": "4100 BLK Dumaine St",
    "address_councildis": "A",
    "status": "Pending",
    "rowid": "879495",
    "final_x": "3673078.73353",
    "final_y": "540616.056351",
    "longitude": "-90.09435112877553",
    "latitude": "29.980759774659386",
    "geocoded_column": {
      "latitude": "29.980759774659386",
      "longitude": "-90.09435112877553"
    }
  },
  {
    "service_request": "2022-879494",
    "request_type": "Roads/Drainage",
    "request_reason": "Catch Basin - Clogged",
    "date_created": "2022-05-02T17:14:25.000",
    "date_modified": "2022-05-02T17:14:25.000",
    "request_status": "Pending",
    "responsible_agency": "Department of Public Works",
    "final_address": "301 N Carrollton Ave",
    "address_councildis": "A",
    "status": "Pending",
    "rowid": "879494",
    "final_x": "3671615.31969",
    "final_y": "539045.621834",
    "longitude": "-90.09902667417641",
    "latitude": "29.97648504225232",
    "geocoded_column": {
      "latitude": "29.97648504225232",
      "longitude": "-90.09902667417641"
    }
  },
  {
    "service_request": "2022-879493",
    "request_type": "Traffic Signals/Signs/Striping/Streetlights",
    "request_reason": "Street Light Outage/Malfunction",
    "date_created": "2022-05-02T17:04:37.000",
    "date_modified": "2022-05-02T17:04:37.000",
    "request_status": "Pending",
    "responsible_agency": "Department of Public Works",
    "final_address": "954 Florida Blvd",
    "address_councildis": "A",
    "status": "Pending",
    "contractor": "Royal Engineering",
    "rowid": "879493",
    "final_x": "3670244.18926",
    "final_y": "545116.901903",
    "longitude": "-90.10315126892625",
    "latitude": "29.9932195305075",
    "geocoded_column": {
      "latitude": "29.9932195305075",
      "longitude": "-90.10315126892625"
    }
  },
  {
    "service_request": "2022-879492",
    "request_type": "Trash/Recycling",
    "request_reason": "Illegal Dumping",
    "date_created": "2022-05-02T17:03:59.000",
    "date_modified": "2022-05-02T17:03:59.000",
    "request_status": "Pending",
    "responsible_agency": "Department of Sanitation",
    "final_address": "4033 Cleveland Ave",
    "address_councildis": "A",
    "status": "Pending",
    "rowid": "879492",
    "final_x": "3671021.49831",
    "final_y": "537922.146825",
    "longitude": "-90.10094031034764",
    "latitude": "29.97341344107738",
    "geocoded_column": {
      "latitude": "29.97341344107738",
      "longitude": "-90.10094031034764"
    }
  },
  {
    "service_request": "2022-879489",
    "request_type": "Trash/Recycling",
    "request_reason": "Repair Trash Cart",
    "date_created": "2022-05-02T16:57:13.000",
    "date_modified": "2022-05-02T16:57:14.000",
    "request_status": "Pending",
    "responsible_agency": "Department of Sanitation",
    "final_address": "1531 N Miro St",
    "address_councildis": "D",
    "status": "Assigned to Contractor",
    "contractor": "Metro Disposal",
    "rowid": "879489",
    "final_x": "3680131.15573",
    "final_y": "538735.490825",
    "longitude": "-90.07214186189915",
    "latitude": "29.975377306635007",
    "geocoded_column": {
      "latitude": "29.975377306635007",
      "longitude": "-90.07214186189915"
    }
  },
  {
    "service_request": "2022-879488",
    "request_type": "Trash/Recycling",
    "request_reason": "Request a Large Item Pick Up",
    "date_created": "2022-05-02T16:57:04.000",
    "date_modified": "2022-05-02T16:57:04.000",
    "request_status": "Pending",
    "responsible_agency": "Department of Sanitation",
    "final_address": "4219 Clara St",
    "address_councildis": "B",
    "status": "Assigned to Contractor",
    "contractor": "Richards Disposal",
    "rowid": "879488",
    "final_x": "3671007.15284",
    "final_y": "525181.466045",
    "longitude": "-90.10141822010597",
    "latitude": "29.938381205408202",
    "geocoded_column": {
      "latitude": "29.938381205408202",
      "longitude": "-90.10141822010597"
    }
  },
  {
    "service_request": "2022-879487",
    "request_type": "Trash/Recycling",
    "request_reason": "Repair Trash Cart",
    "date_created": "2022-05-02T16:53:31.000",
    "date_modified": "2022-05-02T16:53:31.000",
    "request_status": "Pending",
    "responsible_agency": "Department of Sanitation",
    "final_address": "3337 Diana St",
    "address_councildis": "C",
    "status": "Assigned to Contractor",
    "contractor": "Richards Disposal",
    "rowid": "879487",
    "final_x": "3696710.11946",
    "final_y": "527331.439615",
    "longitude": "-90.02019406925015",
    "latitude": "29.94350802614687",
    "geocoded_column": {
      "latitude": "29.94350802614687",
      "longitude": "-90.02019406925015"
    }
  },
  {
    "service_request": "2022-879486",
    "request_type": "Abandoned Vehicles",
    "request_reason": "Abandoned/Junk Vehicles",
    "date_created": "2022-05-02T16:51:39.000",
    "date_modified": "2022-05-02T16:51:39.000",
    "request_status": "Pending",
    "responsible_agency": "Department of Public Works",
    "final_address": "830 Desire St",
    "address_councildis": "C",
    "status": "Pending",
    "rowid": "879486",
    "final_x": "3689926.60822",
    "final_y": "534811.692038",
    "longitude": "-90.0413450179329",
    "latitude": "29.964288148746352",
    "geocoded_column": {
      "latitude": "29.964288148746352",
      "longitude": "-90.0413450179329"
    }
  },
  {
    "service_request": "2022-879485",
    "request_type": "Abandoned Vehicles",
    "request_reason": "Abandoned/Junk Vehicles",
    "date_created": "2022-05-02T16:51:01.000",
    "date_modified": "2022-05-02T16:51:02.000",
    "request_status": "Pending",
    "responsible_agency": "Department of Public Works",
    "final_address": "1400 BLK Piety St",
    "address_councildis": "C",
    "status": "Pending",
    "rowid": "879485",
    "final_x": "3690161.44083",
    "final_y": "537090.768126",
    "longitude": "-90.04052223564028",
    "latitude": "29.97054752518818",
    "geocoded_column": {
      "latitude": "29.97054752518818",
      "longitude": "-90.04052223564028"
    }
  },
  {
    "service_request": "2022-879484",
    "request_type": "Trash/Recycling",
    "request_reason": "Request a Large Item Pick Up",
    "date_created": "2022-05-02T16:47:40.000",
    "date_modified": "2022-05-02T16:47:41.000",
    "request_status": "Pending",
    "responsible_agency": "Department of Sanitation",
    "final_address": "301 Neil Ave",
    "address_councildis": "C",
    "status": "Assigned to Contractor",
    "contractor": "Richards Disposal",
    "rowid": "879484",
    "final_x": "3707145.0403",
    "final_y": "518676.616055",
    "longitude": "-89.9875695223374",
    "latitude": "29.91937736722206",
    "geocoded_column": {
      "latitude": "29.91937736722206",
      "longitude": "-89.9875695223374"
    }
  },
  {
    "service_request": "2022-879483",
    "request_type": "Trash/Recycling",
    "request_reason": "Repair Trash Cart",
    "date_created": "2022-05-02T16:45:32.000",
    "date_modified": "2022-05-02T16:45:32.000",
    "request_status": "Pending",
    "responsible_agency": "Department of Sanitation",
    "final_address": "2546 Lavender St",
    "address_councildis": "D",
    "status": "Assigned to Contractor",
    "contractor": "Metro Disposal",
    "rowid": "879483",
    "final_x": "3686710.81007",
    "final_y": "546871.653457",
    "longitude": "-90.05107403652585",
    "latitude": "29.997548088571644",
    "geocoded_column": {
      "latitude": "29.997548088571644",
      "longitude": "-90.05107403652585"
    }
  },
  {
    "service_request": "2022-879482",
    "request_type": "Trash/Recycling",
    "request_reason": "Repair Trash Cart",
    "date_created": "2022-05-02T16:44:58.000",
    "date_modified": "2022-05-02T16:44:59.000",
    "request_status": "Pending",
    "responsible_agency": "Department of Sanitation",
    "final_address": "2544 Lavender St",
    "address_councildis": "D",
    "status": "Assigned to Contractor",
    "contractor": "Metro Disposal",
    "rowid": "879482",
    "final_x": "3686690.67638",
    "final_y": "546871.174097",
    "longitude": "-90.05113765506903",
    "latitude": "29.997547390003596",
    "geocoded_column": {
      "latitude": "29.997547390003596",
      "longitude": "-90.05113765506903"
    }
  },
  {
    "service_request": "2022-879481",
    "request_type": "Trash/Recycling",
    "request_reason": "Replace Trash Cart",
    "date_created": "2022-05-02T16:41:13.000",
    "date_modified": "2022-05-02T16:41:13.000",
    "request_status": "Pending",
    "responsible_agency": "Department of Sanitation",
    "final_address": "1602 Jo Ann Pl",
    "address_councildis": "C",
    "status": "Assigned to Contractor",
    "contractor": "Richards Disposal",
    "rowid": "879481",
    "final_x": "3695006.26211",
    "final_y": "525350.558205",
    "longitude": "-90.02564494018188",
    "latitude": "29.93811486651003",
    "geocoded_column": {
      "latitude": "29.93811486651003",
      "longitude": "-90.02564494018188"
    }
  },
  {
    "service_request": "2022-879480",
    "request_type": "Trash/Recycling",
    "request_reason": "Request a Large Item Pick Up",
    "date_created": "2022-05-02T16:39:29.000",
    "date_modified": "2022-05-02T16:39:30.000",
    "request_status": "Pending",
    "responsible_agency": "Department of Sanitation",
    "final_address": "4764 Baccich St",
    "address_councildis": "D",
    "status": "Assigned to Contractor",
    "contractor": "Metro Disposal",
    "rowid": "879480",
    "final_x": "3687663.91516",
    "final_y": "550886.898325",
    "longitude": "-90.04792092255684",
    "latitude": "30.008559191060556",
    "geocoded_column": {
      "latitude": "30.008559191060556",
      "longitude": "-90.04792092255684"
    }
  },
  {
    "service_request": "2022-879479",
    "request_type": "Abandoned Vehicles",
    "request_reason": "Abandoned/Junk Vehicles",
    "date_created": "2022-05-02T16:39:25.000",
    "date_modified": "2022-05-02T16:39:25.000",
    "request_status": "Pending",
    "responsible_agency": "Department of Public Works",
    "final_address": "6947 Bellaire Dr",
    "address_councildis": "A",
    "status": "Pending",
    "rowid": "879479",
    "final_x": "3664751.61095",
    "final_y": "554116.223256",
    "longitude": "-90.1202005173302",
    "latitude": "30.018125553151044",
    "geocoded_column": {
      "latitude": "30.018125553151044",
      "longitude": "-90.1202005173302"
    }
  },
  {
    "service_request": "2022-879478",
    "request_type": "Abandoned Vehicles",
    "request_reason": "Abandoned/Junk Vehicles",
    "date_created": "2022-05-02T16:31:19.000",
    "date_modified": "2022-05-02T16:31:19.000",
    "request_status": "Pending",
    "responsible_agency": "Department of Public Works",
    "final_address": "6013 St Anthony Ave",
    "address_councildis": "D",
    "status": "Pending",
    "rowid": "879478",
    "final_x": "3682139.38498",
    "final_y": "554851.444888",
    "longitude": "-90.06523604768697",
    "latitude": "30.019629503637244",
    "geocoded_column": {
      "latitude": "30.019629503637244",
      "longitude": "-90.06523604768697"
    }
  },
  {
    "service_request": "2022-879477",
    "request_type": "Trash/Recycling",
    "request_reason": "Order Trash Cart",
    "date_created": "2022-05-02T16:27:23.000",
    "date_modified": "2022-05-02T16:27:24.000",
    "request_status": "Pending",
    "responsible_agency": "Department of Sanitation",
    "final_address": "1244 Southlawn Blvd",
    "address_councildis": "C",
    "status": "Assigned to Contractor",
    "contractor": "Richards Disposal",
    "rowid": "879477",
    "final_x": "3695238.92694",
    "final_y": "526886.427774",
    "longitude": "-90.02485502892593",
    "latitude": "29.942330674736517",
    "geocoded_column": {
      "latitude": "29.942330674736517",
      "longitude": "-90.02485502892593"
    }
  },
  {
    "service_request": "2022-879476",
    "request_type": "EMS",
    "request_reason": "EMS Compliment",
    "date_created": "2022-05-02T16:23:58.000",
    "date_modified": "2022-05-02T16:23:58.000",
    "request_status": "Pending",
    "responsible_agency": "Emergency Medical Services",
    "status": "Pending",
    "rowid": "879476",
    "longitude": "0.0",
    "latitude": "0.0",
    "geocoded_column": {
      "latitude": "0.0",
      "longitude": "0.0"
    }
  },
  {
    "service_request": "2022-879475",
    "request_type": "Traffic Signals/Signs/Striping/Streetlights",
    "request_reason": "Street Light Outage/Malfunction",
    "date_created": "2022-05-02T16:23:29.000",
    "date_modified": "2022-05-02T16:23:29.000",
    "request_status": "Pending",
    "responsible_agency": "Department of Public Works",
    "final_address": "ERATO ST & COLISEUM ST",
    "address_councildis": "B",
    "status": "Pending",
    "contractor": "Royal Engineering",
    "rowid": "879475",
    "final_x": "3680177.1",
    "final_y": "525650.08",
    "longitude": "-90.07245152220514",
    "latitude": "29.93939546894935",
    "geocoded_column": {
      "latitude": "29.93939546894935",
      "longitude": "-90.07245152220514"
    }
  },
  {
    "service_request": "2022-879474",
    "request_type": "Traffic Signals/Signs/Striping/Streetlights",
    "request_reason": "Street Light Outage/Malfunction",
    "date_created": "2022-05-02T16:23:17.000",
    "date_modified": "2022-05-02T16:23:19.000",
    "request_status": "Pending",
    "responsible_agency": "Department of Public Works",
    "final_address": "ERATO ST & COLISEUM ST",
    "address_councildis": "B",
    "status": "Pending",
    "contractor": "Royal Engineering",
    "rowid": "879474",
    "final_x": "3680177.1",
    "final_y": "525650.08",
    "longitude": "-90.07245152220514",
    "latitude": "29.93939546894935",
    "geocoded_column": {
      "latitude": "29.93939546894935",
      "longitude": "-90.07245152220514"
    }
  },
  {
    "service_request": "2022-879473",
    "request_type": "Trash/Recycling",
    "request_reason": "Illegal Dumping",
    "date_created": "2022-05-02T16:20:59.000",
    "date_modified": "2022-05-02T16:20:59.000",
    "request_status": "Pending",
    "responsible_agency": "Department of Sanitation",
    "final_address": "9025 Green St",
    "address_councildis": "A",
    "status": "Pending",
    "rowid": "879473",
    "final_x": "3660679.86586",
    "final_y": "531976.365123",
    "longitude": "-90.13379808559057",
    "latitude": "29.957366266225275",
    "geocoded_column": {
      "latitude": "29.957366266225275",
      "longitude": "-90.13379808559057"
    }
  },
  {
    "service_request": "2022-879472",
    "request_type": "Trash/Recycling",
    "request_reason": "Replace Trash Cart",
    "date_created": "2022-05-02T16:18:08.000",
    "date_modified": "2022-05-02T16:18:09.000",
    "request_status": "Pending",
    "responsible_agency": "Department of Sanitation",
    "final_address": "2221 Prytania St",
    "address_councildis": "B",
    "status": "Assigned to Contractor",
    "contractor": "Richards Disposal",
    "rowid": "879472",
    "final_x": "3677733.83272",
    "final_y": "523183.162555",
    "longitude": "-90.080250412666",
    "latitude": "29.932685957380496",
    "geocoded_column": {
      "latitude": "29.932685957380496",
      "longitude": "-90.080250412666"
    }
  },
  {
    "service_request": "2022-879471",
    "request_type": "Abandoned Vehicles",
    "request_reason": "Abandoned/Junk Vehicles",
    "date_created": "2022-05-02T16:13:15.000",
    "date_modified": "2022-05-02T16:13:15.000",
    "request_status": "Pending",
    "responsible_agency": "Department of Public Works",
    "final_address": "2319 Lafreniere St",
    "address_councildis": "D",
    "status": "Pending",
    "rowid": "879471",
    "final_x": "3685175.02396",
    "final_y": "545712.643408",
    "longitude": "-90.05596634697902",
    "latitude": "29.9944083931281",
    "geocoded_column": {
      "latitude": "29.9944083931281",
      "longitude": "-90.05596634697902"
    }
  },
  {
    "service_request": "2022-879470",
    "request_type": "Trash/Recycling",
    "request_reason": "Illegal Dumping",
    "date_created": "2022-05-02T16:10:59.000",
    "date_modified": "2022-05-02T16:11:00.000",
    "request_status": "Pending",
    "responsible_agency": "Department of Sanitation",
    "final_address": "3008 Mandeville St",
    "address_councildis": "D",
    "status": "Pending",
    "rowid": "879470",
    "final_x": "3685128.91817",
    "final_y": "543828.33627",
    "longitude": "-90.05617833317521",
    "latitude": "29.989228633647564",
    "geocoded_column": {
      "latitude": "29.989228633647564",
      "longitude": "-90.05617833317521"
    }
  },
  {
    "service_request": "2022-879469",
    "request_type": "Traffic Signals/Signs/Striping/Streetlights",
    "request_reason": "Request for Stop Sign",
    "date_created": "2022-05-02T16:09:04.000",
    "date_modified": "2022-05-02T16:09:04.000",
    "request_status": "Pending",
    "responsible_agency": "Department of Public Works",
    "final_address": "Piety St & Royal St, New Orleans, Louisiana, 70117",
    "address_councildis": "C",
    "status": "Pending",
    "rowid": "879469",
    "final_x": "3689461.0",
    "final_y": "534300.38",
    "longitude": "-90.04283355124153",
    "latitude": "29.96289664640253",
    "geocoded_column": {
      "latitude": "29.96289664640253",
      "longitude": "-90.04283355124153"
    }
  },
  {
    "service_request": "2022-879468",
    "request_type": "Trash/Recycling",
    "request_reason": "Request a Large Item Pick Up",
    "date_created": "2022-05-02T16:04:43.000",
    "date_modified": "2022-05-02T16:04:43.000",
    "request_status": "Pending",
    "responsible_agency": "Department of Sanitation",
    "final_address": "419 Henry Clay Ave",
    "address_councildis": "A",
    "status": "Assigned to Contractor",
    "contractor": "Richards Disposal",
    "rowid": "879468",
    "final_x": "3663391.38119",
    "final_y": "518401.926262",
    "longitude": "-90.12568765652945",
    "latitude": "29.919962545729227",
    "geocoded_column": {
      "latitude": "29.919962545729227",
      "longitude": "-90.12568765652945"
    }
  },
  {
    "service_request": "2022-879467",
    "request_type": "Roads/Drainage",
    "request_reason": "Pothole",
    "date_created": "2022-05-02T16:03:35.000",
    "date_modified": "2022-05-02T16:03:35.000",
    "request_status": "Pending",
    "responsible_agency": "Department of Public Works",
    "final_address": "701 Baronne St",
    "address_councildis": "B",
    "status": "Pending",
    "rowid": "879467",
    "final_x": "3679665.86792",
    "final_y": "528714.887488",
    "longitude": "-90.07395920111927",
    "latitude": "29.947838127385015",
    "geocoded_column": {
      "latitude": "29.947838127385015",
      "longitude": "-90.07395920111927"
    }
  },
  {
    "service_request": "2022-879466",
    "request_type": "Trash/Recycling",
    "request_reason": "Replace Trash Cart",
    "date_created": "2022-05-02T16:02:42.000",
    "date_modified": "2022-05-02T16:02:43.000",
    "request_status": "Pending",
    "responsible_agency": "Department of Sanitation",
    "final_address": "2741 Comet St",
    "address_councildis": "C",
    "status": "Assigned to Contractor",
    "contractor": "Richards Disposal",
    "rowid": "879466",
    "final_x": "3699765.20394",
    "final_y": "520758.997881",
    "longitude": "-90.01078794201904",
    "latitude": "29.92533946760898",
    "geocoded_column": {
      "latitude": "29.92533946760898",
      "longitude": "-90.01078794201904"
    }
  },
  {
    "service_request": "2022-879464",
    "request_type": "Parks & Parkways",
    "request_reason": "Request Tree Service (Right of Way/Public Property)",
    "date_created": "2022-05-02T15:58:14.000",
    "date_modified": "2022-05-02T15:58:15.000",
    "request_status": "Pending",
    "responsible_agency": "Department of Parks & Parkway",
    "final_address": "1911 Odeon St",
    "address_councildis": "C",
    "status": "Pending",
    "rowid": "879464",
    "final_x": "3695850.23312",
    "final_y": "524226.931836",
    "longitude": "-90.0230210270724",
    "latitude": "29.93499876952031",
    "geocoded_column": {
      "latitude": "29.93499876952031",
      "longitude": "-90.0230210270724"
    }
  },
  {
    "service_request": "2022-879463",
    "request_type": "Abandoned Vehicles",
    "request_reason": "Abandoned/Junk Vehicles",
    "date_created": "2022-05-02T15:57:08.000",
    "date_modified": "2022-05-02T15:57:09.000",
    "request_status": "Pending",
    "responsible_agency": "Department of Public Works",
    "final_address": "6316 Arts St",
    "address_councildis": "D",
    "status": "Pending",
    "rowid": "879463",
    "final_x": "3685559.90038",
    "final_y": "556451.587674",
    "longitude": "-90.05437193410832",
    "latitude": "30.02392477446693",
    "geocoded_column": {
      "latitude": "30.02392477446693",
      "longitude": "-90.05437193410832"
    }
  },
  {
    "service_request": "2022-879462",
    "request_type": "Safety & Permits",
    "request_reason": "Licenses & Permits",
    "date_created": "2022-05-02T15:56:45.000",
    "date_modified": "2022-05-02T15:56:46.000",
    "request_status": "Pending",
    "responsible_agency": "Safety and Permits",
    "final_address": "1608 S Salcedo St",
    "address_councildis": "B",
    "status": "Pending",
    "rowid": "879462",
    "final_x": "3670345.05857",
    "final_y": "530649.959106",
    "longitude": "-90.10332319456205",
    "latitude": "29.95343733359081",
    "geocoded_column": {
      "latitude": "29.95343733359081",
      "longitude": "-90.10332319456205"
    }
  },
  {
    "service_request": "2022-879461",
    "request_type": "Traffic Signals/Signs/Striping/Streetlights",
    "request_reason": "Street Light Outage/Malfunction",
    "date_created": "2022-05-02T15:55:58.000",
    "date_modified": "2022-05-02T15:55:58.000",
    "request_status": "Pending",
    "responsible_agency": "Department of Public Works",
    "final_address": "1911 Odeon St",
    "address_councildis": "C",
    "status": "Pending",
    "contractor": "Royal Engineering",
    "rowid": "879461",
    "final_x": "3695850.23312",
    "final_y": "524226.931836",
    "longitude": "-90.0230210270724",
    "latitude": "29.93499876952031",
    "geocoded_column": {
      "latitude": "29.93499876952031",
      "longitude": "-90.0230210270724"
    }
  },
  {
    "service_request": "2022-879460",
    "request_type": "Traffic Signals/Signs/Striping/Streetlights",
    "request_reason": "Street Light Outage/Malfunction",
    "date_created": "2022-05-02T15:55:43.000",
    "date_modified": "2022-05-02T15:55:44.000",
    "request_status": "Pending",
    "responsible_agency": "Department of Public Works",
    "final_address": "1911 Odeon St",
    "address_councildis": "C",
    "status": "Pending",
    "contractor": "Royal Engineering",
    "rowid": "879460",
    "final_x": "3695850.23312",
    "final_y": "524226.931836",
    "longitude": "-90.0230210270724",
    "latitude": "29.93499876952031",
    "geocoded_column": {
      "latitude": "29.93499876952031",
      "longitude": "-90.0230210270724"
    }
  },
  {
    "service_request": "2022-879459",
    "request_type": "Property Maintenance",
    "request_reason": "Property Maintenance",
    "date_created": "2022-05-02T15:54:03.000",
    "date_modified": "2022-05-02T16:33:35.000",
    "case_close_date": "2022-05-02T11:33:35.000",
    "request_status": "Closed",
    "responsible_agency": "Department of Code Enforcement",
    "final_address": "1300 Leonidas St",
    "address_councildis": "A",
    "status": "Referred to Code Enforcement",
    "rowid": "879459",
    "final_x": "3660880.45766",
    "final_y": "529887.785409",
    "longitude": "-90.13323374778673",
    "latitude": "29.951617568703586",
    "geocoded_column": {
      "latitude": "29.951617568703586",
      "longitude": "-90.13323374778673"
    }
  },
  {
    "service_request": "2022-879458",
    "request_type": "Trash/Recycling",
    "request_reason": "Request a Large Item Pick Up",
    "date_created": "2022-05-02T15:52:05.000",
    "date_modified": "2022-05-02T15:52:05.000",
    "request_status": "Pending",
    "responsible_agency": "Department of Sanitation",
    "final_address": "1408 Bordeaux St",
    "address_councildis": "B",
    "status": "Assigned to Contractor",
    "contractor": "Richards Disposal",
    "rowid": "879458",
    "final_x": "3669341.10554",
    "final_y": "520278.018296",
    "longitude": "-90.10684381385315",
    "latitude": "29.92494744107944",
    "geocoded_column": {
      "latitude": "29.92494744107944",
      "longitude": "-90.10684381385315"
    }
  },
  {
    "service_request": "2022-879457",
    "request_type": "Roads/Drainage",
    "request_reason": "Damaged Sidewalk",
    "date_created": "2022-05-02T15:51:57.000",
    "date_modified": "2022-05-02T15:51:58.000",
    "request_status": "Pending",
    "responsible_agency": "Department of Public Works",
    "final_address": "PERDIDO ST & BARONNE ST",
    "address_councildis": "B",
    "status": "Pending",
    "rowid": "879457",
    "final_x": "3680016.4",
    "final_y": "529889.68",
    "longitude": "-90.0728116269376",
    "latitude": "29.951057814479867",
    "geocoded_column": {
      "latitude": "29.951057814479867",
      "longitude": "-90.0728116269376"
    }
  },
  {
    "service_request": "2022-879455",
    "request_type": "Traffic Signals/Signs/Striping/Streetlights",
    "request_reason": "Street Light Outage/Malfunction",
    "date_created": "2022-05-02T15:48:52.000",
    "date_modified": "2022-05-02T15:48:53.000",
    "request_status": "Pending",
    "responsible_agency": "Department of Public Works",
    "final_address": "3800 BLK N Roman St",
    "address_councildis": "D",
    "status": "Pending",
    "contractor": "Royal Engineering",
    "rowid": "879455",
    "final_x": "3692004.52967",
    "final_y": "538041.238666",
    "longitude": "-90.0346675493855",
    "latitude": "29.973103674837215",
    "geocoded_column": {
      "latitude": "29.973103674837215",
      "longitude": "-90.0346675493855"
    }
  },
  {
    "service_request": "2022-879454",
    "request_type": "Mosquito, Termite & Rodent Control",
    "request_reason": "Rodent Complaint (Rats)",
    "date_created": "2022-05-02T15:43:36.000",
    "date_modified": "2022-05-02T15:43:36.000",
    "request_status": "Pending",
    "responsible_agency": "Mosquito, Termite & Rodent Control Board",
    "final_address": "330 S Diamond St",
    "address_councildis": "B",
    "status": "Pending",
    "rowid": "879454",
    "final_x": "3682012.93218",
    "final_y": "526761.208254",
    "longitude": "-90.066616784929",
    "latitude": "29.942395025496307",
    "geocoded_column": {
      "latitude": "29.942395025496307",
      "longitude": "-90.066616784929"
    }
  },
  {
    "service_request": "2022-879453",
    "request_type": "Property Maintenance",
    "request_reason": "Property Maintenance",
    "date_created": "2022-05-02T15:37:39.000",
    "date_modified": "2022-05-02T16:43:25.000",
    "case_close_date": "2022-05-02T11:43:25.000",
    "request_status": "Closed",
    "responsible_agency": "Department of Code Enforcement",
    "final_address": "4628 Downman Rd",
    "address_councildis": "D",
    "status": "Referred to Code Enforcement",
    "rowid": "879453",
    "final_x": "3695872.11914",
    "final_y": "554049.628056",
    "longitude": "-90.0218743520168",
    "latitude": "30.016999771731104",
    "geocoded_column": {
      "latitude": "30.016999771731104",
      "longitude": "-90.0218743520168"
    }
  },
  {
    "service_request": "2022-879452",
    "request_type": "Parks & Parkways",
    "request_reason": "Request Tree Service (Right of Way/Public Property)",
    "date_created": "2022-05-02T15:36:20.000",
    "date_modified": "2022-05-02T15:36:21.000",
    "request_status": "Pending",
    "responsible_agency": "Department of Parks & Parkway",
    "final_address": "ADVENTURE AVE & MICHOUD BLVD",
    "address_councildis": "E",
    "status": "Pending",
    "rowid": "879452",
    "final_x": "3725235.4",
    "final_y": "570877.48",
    "longitude": "-89.92844798212272",
    "latitude": "30.062312652791096",
    "geocoded_column": {
      "latitude": "30.062312652791096",
      "longitude": "-89.92844798212272"
    }
  },
  {
    "service_request": "2022-879451",
    "request_type": "Property Maintenance",
    "request_reason": "Property Maintenance",
    "date_created": "2022-05-02T15:36:01.000",
    "date_modified": "2022-05-02T15:36:01.000",
    "request_status": "Pending",
    "responsible_agency": "Department of Code Enforcement",
    "final_address": "4754 Downman Rd",
    "address_councildis": "D",
    "status": "Pending",
    "rowid": "879451",
    "final_x": "3695858.9425",
    "final_y": "554196.134488",
    "longitude": "-90.0219106866319",
    "latitude": "30.017403023918522",
    "geocoded_column": {
      "latitude": "30.017403023918522",
      "longitude": "-90.0219106866319"
    }
  },
  {
    "service_request": "2022-879450",
    "request_type": "Trash/Recycling",
    "request_reason": "Order Recycling Cart",
    "date_created": "2022-05-02T15:35:20.000",
    "date_modified": "2022-05-02T15:35:21.000",
    "request_status": "Pending",
    "responsible_agency": "Department of Sanitation",
    "final_address": "728 Elmira Ave",
    "address_councildis": "C",
    "status": "Pending",
    "rowid": "879450",
    "final_x": "3688206.2831",
    "final_y": "528834.703488",
    "longitude": "-90.04698954156937",
    "latitude": "29.94790671646883",
    "geocoded_column": {
      "latitude": "29.94790671646883",
      "longitude": "-90.04698954156937"
    }
  },
  {
    "service_request": "2022-879449",
    "request_type": "Trash/Recycling",
    "request_reason": "Request a Large Item Pick Up",
    "date_created": "2022-05-02T15:33:50.000",
    "date_modified": "2022-05-02T15:33:50.000",
    "request_status": "Pending",
    "responsible_agency": "Department of Sanitation",
    "final_address": "1619 N Broad St",
    "address_councildis": "D",
    "status": "Assigned to Contractor",
    "contractor": "Metro Disposal",
    "rowid": "879449",
    "final_x": "3679162.83637",
    "final_y": "540350.852363",
    "longitude": "-90.07514405535008",
    "latitude": "29.979848262517336",
    "geocoded_column": {
      "latitude": "29.979848262517336",
      "longitude": "-90.07514405535008"
    }
  },
  {
    "service_request": "2022-879448",
    "request_type": "Trash/Recycling",
    "request_reason": "MIssed Recycling Pick-Up",
    "date_created": "2022-05-02T15:33:13.000",
    "date_modified": "2022-05-02T15:33:14.000",
    "request_status": "Pending",
    "responsible_agency": "Department of Sanitation",
    "final_address": "712 Mandeville St",
    "address_councildis": "C",
    "status": "Assigned to Contractor",
    "contractor": "Metro Disposal",
    "rowid": "879448",
    "final_x": "3685856.78716",
    "final_y": "535054.682054",
    "longitude": "-90.05418858744137",
    "latitude": "29.96508183889114",
    "geocoded_column": {
      "latitude": "29.96508183889114",
      "longitude": "-90.05418858744137"
    }
  },
  {
    "service_request": "2022-879443",
    "request_type": "Trash/Recycling",
    "request_reason": "Replace Recycling Cart",
    "date_created": "2022-05-02T15:30:46.000",
    "date_modified": "2022-05-02T15:30:46.000",
    "request_status": "Pending",
    "responsible_agency": "Department of Sanitation",
    "final_address": "728 Elmira Ave, New Orleans, Louisiana, 70114",
    "address_councildis": "C",
    "status": "Pending",
    "rowid": "879443",
    "final_x": "3688206.2831",
    "final_y": "528834.703488",
    "longitude": "-90.04698954156937",
    "latitude": "29.94790671646883",
    "geocoded_column": {
      "latitude": "29.94790671646883",
      "longitude": "-90.04698954156937"
    }
  },
  {
    "service_request": "2022-879442",
    "request_type": "Safety & Permits",
    "request_reason": "Licenses & Permits",
    "date_created": "2022-05-02T15:22:10.000",
    "date_modified": "2022-05-02T15:22:10.000",
    "request_status": "Pending",
    "responsible_agency": "Safety and Permits",
    "final_address": "WREN ST & MARCONI DR",
    "address_councildis": "D",
    "status": "Pending",
    "rowid": "879442",
    "final_x": "3671981.5",
    "final_y": "555886.88",
    "longitude": "-90.09729639523842",
    "latitude": "30.02278177325173",
    "geocoded_column": {
      "latitude": "30.02278177325173",
      "longitude": "-90.09729639523842"
    }
  },
  {
    "service_request": "2022-879441",
    "request_type": "Safety & Permits",
    "request_reason": "Licenses & Permits",
    "date_created": "2022-05-02T15:20:38.000",
    "date_modified": "2022-05-02T15:20:39.000",
    "request_status": "Pending",
    "responsible_agency": "Safety and Permits",
    "final_address": "98 Wren St",
    "address_councildis": "D",
    "status": "Pending",
    "rowid": "879441",
    "final_x": "3672970.20219",
    "final_y": "556009.326809",
    "longitude": "-90.09416813335311",
    "latitude": "30.023089095178612",
    "geocoded_column": {
      "latitude": "30.023089095178612",
      "longitude": "-90.09416813335311"
    }
  },
  {
    "service_request": "2022-879440",
    "request_type": "Trash/Recycling",
    "request_reason": "Replace Trash Cart",
    "date_created": "2022-05-02T15:20:10.000",
    "date_modified": "2022-05-02T15:20:11.000",
    "request_status": "Pending",
    "responsible_agency": "Department of Sanitation",
    "final_address": "7696 Rochon Ave",
    "address_councildis": "E",
    "status": "Assigned to Contractor",
    "contractor": "Metro Disposal",
    "rowid": "879440",
    "final_x": "3718317.26617",
    "final_y": "571969.435176",
    "longitude": "-89.95027443000593",
    "latitude": "30.065546483457947",
    "geocoded_column": {
      "latitude": "30.065546483457947",
      "longitude": "-89.95027443000593"
    }
  },
  {
    "service_request": "2022-879439",
    "request_type": "Trash/Recycling",
    "request_reason": "Request a Large Item Pick Up",
    "date_created": "2022-05-02T15:15:22.000",
    "date_modified": "2022-05-02T15:15:23.000",
    "request_status": "Pending",
    "responsible_agency": "Department of Sanitation",
    "final_address": "2720 Jonquil St",
    "address_councildis": "D",
    "status": "Assigned to Contractor",
    "contractor": "Metro Disposal",
    "rowid": "879439",
    "final_x": "3688016.56559",
    "final_y": "547212.984913",
    "longitude": "-90.04693709856419",
    "latitude": "29.99844638386232",
    "geocoded_column": {
      "latitude": "29.99844638386232",
      "longitude": "-90.04693709856419"
    }
  },
  {
    "service_request": "2022-879438",
    "request_type": "Abandoned Vehicles",
    "request_reason": "Abandoned/Junk Vehicles",
    "date_created": "2022-05-02T15:08:53.000",
    "date_modified": "2022-05-02T15:08:55.000",
    "request_status": "Pending",
    "responsible_agency": "Department of Public Works",
    "final_address": "2623 Willow St",
    "address_councildis": "B",
    "status": "Pending",
    "rowid": "879438",
    "final_x": "3673728.99329",
    "final_y": "526628.059326",
    "longitude": "-90.09277564207565",
    "latitude": "29.94227811967708",
    "geocoded_column": {
      "latitude": "29.94227811967708",
      "longitude": "-90.09277564207565"
    }
  },
  {
    "service_request": "2022-879437",
    "request_type": "Trash/Recycling",
    "request_reason": "Request a Large Item Pick Up",
    "date_created": "2022-05-02T15:08:36.000",
    "date_modified": "2022-05-02T15:08:36.000",
    "request_status": "Pending",
    "responsible_agency": "Department of Sanitation",
    "final_address": "4957 Chantilly Dr",
    "address_councildis": "E",
    "status": "Assigned to Contractor",
    "contractor": "Metro Disposal",
    "rowid": "879437",
    "final_x": "3700838.95633",
    "final_y": "555471.063897",
    "longitude": "-90.00612928265917",
    "latitude": "30.020750933229035",
    "geocoded_column": {
      "latitude": "30.020750933229035",
      "longitude": "-90.00612928265917"
    }
  },
  {
    "service_request": "2022-879436",
    "request_type": "Property Maintenance",
    "request_reason": "Property Maintenance",
    "date_created": "2022-05-02T15:06:58.000",
    "date_modified": "2022-05-02T15:19:58.000",
    "case_close_date": "2022-05-02T10:19:58.000",
    "request_status": "Closed",
    "responsible_agency": "Department of Code Enforcement",
    "final_address": "4949 Chantilly Dr",
    "address_councildis": "E",
    "status": "Referred to Code Enforcement",
    "rowid": "879436",
    "final_x": "3700844.2938",
    "final_y": "555414.538841",
    "longitude": "-90.00611448667287",
    "latitude": "30.02059534095184",
    "geocoded_column": {
      "latitude": "30.02059534095184",
      "longitude": "-90.00611448667287"
    }
  },
  {
    "service_request": "2022-879435",
    "request_type": "Trash/Recycling",
    "request_reason": "Request a Large Item Pick Up",
    "date_created": "2022-05-02T15:06:12.000",
    "date_modified": "2022-05-02T15:06:12.000",
    "request_status": "Pending",
    "responsible_agency": "Department of Sanitation",
    "final_address": "7618 Pearl St",
    "address_councildis": "A",
    "status": "Assigned to Contractor",
    "contractor": "Richards Disposal",
    "rowid": "879435",
    "final_x": "3661486.17453",
    "final_y": "525438.663741",
    "longitude": "-90.13146852700952",
    "latitude": "29.939366445449107",
    "geocoded_column": {
      "latitude": "29.939366445449107",
      "longitude": "-90.13146852700952"
    }
  },
  {
    "service_request": "2022-879434",
    "request_type": "Trash/Recycling",
    "request_reason": "Order Recycling Cart",
    "date_created": "2022-05-02T15:02:44.000",
    "date_modified": "2022-05-02T15:02:45.000",
    "request_status": "Pending",
    "responsible_agency": "Department of Sanitation",
    "final_address": "811 Dauphine St",
    "address_councildis": "C",
    "status": "Pending",
    "rowid": "879434",
    "final_x": "3682254.05807",
    "final_y": "533297.994244",
    "longitude": "-90.06562716623313",
    "latitude": "29.960361644757043",
    "geocoded_column": {
      "latitude": "29.960361644757043",
      "longitude": "-90.06562716623313"
    }
  },
  {
    "service_request": "2022-879433",
    "request_type": "Trash/Recycling",
    "request_reason": "Order Recycling Cart",
    "date_created": "2022-05-02T15:01:42.000",
    "date_modified": "2022-05-02T15:01:43.000",
    "request_status": "Pending",
    "responsible_agency": "Department of Sanitation",
    "final_address": "809 Dauphine St",
    "address_councildis": "C",
    "status": "Pending",
    "rowid": "879433",
    "final_x": "3682244.73852",
    "final_y": "533284.014916",
    "longitude": "-90.06565708379965",
    "latitude": "29.960323489886715",
    "geocoded_column": {
      "latitude": "29.960323489886715",
      "longitude": "-90.06565708379965"
    }
  },
  {
    "service_request": "2022-879432",
    "request_type": "Roads/Drainage",
    "request_reason": "Catch Basin - Clogged",
    "date_created": "2022-05-02T14:59:39.000",
    "date_modified": "2022-05-02T14:59:39.000",
    "request_status": "Pending",
    "responsible_agency": "Department of Public Works",
    "final_address": "3138 Constance St",
    "address_councildis": "B",
    "status": "Pending",
    "rowid": "879432",
    "final_x": "3676045.11893",
    "final_y": "519676.40204",
    "longitude": "-90.08570208947674",
    "latitude": "29.92309417518713",
    "geocoded_column": {
      "latitude": "29.92309417518713",
      "longitude": "-90.08570208947674"
    }
  },
  {
    "service_request": "2022-879431",
    "request_type": "Property Maintenance",
    "request_reason": "Property Maintenance",
    "date_created": "2022-05-02T14:59:30.000",
    "date_modified": "2022-05-02T16:29:29.000",
    "request_status": "Pending",
    "responsible_agency": "Department of Code Enforcement",
    "final_address": "5531 Baccich St",
    "address_councildis": "D",
    "status": "Pending",
    "rowid": "879431",
    "final_x": "3687711.23158",
    "final_y": "553621.417367",
    "longitude": "-90.04767450132894",
    "latitude": "30.016076654003257",
    "geocoded_column": {
      "latitude": "30.016076654003257",
      "longitude": "-90.04767450132894"
    }
  },
  {
    "service_request": "2022-879430",
    "request_type": "Property Maintenance",
    "request_reason": "Property Maintenance",
    "date_created": "2022-05-02T14:59:00.000",
    "date_modified": "2022-05-02T14:59:00.000",
    "request_status": "Pending",
    "responsible_agency": "Department of Code Enforcement",
    "final_address": "532 S Hennessey St",
    "address_councildis": "A",
    "status": "Pending",
    "rowid": "879430",
    "final_x": "3669206.83354",
    "final_y": "537457.6914",
    "longitude": "-90.1066871172714",
    "latitude": "29.97218988592311",
    "geocoded_column": {
      "latitude": "29.97218988592311",
      "longitude": "-90.1066871172714"
    }
  },
  {
    "service_request": "2022-879429",
    "request_type": "Roads/Drainage",
    "request_reason": "Street Subsidence (Sinking)",
    "date_created": "2022-05-02T14:58:41.000",
    "date_modified": "2022-05-02T14:58:42.000",
    "request_status": "Pending",
    "responsible_agency": "Department of Public Works",
    "final_address": "2245 Beck St",
    "address_councildis": "C",
    "status": "Pending",
    "rowid": "879429",
    "final_x": "3700380.36432",
    "final_y": "522514.684602",
    "longitude": "-90.00878202144362",
    "latitude": "29.930147462790163",
    "geocoded_column": {
      "latitude": "29.930147462790163",
      "longitude": "-90.00878202144362"
    }
  },
  {
    "service_request": "2022-879428",
    "request_type": "Parks & Parkways",
    "request_reason": "Request Tree Service (Right of Way/Public Property)",
    "date_created": "2022-05-02T14:57:56.000",
    "date_modified": "2022-05-02T14:57:56.000",
    "request_status": "Pending",
    "responsible_agency": "Department of Parks & Parkway",
    "final_address": "2131 Pleasure St",
    "address_councildis": "D",
    "status": "Pending",
    "rowid": "879428",
    "final_x": "3683816.18729",
    "final_y": "545151.216143",
    "longitude": "-90.0602784352836",
    "latitude": "29.992906250159283",
    "geocoded_column": {
      "latitude": "29.992906250159283",
      "longitude": "-90.0602784352836"
    }
  },
  {
    "service_request": "2022-879427",
    "request_type": "Roads/Drainage",
    "request_reason": "Catch Basin - Clogged",
    "date_created": "2022-05-02T14:57:03.000",
    "date_modified": "2022-05-02T14:57:03.000",
    "request_status": "Pending",
    "responsible_agency": "Department of Public Works",
    "final_address": "3138 Constance St",
    "address_councildis": "B",
    "status": "Pending",
    "rowid": "879427",
    "final_x": "3676045.11893",
    "final_y": "519676.40204",
    "longitude": "-90.08570208947674",
    "latitude": "29.92309417518713",
    "geocoded_column": {
      "latitude": "29.92309417518713",
      "longitude": "-90.08570208947674"
    }
  },
  {
    "service_request": "2022-879426",
    "request_type": "Roads/Drainage",
    "request_reason": "Man hole cover issue",
    "date_created": "2022-05-02T14:56:47.000",
    "date_modified": "2022-05-02T14:56:47.000",
    "request_status": "Pending",
    "responsible_agency": "Department of Public Works",
    "final_address": "900 Perdido St",
    "address_councildis": "B",
    "status": "Pending",
    "rowid": "879426",
    "final_x": "3679904.90651",
    "final_y": "529938.874689",
    "longitude": "-90.07316195918962",
    "latitude": "29.951196455396516",
    "geocoded_column": {
      "latitude": "29.951196455396516",
      "longitude": "-90.07316195918962"
    }
  },
  {
    "service_request": "2022-879425",
    "request_type": "Roads/Drainage",
    "request_reason": "Accessibility Ramps, Curbs and Sidewalk Repair",
    "date_created": "2022-05-02T14:53:35.000",
    "date_modified": "2022-05-02T14:53:35.000",
    "request_status": "Pending",
    "responsible_agency": "Department of Public Works",
    "final_address": "200 Carondelet St",
    "address_councildis": "B",
    "status": "Pending",
    "rowid": "879425",
    "final_x": "3680618.51733",
    "final_y": "530414.539586",
    "longitude": "-90.07089218374696",
    "latitude": "29.952482774541487",
    "geocoded_column": {
      "latitude": "29.952482774541487",
      "longitude": "-90.07089218374696"
    }
  },
  {
    "service_request": "2022-879424",
    "request_type": "Roads/Drainage",
    "request_reason": "Accessibility Ramps, Curbs and Sidewalk Repair",
    "date_created": "2022-05-02T14:49:24.000",
    "date_modified": "2022-05-02T14:49:24.000",
    "request_status": "Pending",
    "responsible_agency": "Department of Public Works",
    "final_address": "148 Carondelet St",
    "address_councildis": "B",
    "status": "Pending",
    "rowid": "879424",
    "final_x": "3680660.5604",
    "final_y": "530506.470594",
    "longitude": "-90.0707562324466",
    "latitude": "29.952734280058504",
    "geocoded_column": {
      "latitude": "29.952734280058504",
      "longitude": "-90.0707562324466"
    }
  },
  {
    "service_request": "2022-879423",
    "request_type": "Trash/Recycling",
    "request_reason": "Order Recycling Cart",
    "date_created": "2022-05-02T14:49:24.000",
    "date_modified": "2022-05-02T14:49:24.000",
    "request_status": "Pending",
    "responsible_agency": "Department of Sanitation",
    "final_address": "6301 St Bernard Ave",
    "address_councildis": "D",
    "status": "Pending",
    "rowid": "879423",
    "final_x": "3677103.38907",
    "final_y": "555881.486681",
    "longitude": "-90.08111257789491",
    "latitude": "30.022614029773447",
    "geocoded_column": {
      "latitude": "30.022614029773447",
      "longitude": "-90.08111257789491"
    }
  },
  {
    "service_request": "2022-879422",
    "request_type": "Traffic Signals/Signs/Striping/Streetlights",
    "request_reason": "Traffic Sign Missing/Damaged",
    "date_created": "2022-05-02T14:45:57.000",
    "date_modified": "2022-05-02T14:45:57.000",
    "request_status": "Pending",
    "responsible_agency": "Department of Public Works",
    "final_address": "639 Loyola Ave",
    "address_councildis": "B",
    "status": "Pending",
    "rowid": "879422",
    "final_x": "3678812.45179",
    "final_y": "529120.849216",
    "longitude": "-90.07663971762535",
    "latitude": "29.948980150081656",
    "geocoded_column": {
      "latitude": "29.948980150081656",
      "longitude": "-90.07663971762535"
    }
  },
  {
    "service_request": "2022-879421",
    "request_type": "Trash/Recycling",
    "request_reason": "Illegal Dumping",
    "date_created": "2022-05-02T14:42:13.000",
    "date_modified": "2022-05-02T14:42:14.000",
    "request_status": "Pending",
    "responsible_agency": "Department of Sanitation",
    "final_address": "2222 Eads St",
    "address_councildis": "D",
    "status": "Pending",
    "rowid": "879421",
    "final_x": "3687895.88355",
    "final_y": "540794.655819",
    "longitude": "-90.04754585029609",
    "latitude": "29.980802001826106",
    "geocoded_column": {
      "latitude": "29.980802001826106",
      "longitude": "-90.04754585029609"
    }
  },
  {
    "service_request": "2022-879419",
    "request_type": "Abandoned Vehicles",
    "request_reason": "Abandoned/Junk Vehicles",
    "date_created": "2022-05-02T14:35:35.000",
    "date_modified": "2022-05-02T14:35:35.000",
    "request_status": "Pending",
    "responsible_agency": "Department of Public Works",
    "final_address": "1139 Kerlerec St",
    "address_councildis": "C",
    "status": "Pending",
    "rowid": "879419",
    "final_x": "3682866.32616",
    "final_y": "535831.512007",
    "longitude": "-90.0636050988241",
    "latitude": "29.967309308458706",
    "geocoded_column": {
      "latitude": "29.967309308458706",
      "longitude": "-90.0636050988241"
    }
  },
  {
    "service_request": "2022-879418",
    "request_type": "Trash/Recycling",
    "request_reason": "Repair Trash Cart",
    "date_created": "2022-05-02T14:34:51.000",
    "date_modified": "2022-05-02T14:34:52.000",
    "request_status": "Pending",
    "responsible_agency": "Department of Sanitation",
    "final_address": "1008 Flanders St",
    "address_councildis": "C",
    "status": "Assigned to Contractor",
    "contractor": "Richards Disposal",
    "rowid": "879418",
    "final_x": "3696827.75779",
    "final_y": "527693.486975",
    "longitude": "-90.01980955285966",
    "latitude": "29.944499823008446",
    "geocoded_column": {
      "latitude": "29.944499823008446",
      "longitude": "-90.01980955285966"
    }
  },
  {
    "service_request": "2022-879417",
    "request_type": "Traffic Signals/Signs/Striping/Streetlights",
    "request_reason": "Street Light Outage/Malfunction",
    "date_created": "2022-05-02T14:32:59.000",
    "date_modified": "2022-05-02T14:32:59.000",
    "request_status": "Pending",
    "responsible_agency": "Department of Public Works",
    "final_address": "2113 Harmony St",
    "address_councildis": "B",
    "status": "Pending",
    "contractor": "Royal Engineering",
    "rowid": "879417",
    "final_x": "3674012.20961",
    "final_y": "523561.381563",
    "longitude": "-90.0919863559777",
    "latitude": "29.933837322273995",
    "geocoded_column": {
      "latitude": "29.933837322273995",
      "longitude": "-90.0919863559777"
    }
  },
  {
    "service_request": "2022-879416",
    "request_type": "Traffic Signals/Signs/Striping/Streetlights",
    "request_reason": "Street Light Outage/Malfunction",
    "date_created": "2022-05-02T14:32:43.000",
    "date_modified": "2022-05-02T14:32:44.000",
    "request_status": "Pending",
    "responsible_agency": "Department of Public Works",
    "final_address": "7600 Cohn St",
    "address_councildis": "A",
    "status": "Pending",
    "contractor": "Royal Engineering",
    "rowid": "879416",
    "final_x": "3664900.61536",
    "final_y": "528982.824832",
    "longitude": "-90.1205702199013",
    "latitude": "29.949012832081646",
    "geocoded_column": {
      "latitude": "29.949012832081646",
      "longitude": "-90.1205702199013"
    }
  },
  {
    "service_request": "2022-879415",
    "request_type": "Trash/Recycling",
    "request_reason": "Illegal Dumping",
    "date_created": "2022-05-02T14:30:32.000",
    "date_modified": "2022-05-02T14:30:32.000",
    "request_status": "Pending",
    "responsible_agency": "Department of Sanitation",
    "final_address": "2112 Harmony St",
    "address_councildis": "B",
    "status": "Pending",
    "rowid": "879415",
    "final_x": "3673961.31816",
    "final_y": "523541.614523",
    "longitude": "-90.09214769419879",
    "latitude": "29.933784485219324",
    "geocoded_column": {
      "latitude": "29.933784485219324",
      "longitude": "-90.09214769419879"
    }
  },
  {
    "service_request": "2022-879414",
    "request_type": "Trash/Recycling",
    "request_reason": "Missed Trash Pick-Up",
    "date_created": "2022-05-02T14:29:45.000",
    "date_modified": "2022-05-02T14:29:45.000",
    "request_status": "Pending",
    "responsible_agency": "Department of Sanitation",
    "final_address": "6871 Louisville St, New Orleans, Louisiana, 70124",
    "address_councildis": "A",
    "status": "Assigned to Contractor",
    "contractor": "Metro Disposal",
    "rowid": "879414",
    "final_x": "3668377.44154",
    "final_y": "553291.070679",
    "longitude": "-90.10877208598923",
    "latitude": "30.015750624470876",
    "geocoded_column": {
      "latitude": "30.015750624470876",
      "longitude": "-90.10877208598923"
    }
  },
  {
    "service_request": "2022-879413",
    "request_type": "Trash/Recycling",
    "request_reason": "Request a Large Item Pick Up",
    "date_created": "2022-05-02T14:29:26.000",
    "date_modified": "2022-05-02T14:29:27.000",
    "request_status": "Pending",
    "responsible_agency": "Department of Sanitation",
    "final_address": "1833 Esplanade Ave",
    "address_councildis": "D",
    "status": "Assigned to Contractor",
    "contractor": "Metro Disposal",
    "rowid": "879413",
    "final_x": "3680533.00661",
    "final_y": "537229.508232",
    "longitude": "-90.07092511080207",
    "latitude": "29.971224206433416",
    "geocoded_column": {
      "latitude": "29.971224206433416",
      "longitude": "-90.07092511080207"
    }
  },
  {
    "service_request": "2022-879412",
    "request_type": "Traffic Signals/Signs/Striping/Streetlights",
    "request_reason": "Street Light Outage/Malfunction",
    "date_created": "2022-05-02T14:22:29.000",
    "date_modified": "2022-05-02T14:22:29.000",
    "request_status": "Pending",
    "responsible_agency": "Department of Public Works",
    "final_address": "7421 Sheffield St",
    "address_councildis": "E",
    "status": "Pending",
    "contractor": "Royal Engineering",
    "rowid": "879412",
    "final_x": "3699493.3537",
    "final_y": "559711.864925",
    "longitude": "-90.01022623807616",
    "latitude": "30.032454294719255",
    "geocoded_column": {
      "latitude": "30.032454294719255",
      "longitude": "-90.01022623807616"
    }
  },
  {
    "service_request": "2022-879411",
    "request_type": "Trash/Recycling",
    "request_reason": "Return Recycling Cart",
    "date_created": "2022-05-02T14:20:42.000",
    "date_modified": "2022-05-02T14:20:42.000",
    "request_status": "Pending",
    "responsible_agency": "Department of Sanitation",
    "final_address": "2546 Dumaine St",
    "address_councildis": "D",
    "status": "Pending",
    "rowid": "879411",
    "final_x": "3677637.75342",
    "final_y": "537106.053896",
    "longitude": "-90.08007298761224",
    "latitude": "29.97097213989023",
    "geocoded_column": {
      "latitude": "29.97097213989023",
      "longitude": "-90.08007298761224"
    }
  },
  {
    "service_request": "2022-879410",
    "request_type": "Trash/Recycling",
    "request_reason": "Return Trash Cart",
    "date_created": "2022-05-02T14:19:14.000",
    "date_modified": "2022-05-02T14:19:14.000",
    "request_status": "Pending",
    "responsible_agency": "Department of Sanitation",
    "final_address": "2548 Dumaine St",
    "address_councildis": "D",
    "status": "Assigned to Contractor",
    "contractor": "Richards Disposal",
    "rowid": "879410",
    "final_x": "3677629.14235",
    "final_y": "537113.276104",
    "longitude": "-90.08009993303688",
    "latitude": "29.970992257462196",
    "geocoded_column": {
      "latitude": "29.970992257462196",
      "longitude": "-90.08009993303688"
    }
  },
  {
    "service_request": "2022-879409",
    "request_type": "Property Maintenance",
    "request_reason": "Property Maintenance",
    "date_created": "2022-05-02T14:18:22.000",
    "date_modified": "2022-05-02T14:18:22.000",
    "request_status": "Pending",
    "responsible_agency": "Department of Code Enforcement",
    "final_address": "5308 Paris Ave",
    "address_councildis": "D",
    "status": "Pending",
    "rowid": "879409",
    "final_x": "3679060.26299",
    "final_y": "551677.057365",
    "longitude": "-90.0750751996671",
    "latitude": "30.010994424097493",
    "geocoded_column": {
      "latitude": "30.010994424097493",
      "longitude": "-90.0750751996671"
    }
  },
  {
    "service_request": "2022-879408",
    "request_type": "Trash/Recycling",
    "request_reason": "MIssed Recycling Pick-Up",
    "date_created": "2022-05-02T14:18:18.000",
    "date_modified": "2022-05-02T14:18:19.000",
    "request_status": "Pending",
    "responsible_agency": "Department of Sanitation",
    "final_address": "8303 Belfast St",
    "address_councildis": "A",
    "status": "Assigned to Contractor",
    "contractor": "Richards Disposal",
    "rowid": "879408",
    "final_x": "3665044.60084",
    "final_y": "532920.002948",
    "longitude": "-90.11998395507939",
    "latitude": "29.95983460043627",
    "geocoded_column": {
      "latitude": "29.95983460043627",
      "longitude": "-90.11998395507939"
    }
  },
  {
    "service_request": "2022-879407",
    "request_type": "Trash/Recycling",
    "request_reason": "Repair Recycling Cart",
    "date_created": "2022-05-02T14:16:26.000",
    "date_modified": "2022-05-02T14:16:26.000",
    "request_status": "Pending",
    "responsible_agency": "Department of Sanitation",
    "final_address": "1206 Harmony St",
    "address_councildis": "B",
    "status": "Pending",
    "rowid": "879407",
    "final_x": "3675553.15713",
    "final_y": "520386.755768",
    "longitude": "-90.08723063999767",
    "latitude": "29.925062138724076",
    "geocoded_column": {
      "latitude": "29.925062138724076",
      "longitude": "-90.08723063999767"
    }
  },
  {
    "service_request": "2022-879406",
    "request_type": "Mosquito, Termite & Rodent Control",
    "request_reason": "Mosquito Complaint",
    "date_created": "2022-05-02T14:15:39.000",
    "date_modified": "2022-05-02T14:15:39.000",
    "request_status": "Pending",
    "responsible_agency": "Mosquito, Termite & Rodent Control Board",
    "final_address": "2601 Treasure St",
    "address_councildis": "D",
    "status": "Pending",
    "rowid": "879406",
    "final_x": "3687501.08623",
    "final_y": "544321.430095",
    "longitude": "-90.04866790446528",
    "latitude": "29.99051155071232",
    "geocoded_column": {
      "latitude": "29.99051155071232",
      "longitude": "-90.04866790446528"
    }
  },
  {
    "service_request": "2022-879405",
    "request_type": "Roads/Drainage",
    "request_reason": "Street Subsidence (Sinking)",
    "date_created": "2022-05-02T14:13:43.000",
    "date_modified": "2022-05-02T14:13:43.000",
    "request_status": "Pending",
    "responsible_agency": "Department of Public Works",
    "final_address": "4606 Toulouse St",
    "address_councildis": "A",
    "status": "Pending",
    "rowid": "879405",
    "final_x": "3670403.15226",
    "final_y": "541054.511372",
    "longitude": "-90.10278694049548",
    "latitude": "29.9820446550026",
    "geocoded_column": {
      "latitude": "29.9820446550026",
      "longitude": "-90.10278694049548"
    }
  },
  {
    "service_request": "2022-879404",
    "request_type": "Traffic Signals/Signs/Striping/Streetlights",
    "request_reason": "Street Light Outage/Malfunction",
    "date_created": "2022-05-02T14:11:38.000",
    "date_modified": "2022-05-02T14:11:39.000",
    "request_status": "Pending",
    "responsible_agency": "Department of Public Works",
    "final_address": "501 Tchoupitoulas St",
    "address_councildis": "B",
    "status": "Pending",
    "contractor": "Royal Engineering",
    "rowid": "879404",
    "final_x": "3681811.71298",
    "final_y": "528981.979328",
    "longitude": "-90.06717460171518",
    "latitude": "29.948507515789377",
    "geocoded_column": {
      "latitude": "29.948507515789377",
      "longitude": "-90.06717460171518"
    }
  },
  {
    "service_request": "2022-879403",
    "request_type": "Trash/Recycling",
    "request_reason": "Order Trash Cart",
    "date_created": "2022-05-02T14:10:03.000",
    "date_modified": "2022-05-02T14:10:03.000",
    "request_status": "Pending",
    "responsible_agency": "Department of Sanitation",
    "final_address": "81 Flamingo St",
    "address_councildis": "D",
    "status": "Assigned to Contractor",
    "contractor": "Metro Disposal",
    "rowid": "879403",
    "final_x": "3674386.78811",
    "final_y": "555832.358297",
    "longitude": "-90.08969809593215",
    "latitude": "30.02256029616811",
    "geocoded_column": {
      "latitude": "30.02256029616811",
      "longitude": "-90.08969809593215"
    }
  },
  {
    "service_request": "2022-879402",
    "request_type": "Abandoned Vehicles",
    "request_reason": "Abandoned/Junk Vehicles",
    "date_created": "2022-05-02T14:09:13.000",
    "date_modified": "2022-05-02T14:10:56.000",
    "request_status": "Pending",
    "responsible_agency": "Department of Public Works",
    "final_address": "PORT ST & DAUPHINE ST",
    "address_councildis": "C",
    "status": "Pending",
    "rowid": "879402",
    "final_x": "3687127.7",
    "final_y": "535253.48",
    "longitude": "-90.05016809623349",
    "latitude": "29.965589391685963",
    "geocoded_column": {
      "latitude": "29.965589391685963",
      "longitude": "-90.05016809623349"
    }
  },
  {
    "service_request": "2022-879399",
    "request_type": "Trash/Recycling",
    "request_reason": "Order Recycling Cart",
    "date_created": "2022-05-02T14:04:22.000",
    "date_modified": "2022-05-02T14:04:23.000",
    "request_status": "Pending",
    "responsible_agency": "Department of Sanitation",
    "final_address": "132 Pine Valley Dr",
    "address_councildis": "C",
    "status": "Pending",
    "rowid": "879399",
    "final_x": "3714404.27205",
    "final_y": "515174.623411",
    "longitude": "-89.96478805403909",
    "latitude": "29.90951169548559",
    "geocoded_column": {
      "latitude": "29.90951169548559",
      "longitude": "-89.96478805403909"
    }
  },
  {
    "service_request": "2022-879398",
    "request_type": "Property Maintenance",
    "request_reason": "Property Maintenance",
    "date_created": "2022-05-02T14:03:05.000",
    "date_modified": "2022-05-02T14:03:05.000",
    "request_status": "Pending",
    "responsible_agency": "Department of Code Enforcement",
    "final_address": "6725 Argonne Blvd",
    "address_councildis": "A",
    "status": "Pending",
    "rowid": "879398",
    "final_x": "3670670.01326",
    "final_y": "552068.89871",
    "longitude": "-90.10157008872388",
    "latitude": "30.01232251669761",
    "geocoded_column": {
      "latitude": "30.01232251669761",
      "longitude": "-90.10157008872388"
    }
  },
  {
    "service_request": "2022-879397",
    "request_type": "Abandoned Vehicles",
    "request_reason": "Abandoned/Junk Vehicles",
    "date_created": "2022-05-02T14:01:57.000",
    "date_modified": "2022-05-02T14:01:57.000",
    "request_status": "Pending",
    "responsible_agency": "Department of Public Works",
    "final_address": "1427 Constance St, New Orleans, Louisiana, 70130",
    "address_councildis": "B",
    "status": "Pending",
    "rowid": "879397",
    "final_x": "3680642.55522",
    "final_y": "524224.814844",
    "longitude": "-90.07103159088223",
    "latitude": "29.935462370716525",
    "geocoded_column": {
      "latitude": "29.935462370716525",
      "longitude": "-90.07103159088223"
    }
  },
  {
    "service_request": "2022-879396",
    "request_type": "Trash/Recycling",
    "request_reason": "Order Trash Cart",
    "date_created": "2022-05-02T14:01:40.000",
    "date_modified": "2022-05-02T14:01:41.000",
    "request_status": "Pending",
    "responsible_agency": "Department of Sanitation",
    "final_address": "1029 Barracks St",
    "address_councildis": "C",
    "status": "Assigned to Contractor",
    "contractor": "Empire Services",
    "rowid": "879396",
    "final_x": "3682849.82031",
    "final_y": "535032.671366",
    "longitude": "-90.06368517777754",
    "latitude": "29.96511327470576",
    "geocoded_column": {
      "latitude": "29.96511327470576",
      "longitude": "-90.06368517777754"
    }
  },
  {
    "service_request": "2022-879395",
    "request_type": "Trash/Recycling",
    "request_reason": "Missed Trash Pick-Up",
    "date_created": "2022-05-02T13:59:50.000",
    "date_modified": "2022-05-02T13:59:50.000",
    "request_status": "Pending",
    "responsible_agency": "Department of Sanitation",
    "final_address": "720 Egania St",
    "address_councildis": "E",
    "status": "Assigned to Contractor",
    "contractor": "Metro Disposal",
    "rowid": "879395",
    "final_x": "3696427.4625",
    "final_y": "532788.141316",
    "longitude": "-90.02088915461565",
    "latitude": "29.958520949264056",
    "geocoded_column": {
      "latitude": "29.958520949264056",
      "longitude": "-90.02088915461565"
    }
  },
  {
    "service_request": "2022-879394",
    "request_type": "Trash/Recycling",
    "request_reason": "Request a Large Item Pick Up",
    "date_created": "2022-05-02T13:59:29.000",
    "date_modified": "2022-05-02T13:59:29.000",
    "request_status": "Pending",
    "responsible_agency": "Department of Sanitation",
    "final_address": "62 Lakewood Pl",
    "address_councildis": "C",
    "status": "Assigned to Contractor",
    "contractor": "Richards Disposal",
    "rowid": "879394",
    "final_x": "3700963.29911",
    "final_y": "512712.490865",
    "longitude": "-90.00729990357823",
    "latitude": "29.903176236147445",
    "geocoded_column": {
      "latitude": "29.903176236147445",
      "longitude": "-90.00729990357823"
    }
  },
  {
    "service_request": "2022-879393",
    "request_type": "Trash/Recycling",
    "request_reason": "Repair Trash Cart",
    "date_created": "2022-05-02T13:57:47.000",
    "date_modified": "2022-05-02T13:57:48.000",
    "request_status": "Pending",
    "responsible_agency": "Department of Sanitation",
    "final_address": "1624 Broadway St",
    "address_councildis": "A",
    "status": "Assigned to Contractor",
    "contractor": "Richards Disposal",
    "rowid": "879393",
    "final_x": "3665042.58196",
    "final_y": "527897.905791",
    "longitude": "-90.1201582364038",
    "latitude": "29.94602552231003",
    "geocoded_column": {
      "latitude": "29.94602552231003",
      "longitude": "-90.1201582364038"
    }
  },
  {
    "service_request": "2022-879392",
    "request_type": "Abandoned Vehicles",
    "request_reason": "Abandoned/Junk Vehicles",
    "date_created": "2022-05-02T13:57:28.000",
    "date_modified": "2022-05-02T13:57:28.000",
    "request_status": "Pending",
    "responsible_agency": "Department of Public Works",
    "final_address": "1427 Constance St",
    "address_councildis": "B",
    "status": "Pending",
    "rowid": "879392",
    "final_x": "3680642.55522",
    "final_y": "524224.814844",
    "longitude": "-90.07103159088223",
    "latitude": "29.935462370716525",
    "geocoded_column": {
      "latitude": "29.935462370716525",
      "longitude": "-90.07103159088223"
    }
  },
  {
    "service_request": "2022-879391",
    "request_type": "Trash/Recycling",
    "request_reason": "Order Trash Cart",
    "date_created": "2022-05-02T13:54:57.000",
    "date_modified": "2022-05-02T13:54:58.000",
    "request_status": "Pending",
    "responsible_agency": "Department of Sanitation",
    "final_address": "1200 Baronne St",
    "address_councildis": "B",
    "status": "Assigned to Contractor",
    "contractor": "Richards Disposal",
    "rowid": "879391",
    "final_x": "3678958.17986",
    "final_y": "526781.195902",
    "longitude": "-90.07626063507188",
    "latitude": "29.942542487712537",
    "geocoded_column": {
      "latitude": "29.942542487712537",
      "longitude": "-90.07626063507188"
    }
  },
  {
    "service_request": "2022-879390",
    "request_type": "Trash/Recycling",
    "request_reason": "Order Trash Cart",
    "date_created": "2022-05-02T13:53:33.000",
    "date_modified": "2022-05-02T13:53:33.000",
    "request_status": "Pending",
    "responsible_agency": "Department of Sanitation",
    "final_address": "901 Wagner St",
    "address_councildis": "C",
    "status": "Assigned to Contractor",
    "contractor": "Richards Disposal",
    "rowid": "879390",
    "final_x": "3690461.00214",
    "final_y": "528182.675648",
    "longitude": "-90.03989375568219",
    "latitude": "29.946044071947455",
    "geocoded_column": {
      "latitude": "29.946044071947455",
      "longitude": "-90.03989375568219"
    }
  },
  {
    "service_request": "2022-879389",
    "request_type": "Trash/Recycling",
    "request_reason": "Request a Large Item Pick Up",
    "date_created": "2022-05-02T13:51:58.000",
    "date_modified": "2022-05-02T13:51:59.000",
    "request_status": "Pending",
    "responsible_agency": "Department of Sanitation",
    "final_address": "901 Wagner St",
    "address_councildis": "C",
    "status": "Assigned to Contractor",
    "contractor": "Richards Disposal",
    "rowid": "879389",
    "final_x": "3690461.00214",
    "final_y": "528182.675648",
    "longitude": "-90.03989375568219",
    "latitude": "29.946044071947455",
    "geocoded_column": {
      "latitude": "29.946044071947455",
      "longitude": "-90.03989375568219"
    }
  },
  {
    "service_request": "2022-879386",
    "request_type": "Abandoned Vehicles",
    "request_reason": "Abandoned/Junk Vehicles",
    "date_created": "2022-05-02T13:49:00.000",
    "date_modified": "2022-05-02T13:49:00.000",
    "request_status": "Pending",
    "responsible_agency": "Department of Public Works",
    "final_address": "1427 Constance St",
    "address_councildis": "B",
    "status": "Pending",
    "rowid": "879386",
    "final_x": "3680642.55522",
    "final_y": "524224.814844",
    "longitude": "-90.07103159088223",
    "latitude": "29.935462370716525",
    "geocoded_column": {
      "latitude": "29.935462370716525",
      "longitude": "-90.07103159088223"
    }
  },
  {
    "service_request": "2022-879385",
    "request_type": "Health Related Questions",
    "request_reason": "Noise Ordinance Complaint",
    "date_created": "2022-05-02T13:48:35.000",
    "date_modified": "2022-05-02T15:35:32.000",
    "request_status": "Pending",
    "responsible_agency": "Department of Code Enforcement",
    "final_address": "5965 Memphis St",
    "address_councildis": "A",
    "status": "Pending",
    "rowid": "879385",
    "final_x": "3669260.83706",
    "final_y": "547083.854993",
    "longitude": "-90.10619098307292",
    "latitude": "29.998656964879576",
    "geocoded_column": {
      "latitude": "29.998656964879576",
      "longitude": "-90.10619098307292"
    }
  },