[
  {
    "service_request": "2022-896043",
    "request_type": "Traffic Signals/Signs/Striping/Streetlights",
    "request_reason": "Traffic Sign Missing/Damaged",
    "date_created": "2022-07-01T01:33:39.000",
    "date_modified": "2022-07-01T01:33:40.000",
    "request_status": "Pending",
    "responsible_agency": "Department of Public Works",
    "final_address": "CHARTRES ST & CONTI ST",
    "address_councildis": "C",
    "status": "Pending",
    "rowid": "896043",
    "final_x": "3682169.3",
    "final_y": "531369.18",
    "longitude": "-90.06596218251738",
    "latitude": "29.95506064048952",
    "geocoded_column": {
      "latitude": "29.95506064048952",
      "longitude": "-90.06596218251738"
    }
  },
  {
    "service_request": "2022-896041",
    "request_type": "Trash/Recycling",
    "request_reason": "Request a Large Item Pick Up",
    "date_created": "2022-06-30T23:38:49.000",
    "date_modified": "2022-06-30T23:38:50.000",
    "request_status": "Pending",
    "responsible_agency": "Department of Sanitation",
    "final_address": "2133 Robert St",
    "address_councildis": "B",
    "status": "Assigned to Contractor",
    "contractor": "Richards Disposal",
    "rowid": "896041",
    "final_x": "3668836.10625",
    "final_y": "523459.659067",
    "longitude": "-90.10833056393277",
    "latitude": "29.933710792035704",
    "geocoded_column": {
      "latitude": "29.933710792035704",
      "longitude": "-90.10833056393277"
    }
  },
  {
    "service_request": "2022-896040",
    "request_type": "Traffic Signals/Signs/Striping/Streetlights",
    "request_reason": "Street Light Outage/Malfunction",
    "date_created": "2022-06-30T23:13:21.000",
    "date_modified": "2022-06-30T23:13:23.000",
    "request_status": "Pending",
    "responsible_agency": "Department of Public Works",
    "final_address": "2354 Constance St",
    "address_councildis": "B",
    "status": "Pending",
    "contractor": "Royal Engineering",
    "rowid": "896040",
    "final_x": "3678404.58926",
    "final_y": "521241.892665",
    "longitude": "-90.07820001826036",
    "latitude": "29.927327913154485",
    "geocoded_column": {
      "latitude": "29.927327913154485",
      "longitude": "-90.07820001826036"
    }
  },
  {
    "service_request": "2022-896039",
    "request_type": "Traffic Signals/Signs/Striping/Streetlights",
    "request_reason": "Street Light Outage/Malfunction",
    "date_created": "2022-06-30T23:10:23.000",
    "date_modified": "2022-06-30T23:10:25.000",
    "request_status": "Pending",
    "responsible_agency": "Department of Public Works",
    "final_address": "2354 Constance St",
    "address_councildis": "B",
    "status": "Pending",
    "contractor": "Royal Engineering",
    "rowid": "896039",
    "final_x": "3678404.58926",
    "final_y": "521241.892665",
    "longitude": "-90.07820001826036",
    "latitude": "29.927327913154485",
    "geocoded_column": {
      "latitude": "29.927327913154485",
      "longitude": "-90.07820001826036"
    }
  },
  {
    "service_request": "2022-896037",
    "request_type": "Traffic Signals/Signs/Striping/Streetlights",
    "request_reason": "Street Light Outage/Malfunction",
    "date_created": "2022-06-30T22:21:06.000",
    "date_modified": "2022-06-30T22:21:08.000",
    "request_status": "Pending",
    "responsible_agency": "Department of Public Works",
    "final_address": "2908 Cleveland Ave",
    "address_councildis": "B",
    "status": "Pending",
    "contractor": "Royal Engineering",
    "rowid": "896037",
    "final_x": "3674209.51412",
    "final_y": "535393.827654",
    "longitude": "-90.09095845819691",
    "latitude": "29.966366753371883",
    "geocoded_column": {
      "latitude": "29.966366753371883",
      "longitude": "-90.09095845819691"
    }
  },
  {
    "service_request": "2022-896036",
    "request_type": "Traffic Signals/Signs/Striping/Streetlights",
    "request_reason": "Street Light Outage/Malfunction",
    "date_created": "2022-06-30T21:51:06.000",
    "date_modified": "2022-06-30T21:51:08.000",
    "request_status": "Pending",
    "responsible_agency": "Department of Public Works",
    "final_address": "4025 Octavia St",
    "address_councildis": "B",
    "status": "Pending",
    "contractor": "Royal Engineering",
    "rowid": "896036",
    "final_x": "3668993.14964",
    "final_y": "530205.345025",
    "longitude": "-90.10760697893576",
    "latitude": "29.952254624946555",
    "geocoded_column": {
      "latitude": "29.952254624946555",
      "longitude": "-90.10760697893576"
    }
  },
  {
    "service_request": "2022-896035",
    "request_type": "Roads/Drainage",
    "request_reason": "Street Subsidence (Sinking)",
    "date_created": "2022-06-30T21:46:02.000",
    "date_modified": "2022-06-30T21:46:02.000",
    "request_status": "Pending",
    "responsible_agency": "Department of Public Works",
    "final_address": "2122 N Robertson St",
    "address_councildis": "C",
    "status": "Pending",
    "rowid": "896035",
    "final_x": "3684660.21737",
    "final_y": "537674.41844",
    "longitude": "-90.05787519246994",
    "latitude": "29.97232188022525",
    "geocoded_column": {
      "latitude": "29.97232188022525",
      "longitude": "-90.05787519246994"
    }
  },
  {
    "service_request": "2022-896034",
    "request_type": "Trash/Recycling",
    "request_reason": "Request a Large Item Pick Up",
    "date_created": "2022-06-30T21:26:31.000",
    "date_modified": "2022-06-30T21:26:33.000",
    "request_status": "Pending",
    "responsible_agency": "Department of Sanitation",
    "final_address": "1519 N Dorgenois St",
    "address_councildis": "D",
    "status": "Assigned to Contractor",
    "contractor": "Metro Disposal",
    "rowid": "896034",
    "final_x": "3679173.85007",
    "final_y": "539367.881162",
    "longitude": "-90.07514335991245",
    "latitude": "29.977145099460692",
    "geocoded_column": {
      "latitude": "29.977145099460692",
      "longitude": "-90.07514335991245"
    }
  },
  {
    "service_request": "2022-896033",
    "request_type": "Trash/Recycling",
    "request_reason": "MIssed Recycling Pick-Up",
    "date_created": "2022-06-30T21:16:58.000",
    "date_modified": "2022-06-30T21:17:00.000",
    "request_status": "Pending",
    "responsible_agency": "Department of Sanitation",
    "final_address": "2829 Joseph St",
    "address_councildis": "A",
    "status": "Assigned to Contractor",
    "contractor": "Richards Disposal",
    "rowid": "896033",
    "final_x": "3667855.82426",
    "final_y": "526363.739774",
    "longitude": "-90.11132750173452",
    "latitude": "29.94172486157745",
    "geocoded_column": {
      "latitude": "29.94172486157745",
      "longitude": "-90.11132750173452"
    }
  },
  {
    "service_request": "2022-896032",
    "request_type": "Trash/Recycling",
    "request_reason": "Request a Large Item Pick Up",
    "date_created": "2022-06-30T21:07:08.000",
    "date_modified": "2022-06-30T21:07:09.000",
    "request_status": "Pending",
    "responsible_agency": "Department of Sanitation",
    "final_address": "1627 N Robertson St",
    "address_councildis": "C",
    "status": "Assigned to Contractor",
    "contractor": "Metro Disposal",
    "rowid": "896032",
    "final_x": "3682568.63157",
    "final_y": "537659.582536",
    "longitude": "-90.06448129309173",
    "latitude": "29.9723449379526",
    "geocoded_column": {
      "latitude": "29.9723449379526",
      "longitude": "-90.06448129309173"
    }
  },
  {
    "service_request": "2022-896030",
    "request_type": "Abandoned Vehicles",
    "request_reason": "Abandoned/Junk Vehicles",
    "date_created": "2022-06-30T20:46:46.000",
    "date_modified": "2022-06-30T20:46:46.000",
    "request_status": "Pending",
    "responsible_agency": "Department of Public Works",
    "final_address": "3801 Tchoupitoulas St",
    "address_councildis": "B",
    "status": "Pending",
    "rowid": "896030",
    "final_x": "3673671.26804",
    "final_y": "517749.470262",
    "longitude": "-90.09326126339094",
    "latitude": "29.917866587178136",
    "geocoded_column": {
      "latitude": "29.917866587178136",
      "longitude": "-90.09326126339094"
    }
  },
  {
    "service_request": "2022-896029",
    "request_type": "Abandoned Vehicles",
    "request_reason": "Abandoned/Junk Vehicles",
    "date_created": "2022-06-30T20:30:31.000",
    "date_modified": "2022-06-30T20:30:31.000",
    "request_status": "Pending",
    "responsible_agency": "Department of Public Works",
    "final_address": "2250 N Johnson St",
    "address_councildis": "D",
    "status": "Pending",
    "rowid": "896029",
    "final_x": "3685275.77231",
    "final_y": "539631.910986",
    "longitude": "-90.05586224471328",
    "latitude": "29.977685445194567",
    "geocoded_column": {
      "latitude": "29.977685445194567",
      "longitude": "-90.05586224471328"
    }
  },
  {
    "service_request": "2022-896028",
    "request_type": "Abandoned Vehicles",
    "request_reason": "Abandoned/Junk Vehicles",
    "date_created": "2022-06-30T20:28:20.000",
    "date_modified": "2022-06-30T20:28:20.000",
    "request_status": "Pending",
    "responsible_agency": "Department of Public Works",
    "final_address": "1941 Marigny St",
    "address_councildis": "D",
    "status": "Pending",
    "rowid": "896028",
    "final_x": "3685198.60047",
    "final_y": "539623.03745",
    "longitude": "-90.05610629173594",
    "latitude": "29.977663411579922",
    "geocoded_column": {
      "latitude": "29.977663411579922",
      "longitude": "-90.05610629173594"
    }
  },
  {
    "service_request": "2022-896027",
    "request_type": "Property Maintenance",
    "request_reason": "Property Maintenance",
    "date_created": "2022-06-30T20:18:26.000",
    "date_modified": "2022-06-30T20:18:26.000",
    "request_status": "Pending",
    "responsible_agency": "Department of Code Enforcement",
    "final_address": "714 Soraparu St",
    "address_councildis": "B",
    "status": "Pending",
    "rowid": "896027",
    "final_x": "3679031.87925",
    "final_y": "520551.76076",
    "longitude": "-90.07624372206739",
    "latitude": "29.92541136702356",
    "geocoded_column": {
      "latitude": "29.92541136702356",
      "longitude": "-90.07624372206739"
    }
  },
  {
    "service_request": "2022-896026",
    "request_type": "Property Maintenance",
    "request_reason": "Property Maintenance",
    "date_created": "2022-06-30T20:06:20.000",
    "date_modified": "2022-06-30T20:06:20.000",
    "request_status": "Pending",
    "responsible_agency": "Department of Code Enforcement",
    "final_address": "706 Lang St",
    "address_councildis": "C",
    "status": "Pending",
    "rowid": "896026",
    "final_x": "3702071.32138",
    "final_y": "520029.494776",
    "longitude": "-90.00353503018813",
    "latitude": "29.923260195062973",
    "geocoded_column": {
      "latitude": "29.923260195062973",
      "longitude": "-90.00353503018813"
    }
  },
  {
    "service_request": "2022-896025",
    "request_type": "Trash/Recycling",
    "request_reason": "Request a Large Item Pick Up",
    "date_created": "2022-06-30T19:57:40.000",
    "date_modified": "2022-06-30T19:57:42.000",
    "request_status": "Pending",
    "responsible_agency": "Department of Sanitation",
    "final_address": "3621 Post Oak Ave",
    "address_councildis": "C",
    "status": "Assigned to Contractor",
    "contractor": "Richards Disposal",
    "rowid": "896025",
    "final_x": "3703697.36842",
    "final_y": "514525.611379",
    "longitude": "-89.99860463235599",
    "latitude": "29.90807441751999",
    "geocoded_column": {
      "latitude": "29.90807441751999",
      "longitude": "-89.99860463235599"
    }
  },
  {
    "service_request": "2022-896024",
    "request_type": "Trash/Recycling",
    "request_reason": "Replace Trash Cart",
    "date_created": "2022-06-30T19:53:24.000",
    "date_modified": "2022-06-30T19:53:26.000",
    "request_status": "Pending",
    "responsible_agency": "Department of Sanitation",
    "final_address": "644 N Pierce St",
    "address_councildis": "A",
    "status": "Assigned to Contractor",
    "contractor": "Richards Disposal",
    "rowid": "896024",
    "final_x": "3672861.62728",
    "final_y": "539713.813898",
    "longitude": "-90.09506764243277",
    "latitude": "29.978285369062704",
    "geocoded_column": {
      "latitude": "29.978285369062704",
      "longitude": "-90.09506764243277"
    }
  },
  {
    "service_request": "2022-896023",
    "request_type": "Traffic Signals/Signs/Striping/Streetlights",
    "request_reason": "Disabled Parking Sign ",
    "date_created": "2022-06-30T19:35:16.000",
    "date_modified": "2022-06-30T19:35:16.000",
    "request_status": "Pending",
    "responsible_agency": "Department of Public Works",
    "final_address": "134 Royal St",
    "address_councildis": "C",
    "status": "Pending",
    "rowid": "896023",
    "final_x": "3681435.90716",
    "final_y": "530956.974594",
    "longitude": "-90.06829233128573",
    "latitude": "29.953949499503388",
    "geocoded_column": {
      "latitude": "29.953949499503388",
      "longitude": "-90.06829233128573"
    }
  },
  {
    "service_request": "2022-896022",
    "request_type": "Trash/Recycling",
    "request_reason": "Request a Large Item Pick Up",
    "date_created": "2022-06-30T19:35:06.000",
    "date_modified": "2022-06-30T19:35:08.000",
    "request_status": "Pending",
    "responsible_agency": "Department of Sanitation",
    "final_address": "4515 Walmsley Ave",
    "address_councildis": "B",
    "status": "Assigned to Contractor",
    "contractor": "Richards Disposal",
    "rowid": "896022",
    "final_x": "3669231.56474",
    "final_y": "530341.649026",
    "longitude": "-90.10684956535319",
    "latitude": "29.952622401448103",
    "geocoded_column": {
      "latitude": "29.952622401448103",
      "longitude": "-90.10684956535319"
    }
  },
  {
    "service_request": "2022-896021",
    "request_type": "Roads/Drainage",
    "request_reason": "Catch Basin - Broken/Damage",
    "date_created": "2022-06-30T19:09:33.000",
    "date_modified": "2022-06-30T19:09:33.000",
    "request_status": "Pending",
    "responsible_agency": "Department of Public Works",
    "final_address": "2716 Royal St",
    "address_councildis": "C",
    "status": "Pending",
    "rowid": "896021",
    "final_x": "3687184.34799",
    "final_y": "534831.747334",
    "longitude": "-90.05000412079282",
    "latitude": "29.9644280290077",
    "geocoded_column": {
      "latitude": "29.9644280290077",
      "longitude": "-90.05000412079282"
    }
  },
  {
    "service_request": "2022-896020",
    "request_type": "Abandoned Vehicles",
    "request_reason": "Abandoned/Junk Vehicles",
    "date_created": "2022-06-30T19:07:16.000",
    "date_modified": "2022-06-30T19:07:16.000",
    "request_status": "Pending",
    "responsible_agency": "Department of Public Works",
    "final_address": "2315 Valmont St",
    "address_councildis": "B",
    "status": "Pending",
    "rowid": "896020",
    "final_x": "3668293.8939",
    "final_y": "524083.618428",
    "longitude": "-90.11002127726579",
    "latitude": "29.935442408322714",
    "geocoded_column": {
      "latitude": "29.935442408322714",
      "longitude": "-90.11002127726579"
    }
  },
  {
    "service_request": "2022-896019",
    "request_type": "Trash/Recycling",
    "request_reason": "Request a Large Item Pick Up",
    "date_created": "2022-06-30T19:00:14.000",
    "date_modified": "2022-06-30T19:00:16.000",
    "request_status": "Pending",
    "responsible_agency": "Department of Sanitation",
    "final_address": "2030 Jefferson Ave",
    "address_councildis": "A",
    "status": "Assigned to Contractor",
    "contractor": "Richards Disposal",
    "rowid": "896019",
    "final_x": "3667652.09274",
    "final_y": "523277.828155",
    "longitude": "-90.1120745672925",
    "latitude": "29.933245567747143",
    "geocoded_column": {
      "latitude": "29.933245567747143",
      "longitude": "-90.1120745672925"
    }
  },
  {
    "service_request": "2022-896018",
    "request_type": "Roads/Drainage",
    "request_reason": "Pothole",
    "date_created": "2022-06-30T18:56:20.000",
    "date_modified": "2022-06-30T18:56:20.000",
    "request_status": "Pending",
    "responsible_agency": "Department of Public Works",
    "final_address": "4600 Wilson Ave",
    "address_councildis": "E",
    "status": "Pending",
    "rowid": "896018",
    "final_x": "3702996.9802",
    "final_y": "554112.572888",
    "longitude": "-89.99936058406823",
    "latitude": "30.01694669779371",
    "geocoded_column": {
      "latitude": "30.01694669779371",
      "longitude": "-89.99936058406823"
    }
  },
  {
    "service_request": "2022-896017",
    "request_type": "Trash/Recycling",
    "request_reason": "MIssed Recycling Pick-Up",
    "date_created": "2022-06-30T18:54:25.000",
    "date_modified": "2022-06-30T18:54:27.000",
    "request_status": "Pending",
    "responsible_agency": "Department of Sanitation",
    "final_address": "2319 Upperline St",
    "address_councildis": "B",
    "status": "Assigned to Contractor",
    "contractor": "Richards Disposal",
    "rowid": "896017",
    "final_x": "3669227.1458",
    "final_y": "523354.657915",
    "longitude": "-90.10709961506116",
    "latitude": "29.933410571603417",
    "geocoded_column": {
      "latitude": "29.933410571603417",
      "longitude": "-90.10709961506116"
    }
  },
  {
    "service_request": "2022-896016",
    "request_type": "Roads/Drainage",
    "request_reason": "WaterMain Break",
    "date_created": "2022-06-30T18:52:10.000",
    "date_modified": "2022-06-30T18:52:10.000",
    "request_status": "Closed",
    "responsible_agency": "Department of Public Works",
    "final_address": "6410 Argonne Blvd",
    "address_councildis": "A",
    "status": "Invalid Case",
    "rowid": "896016",
    "final_x": "3670339.01524",
    "final_y": "550082.061396",
    "longitude": "-90.10268327868441",
    "latitude": "30.006869192695486",
    "geocoded_column": {
      "latitude": "30.006869192695486",
      "longitude": "-90.10268327868441"
    }
  },
  {
    "service_request": "2022-896015",
    "request_type": "Trash/Recycling",
    "request_reason": "Missed Trash Pick-Up",
    "date_created": "2022-06-30T18:47:42.000",
    "date_modified": "2022-06-30T18:47:44.000",
    "request_status": "Pending",
    "responsible_agency": "Department of Sanitation",
    "final_address": "417 Hillary St",
    "address_councildis": "A",
    "status": "Assigned to Contractor",
    "contractor": "Richards Disposal",
    "rowid": "896015",
    "final_x": "3661537.05453",
    "final_y": "525180.112701",
    "longitude": "-90.13131645441244",
    "latitude": "29.938654044409045",
    "geocoded_column": {
      "latitude": "29.938654044409045",
      "longitude": "-90.13131645441244"
    }
  },
  {
    "service_request": "2022-896014",
    "request_type": "Safety & Permits",
    "request_reason": "Licenses & Permits",
    "date_created": "2022-06-30T18:37:56.000",
    "date_modified": "2022-06-30T18:37:57.000",
    "request_status": "Pending",
    "responsible_agency": "Safety and Permits",
    "final_address": "525 General Pershing St",
    "address_councildis": "B",
    "status": "Pending",
    "rowid": "896014",
    "final_x": "3671596.98305",
    "final_y": "517713.025398",
    "longitude": "-90.09980989299521",
    "latitude": "29.917827939108797",
    "geocoded_column": {
      "latitude": "29.917827939108797",
      "longitude": "-90.09980989299521"
    }
  },
  {
    "service_request": "2022-896012",
    "request_type": "Trash/Recycling",
    "request_reason": "Order Trash Cart",
    "date_created": "2022-06-30T18:29:03.000",
    "date_modified": "2022-06-30T18:29:05.000",
    "request_status": "Pending",
    "responsible_agency": "Department of Sanitation",
    "final_address": "5200 Glouster Rd",
    "address_councildis": "E",
    "status": "Assigned to Contractor",
    "contractor": "Metro Disposal",
    "rowid": "896012",
    "final_x": "3707678.60638",
    "final_y": "557329.507099",
    "longitude": "-89.98444906579222",
    "latitude": "30.025641322635142",
    "geocoded_column": {
      "latitude": "30.025641322635142",
      "longitude": "-89.98444906579222"
    }
  },
  {
    "service_request": "2022-896011",
    "request_type": "Traffic Signals/Signs/Striping/Streetlights",
    "request_reason": "Additional signage",
    "date_created": "2022-06-30T18:12:35.000",
    "date_modified": "2022-06-30T18:12:35.000",
    "request_status": "Pending",
    "responsible_agency": "Department of Public Works",
    "final_address": "2705 Chestnut St",
    "address_councildis": "B",
    "status": "Pending",
    "rowid": "896011",
    "final_x": "3676826.39893",
    "final_y": "521633.242745",
    "longitude": "-90.0831684936875",
    "latitude": "29.92845143857403",
    "geocoded_column": {
      "latitude": "29.92845143857403",
      "longitude": "-90.0831684936875"
    }
  },
  {
    "service_request": "2022-896010",
    "request_type": "Trash/Recycling",
    "request_reason": "MIssed Recycling Pick-Up",
    "date_created": "2022-06-30T18:10:28.000",
    "date_modified": "2022-06-30T18:10:29.000",
    "request_status": "Pending",
    "responsible_agency": "Department of Sanitation",
    "final_address": "5826 Clara St",
    "address_councildis": "A",
    "status": "Assigned to Contractor",
    "contractor": "Richards Disposal",
    "rowid": "896010",
    "final_x": "3666914.57978",
    "final_y": "525225.735933",
    "longitude": "-90.11433743670578",
    "latitude": "29.938623284611396",
    "geocoded_column": {
      "latitude": "29.938623284611396",
      "longitude": "-90.11433743670578"
    }
  },
  {
    "service_request": "2022-896009",
    "request_type": "Trash/Recycling",
    "request_reason": "MIssed Recycling Pick-Up",
    "date_created": "2022-06-30T17:54:47.000",
    "date_modified": "2022-06-30T17:54:48.000",
    "request_status": "Pending",
    "responsible_agency": "Department of Sanitation",
    "final_address": "2724 Octavia St",
    "address_councildis": "A",
    "status": "Assigned to Contractor",
    "contractor": "Richards Disposal",
    "rowid": "896009",
    "final_x": "3667879.03162",
    "final_y": "525583.159933",
    "longitude": "-90.11128051480009",
    "latitude": "29.93957783801998",
    "geocoded_column": {
      "latitude": "29.93957783801998",
      "longitude": "-90.11128051480009"
    }
  },
  {
    "service_request": "2022-896008",
    "request_type": "Trash/Recycling",
    "request_reason": "Missed Trash Pick-Up",
    "date_created": "2022-06-30T17:42:11.000",
    "date_modified": "2022-06-30T17:42:13.000",
    "request_status": "Pending",
    "responsible_agency": "Department of Sanitation",
    "final_address": "Franklin Ave, New Orleans, Louisiana, 70117",
    "address_councildis": "C",
    "status": "Assigned to Contractor",
    "contractor": "Metro Disposal",
    "rowid": "896008",
    "final_x": "3686914.89724",
    "final_y": "535502.60615",
    "longitude": "-90.05083131149763",
    "latitude": "29.96628095287112",
    "geocoded_column": {
      "latitude": "29.96628095287112",
      "longitude": "-90.05083131149763"
    }
  },
  {
    "service_request": "2022-896007",
    "request_type": "Trash/Recycling",
    "request_reason": "Missed Trash Pick-Up",
    "date_created": "2022-06-30T17:41:42.000",
    "date_modified": "2022-06-30T17:41:44.000",
    "request_status": "Pending",
    "responsible_agency": "Department of Sanitation",
    "final_address": "923 Philip St",
    "address_councildis": "B",
    "status": "Assigned to Contractor",
    "contractor": "Richards Disposal",
    "rowid": "896007",
    "final_x": "3678900.55323",
    "final_y": "521431.654457",
    "longitude": "-90.07662781451171",
    "latitude": "29.927834748646372",
    "geocoded_column": {
      "latitude": "29.927834748646372",
      "longitude": "-90.07662781451171"
    }
  },
  {
    "service_request": "2022-896006",
    "request_type": "Trash/Recycling",
    "request_reason": "Request a Large Item Pick Up",
    "date_created": "2022-06-30T17:39:43.000",
    "date_modified": "2022-06-30T17:39:45.000",
    "request_status": "Pending",
    "responsible_agency": "Department of Sanitation",
    "final_address": "822 Franklin Ave, New Orleans, Louisiana, 70123",
    "address_councildis": "C",
    "status": "Assigned to Contractor",
    "contractor": "Metro Disposal",
    "rowid": "896006",
    "final_x": "3686856.16738",
    "final_y": "535553.168582",
    "longitude": "-90.05101499192216",
    "latitude": "29.966421789313486",
    "geocoded_column": {
      "latitude": "29.966421789313486",
      "longitude": "-90.05101499192216"
    }
  },
  {
    "service_request": "2022-896005",
    "request_type": "Property Maintenance",
    "request_reason": "Property Maintenance",
    "date_created": "2022-06-30T17:35:22.000",
    "date_modified": "2022-06-30T17:35:22.000",
    "request_status": "Pending",
    "responsible_agency": "Department of Code Enforcement",
    "final_address": "2540 Mistletoe St",
    "address_councildis": "A",
    "status": "Pending",
    "rowid": "896005",
    "final_x": "3662427.66995",
    "final_y": "534704.898054",
    "longitude": "-90.12818840054828",
    "latitude": "29.964818416642572",
    "geocoded_column": {
      "latitude": "29.964818416642572",
      "longitude": "-90.12818840054828"
    }
  },
  {
    "service_request": "2022-896004",
    "request_type": "Trash/Recycling",
    "request_reason": "MIssed Recycling Pick-Up",
    "date_created": "2022-06-30T17:29:27.000",
    "date_modified": "2022-06-30T17:29:28.000",
    "request_status": "Pending",
    "responsible_agency": "Department of Sanitation",
    "final_address": "2800 Octavia St",
    "address_councildis": "A",
    "status": "Assigned to Contractor",
    "contractor": "Richards Disposal",
    "rowid": "896004",
    "final_x": "3667916.40282",
    "final_y": "525752.171709",
    "longitude": "-90.11115683701111",
    "latitude": "29.940041469996498",
    "geocoded_column": {
      "latitude": "29.940041469996498",
      "longitude": "-90.11115683701111"
    }
  },
  {
    "service_request": "2022-896003",
    "request_type": "Trash/Recycling",
    "request_reason": "Request a Large Item Pick Up",
    "date_created": "2022-06-30T17:14:57.000",
    "date_modified": "2022-06-30T17:14:59.000",
    "request_status": "Pending",
    "responsible_agency": "Department of Sanitation",
    "final_address": "4737 Laurel St",
    "address_councildis": "B",
    "status": "Assigned to Contractor",
    "contractor": "Richards Disposal",
    "rowid": "896003",
    "final_x": "3669695.33953",
    "final_y": "517989.883126",
    "longitude": "-90.10580298799337",
    "latitude": "29.91864536390826",
    "geocoded_column": {
      "latitude": "29.91864536390826",
      "longitude": "-90.10580298799337"
    }
  },
  {
    "service_request": "2022-896002",
    "request_type": "Property Maintenance",
    "request_reason": "Property Maintenance",
    "date_created": "2022-06-30T17:07:07.000",
    "date_modified": "2022-06-30T17:07:07.000",
    "request_status": "Pending",
    "responsible_agency": "Department of Code Enforcement",
    "final_address": "5001 Congress Dr",
    "address_councildis": "D",
    "status": "Pending",
    "rowid": "896002",
    "final_x": "3692100.45552",
    "final_y": "552747.455894",
    "longitude": "-90.03383786519693",
    "latitude": "30.01353744070049",
    "geocoded_column": {
      "latitude": "30.01353744070049",
      "longitude": "-90.03383786519693"
    }
  },
  {
    "service_request": "2022-896001",
    "request_type": "Traffic Signals/Signs/Striping/Streetlights",
    "request_reason": "Street Light Outage/Malfunction",
    "date_created": "2022-06-30T17:04:51.000",
    "date_modified": "2022-06-30T17:04:53.000",
    "request_status": "Pending",
    "responsible_agency": "Department of Public Works",
    "final_address": "11266 Asphodel Dr",
    "address_councildis": "E",
    "status": "Pending",
    "contractor": "Royal Engineering",
    "rowid": "896001",
    "final_x": "3717824.41695",
    "final_y": "559716.868189",
    "longitude": "-89.95229918718786",
    "latitude": "30.031873299617057",
    "geocoded_column": {
      "latitude": "30.031873299617057",
      "longitude": "-89.95229918718786"
    }
  },
  {
    "service_request": "2022-896000",
    "request_type": "Trash/Recycling",
    "request_reason": "Order Trash Cart",
    "date_created": "2022-06-30T17:00:55.000",
    "date_modified": "2022-06-30T17:00:57.000",
    "request_status": "Pending",
    "responsible_agency": "Department of Sanitation",
    "final_address": "9100 Olive St",
    "address_councildis": "A",
    "status": "Assigned to Contractor",
    "contractor": "Richards Disposal",
    "rowid": "896000",
    "final_x": "3664550.5401",
    "final_y": "536579.297223",
    "longitude": "-90.12142188012086",
    "latitude": "29.969910832545118",
    "geocoded_column": {
      "latitude": "29.969910832545118",
      "longitude": "-90.12142188012086"
    }
  },
  {
    "service_request": "2022-895999",
    "request_type": "Trash/Recycling",
    "request_reason": "Request a Large Item Pick Up",
    "date_created": "2022-06-30T16:59:28.000",
    "date_modified": "2022-06-30T16:59:30.000",
    "request_status": "Pending",
    "responsible_agency": "Department of Sanitation",
    "final_address": "1925 Orleans Ave",
    "address_councildis": "D",
    "status": "Assigned to Contractor",
    "contractor": "Richards Disposal",
    "rowid": "895999",
    "final_x": "3679141.87631",
    "final_y": "535326.062726",
    "longitude": "-90.07538448678316",
    "latitude": "29.96603245203055",
    "geocoded_column": {
      "latitude": "29.96603245203055",
      "longitude": "-90.07538448678316"
    }
  },
  {
    "service_request": "2022-895998",
    "request_type": "Trash/Recycling",
    "request_reason": "Missed Trash Pick-Up",
    "date_created": "2022-06-30T16:55:05.000",
    "date_modified": "2022-06-30T16:55:07.000",
    "request_status": "Pending",
    "responsible_agency": "Department of Sanitation",
    "final_address": "820 Eighth St",
    "address_councildis": "B",
    "status": "Assigned to Contractor",
    "contractor": "Richards Disposal",
    "rowid": "895998",
    "final_x": "3676585.64648",
    "final_y": "519426.058487",
    "longitude": "-90.08400446684745",
    "latitude": "29.92238961709767",
    "geocoded_column": {
      "latitude": "29.92238961709767",
      "longitude": "-90.08400446684745"
    }
  },
  {
    "service_request": "2022-895997",
    "request_type": "Trash/Recycling",
    "request_reason": "Repair Trash Cart",
    "date_created": "2022-06-30T16:54:20.000",
    "date_modified": "2022-06-30T16:54:22.000",
    "case_close_date": "2022-06-12T19:00:00.000",
    "request_status": "Pending",
    "responsible_agency": "Department of Sanitation",
    "final_address": "5411 Mckenna St",
    "address_councildis": "A",
    "status": "Assigned to Contractor",
    "contractor": "Richards Disposal",
    "rowid": "895997",
    "final_x": "3668863.69914",
    "final_y": "529055.638528",
    "longitude": "-90.10805454419828",
    "latitude": "29.949097114830185",
    "geocoded_column": {
      "latitude": "29.949097114830185",
      "longitude": "-90.10805454419828"
    }
  },
  {
    "service_request": "2022-895996",
    "request_type": "Trash/Recycling",
    "request_reason": "Illegal Dumping",
    "date_created": "2022-06-30T16:53:22.000",
    "date_modified": "2022-06-30T16:53:22.000",
    "request_status": "Pending",
    "responsible_agency": "Department of Sanitation",
    "final_address": "918 Verret St",
    "address_councildis": "C",
    "status": "Pending",
    "rowid": "895996",
    "final_x": "3687240.19247",
    "final_y": "528181.55232",
    "longitude": "-90.05006296445404",
    "latitude": "29.94614055948706",
    "geocoded_column": {
      "latitude": "29.94614055948706",
      "longitude": "-90.05006296445404"
    }
  },
  {
    "service_request": "2022-895995",
    "request_type": "Trash/Recycling",
    "request_reason": "Replace Recycling Cart",
    "date_created": "2022-06-30T16:51:35.000",
    "date_modified": "2022-06-30T16:51:36.000",
    "request_status": "Pending",
    "responsible_agency": "Department of Sanitation",
    "final_address": "4742 Chrysler St",
    "address_councildis": "E",
    "status": "Pending",
    "rowid": "895995",
    "final_x": "3715213.84882",
    "final_y": "556949.708378",
    "longitude": "-89.960653395587",
    "latitude": "30.024350969039673",
    "geocoded_column": {
      "latitude": "30.024350969039673",
      "longitude": "-89.960653395587"
    }
  },
  {
    "service_request": "2022-895994",
    "request_type": "Trash/Recycling",
    "request_reason": "MIssed Recycling Pick-Up",
    "date_created": "2022-06-30T16:36:30.000",
    "date_modified": "2022-06-30T16:36:32.000",
    "request_status": "Pending",
    "responsible_agency": "Department of Sanitation",
    "final_address": "745 S Genois St",
    "address_councildis": "B",
    "status": "Assigned to Contractor",
    "contractor": "Richards Disposal",
    "rowid": "895994",
    "final_x": "3670907.48359",
    "final_y": "535033.38247",
    "longitude": "-90.1013984815006",
    "latitude": "29.965473680370117",
    "geocoded_column": {
      "latitude": "29.965473680370117",
      "longitude": "-90.1013984815006"
    }
  },
  {
    "service_request": "2022-895993",
    "request_type": "Traffic Signals/Signs/Striping/Streetlights",
    "request_reason": "Street Light Outage/Malfunction",
    "date_created": "2022-06-30T16:35:32.000",
    "date_modified": "2022-06-30T16:35:34.000",
    "request_status": "Pending",
    "responsible_agency": "Department of Public Works",
    "final_address": "44 Yosemite Dr",
    "address_councildis": "C",
    "status": "Pending",
    "contractor": "Royal Engineering",
    "rowid": "895993",
    "final_x": "3700015.00663",
    "final_y": "516968.635125",
    "longitude": "-90.01013756761661",
    "latitude": "29.914909335566335",
    "geocoded_column": {
      "latitude": "29.914909335566335",
      "longitude": "-90.01013756761661"
    }
  },
  {
    "service_request": "2022-895992",
    "request_type": "Mosquito, Termite & Rodent Control",
    "request_reason": "Non-Rodent Complaint (Mice, Possums, Snakes)",
    "date_created": "2022-06-30T16:31:07.000",
    "date_modified": "2022-06-30T16:31:07.000",
    "request_status": "Pending",
    "responsible_agency": "Mosquito, Termite & Rodent Control Board",
    "final_address": "5117 Pauline Dr",
    "address_councildis": "D",
    "status": "Pending",
    "rowid": "895992",
    "final_x": "3692585.03005",
    "final_y": "552961.492951",
    "longitude": "-90.03229919083574",
    "latitude": "30.01411084326345",
    "geocoded_column": {
      "latitude": "30.01411084326345",
      "longitude": "-90.03229919083574"
    }
  },
  {
    "service_request": "2022-895991",
    "request_type": "Roads/Drainage",
    "request_reason": "Damaged Sidewalk",
    "date_created": "2022-06-30T16:22:32.000",
    "date_modified": "2022-06-30T16:22:32.000",
    "request_status": "Pending",
    "responsible_agency": "Department of Public Works",
    "final_address": "7515 Jeannette St",
    "address_councildis": "A",
    "status": "Pending",
    "rowid": "895991",
    "final_x": "3664210.62733",
    "final_y": "527871.233087",
    "longitude": "-90.12278590166905",
    "latitude": "29.945976375028742",
    "geocoded_column": {
      "latitude": "29.945976375028742",
      "longitude": "-90.12278590166905"
    }
  },
  {
    "service_request": "2022-895990",
    "request_type": "Trash/Recycling",
    "request_reason": "Repair Trash Cart",
    "date_created": "2022-06-30T16:16:52.000",
    "date_modified": "2022-06-30T16:16:54.000",
    "request_status": "Pending",
    "responsible_agency": "Department of Sanitation",
    "final_address": "1620 Sauvage St Unit A",
    "address_councildis": "A",
    "status": "Assigned to Contractor",
    "contractor": "Metro Disposal",
    "rowid": "895990",
    "final_x": "3677199.38645",
    "final_y": "540650.509515",
    "longitude": "-90.08133509896167",
    "latitude": "29.980731351689066",
    "geocoded_column": {
      "latitude": "29.980731351689066",
      "longitude": "-90.08133509896167"
    }
  },
  {
    "service_request": "2022-895989",
    "request_type": "Trash/Recycling",
    "request_reason": "Replace Trash Cart",
    "date_created": "2022-06-30T16:16:43.000",
    "date_modified": "2022-06-30T16:16:44.000",
    "request_status": "Pending",
    "responsible_agency": "Department of Sanitation",
    "final_address": "3130 N Rocheblave St",
    "address_councildis": "D",
    "status": "Assigned to Contractor",
    "contractor": "Metro Disposal",
    "rowid": "895989",
    "final_x": "3690450.52918",
    "final_y": "540790.365131",
    "longitude": "-90.03947733411519",
    "latitude": "29.980711133613415",
    "geocoded_column": {
      "latitude": "29.980711133613415",
      "longitude": "-90.03947733411519"
    }
  },
  {
    "service_request": "2022-895988",
    "request_type": "Trash/Recycling",
    "request_reason": "Missed Trash Pick-Up",
    "date_created": "2022-06-30T16:11:27.000",
    "date_modified": "2022-06-30T16:11:28.000",
    "request_status": "Pending",
    "responsible_agency": "Department of Sanitation",
    "final_address": "4470 Spain St",
    "address_councildis": "D",
    "status": "Assigned to Contractor",
    "contractor": "Metro Disposal",
    "rowid": "895988",
    "final_x": "3684984.61673",
    "final_y": "549456.614355",
    "longitude": "-90.05643602379241",
    "latitude": "30.00470880156233",
    "geocoded_column": {
      "latitude": "30.00470880156233",
      "longitude": "-90.05643602379241"
    }
  },
  {
    "service_request": "2022-895987",
    "request_type": "Trash/Recycling",
    "request_reason": "Request a Large Item Pick Up",
    "date_created": "2022-06-30T16:07:49.000",
    "date_modified": "2022-06-30T16:07:51.000",
    "request_status": "Pending",
    "responsible_agency": "Department of Sanitation",
    "final_address": "5061 Bancroft Dr",
    "address_councildis": "D",
    "status": "Assigned to Contractor",
    "contractor": "Metro Disposal",
    "rowid": "895987",
    "final_x": "3676390.48859",
    "final_y": "550899.512981",
    "longitude": "-90.08353687833646",
    "latitude": "30.008936795742564",
    "geocoded_column": {
      "latitude": "30.008936795742564",
      "longitude": "-90.08353687833646"
    }
  },
  {
    "service_request": "2022-895986",
    "request_type": "Traffic Signals/Signs/Striping/Streetlights",
    "request_reason": "Road Surface Marking Maintenance-Bike Lane",
    "date_created": "2022-06-30T16:06:31.000",
    "date_modified": "2022-06-30T16:06:31.000",
    "request_status": "Pending",
    "responsible_agency": "Department of Public Works",
    "final_address": "1741 Mcshane Pl",
    "address_councildis": "C",
    "status": "Pending",
    "rowid": "895986",
    "final_x": "3683387.55746",
    "final_y": "536056.503367",
    "longitude": "-90.06195116158344",
    "latitude": "29.96791206504851",
    "geocoded_column": {
      "latitude": "29.96791206504851",
      "longitude": "-90.06195116158344"
    }
  },
  {
    "service_request": "2022-895985",
    "request_type": "Roads/Drainage",
    "request_reason": "Damaged Sidewalk",
    "date_created": "2022-06-30T16:03:55.000",
    "date_modified": "2022-06-30T16:03:57.000",
    "request_status": "Pending",
    "responsible_agency": "Department of Public Works",
    "final_address": "3205 Leonidas St",
    "address_councildis": "A",
    "status": "Pending",
    "rowid": "895985",
    "final_x": "3665541.94688",
    "final_y": "534895.540294",
    "longitude": "-90.1183472930693",
    "latitude": "29.965252188329153",
    "geocoded_column": {
      "latitude": "29.965252188329153",
      "longitude": "-90.1183472930693"
    }
  },
  {
    "service_request": "2022-895984",
    "request_type": "Roads/Drainage",
    "request_reason": "Man hole cover issue",
    "date_created": "2022-06-30T16:00:05.000",
    "date_modified": "2022-06-30T16:00:05.000",
    "request_status": "Pending",
    "responsible_agency": "Department of Public Works",
    "final_address": "7522 Jeannette St",
    "address_councildis": "A",
    "status": "Pending",
    "rowid": "895984",
    "final_x": "3664069.328",
    "final_y": "527748.667711",
    "longitude": "-90.12323612034218",
    "latitude": "29.945643463521094",
    "geocoded_column": {
      "latitude": "29.945643463521094",
      "longitude": "-90.12323612034218"
    }
  },
  {
    "service_request": "2022-895983",
    "request_type": "Roads/Drainage",
    "request_reason": "Accessibility Ramps, Curbs and Sidewalk Repair",
    "date_created": "2022-06-30T15:51:23.000",
    "date_modified": "2022-06-30T15:51:23.000",
    "request_status": "Pending",
    "responsible_agency": "Department of Public Works",
    "final_address": "2010 Felicity St",
    "address_councildis": "B",
    "status": "Pending",
    "rowid": "895983",
    "final_x": "3677209.02427",
    "final_y": "525783.712509",
    "longitude": "-90.08181752238458",
    "latitude": "29.939852386654735",
    "geocoded_column": {
      "latitude": "29.939852386654735",
      "longitude": "-90.08181752238458"
    }
  },
  {
    "service_request": "2022-895982",
    "request_type": "Safety & Permits",
    "request_reason": "Licenses & Permits",
    "date_created": "2022-06-30T15:51:07.000",
    "date_modified": "2022-06-30T15:51:44.000",
    "request_status": "Pending",
    "responsible_agency": "Safety and Permits",
    "final_address": "1641 St Anthony St",
    "address_councildis": "D",
    "status": "Pending",
    "rowid": "895982",
    "final_x": "3683368.6726",
    "final_y": "538369.210377",
    "longitude": "-90.0619297610911",
    "latitude": "29.97427178358883",
    "geocoded_column": {
      "latitude": "29.97427178358883",
      "longitude": "-90.0619297610911"
    }
  },
  {
    "service_request": "2022-895981",
    "request_type": "Trash/Recycling",
    "request_reason": "Missed Trash Pick-Up",
    "date_created": "2022-06-30T15:50:37.000",
    "date_modified": "2022-06-30T15:50:39.000",
    "request_status": "Pending",
    "responsible_agency": "Department of Sanitation",
    "final_address": "7821 Masefield St",
    "address_councildis": "E",
    "status": "Assigned to Contractor",
    "contractor": "Metro Disposal",
    "rowid": "895981",
    "final_x": "3697330.38679",
    "final_y": "560101.540573",
    "longitude": "-90.01704719557337",
    "latitude": "30.033594249698304",
    "geocoded_column": {
      "latitude": "30.033594249698304",
      "longitude": "-90.01704719557337"
    }
  },
  {
    "service_request": "2022-895980",
    "request_type": "Trash/Recycling",
    "request_reason": "Missed Trash Pick-Up",
    "date_created": "2022-06-30T15:46:46.000",
    "date_modified": "2022-06-30T15:47:28.000",
    "request_status": "Pending",
    "responsible_agency": "Department of Sanitation",
    "final_address": "2419 Felicity St",
    "address_councildis": "B",
    "status": "Assigned to Contractor",
    "contractor": "Richards Disposal",
    "rowid": "895980",
    "final_x": "3676056.51272",
    "final_y": "527053.573054",
    "longitude": "-90.08541250890924",
    "latitude": "29.943378647534466",
    "geocoded_column": {
      "latitude": "29.943378647534466",
      "longitude": "-90.08541250890924"
    }
  },
  {
    "service_request": "2022-895979",
    "request_type": "Traffic Signals/Signs/Striping/Streetlights",
    "request_reason": "Additional signage",
    "date_created": "2022-06-30T15:42:36.000",
    "date_modified": "2022-06-30T15:42:36.000",
    "request_status": "Pending",
    "responsible_agency": "Department of Public Works",
    "final_address": "300 Eleonore St",
    "address_councildis": "A",
    "status": "Pending",
    "rowid": "895979",
    "final_x": "3664815.77639",
    "final_y": "517383.963829",
    "longitude": "-90.12122550156421",
    "latitude": "29.917122110733036",
    "geocoded_column": {
      "latitude": "29.917122110733036",
      "longitude": "-90.12122550156421"
    }
  },
  {
    "service_request": "2022-895978",
    "request_type": "Trash/Recycling",
    "request_reason": "Missed Trash Pick-Up",
    "date_created": "2022-06-30T15:41:55.000",
    "date_modified": "2022-06-30T15:41:57.000",
    "request_status": "Pending",
    "responsible_agency": "Department of Sanitation",
    "final_address": "7724 Vincent Rd",
    "address_councildis": "E",
    "status": "Assigned to Contractor",
    "contractor": "Metro Disposal",
    "rowid": "895978",
    "final_x": "3717991.40517",
    "final_y": "572021.8506",
    "longitude": "-89.95130250650108",
    "latitude": "30.065701414732306",
    "geocoded_column": {
      "latitude": "30.065701414732306",
      "longitude": "-89.95130250650108"
    }
  },
  {
    "service_request": "2022-895977",
    "request_type": "Property Maintenance",
    "request_reason": "Property Maintenance",
    "date_created": "2022-06-30T15:41:05.000",
    "date_modified": "2022-06-30T15:41:05.000",
    "request_status": "Pending",
    "responsible_agency": "Department of Code Enforcement",
    "final_address": "4754 Perrault Walk",
    "address_councildis": "E",
    "status": "Pending",
    "rowid": "895977",
    "final_x": "3709841.80056",
    "final_y": "555843.317593",
    "longitude": "-89.97766929963103",
    "latitude": "30.021484686616954",
    "geocoded_column": {
      "latitude": "30.021484686616954",
      "longitude": "-89.97766929963103"
    }
  },
  {
    "service_request": "2022-895976",
    "request_type": "Trash/Recycling",
    "request_reason": "Request a Large Item Pick Up",
    "date_created": "2022-06-30T15:39:21.000",
    "date_modified": "2022-06-30T15:39:22.000",
    "request_status": "Pending",
    "responsible_agency": "Department of Sanitation",
    "final_address": "4108 Odin St",
    "address_councildis": "D",
    "status": "Assigned to Contractor",
    "contractor": "Metro Disposal",
    "rowid": "895976",
    "final_x": "3689028.71171",
    "final_y": "553716.421335",
    "longitude": "-90.04350848019465",
    "latitude": "30.016297167659012",
    "geocoded_column": {
      "latitude": "30.016297167659012",
      "longitude": "-90.04350848019465"
    }
  },
  {
    "service_request": "2022-895975",
    "request_type": "Trash/Recycling",
    "request_reason": "Request a Large Item Pick Up",
    "date_created": "2022-06-30T15:38:31.000",
    "date_modified": "2022-06-30T15:38:33.000",
    "request_status": "Pending",
    "responsible_agency": "Department of Sanitation",
    "final_address": "4422 Kennon Ave, New Orleans, Louisiana, 70122",
    "address_councildis": "D",
    "status": "Assigned to Contractor",
    "contractor": "Metro Disposal",
    "rowid": "895975",
    "final_x": "3677387.28859",
    "final_y": "548646.546707",
    "longitude": "-90.08046548184433",
    "latitude": "30.00271200783628",
    "geocoded_column": {
      "latitude": "30.00271200783628",
      "longitude": "-90.08046548184433"
    }
  },
  {
    "service_request": "2022-895974",
    "request_type": "Trash/Recycling",
    "request_reason": "Replace Trash Cart",
    "date_created": "2022-06-30T15:35:56.000",
    "date_modified": "2022-06-30T15:35:58.000",
    "request_status": "Pending",
    "responsible_agency": "Department of Sanitation",
    "final_address": "1120 Valence St",
    "address_councildis": "B",
    "status": "Assigned to Contractor",
    "contractor": "Richards Disposal",
    "rowid": "895974",
    "final_x": "3669802.52583",
    "final_y": "519588.998264",
    "longitude": "-90.10541056470538",
    "latitude": "29.923039266316867",
    "geocoded_column": {
      "latitude": "29.923039266316867",
      "longitude": "-90.10541056470538"
    }
  },
  {
    "service_request": "2022-895973",
    "request_type": "Traffic Signals/Signs/Striping/Streetlights",
    "request_reason": "Request for Stop Sign",
    "date_created": "2022-06-30T15:29:06.000",
    "date_modified": "2022-06-30T15:29:08.000",
    "request_status": "Pending",
    "responsible_agency": "Department of Public Works",
    "final_address": "3530 Preston Pl",
    "address_councildis": "C",
    "status": "Pending",
    "rowid": "895973",
    "final_x": "3708559.55236",
    "final_y": "517763.965302",
    "longitude": "-89.98313860503997",
    "latitude": "29.916822139557116",
    "geocoded_column": {
      "latitude": "29.916822139557116",
      "longitude": "-89.98313860503997"
    }
  },
  {
    "service_request": "2022-895972",
    "request_type": "Roads/Drainage",
    "request_reason": "Road Shoulder Repair",
    "date_created": "2022-06-30T15:27:57.000",
    "date_modified": "2022-06-30T15:27:59.000",
    "request_status": "Pending",
    "responsible_agency": "Department of Public Works",
    "final_address": "7610 Lucerne St",
    "address_councildis": "E",
    "status": "Pending",
    "rowid": "895972",
    "final_x": "3710887.80677",
    "final_y": "565681.669282",
    "longitude": "-89.97399545063664",
    "latitude": "30.0485021710237",
    "geocoded_column": {
      "latitude": "30.0485021710237",
      "longitude": "-89.97399545063664"
    }
  },
  {
    "service_request": "2022-895971",
    "request_type": "Traffic Signals/Signs/Striping/Streetlights",
    "request_reason": "Street Light Outage/Malfunction",
    "date_created": "2022-06-30T15:27:54.000",
    "date_modified": "2022-06-30T15:27:56.000",
    "request_status": "Pending",
    "responsible_agency": "Department of Public Works",
    "final_address": "3530 Preston Pl",
    "address_councildis": "C",
    "status": "Pending",
    "contractor": "Royal Engineering",
    "rowid": "895971",
    "final_x": "3708559.55236",
    "final_y": "517763.965302",
    "longitude": "-89.98313860503997",
    "latitude": "29.916822139557116",
    "geocoded_column": {
      "latitude": "29.916822139557116",
      "longitude": "-89.98313860503997"
    }
  },
  {
    "service_request": "2022-895970",
    "request_type": "Traffic Signals/Signs/Striping/Streetlights",
    "request_reason": "Street Light Outage/Malfunction",
    "date_created": "2022-06-30T15:26:39.000",
    "date_modified": "2022-06-30T15:26:41.000",
    "request_status": "Pending",
    "responsible_agency": "Department of Public Works",
    "final_address": "3530 Preston Pl",
    "address_councildis": "C",
    "status": "Pending",
    "contractor": "Royal Engineering",
    "rowid": "895970",
    "final_x": "3708559.55236",
    "final_y": "517763.965302",
    "longitude": "-89.98313860503997",
    "latitude": "29.916822139557116",
    "geocoded_column": {
      "latitude": "29.916822139557116",
      "longitude": "-89.98313860503997"
    }
  },
  {
    "service_request": "2022-895969",
    "request_type": "Trash/Recycling",
    "request_reason": "Order Recycling Cart",
    "date_created": "2022-06-30T15:23:53.000",
    "date_modified": "2022-06-30T15:23:53.000",
    "request_status": "Pending",
    "responsible_agency": "Department of Sanitation",
    "final_address": "6895 Catina St",
    "address_councildis": "A",
    "status": "Pending",
    "rowid": "895969",
    "final_x": "3667195.79565",
    "final_y": "553511.501719",
    "longitude": "-90.11249814533107",
    "latitude": "30.016391402491745",
    "geocoded_column": {
      "latitude": "30.016391402491745",
      "longitude": "-90.11249814533107"
    }
  },
  {
    "service_request": "2022-895968",
    "request_type": "Trash/Recycling",
    "request_reason": "Request a Large Item Pick Up",
    "date_created": "2022-06-30T15:20:29.000",
    "date_modified": "2022-06-30T15:20:31.000",
    "request_status": "Pending",
    "responsible_agency": "Department of Sanitation",
    "final_address": "3425 Joliet St",
    "address_councildis": "A",
    "status": "Assigned to Contractor",
    "contractor": "Richards Disposal",
    "rowid": "895968",
    "final_x": "3666307.98004",
    "final_y": "535201.99847",
    "longitude": "-90.11591790807896",
    "latitude": "29.96607249038967",
    "geocoded_column": {
      "latitude": "29.96607249038967",
      "longitude": "-90.11591790807896"
    }
  },
  {
    "service_request": "2022-895967",
    "request_type": "Trash/Recycling",
    "request_reason": "Request a Large Item Pick Up",
    "date_created": "2022-06-30T15:19:14.000",
    "date_modified": "2022-06-30T15:19:16.000",
    "request_status": "Pending",
    "responsible_agency": "Department of Sanitation",
    "final_address": "6324 Annunciation St",
    "address_councildis": "A",
    "status": "Assigned to Contractor",
    "contractor": "Richards Disposal",
    "rowid": "895967",
    "final_x": "3662722.72768",
    "final_y": "518445.411446",
    "longitude": "-90.1277968382006",
    "latitude": "29.920101477083815",
    "geocoded_column": {
      "latitude": "29.920101477083815",
      "longitude": "-90.1277968382006"
    }
  },
  {
    "service_request": "2022-895966",
    "request_type": "Trash/Recycling",
    "request_reason": "Request a Large Item Pick Up",
    "date_created": "2022-06-30T15:14:38.000",
    "date_modified": "2022-06-30T15:14:39.000",
    "request_status": "Pending",
    "responsible_agency": "Department of Sanitation",
    "final_address": "1743 Pressburg Dr",
    "address_councildis": "D",
    "status": "Assigned to Contractor",
    "contractor": "Metro Disposal",
    "rowid": "895966",
    "final_x": "3679983.3956",
    "final_y": "554249.806872",
    "longitude": "-90.07206918678429",
    "latitude": "30.01804064875504",
    "geocoded_column": {
      "latitude": "30.01804064875504",
      "longitude": "-90.07206918678429"
    }
  },
  {
    "service_request": "2022-895965",
    "request_type": "Trash/Recycling",
    "request_reason": "Missed Trash Pick-Up",
    "date_created": "2022-06-30T15:11:22.000",
    "date_modified": "2022-06-30T15:11:23.000",
    "request_status": "Pending",
    "responsible_agency": "Department of Sanitation",
    "final_address": "1501 Desire St",
    "address_councildis": "D",
    "status": "Assigned to Contractor",
    "contractor": "Metro Disposal",
    "rowid": "895965",
    "final_x": "3690592.03939",
    "final_y": "537219.84788",
    "longitude": "-90.03915775588693",
    "latitude": "29.970889083341113",
    "geocoded_column": {
      "latitude": "29.970889083341113",
      "longitude": "-90.03915775588693"
    }
  },
  {
    "service_request": "2022-895963",
    "request_type": "Trash/Recycling",
    "request_reason": "Order Trash Cart",
    "date_created": "2022-06-30T15:08:11.000",
    "date_modified": "2022-06-30T15:08:13.000",
    "request_status": "Pending",
    "responsible_agency": "Department of Sanitation",
    "final_address": "2420 Clara St",
    "address_councildis": "B",
    "status": "Assigned to Contractor",
    "contractor": "Richards Disposal",
    "rowid": "895963",
    "final_x": "3674514.83777",
    "final_y": "526595.335486",
    "longitude": "-90.09029567410421",
    "latitude": "29.942164722175605",
    "geocoded_column": {
      "latitude": "29.942164722175605",
      "longitude": "-90.09029567410421"
    }
  },
  {
    "service_request": "2022-895962",
    "request_type": "Traffic Signals/Signs/Striping/Streetlights",
    "request_reason": "Street Light Outage/Malfunction",
    "date_created": "2022-06-30T15:05:24.000",
    "date_modified": "2022-06-30T15:05:26.000",
    "request_status": "Pending",
    "responsible_agency": "Department of Public Works",
    "final_address": "3045 Carver St",
    "address_councildis": "C",
    "status": "Pending",
    "contractor": "Royal Engineering",
    "rowid": "895962",
    "final_x": "3708470.67044",
    "final_y": "519409.544823",
    "longitude": "-89.98335795617767",
    "latitude": "29.92134978846154",
    "geocoded_column": {
      "latitude": "29.92134978846154",
      "longitude": "-89.98335795617767"
    }
  },
  {
    "service_request": "2022-895961",
    "request_type": "Trash/Recycling",
    "request_reason": "Request a Large Item Pick Up",
    "date_created": "2022-06-30T15:04:50.000",
    "date_modified": "2022-06-30T15:04:51.000",
    "request_status": "Pending",
    "responsible_agency": "Department of Sanitation",
    "final_address": "2635 Milan St, New Orleans, Louisiana, 70115",
    "address_councildis": "B",
    "status": "Assigned to Contractor",
    "contractor": "Richards Disposal",
    "rowid": "895961",
    "final_x": "3671266.26036",
    "final_y": "524719.861052",
    "longitude": "-90.1006158684819",
    "latitude": "29.93710427887458",
    "geocoded_column": {
      "latitude": "29.93710427887458",
      "longitude": "-90.1006158684819"
    }
  },
  {
    "service_request": "2022-895960",
    "request_type": "Trash/Recycling",
    "request_reason": "Request a Large Item Pick Up",
    "date_created": "2022-06-30T15:00:10.000",
    "date_modified": "2022-06-30T15:02:32.000",
    "request_status": "Pending",
    "responsible_agency": "Department of Sanitation",
    "final_address": "1826 Toledano St",
    "address_councildis": "B",
    "status": "Assigned to Contractor",
    "contractor": "Richards Disposal",
    "rowid": "895960",
    "final_x": "3674154.95464",
    "final_y": "522583.106746",
    "longitude": "-90.09156918481943",
    "latitude": "29.931143130934135",
    "geocoded_column": {
      "latitude": "29.931143130934135",
      "longitude": "-90.09156918481943"
    }
  },
  {
    "service_request": "2022-895959",
    "request_type": "Roads/Drainage",
    "request_reason": "Catch Basin - Clogged",
    "date_created": "2022-06-30T14:56:28.000",
    "date_modified": "2022-06-30T14:56:29.000",
    "request_status": "Pending",
    "responsible_agency": "Department of Public Works",
    "final_address": "BURTHE ST & S CARROLLTON AVE",
    "address_councildis": "A",
    "status": "Pending",
    "rowid": "895959",
    "final_x": "3661342.2",
    "final_y": "527509.08",
    "longitude": "-90.131854535869",
    "latitude": "29.94506358414364",
    "geocoded_column": {
      "latitude": "29.94506358414364",
      "longitude": "-90.131854535869"
    }
  },
  {
    "service_request": "2022-895958",
    "request_type": "Safety & Permits",
    "request_reason": "Licenses & Permits",
    "date_created": "2022-06-30T14:54:46.000",
    "date_modified": "2022-06-30T14:54:46.000",
    "request_status": "Pending",
    "responsible_agency": "Safety and Permits",
    "final_address": "6248 Providence Pl",
    "address_councildis": "D",
    "status": "Pending",
    "rowid": "895958",
    "final_x": "3688052.86351",
    "final_y": "556225.182298",
    "longitude": "-90.0465027083956",
    "latitude": "30.023225497442244",
    "geocoded_column": {
      "latitude": "30.023225497442244",
      "longitude": "-90.0465027083956"
    }
  },
  {
    "service_request": "2022-895957",
    "request_type": "Tax and Revenue",
    "request_reason": "Sales Tax Question",
    "date_created": "2022-06-30T14:48:12.000",
    "date_modified": "2022-06-30T14:48:12.000",
    "request_status": "Pending",
    "responsible_agency": "Bureau of Revenue",
    "status": "Pending",
    "rowid": "895957",
    "longitude": "0.0",
    "latitude": "0.0",
    "geocoded_column": {
      "latitude": "0.0",
      "longitude": "0.0"
    }
  },
  {
    "service_request": "2022-895956",
    "request_type": "Property Maintenance",
    "request_reason": "Property Maintenance",
    "date_created": "2022-06-30T14:47:20.000",
    "date_modified": "2022-06-30T14:55:15.000",
    "case_close_date": "2022-06-30T09:55:15.000",
    "request_status": "Closed",
    "responsible_agency": "Department of Code Enforcement",
    "final_address": "2500 S Rocheblave St",
    "address_councildis": "B",
    "status": "Referred to Code Enforcement",
    "rowid": "895956",
    "final_x": "3672435.59611",
    "final_y": "529363.865857",
    "longitude": "-90.09676597733174",
    "latitude": "29.949839130827048",
    "geocoded_column": {
      "latitude": "29.949839130827048",
      "longitude": "-90.09676597733174"
    }
  },
  {
    "service_request": "2022-895955",
    "request_type": "Trash/Recycling",
    "request_reason": "MIssed Recycling Pick-Up",
    "date_created": "2022-06-30T14:45:44.000",
    "date_modified": "2022-06-30T14:45:46.000",
    "request_status": "Pending",
    "responsible_agency": "Department of Sanitation",
    "final_address": "1129 Constantinople St",
    "address_councildis": "B",
    "status": "Assigned to Contractor",
    "contractor": "Richards Disposal",
    "rowid": "895955",
    "final_x": "3672480.21876",
    "final_y": "519836.457464",
    "longitude": "-90.09694967801863",
    "latitude": "29.923640526193257",
    "geocoded_column": {
      "latitude": "29.923640526193257",
      "longitude": "-90.09694967801863"
    }
  },
  {
    "service_request": "2022-895954",
    "request_type": "Roads/Drainage",
    "request_reason": "Debris in Roadway",
    "date_created": "2022-06-30T14:44:35.000",
    "date_modified": "2022-06-30T14:44:36.000",
    "request_status": "Pending",
    "responsible_agency": "Department of Public Works",
    "final_address": "65 Grand Canyon Dr",
    "address_councildis": "C",
    "status": "Pending",
    "rowid": "895954",
    "final_x": "3699088.94877",
    "final_y": "516070.570996",
    "longitude": "-90.01309317849206",
    "latitude": "29.91246933587103",
    "geocoded_column": {
      "latitude": "29.91246933587103",
      "longitude": "-90.01309317849206"
    }
  },
  {
    "service_request": "2022-895953",
    "request_type": "Trash/Recycling",
    "request_reason": "Order Recycling Cart",
    "date_created": "2022-06-30T14:42:11.000",
    "date_modified": "2022-06-30T14:42:13.000",
    "request_status": "Pending",
    "responsible_agency": "Department of Sanitation",
    "final_address": "6700 Milne Blvd",
    "address_councildis": "A",
    "status": "Pending",
    "rowid": "895953",
    "final_x": "3667412.57921",
    "final_y": "552302.556438",
    "longitude": "-90.11185391951881",
    "latitude": "30.0130608754274",
    "geocoded_column": {
      "latitude": "30.0130608754274",
      "longitude": "-90.11185391951881"
    }
  },
  {
    "service_request": "2022-895952",
    "request_type": "Trash/Recycling",
    "request_reason": "Replace Trash Cart",
    "date_created": "2022-06-30T14:40:47.000",
    "date_modified": "2022-06-30T14:40:49.000",
    "request_status": "Pending",
    "responsible_agency": "Department of Sanitation",
    "final_address": "6700 Milne Blvd",
    "address_councildis": "A",
    "status": "Assigned to Contractor",
    "contractor": "Metro Disposal",
    "rowid": "895952",
    "final_x": "3667412.57921",
    "final_y": "552302.556438",
    "longitude": "-90.11185391951881",
    "latitude": "30.0130608754274",
    "geocoded_column": {
      "latitude": "30.0130608754274",
      "longitude": "-90.11185391951881"
    }
  },
  {
    "service_request": "2022-895951",
    "request_type": "Roads/Drainage",
    "request_reason": "Catch Basin - Clogged",
    "date_created": "2022-06-30T14:34:19.000",
    "date_modified": "2022-06-30T14:35:06.000",
    "case_close_date": "2021-02-07T18:00:00.000",
    "request_status": "Pending",
    "responsible_agency": "Department of Public Works",
    "final_address": "4400 BLK Cleveland Ave",
    "address_councildis": "A",
    "rowid": "895951",
    "final_x": "3669596.73065",
    "final_y": "538952.223064",
    "longitude": "-90.10540517182471",
    "latitude": "29.976287862302488",
    "geocoded_column": {
      "latitude": "29.976287862302488",
      "longitude": "-90.10540517182471"
    }
  },
  {
    "service_request": "2022-895950",
    "request_type": "Trash/Recycling",
    "request_reason": "Replace Recycling Cart",
    "date_created": "2022-06-30T14:31:35.000",
    "date_modified": "2022-06-30T14:31:35.000",
    "request_status": "Pending",
    "responsible_agency": "Department of Sanitation",
    "final_address": "4812 Constance St, New Orleans, Louisiana, 70115",
    "address_councildis": "B",
    "status": "Pending",
    "rowid": "895950",
    "final_x": "3669502.5913",
    "final_y": "518218.072182",
    "longitude": "-90.10640368213878",
    "latitude": "29.919278488156905",
    "geocoded_column": {
      "latitude": "29.919278488156905",
      "longitude": "-90.10640368213878"
    }
  },
  {
    "service_request": "2022-895949",
    "request_type": "Trash/Recycling",
    "request_reason": "Replace Trash Cart",
    "date_created": "2022-06-30T14:30:37.000",
    "date_modified": "2022-06-30T14:30:39.000",
    "request_status": "Pending",
    "responsible_agency": "Department of Sanitation",
    "final_address": "4812 Constance St, New Orleans, Louisiana, 70115",
    "address_councildis": "B",
    "status": "Assigned to Contractor",
    "contractor": "Richards Disposal",
    "rowid": "895949",
    "final_x": "3669502.5913",
    "final_y": "518218.072182",
    "longitude": "-90.10640368213878",
    "latitude": "29.919278488156905",
    "geocoded_column": {
      "latitude": "29.919278488156905",
      "longitude": "-90.10640368213878"
    }
  },
  {
    "service_request": "2022-895948",
    "request_type": "Trash/Recycling",
    "request_reason": "Repair Trash Cart",
    "date_created": "2022-06-30T14:28:44.000",
    "date_modified": "2022-06-30T14:28:46.000",
    "request_status": "Pending",
    "responsible_agency": "Department of Sanitation",
    "final_address": "1332 Hendee St",
    "address_councildis": "C",
    "status": "Assigned to Contractor",
    "contractor": "Richards Disposal",
    "rowid": "895948",
    "final_x": "3690782.108",
    "final_y": "526338.841534",
    "longitude": "-90.03894568183253",
    "latitude": "29.940964188895602",
    "geocoded_column": {
      "latitude": "29.940964188895602",
      "longitude": "-90.03894568183253"
    }
  },
  {
    "service_request": "2022-895947",
    "request_type": "Roads/Drainage",
    "request_reason": "Catch Basin - Clogged",
    "date_created": "2022-06-30T14:26:56.000",
    "date_modified": "2022-06-30T14:26:56.000",
    "request_status": "Pending",
    "responsible_agency": "Department of Public Works",
    "final_address": "8026 Cohn St",
    "address_councildis": "A",
    "status": "Pending",
    "rowid": "895947",
    "final_x": "3663806.7104",
    "final_y": "529962.291905",
    "longitude": "-90.12399152927509",
    "latitude": "29.951737840679538",
    "geocoded_column": {
      "latitude": "29.951737840679538",
      "longitude": "-90.12399152927509"
    }
  },
  {
    "service_request": "2022-895946",
    "request_type": "Tax and Revenue",
    "request_reason": "Occupational License Tax",
    "date_created": "2022-06-30T14:26:54.000",
    "date_modified": "2022-06-30T14:26:54.000",
    "request_status": "Pending",
    "responsible_agency": "Bureau of Revenue",
    "status": "Pending",
    "rowid": "895946",
    "longitude": "0.0",
    "latitude": "0.0",
    "geocoded_column": {
      "latitude": "0.0",
      "longitude": "0.0"
    }
  },
  {
    "service_request": "2022-895945",
    "request_type": "Trash/Recycling",
    "request_reason": "Missed Trash Pick-Up",
    "date_created": "2022-06-30T14:25:18.000",
    "date_modified": "2022-06-30T14:25:19.000",
    "request_status": "Pending",
    "responsible_agency": "Department of Sanitation",
    "final_address": "1533 Washington Ave",
    "address_councildis": "B",
    "status": "Assigned to Contractor",
    "contractor": "Richards Disposal",
    "rowid": "895945",
    "final_x": "3676110.31809",
    "final_y": "522374.93049",
    "longitude": "-90.08540350910295",
    "latitude": "29.930512302033204",
    "geocoded_column": {
      "latitude": "29.930512302033204",
      "longitude": "-90.08540350910295"
    }
  },
  {
    "service_request": "2022-895944",
    "request_type": "Trash/Recycling",
    "request_reason": "Request a Large Item Pick Up",
    "date_created": "2022-06-30T14:25:05.000",
    "date_modified": "2022-06-30T14:25:07.000",
    "request_status": "Pending",
    "responsible_agency": "Department of Sanitation",
    "final_address": "3508 Robert St",
    "address_councildis": "B",
    "status": "Assigned to Contractor",
    "contractor": "Richards Disposal",
    "rowid": "895944",
    "final_x": "3668905.15822",
    "final_y": "527716.553279",
    "longitude": "-90.10796885455333",
    "latitude": "29.945413847290684",
    "geocoded_column": {
      "latitude": "29.945413847290684",
      "longitude": "-90.10796885455333"
    }
  },
  {
    "service_request": "2022-895943",
    "request_type": "Trash/Recycling",
    "request_reason": "Illegal Dumping",
    "date_created": "2022-06-30T14:23:45.000",
    "date_modified": "2022-06-30T14:23:46.000",
    "request_status": "Pending",
    "responsible_agency": "Department of Sanitation",
    "final_address": "2212 Pauger St",
    "address_councildis": "C",
    "status": "Pending",
    "rowid": "895943",
    "final_x": "3683712.88853",
    "final_y": "537821.372041",
    "longitude": "-90.06086186220675",
    "latitude": "29.972754912399925",
    "geocoded_column": {
      "latitude": "29.972754912399925",
      "longitude": "-90.06086186220675"
    }
  },
  {
    "service_request": "2022-895942",
    "request_type": "Roads/Drainage",
    "request_reason": "Catch Basin - Broken/Damage",
    "date_created": "2022-06-30T14:20:05.000",
    "date_modified": "2022-06-30T14:20:05.000",
    "request_status": "Pending",
    "responsible_agency": "Department of Public Works",
    "final_address": "4170 Toulouse St",
    "address_councildis": "A",
    "status": "Pending",
    "rowid": "895942",
    "final_x": "3671726.75732",
    "final_y": "540065.217867",
    "longitude": "-90.0986400204248",
    "latitude": "29.979285283699003",
    "geocoded_column": {
      "latitude": "29.979285283699003",
      "longitude": "-90.0986400204248"
    }
  },
  {
    "service_request": "2022-895941",
    "request_type": "Roads/Drainage",
    "request_reason": "Pothole",
    "date_created": "2022-06-30T14:19:47.000",
    "date_modified": "2022-06-30T14:19:47.000",
    "request_status": "Pending",
    "responsible_agency": "Department of Public Works",
    "final_address": "4821 Piety Dr",
    "address_councildis": "D",
    "status": "Pending",
    "rowid": "895941",
    "final_x": "3691706.00131",
    "final_y": "551418.534229",
    "longitude": "-90.03513169948947",
    "latitude": "30.009895693236288",
    "geocoded_column": {
      "latitude": "30.009895693236288",
      "longitude": "-90.03513169948947"
    }
  },
  {
    "service_request": "2022-895940",
    "request_type": "Trash/Recycling",
    "request_reason": "Missed Trash Pick-Up",
    "date_created": "2022-06-30T14:19:17.000",
    "date_modified": "2022-06-30T14:19:19.000",
    "request_status": "Pending",
    "responsible_agency": "Department of Sanitation",
    "final_address": "1451 Exposition Blvd",
    "address_councildis": "A",
    "status": "Assigned to Contractor",
    "contractor": "Richards Disposal",
    "rowid": "895940",
    "final_x": "3664185.98746",
    "final_y": "522081.64633",
    "longitude": "-90.1230567751261",
    "latitude": "29.930057570316283",
    "geocoded_column": {
      "latitude": "29.930057570316283",
      "longitude": "-90.1230567751261"
    }
  },
  {
    "service_request": "2022-895939",
    "request_type": "Roads/Drainage",
    "request_reason": "Pothole",
    "date_created": "2022-06-30T14:18:25.000",
    "date_modified": "2022-06-30T14:18:25.000",
    "request_status": "Pending",
    "responsible_agency": "Department of Public Works",
    "final_address": "HUMANITY ST & LOUISA ST",
    "address_councildis": "D",
    "status": "Pending",
    "rowid": "895939",
    "final_x": "3691720.03",
    "final_y": "544538.29",
    "longitude": "-90.03533361486599",
    "latitude": "29.99097710160772",
    "geocoded_column": {
      "latitude": "29.99097710160772",
      "longitude": "-90.03533361486599"
    }
  },
  {
    "service_request": "2022-895938",
    "request_type": "Roads/Drainage",
    "request_reason": "Man hole cover issue",
    "date_created": "2022-06-30T14:17:40.000",
    "date_modified": "2022-06-30T14:17:41.000",
    "request_status": "Pending",
    "responsible_agency": "Department of Public Works",
    "final_address": "POYDRAS ST & CAMP ST",
    "address_councildis": "B",
    "status": "Pending",
    "rowid": "895938",
    "final_x": "3681111.4",
    "final_y": "529242.58",
    "longitude": "-90.0693767053642",
    "latitude": "29.94924533968395",
    "geocoded_column": {
      "latitude": "29.94924533968395",
      "longitude": "-90.0693767053642"
    }
  },
  {
    "service_request": "2022-895937",
    "request_type": "Trash/Recycling",
    "request_reason": "Replace Trash Cart",
    "date_created": "2022-06-30T14:13:11.000",
    "date_modified": "2022-06-30T14:13:13.000",
    "request_status": "Pending",
    "responsible_agency": "Department of Sanitation",
    "final_address": "11241 S Idlewood Ct",
    "address_councildis": "E",
    "status": "Assigned to Contractor",
    "contractor": "Metro Disposal",
    "rowid": "895937",
    "final_x": "3716598.85631",
    "final_y": "559694.242333",
    "longitude": "-89.95617284381291",
    "latitude": "30.03185164577297",
    "geocoded_column": {
      "latitude": "30.03185164577297",
      "longitude": "-89.95617284381291"
    }
  },
  {
    "service_request": "2022-895936",
    "request_type": "Roads/Drainage",
    "request_reason": "Pothole",
    "date_created": "2022-06-30T14:13:08.000",
    "date_modified": "2022-06-30T14:13:08.000",
    "request_status": "Pending",
    "responsible_agency": "Department of Public Works",
    "final_address": "1735 S Carrollton Ave",
    "address_councildis": "A",
    "status": "Pending",
    "rowid": "895936",
    "final_x": "3663474.98208",
    "final_y": "529775.207681",
    "longitude": "-90.12504520247383",
    "latitude": "29.951233042216785",
    "geocoded_column": {
      "latitude": "29.951233042216785",
      "longitude": "-90.12504520247383"
    }
  },
  {
    "service_request": "2022-895935",
    "request_type": "Trash/Recycling",
    "request_reason": "Replace Recycling Cart",
    "date_created": "2022-06-30T14:08:54.000",
    "date_modified": "2022-06-30T14:08:54.000",
    "request_status": "Pending",
    "responsible_agency": "Department of Sanitation",
    "final_address": "175 Danny Dr",
    "address_councildis": "C",
    "status": "Pending",
    "rowid": "895935",
    "final_x": "3702073.5786",
    "final_y": "523721.482939",
    "longitude": "-90.00339263872002",
    "latitude": "29.933411810709952",
    "geocoded_column": {
      "latitude": "29.933411810709952",
      "longitude": "-90.00339263872002"
    }
  },
  {
    "service_request": "2022-895934",
    "request_type": "Trash/Recycling",
    "request_reason": "Illegal Dumping",
    "date_created": "2022-06-30T14:06:31.000",
    "date_modified": "2022-06-30T14:06:33.000",
    "request_status": "Pending",
    "responsible_agency": "Department of Sanitation",
    "final_address": "BROOKLYN AVE & PTOLEMY ST",
    "address_councildis": "C",
    "status": "Pending",
    "rowid": "895934",
    "final_x": "3686315.2",
    "final_y": "525977.58",
    "longitude": "-90.05306122846594",
    "latitude": "29.94010883387292",
    "geocoded_column": {
      "latitude": "29.94010883387292",
      "longitude": "-90.05306122846594"
    }
  },
  {
    "service_request": "2022-895933",
    "request_type": "Parks & Parkways",
    "request_reason": "Request Tree Service (Right of Way/Public Property)",
    "date_created": "2022-06-30T14:02:53.000",
    "date_modified": "2022-06-30T14:02:54.000",
    "request_status": "Pending",
    "responsible_agency": "Department of Parks & Parkway",
    "final_address": "CLEVELAND AVE & S SARATOGA ST",
    "address_councildis": "B",
    "status": "Pending",
    "rowid": "895933",
    "final_x": "3679355.4",
    "final_y": "531532.28",
    "longitude": "-90.07484176989205",
    "latitude": "29.955594389598193",
    "geocoded_column": {
      "latitude": "29.955594389598193",
      "longitude": "-90.07484176989205"
    }
  },
  {
    "service_request": "2022-895932",
    "request_type": "Roads/Drainage",
    "request_reason": "Catch Basin - Clogged",
    "date_created": "2022-06-30T13:52:20.000",
    "date_modified": "2022-06-30T13:52:20.000",
    "request_status": "Pending",
    "responsible_agency": "Department of Public Works",
    "final_address": "9135 Edinburgh St",
    "address_councildis": "A",
    "status": "Pending",
    "rowid": "895932",
    "final_x": "3664688.4754",
    "final_y": "537023.624136",
    "longitude": "-90.12097141838045",
    "latitude": "29.971128572243327",
    "geocoded_column": {
      "latitude": "29.971128572243327",
      "longitude": "-90.12097141838045"
    }
  },
  {
    "service_request": "2022-895931",
    "request_type": "Trash/Recycling",
    "request_reason": "Missed Trash Pick-Up",
    "date_created": "2022-06-30T13:50:47.000",
    "date_modified": "2022-06-30T13:50:49.000",
    "request_status": "Pending",
    "responsible_agency": "Department of Sanitation",
    "final_address": "8451 Aberdeen Rd",
    "address_councildis": "E",
    "status": "Assigned to Contractor",
    "contractor": "Metro Disposal",
    "rowid": "895931",
    "final_x": "3703854.73028",
    "final_y": "561937.428895",
    "longitude": "-89.9963619985466",
    "latitude": "30.03843452893687",
    "geocoded_column": {
      "latitude": "30.03843452893687",
      "longitude": "-89.9963619985466"
    }
  },
  {
    "service_request": "2022-895930",
    "request_type": "Roads/Drainage",
    "request_reason": "Catch Basin - Clogged",
    "date_created": "2022-06-30T13:50:02.000",
    "date_modified": "2022-06-30T13:50:02.000",
    "request_status": "Pending",
    "responsible_agency": "Department of Public Works",
    "final_address": "9135 Edinburgh St",
    "address_councildis": "A",
    "status": "Pending",
    "rowid": "895930",
    "final_x": "3664688.4754",
    "final_y": "537023.624136",
    "longitude": "-90.12097141838045",
    "latitude": "29.971128572243327",
    "geocoded_column": {
      "latitude": "29.971128572243327",
      "longitude": "-90.12097141838045"
    }
  },
  {
    "service_request": "2022-895929",
    "request_type": "Trash/Recycling",
    "request_reason": "MIssed Recycling Pick-Up",
    "date_created": "2022-06-30T13:49:22.000",
    "date_modified": "2022-06-30T13:49:24.000",
    "case_close_date": "2021-07-13T19:00:00.000",
    "request_status": "Pending",
    "responsible_agency": "Department of Sanitation",
    "final_address": "2137 Jackson Ave",
    "address_councildis": "B",
    "status": "Assigned to Contractor",
    "contractor": "Richards Disposal",
    "rowid": "895929",
    "final_x": "3676081.96597",
    "final_y": "525817.240317",
    "longitude": "-90.08537465936054",
    "latitude": "29.939978377456967",
    "geocoded_column": {
      "latitude": "29.939978377456967",
      "longitude": "-90.08537465936054"
    }
  },
  {
    "service_request": "2022-895928",
    "request_type": "Abandoned Vehicles",
    "request_reason": "Abandoned/Junk Vehicles",
    "date_created": "2022-06-30T13:46:09.000",
    "date_modified": "2022-06-30T13:46:09.000",
    "request_status": "Pending",
    "responsible_agency": "Department of Public Works",
    "final_address": "5401 S Johnson St, New Orleans, Louisiana, 70125",
    "address_councildis": "A",
    "status": "Pending",
    "rowid": "895928",
    "final_x": "3668525.84756",
    "final_y": "527050.92307",
    "longitude": "-90.10918891615353",
    "latitude": "29.943594728233116",
    "geocoded_column": {
      "latitude": "29.943594728233116",
      "longitude": "-90.10918891615353"
    }
  },
  {
    "service_request": "2022-895927",
    "request_type": "Trash/Recycling",
    "request_reason": "Repair Trash Cart",
    "date_created": "2022-06-30T13:44:43.000",
    "date_modified": "2022-06-30T13:44:45.000",
    "request_status": "Pending",
    "responsible_agency": "Department of Sanitation",
    "final_address": "4832 Constance St",
    "address_councildis": "B",
    "status": "Assigned to Contractor",
    "contractor": "Richards Disposal",
    "rowid": "895927",
    "final_x": "3669358.69703",
    "final_y": "518210.376566",
    "longitude": "-90.10685814493308",
    "latitude": "29.919261563492768",
    "geocoded_column": {
      "latitude": "29.919261563492768",
      "longitude": "-90.10685814493308"
    }
  },
  {
    "service_request": "2022-895926",
    "request_type": "Trash/Recycling",
    "request_reason": "Missed Trash Pick-Up",
    "date_created": "2022-06-30T13:42:07.000",
    "date_modified": "2022-06-30T13:42:09.000",
    "request_status": "Pending",
    "responsible_agency": "Department of Sanitation",
    "final_address": "1834 Esplanade Ave",
    "address_councildis": "D",
    "status": "Assigned to Contractor",
    "contractor": "Richards Disposal",
    "rowid": "895926",
    "final_x": "3680406.09858",
    "final_y": "537143.063304",
    "longitude": "-90.07132891050242",
    "latitude": "29.97099035655947",
    "geocoded_column": {
      "latitude": "29.97099035655947",
      "longitude": "-90.07132891050242"
    }
  },
  {
    "service_request": "2022-895925",
    "request_type": "Trash/Recycling",
    "request_reason": "MIssed Recycling Pick-Up",
    "date_created": "2022-06-30T13:35:35.000",
    "date_modified": "2022-06-30T13:35:36.000",
    "request_status": "Pending",
    "responsible_agency": "Department of Sanitation",
    "final_address": "2037 Dumaine St",
    "address_councildis": "D",
    "status": "Assigned to Contractor",
    "contractor": "Richards Disposal",
    "rowid": "895925",
    "final_x": "3679141.65064",
    "final_y": "536051.796999",
    "longitude": "-90.07536003812645",
    "latitude": "29.968027980190076",
    "geocoded_column": {
      "latitude": "29.968027980190076",
      "longitude": "-90.07536003812645"
    }
  },
  {
    "service_request": "2022-895923",
    "request_type": "Parks & Parkways",
    "request_reason": "Request Tree Service (Right of Way/Public Property)",
    "date_created": "2022-06-30T13:32:11.000",
    "date_modified": "2022-06-30T13:32:11.000",
    "request_status": "Pending",
    "responsible_agency": "Department of Parks & Parkway",
    "final_address": "3303 Camp St",
    "address_councildis": "B",
    "status": "Pending",
    "rowid": "895923",
    "final_x": "3675184.08475",
    "final_y": "520149.336632",
    "longitude": "-90.08840382645883",
    "latitude": "29.924420343775093",
    "geocoded_column": {
      "latitude": "29.924420343775093",
      "longitude": "-90.08840382645883"
    }
  },
  {
    "service_request": "2022-895922",
    "request_type": "Traffic Signals/Signs/Striping/Streetlights",
    "request_reason": "Additional signage",
    "date_created": "2022-06-30T13:23:34.000",
    "date_modified": "2022-06-30T13:23:34.000",
    "request_status": "Pending",
    "responsible_agency": "Department of Public Works",
    "final_address": "1140 Toledano St",
    "address_councildis": "B",
    "status": "Pending",
    "rowid": "895922",
    "final_x": "3675228.40014",
    "final_y": "520087.932984",
    "longitude": "-90.08826604396283",
    "latitude": "29.924250179557472",
    "geocoded_column": {
      "latitude": "29.924250179557472",
      "longitude": "-90.08826604396283"
    }
  },
  {
    "service_request": "2022-895921",
    "request_type": "Trash/Recycling",
    "request_reason": "Request a Large Item Pick Up",
    "date_created": "2022-06-30T13:20:06.000",
    "date_modified": "2022-06-30T13:20:08.000",
    "case_close_date": "2021-03-21T19:00:00.000",
    "request_status": "Pending",
    "responsible_agency": "Department of Sanitation",
    "final_address": "3330 General Pershing St",
    "address_councildis": "B",
    "status": "Assigned to Contractor",
    "contractor": "Richards Disposal",
    "rowid": "895921",
    "final_x": "3670580.05115",
    "final_y": "527172.173567",
    "longitude": "-90.10269912613624",
    "latitude": "29.943867623979262",
    "geocoded_column": {
      "latitude": "29.943867623979262",
      "longitude": "-90.10269912613624"
    }
  },
  {
    "service_request": "2022-895920",
    "request_type": "Trash/Recycling",
    "request_reason": "Order Trash Cart",
    "date_created": "2022-06-30T13:17:23.000",
    "date_modified": "2022-06-30T13:17:26.000",
    "request_status": "Pending",
    "responsible_agency": "Department of Sanitation",
    "final_address": "1722 S Lopez St",
    "address_councildis": "B",
    "status": "Assigned to Contractor",
    "contractor": "Richards Disposal",
    "rowid": "895920",
    "final_x": "3669909.54638",
    "final_y": "530433.185794",
    "longitude": "-90.10470570001321",
    "latitude": "29.95285412581934",
    "geocoded_column": {
      "latitude": "29.95285412581934",
      "longitude": "-90.10470570001321"
    }
  },
  {
    "service_request": "2022-895919",
    "request_type": "Roads/Drainage",
    "request_reason": "Catch Basin - Clogged",
    "date_created": "2022-06-30T13:15:46.000",
    "date_modified": "2022-06-30T13:15:49.000",
    "request_status": "Pending",
    "responsible_agency": "Department of Public Works",
    "final_address": "4178 Toulouse St",
    "address_councildis": "A",
    "status": "Pending",
    "rowid": "895919",
    "final_x": "3671683.16628",
    "final_y": "540100.485963",
    "longitude": "-90.098776498213",
    "latitude": "29.97938355043567",
    "geocoded_column": {
      "latitude": "29.97938355043567",
      "longitude": "-90.098776498213"
    }
  },
  {
    "service_request": "2022-895918",
    "request_type": "Trash/Recycling",
    "request_reason": "Repair Trash Cart",
    "date_created": "2022-06-30T13:13:04.000",
    "date_modified": "2022-06-30T13:13:06.000",
    "case_close_date": "2021-12-13T18:00:00.000",
    "request_status": "Pending",
    "responsible_agency": "Department of Sanitation",
    "final_address": "7041 Beauvoir Ct",
    "address_councildis": "E",
    "status": "Assigned to Contractor",
    "contractor": "Metro Disposal",
    "rowid": "895918",
    "final_x": "3716653.50719",
    "final_y": "567277.495332",
    "longitude": "-89.95571203843727",
    "latitude": "30.05270070440881",
    "geocoded_column": {
      "latitude": "30.05270070440881",
      "longitude": "-89.95571203843727"
    }
  },
  {
    "service_request": "2022-895917",
    "request_type": "Abandoned Vehicles",
    "request_reason": "Abandoned/Junk Vehicles",
    "date_created": "2022-06-30T13:10:07.000",
    "date_modified": "2022-06-30T13:10:07.000",
    "request_status": "Pending",
    "responsible_agency": "Department of Public Works",
    "final_address": "343 Jane Aly",
    "address_councildis": "B",
    "status": "Pending",
    "rowid": "895917",
    "final_x": "3674428.89211",
    "final_y": "534457.012869",
    "longitude": "-90.090297758993",
    "latitude": "29.963784286181966",
    "geocoded_column": {
      "latitude": "29.963784286181966",
      "longitude": "-90.090297758993"
    }
  },
  {
    "service_request": "2022-895916",
    "request_type": "Roads/Drainage",
    "request_reason": "Catch Basin - Clogged",
    "date_created": "2022-06-30T13:07:18.000",
    "date_modified": "2022-06-30T13:07:21.000",
    "request_status": "Pending",
    "responsible_agency": "Department of Public Works",
    "final_address": "8605 Nelson St",
    "address_councildis": "A",
    "status": "Pending",
    "rowid": "895916",
    "final_x": "3663779.44301",
    "final_y": "533115.0169",
    "longitude": "-90.12397256041537",
    "latitude": "29.960407601680668",
    "geocoded_column": {
      "latitude": "29.960407601680668",
      "longitude": "-90.12397256041537"
    }
  },
  {
    "service_request": "2022-895915",
    "request_type": "Trash/Recycling",
    "request_reason": "Request a Large Item Pick Up",
    "date_created": "2022-06-30T13:06:07.000",
    "date_modified": "2022-06-30T13:06:09.000",
    "request_status": "Pending",
    "responsible_agency": "Department of Sanitation",
    "final_address": "1223 St Andrew St",
    "address_councildis": "B",
    "status": "Assigned to Contractor",
    "contractor": "Richards Disposal",
    "rowid": "895915",
    "final_x": "3679167.52002",
    "final_y": "523039.560059",
    "longitude": "-90.07572935447217",
    "latitude": "29.93224790855743",
    "geocoded_column": {
      "latitude": "29.93224790855743",
      "longitude": "-90.07572935447217"
    }
  },
  {
    "service_request": "2022-895914",
    "request_type": "Trash/Recycling",
    "request_reason": "Illegal Dumping",
    "date_created": "2022-06-30T13:03:04.000",
    "date_modified": "2022-06-30T13:03:04.000",
    "request_status": "Pending",
    "responsible_agency": "Department of Sanitation",
    "final_address": "2931 Banks St",
    "address_councildis": "B",
    "status": "Pending",
    "rowid": "895914",
    "final_x": "3673700.87092",
    "final_y": "534929.388806",
    "longitude": "-90.09258062970083",
    "latitude": "29.965104857305484",
    "geocoded_column": {
      "latitude": "29.965104857305484",
      "longitude": "-90.09258062970083"
    }
  },
  {
    "service_request": "2022-895913",
    "request_type": "Traffic Signals/Signs/Striping/Streetlights",
    "request_reason": "Street Light Outage/Malfunction",
    "date_created": "2022-06-30T12:54:50.000",
    "date_modified": "2022-06-30T12:54:53.000",
    "request_status": "Pending",
    "responsible_agency": "Department of Public Works",
    "final_address": "3953 Camp St",
    "address_councildis": "B",
    "status": "Pending",
    "contractor": "Royal Engineering",
    "rowid": "895913",
    "final_x": "3672541.03515",
    "final_y": "519361.687287",
    "longitude": "-90.0967738759507",
    "latitude": "29.922333255437202",
    "geocoded_column": {
      "latitude": "29.922333255437202",
      "longitude": "-90.0967738759507"
    }
  },
  {
    "service_request": "2022-895912",
    "request_type": "Safety & Permits",
    "request_reason": "Construction permit",
    "date_created": "2022-06-30T12:54:50.000",
    "date_modified": "2022-06-30T13:34:01.000",
    "request_status": "Pending",
    "responsible_agency": "Safety and Permits",
    "final_address": "2206 Mandeville St",
    "address_councildis": "D",
    "status": "Pending",
    "rowid": "895912",
    "final_x": "3685408.23529",
    "final_y": "540482.845963",
    "longitude": "-90.05541390878801",
    "latitude": "29.980021155885957",
    "geocoded_column": {
      "latitude": "29.980021155885957",
      "longitude": "-90.05541390878801"
    }
  },
  {
    "service_request": "2022-895911",
    "request_type": "Trash/Recycling",
    "request_reason": "Repair Trash Cart",
    "date_created": "2022-06-30T12:51:41.000",
    "date_modified": "2022-06-30T12:51:44.000",
    "request_status": "Pending",
    "responsible_agency": "Department of Sanitation",
    "final_address": "6319 Fairfax Pl",
    "address_councildis": "C",
    "status": "Assigned to Contractor",
    "contractor": "Richards Disposal",
    "rowid": "895911",
    "final_x": "3707296.64024",
    "final_y": "517246.098485",
    "longitude": "-89.98714405097206",
    "latitude": "29.915439044133443",
    "geocoded_column": {
      "latitude": "29.915439044133443",
      "longitude": "-89.98714405097206"
    }
  },
  {
    "service_request": "2022-895910",
    "request_type": "Traffic Signals/Signs/Striping/Streetlights",
    "request_reason": "Street Light Outage/Malfunction",
    "date_created": "2022-06-30T12:42:44.000",
    "date_modified": "2022-06-30T12:42:47.000",
    "request_status": "Pending",
    "responsible_agency": "Department of Public Works",
    "final_address": "3731 Rue Mignon, New Orleans, Louisiana, 70131",
    "address_councildis": "C",
    "status": "Pending",
    "contractor": "Royal Engineering",
    "rowid": "895910",
    "final_x": "3703244.86359",
    "final_y": "516753.080693",
    "longitude": "-89.99995098200141",
    "latitude": "29.914213682996753",
    "geocoded_column": {
      "latitude": "29.914213682996753",
      "longitude": "-89.99995098200141"
    }
  },
  {
    "service_request": "2022-895909",
    "request_type": "Abandoned Vehicles",
    "request_reason": "Abandoned/Junk Vehicles",
    "date_created": "2022-06-30T12:39:14.000",
    "date_modified": "2022-06-30T12:39:14.000",
    "request_status": "Pending",
    "responsible_agency": "Department of Public Works",
    "status": "Inspected",
    "rowid": "895909",
    "longitude": "0.0",
    "latitude": "0.0",
    "geocoded_column": {
      "latitude": "0.0",
      "longitude": "0.0"
    }
  },
  {
    "service_request": "2022-895908",
    "request_type": "Trash/Recycling",
    "request_reason": "Missed Trash Pick-Up",
    "date_created": "2022-06-30T12:37:58.000",
    "date_modified": "2022-06-30T12:38:00.000",
    "request_status": "Pending",
    "responsible_agency": "Department of Sanitation",
    "final_address": "5100 Press Dr",
    "address_councildis": "D",
    "status": "Assigned to Contractor",
    "contractor": "Metro Disposal",
    "rowid": "895908",
    "final_x": "3689306.71804",
    "final_y": "552122.931606",
    "longitude": "-90.04268681381917",
    "latitude": "30.0119070521994",
    "geocoded_column": {
      "latitude": "30.0119070521994",
      "longitude": "-90.04268681381917"
    }
  },
  {
    "service_request": "2022-895907",
    "request_type": "Trash/Recycling",
    "request_reason": "Missed Trash Pick-Up",
    "date_created": "2022-06-30T12:36:25.000",
    "date_modified": "2022-06-30T12:36:27.000",
    "request_status": "Pending",
    "responsible_agency": "Department of Sanitation",
    "final_address": "1617 Fourth St",
    "address_councildis": "B",
    "status": "Assigned to Contractor",
    "contractor": "Richards Disposal",
    "rowid": "895907",
    "final_x": "3676113.33275",
    "final_y": "522904.885755",
    "longitude": "-90.0853757714052",
    "latitude": "29.93196941620145",
    "geocoded_column": {
      "latitude": "29.93196941620145",
      "longitude": "-90.0853757714052"
    }
  },
  {
    "service_request": "2022-895906",
    "request_type": "Trash/Recycling",
    "request_reason": "Request a Large Item Pick Up",
    "date_created": "2022-06-30T12:35:13.000",
    "date_modified": "2022-06-30T12:35:19.000",
    "request_status": "Pending",
    "responsible_agency": "Department of Sanitation",
    "final_address": "1615 Fourth St",
    "address_councildis": "B",
    "status": "Assigned to Contractor",
    "contractor": "Richards Disposal",
    "rowid": "895906",
    "final_x": "3676122.05365",
    "final_y": "522889.964731",
    "longitude": "-90.0853487534396",
    "latitude": "29.931928127077406",
    "geocoded_column": {
      "latitude": "29.931928127077406",
      "longitude": "-90.0853487534396"
    }
  },
  {
    "service_request": "2022-895905",
    "request_type": "Trash/Recycling",
    "request_reason": "Repair Recycling Cart",
    "date_created": "2022-06-30T12:35:07.000",
    "date_modified": "2022-06-30T12:35:07.000",
    "request_status": "Pending",
    "responsible_agency": "Department of Sanitation",
    "final_address": "2327 Calhoun St",
    "address_councildis": "A",
    "status": "Pending",
    "rowid": "895905",
    "final_x": "3666062.49165",
    "final_y": "525555.894845",
    "longitude": "-90.11701651529015",
    "latitude": "29.93955601386692",
    "geocoded_column": {
      "latitude": "29.93955601386692",
      "longitude": "-90.11701651529015"
    }
  },
  {
    "service_request": "2022-895904",
    "request_type": "Trash/Recycling",
    "request_reason": "Replace Trash Cart",
    "date_created": "2022-06-30T12:29:45.000",
    "date_modified": "2022-06-30T12:29:46.000",
    "request_status": "Pending",
    "responsible_agency": "Department of Sanitation",
    "final_address": "3611 Herald St",
    "address_councildis": "C",
    "status": "Assigned to Contractor",
    "contractor": "Richards Disposal",
    "rowid": "895904",
    "final_x": "3702149.27684",
    "final_y": "517810.473206",
    "longitude": "-90.00337025759937",
    "latitude": "29.917156160756733",
    "geocoded_column": {
      "latitude": "29.917156160756733",
      "longitude": "-90.00337025759937"
    }
  },
  {
    "service_request": "2022-895903",
    "request_type": "Trash/Recycling",
    "request_reason": "Order Recycling Cart",
    "date_created": "2022-06-30T12:26:36.000",
    "date_modified": "2022-06-30T12:26:36.000",
    "request_status": "Pending",
    "responsible_agency": "Department of Sanitation",
    "final_address": "3522 Clematis St",
    "address_councildis": "D",
    "status": "Pending",
    "rowid": "895903",
    "final_x": "3686384.04841",
    "final_y": "545868.256208",
    "longitude": "-90.05214170607066",
    "latitude": "29.994799157267625",
    "geocoded_column": {
      "latitude": "29.994799157267625",
      "longitude": "-90.05214170607066"
    }
  },
  {
    "service_request": "2022-895902",
    "request_type": "Trash/Recycling",
    "request_reason": "Order Trash Cart",
    "date_created": "2022-06-30T12:26:30.000",
    "date_modified": "2022-06-30T12:26:31.000",
    "request_status": "Pending",
    "responsible_agency": "Department of Sanitation",
    "final_address": "3317 Laurel St",
    "address_councildis": "B",
    "status": "Assigned to Contractor",
    "contractor": "Richards Disposal",
    "rowid": "895902",
    "final_x": "3675499.24731",
    "final_y": "519146.403511",
    "longitude": "-90.08744338876099",
    "latitude": "29.92165318162446",
    "geocoded_column": {
      "latitude": "29.92165318162446",
      "longitude": "-90.08744338876099"
    }
  },
  {
    "service_request": "2022-895901",
    "request_type": "Trash/Recycling",
    "request_reason": "Replace Trash Cart",
    "date_created": "2022-06-30T12:25:15.000",
    "date_modified": "2022-06-30T12:25:16.000",
    "request_status": "Pending",
    "responsible_agency": "Department of Sanitation",
    "final_address": "3522 Clematis St",
    "address_councildis": "D",
    "status": "Assigned to Contractor",
    "contractor": "Metro Disposal",
    "rowid": "895901",
    "final_x": "3686384.04841",
    "final_y": "545868.256208",
    "longitude": "-90.05214170607066",
    "latitude": "29.994799157267625",
    "geocoded_column": {
      "latitude": "29.994799157267625",
      "longitude": "-90.05214170607066"
    }
  },
  {
    "service_request": "2022-895900",
    "request_type": "Trash/Recycling",
    "request_reason": "Request a Large Item Pick Up",
    "date_created": "2022-06-30T12:24:02.000",
    "date_modified": "2022-06-30T12:24:03.000",
    "request_status": "Pending",
    "responsible_agency": "Department of Sanitation",
    "final_address": "720 Fourth St",
    "address_councildis": "B",
    "status": "Assigned to Contractor",
    "contractor": "Richards Disposal",
    "rowid": "895900",
    "final_x": "3678001.0644",
    "final_y": "519872.388344",
    "longitude": "-90.07952115090451",
    "latitude": "29.923574369183704",
    "geocoded_column": {
      "latitude": "29.923574369183704",
      "longitude": "-90.07952115090451"
    }
  },