[
  {
    "service_request": "2026-1292155",
    "request_type": "Trash/Recycling",
    "request_reason": "Order Recycling Cart",
    "date_created": "2026-06-18T23:20:44.000",
    "date_modified": "2026-06-18T23:21:09.000",
    "request_status": "Pending",
    "responsible_agency": "Department of Sanitation",
    "final_address": "1325 Josephine St A",
    "address_councildis": "B",
    "status": "Pending",
    "rowid": "1292155",
    "final_x": "3678644.44405",
    "final_y": "523049.010107",
    "longitude": "-90.07738032863168",
    "latitude": "29.93228966847986",
    "geocoded_column": {
      "latitude": "29.93228966847986",
      "longitude": "-90.07738032863168"
    }
  },
  {
    "service_request": "2026-1292154",
    "request_type": "Trash/Recycling",
    "request_reason": "Repair Trash Cart",
    "date_created": "2026-06-18T22:36:50.000",
    "date_modified": "2026-06-18T22:36:51.000",
    "request_status": "Pending",
    "responsible_agency": "Department of Sanitation",
    "final_address": "3221 Annunciation St",
    "address_councildis": "B",
    "status": "Assigned to Contractor",
    "contractor": "IV Waste",
    "rowid": "1292154",
    "final_x": "3676111.39585",
    "final_y": "518967.434039",
    "longitude": "-90.08551724964165",
    "latitude": "29.921142757212728",
    "geocoded_column": {
      "latitude": "29.921142757212728",
      "longitude": "-90.08551724964165"
    }
  },
  {
    "service_request": "2026-1292153",
    "request_type": "Trash/Recycling",
    "request_reason": "Repair Trash Cart",
    "date_created": "2026-06-18T22:36:04.000",
    "date_modified": "2026-06-18T22:36:06.000",
    "request_status": "Pending",
    "responsible_agency": "Department of Sanitation",
    "final_address": "3221 Annunciation St",
    "address_councildis": "B",
    "status": "Assigned to Contractor",
    "contractor": "IV Waste",
    "rowid": "1292153",
    "final_x": "3676111.39585",
    "final_y": "518967.434039",
    "longitude": "-90.08551724964165",
    "latitude": "29.921142757212728",
    "geocoded_column": {
      "latitude": "29.921142757212728",
      "longitude": "-90.08551724964165"
    }
  },
  {
    "service_request": "2026-1292152",
    "request_type": "Trash/Recycling",
    "request_reason": "Request a Large Item Pick Up",
    "date_created": "2026-06-18T22:33:47.000",
    "date_modified": "2026-06-18T22:33:49.000",
    "request_status": "Pending",
    "responsible_agency": "Department of Sanitation",
    "final_address": "3221 Annunciation St",
    "address_councildis": "B",
    "status": "Assigned to Contractor",
    "contractor": "IV Waste",
    "rowid": "1292152",
    "final_x": "3676111.39585",
    "final_y": "518967.434039",
    "longitude": "-90.08551724964165",
    "latitude": "29.921142757212728",
    "geocoded_column": {
      "latitude": "29.921142757212728",
      "longitude": "-90.08551724964165"
    }
  },
  {
    "service_request": "2026-1292151",
    "request_type": "Property Maintenance",
    "request_reason": "Property Maintenance",
    "date_created": "2026-06-18T21:31:52.000",
    "date_modified": "2026-06-18T21:31:54.000",
    "request_status": "Pending",
    "responsible_agency": "Department of Code Enforcement",
    "final_address": "4730 Freret St",
    "address_councildis": "B",
    "status": "Pending",
    "rowid": "1292151",
    "final_x": "3669235.8617",
    "final_y": "523857.789691",
    "longitude": "-90.10705510078016",
    "latitude": "29.934793766018775",
    "geocoded_column": {
      "latitude": "29.934793766018775",
      "longitude": "-90.10705510078016"
    }
  },
  {
    "service_request": "2026-1292150",
    "request_type": "Trash/Recycling",
    "request_reason": "Order Trash Cart",
    "date_created": "2026-06-18T21:28:32.000",
    "date_modified": "2026-06-18T21:28:46.000",
    "request_status": "Pending",
    "responsible_agency": "Department of Sanitation",
    "final_address": "318 S Lopez St",
    "address_councildis": "B",
    "status": "Assigned to Contractor",
    "contractor": "IV Waste",
    "rowid": "1292150",
    "final_x": "3673302.7282",
    "final_y": "535425.499206",
    "longitude": "-90.0938209966736",
    "latitude": "29.966480842448245",
    "geocoded_column": {
      "latitude": "29.966480842448245",
      "longitude": "-90.0938209966736"
    }
  },
  {
    "service_request": "2026-1292149",
    "request_type": "Trash/Recycling",
    "request_reason": "Order Recycling Cart",
    "date_created": "2026-06-18T21:20:22.000",
    "date_modified": "2026-06-18T21:20:24.000",
    "request_status": "Pending",
    "responsible_agency": "Department of Sanitation",
    "final_address": "0 BLK Agriculture Pl",
    "address_councildis": "D",
    "status": "Pending",
    "rowid": "1292149",
    "final_x": "3689891.40135",
    "final_y": "543419.290574",
    "longitude": "-90.04114966127275",
    "latitude": "29.987957086684915",
    "geocoded_column": {
      "latitude": "29.987957086684915",
      "longitude": "-90.04114966127275"
    }
  },
  {
    "service_request": "2026-1292148",
    "request_type": "Drainage",
    "request_reason": "Catch Basin Not Draining",
    "date_created": "2026-06-18T21:11:27.000",
    "date_modified": "2026-06-18T21:11:29.000",
    "request_status": "Pending",
    "responsible_agency": "Sewerage & Water Board",
    "final_address": "5700 Kensington Blvd",
    "address_councildis": "E",
    "status": "Pending",
    "rowid": "1292148",
    "final_x": "3713564.51647",
    "final_y": "560281.034141",
    "longitude": "-89.96573929730475",
    "latitude": "30.03356501603496",
    "geocoded_column": {
      "latitude": "30.03356501603496",
      "longitude": "-89.96573929730475"
    }
  },
  {
    "service_request": "2026-1292147",
    "request_type": "Tree Service",
    "request_reason": "Tree Trim",
    "date_created": "2026-06-18T20:48:57.000",
    "date_modified": "2026-06-18T20:48:59.000",
    "request_status": "Pending",
    "responsible_agency": "Department of Parks & Parkways",
    "final_address": "5333 Coliseum St",
    "address_councildis": "B",
    "status": "Pending",
    "rowid": "1292147",
    "final_x": "3667383.56705",
    "final_y": "519801.768312",
    "longitude": "-90.1130391562591",
    "latitude": "29.923695373444726",
    "geocoded_column": {
      "latitude": "29.923695373444726",
      "longitude": "-90.1130391562591"
    }
  },
  {
    "service_request": "2026-1292146",
    "request_type": "General Services",
    "request_reason": "General Service Request",
    "date_created": "2026-06-18T20:45:28.000",
    "date_modified": "2026-06-18T20:45:31.000",
    "request_status": "Pending",
    "responsible_agency": "Orleans Parish Communication District",
    "final_address": "0 BLK Blanc Pl",
    "address_councildis": "B",
    "status": "Pending",
    "rowid": "1292146",
    "final_x": "3667951.08401",
    "final_y": "520874.262829",
    "longitude": "-90.11121159835395",
    "latitude": "29.926627762655404",
    "geocoded_column": {
      "latitude": "29.926627762655404",
      "longitude": "-90.11121159835395"
    }
  },
  {
    "service_request": "2026-1292145",
    "request_type": "Property Maintenance",
    "request_reason": "Property Maintenance",
    "date_created": "2026-06-18T20:27:46.000",
    "date_modified": "2026-06-18T20:27:48.000",
    "request_status": "Pending",
    "responsible_agency": "Department of Code Enforcement",
    "final_address": "1840 River Oaks Dr",
    "address_councildis": "C",
    "status": "Pending",
    "rowid": "1292145",
    "final_x": "3701730.76516",
    "final_y": "523848.064443",
    "longitude": "-90.00447023866258",
    "latitude": "29.933770802028125",
    "geocoded_column": {
      "latitude": "29.933770802028125",
      "longitude": "-90.00447023866258"
    }
  },
  {
    "service_request": "2026-1292144",
    "request_type": "Trash/Recycling",
    "request_reason": "Order Trash Cart",
    "date_created": "2026-06-18T20:26:15.000",
    "date_modified": "2026-06-18T20:26:40.000",
    "request_status": "Pending",
    "responsible_agency": "Department of Sanitation",
    "final_address": "4826 Ken Ct",
    "address_councildis": "C",
    "status": "Assigned to Contractor",
    "contractor": "Richards Disposal",
    "rowid": "1292144",
    "final_x": "3701960.86231",
    "final_y": "518578.054903",
    "longitude": "-90.00393686086865",
    "latitude": "29.919272759122457",
    "geocoded_column": {
      "latitude": "29.919272759122457",
      "longitude": "-90.00393686086865"
    }
  },
  {
    "service_request": "2026-1292143",
    "request_type": "Abandoned Vehicles",
    "request_reason": "Abandoned/Junk Vehicles",
    "date_created": "2026-06-18T20:11:34.000",
    "date_modified": "2026-06-18T20:11:36.000",
    "request_status": "Pending",
    "responsible_agency": "Department of Public Works",
    "final_address": "7510 Means Ave",
    "address_councildis": "E",
    "status": "Pending",
    "rowid": "1292143",
    "final_x": "3708208.89496",
    "final_y": "564396.526881",
    "longitude": "-89.98251018749966",
    "latitude": "30.045055656601942",
    "geocoded_column": {
      "latitude": "30.045055656601942",
      "longitude": "-89.98251018749966"
    }
  },
  {
    "service_request": "2026-1292142",
    "request_type": "Trash/Recycling",
    "request_reason": "Repair Trash Cart",
    "date_created": "2026-06-18T20:08:18.000",
    "date_modified": "2026-06-18T20:08:20.000",
    "request_status": "Pending",
    "responsible_agency": "Department of Sanitation",
    "final_address": "1016 Amelia St",
    "address_councildis": "B",
    "status": "Assigned to Contractor",
    "contractor": "IV Waste",
    "rowid": "1292142",
    "final_x": "3673672.57294",
    "final_y": "518906.071159",
    "longitude": "-90.09321763329133",
    "latitude": "29.921046831470044",
    "geocoded_column": {
      "latitude": "29.921046831470044",
      "longitude": "-90.09321763329133"
    }
  },
  {
    "service_request": "2026-1292141",
    "request_type": "Abandoned Vehicles",
    "request_reason": "Abandoned/Junk Vehicles",
    "date_created": "2026-06-18T20:04:15.000",
    "date_modified": "2026-06-18T20:04:17.000",
    "request_status": "Pending",
    "responsible_agency": "Department of Public Works",
    "final_address": "7510 Means Ave",
    "address_councildis": "E",
    "status": "Pending",
    "rowid": "1292141",
    "final_x": "3708208.89496",
    "final_y": "564396.526881",
    "longitude": "-89.98251018749966",
    "latitude": "30.045055656601942",
    "geocoded_column": {
      "latitude": "30.045055656601942",
      "longitude": "-89.98251018749966"
    }
  },
  {
    "service_request": "2026-1292140",
    "request_type": "Trash/Recycling",
    "request_reason": "Order Recycling Cart",
    "date_created": "2026-06-18T19:56:39.000",
    "date_modified": "2026-06-18T19:56:40.000",
    "request_status": "Pending",
    "responsible_agency": "Department of Sanitation",
    "final_address": "0 BLK Blanc Pl",
    "address_councildis": "B",
    "status": "Pending",
    "rowid": "1292140",
    "final_x": "3667951.08401",
    "final_y": "520874.262829",
    "longitude": "-90.11121159835395",
    "latitude": "29.926627762655404",
    "geocoded_column": {
      "latitude": "29.926627762655404",
      "longitude": "-90.11121159835395"
    }
  },
  {
    "service_request": "2026-1292139",
    "request_type": "Utility Poles",
    "request_reason": "Wires Sagging/Hanging Low",
    "date_created": "2026-06-18T19:51:42.000",
    "date_modified": "2026-06-18T19:51:44.000",
    "request_status": "Pending",
    "responsible_agency": "Utility Company Collective",
    "final_address": "3032 Orleans Ave",
    "address_councildis": "A",
    "status": "Pending",
    "rowid": "1292139",
    "final_x": "3675511.17934",
    "final_y": "537892.435337",
    "longitude": "-90.08676197357316",
    "latitude": "29.97319820491467",
    "geocoded_column": {
      "latitude": "29.97319820491467",
      "longitude": "-90.08676197357316"
    }
  },
  {
    "service_request": "2026-1292138",
    "request_type": "Traffic Signals",
    "request_reason": "Traffic Signal Malfunctioning or Damaged",
    "date_created": "2026-06-18T19:50:44.000",
    "date_modified": "2026-06-18T19:50:45.000",
    "request_status": "Pending",
    "responsible_agency": "Department of Public Works",
    "final_address": "1616 Fats Domino Ave",
    "address_councildis": "E",
    "status": "Pending",
    "rowid": "1292138",
    "final_x": "3698472.09655",
    "final_y": "535826.659847",
    "longitude": "-90.01432233063797",
    "latitude": "29.966811239283324",
    "geocoded_column": {
      "latitude": "29.966811239283324",
      "longitude": "-90.01432233063797"
    }
  },
  {
    "service_request": "2026-1292137",
    "request_type": "Trash/Recycling",
    "request_reason": "Order Recycling Cart",
    "date_created": "2026-06-18T19:50:43.000",
    "date_modified": "2026-06-18T19:50:44.000",
    "request_status": "Pending",
    "responsible_agency": "Department of Sanitation",
    "final_address": "3116 Cleveland Ave",
    "address_councildis": "B",
    "status": "Pending",
    "rowid": "1292137",
    "final_x": "3673658.29896",
    "final_y": "535817.562951",
    "longitude": "-90.09268470100287",
    "latitude": "29.967548304559806",
    "geocoded_column": {
      "latitude": "29.967548304559806",
      "longitude": "-90.09268470100287"
    }
  },
  {
    "service_request": "2026-1292136",
    "request_type": "Trash/Recycling",
    "request_reason": "Repair Recycling Cart",
    "date_created": "2026-06-18T19:48:53.000",
    "date_modified": "2026-06-18T19:48:57.000",
    "request_status": "Pending",
    "responsible_agency": "Department of Sanitation",
    "final_address": "3033 Octavia St",
    "address_councildis": "B",
    "status": "Pending",
    "rowid": "1292136",
    "final_x": "3668257.89978",
    "final_y": "526832.833214",
    "longitude": "-90.11004225173377",
    "latitude": "29.943002920147734",
    "geocoded_column": {
      "latitude": "29.943002920147734",
      "longitude": "-90.11004225173377"
    }
  },
  {
    "service_request": "2026-1292135",
    "request_type": "Trash/Recycling",
    "request_reason": "Request a Large Item Pick Up",
    "date_created": "2026-06-18T19:38:37.000",
    "date_modified": "2026-06-18T19:38:39.000",
    "request_status": "Pending",
    "responsible_agency": "Department of Sanitation",
    "final_address": "717 Burdette St",
    "address_councildis": "A",
    "status": "Assigned to Contractor",
    "contractor": "IV Waste",
    "rowid": "1292135",
    "final_x": "3661749.40192",
    "final_y": "526414.486462",
    "longitude": "-90.13060514215336",
    "latitude": "29.942042053810624",
    "geocoded_column": {
      "latitude": "29.942042053810624",
      "longitude": "-90.13060514215336"
    }
  },
  {
    "service_request": "2026-1292134",
    "request_type": "Trash/Recycling",
    "request_reason": "Order Trash Cart",
    "date_created": "2026-06-18T19:36:30.000",
    "date_modified": "2026-06-18T19:36:31.000",
    "request_status": "Pending",
    "responsible_agency": "Department of Sanitation",
    "final_address": "2237 General Pershing St",
    "address_councildis": "B",
    "status": "Assigned to Contractor",
    "contractor": "IV Waste",
    "rowid": "1292134",
    "final_x": "3671053.5947",
    "final_y": "523343.470651",
    "longitude": "-90.10133398882948",
    "latitude": "29.933325938910087",
    "geocoded_column": {
      "latitude": "29.933325938910087",
      "longitude": "-90.10133398882948"
    }
  },
  {
    "service_request": "2026-1292133",
    "request_type": "Trash/Recycling",
    "request_reason": "Order Second Trash Cart",
    "date_created": "2026-06-18T19:35:44.000",
    "date_modified": "2026-06-18T19:35:45.000",
    "request_status": "Pending",
    "responsible_agency": "Department of Sanitation",
    "final_address": "717 Burdette St",
    "address_councildis": "A",
    "status": "Assigned to Contractor",
    "contractor": "IV Waste",
    "rowid": "1292133",
    "final_x": "3661749.40192",
    "final_y": "526414.486462",
    "longitude": "-90.13060514215336",
    "latitude": "29.942042053810624",
    "geocoded_column": {
      "latitude": "29.942042053810624",
      "longitude": "-90.13060514215336"
    }
  },
  {
    "service_request": "2026-1292132",
    "request_type": "Street and Traffic Signs",
    "request_reason": "Traffic or Parking Sign Damaged or Missing",
    "date_created": "2026-06-18T19:35:01.000",
    "date_modified": "2026-06-18T19:35:02.000",
    "request_status": "Pending",
    "responsible_agency": "Department of Public Works",
    "final_address": "2416 Bienville Ave",
    "address_councildis": "B",
    "status": "Pending",
    "rowid": "1292132",
    "final_x": "3676740.50299",
    "final_y": "534955.861894",
    "longitude": "-90.08298072250993",
    "latitude": "29.96508679662959",
    "geocoded_column": {
      "latitude": "29.96508679662959",
      "longitude": "-90.08298072250993"
    }
  },
  {
    "service_request": "2026-1292131",
    "request_type": "Trash/Recycling",
    "request_reason": "Repair Trash Cart",
    "date_created": "2026-06-18T19:33:52.000",
    "date_modified": "2026-06-18T19:33:57.000",
    "request_status": "Pending",
    "responsible_agency": "Department of Sanitation",
    "final_address": "1717 Burdette St",
    "address_councildis": "A",
    "status": "Assigned to Contractor",
    "contractor": "IV Waste",
    "rowid": "1292131",
    "final_x": "3664114.5104",
    "final_y": "528997.224512",
    "longitude": "-90.12305182593701",
    "latitude": "29.9490752808722",
    "geocoded_column": {
      "latitude": "29.9490752808722",
      "longitude": "-90.12305182593701"
    }
  },
  {
    "service_request": "2026-1292130",
    "request_type": "Streetlights",
    "request_reason": "Streetlight Knocked Down/Leaning",
    "date_created": "2026-06-18T19:23:28.000",
    "date_modified": "2026-06-18T19:23:29.000",
    "request_status": "Pending",
    "responsible_agency": "Department of Public Works",
    "final_address": "900 BLK Alvar St",
    "address_councildis": "C",
    "status": "Pending",
    "rowid": "1292130",
    "final_x": "3691338.5228",
    "final_y": "534768.513584",
    "longitude": "-90.03688786665971",
    "latitude": "29.96412557310422",
    "geocoded_column": {
      "latitude": "29.96412557310422",
      "longitude": "-90.03688786665971"
    }
  },
  {
    "service_request": "2026-1292129",
    "request_type": "Traffic Safety",
    "request_reason": "Request for Traffic Calming due to Speeding",
    "date_created": "2026-06-18T19:20:49.000",
    "date_modified": "2026-06-18T19:20:50.000",
    "request_status": "Pending",
    "responsible_agency": "Department of Public Works",
    "final_address": "3126 Delachaise St",
    "address_councildis": "B",
    "status": "Pending",
    "rowid": "1292129",
    "final_x": "3671651.6603",
    "final_y": "526647.793918",
    "longitude": "-90.09933358679349",
    "latitude": "29.942394061316815",
    "geocoded_column": {
      "latitude": "29.942394061316815",
      "longitude": "-90.09933358679349"
    }
  },
  {
    "service_request": "2026-1292128",
    "request_type": "Trash/Recycling",
    "request_reason": "Damaged Caused By Contractor",
    "date_created": "2026-06-18T19:19:10.000",
    "date_modified": "2026-06-18T19:19:12.000",
    "request_status": "Pending",
    "responsible_agency": "Department of Sanitation",
    "final_address": "4616 Arts St",
    "address_councildis": "D",
    "status": "Assigned to Contractor",
    "contractor": "IV Waste",
    "rowid": "1292128",
    "final_x": "3685899.63087",
    "final_y": "549727.58786",
    "longitude": "-90.05353575763854",
    "latitude": "30.00542581138603",
    "geocoded_column": {
      "latitude": "30.00542581138603",
      "longitude": "-90.05353575763854"
    }
  },
  {
    "service_request": "2026-1292127",
    "request_type": "General Services",
    "request_reason": "General Service Request",
    "date_created": "2026-06-18T19:17:54.000",
    "date_modified": "2026-06-18T19:17:57.000",
    "request_status": "Pending",
    "responsible_agency": "Orleans Parish Communication District",
    "final_address": "327 Florida Blvd",
    "address_councildis": "A",
    "status": "Pending",
    "rowid": "1292127",
    "final_x": "3667167.4505",
    "final_y": "545619.584656",
    "longitude": "-90.1128532974768",
    "latitude": "29.99469220370665",
    "geocoded_column": {
      "latitude": "29.99469220370665",
      "longitude": "-90.1128532974768"
    }
  },
  {
    "service_request": "2026-1292126",
    "request_type": "Abandoned Vehicles",
    "request_reason": "Abandoned/Junk Vehicles",
    "date_created": "2026-06-18T19:16:52.000",
    "date_modified": "2026-06-18T19:16:55.000",
    "request_status": "Pending",
    "responsible_agency": "Department of Public Works",
    "final_address": "2720 Dryades St",
    "address_councildis": "B",
    "status": "Pending",
    "rowid": "1292126",
    "final_x": "3675451.7515",
    "final_y": "523485.383483",
    "longitude": "-90.08744439093692",
    "latitude": "29.93358539190366",
    "geocoded_column": {
      "latitude": "29.93358539190366",
      "longitude": "-90.08744439093692"
    }
  },
  {
    "service_request": "2026-1292125",
    "request_type": "Trash/Recycling",
    "request_reason": "Request a Large Item Pick Up",
    "date_created": "2026-06-18T19:11:05.000",
    "date_modified": "2026-06-18T19:11:06.000",
    "request_status": "Pending",
    "responsible_agency": "Department of Sanitation",
    "final_address": "1332 Rapides Dr",
    "address_councildis": "D",
    "status": "Assigned to Contractor",
    "contractor": "IV Waste",
    "rowid": "1292125",
    "final_x": "3677266.6884",
    "final_y": "552584.881174",
    "longitude": "-90.08071046236414",
    "latitude": "30.013544647309654",
    "geocoded_column": {
      "latitude": "30.013544647309654",
      "longitude": "-90.08071046236414"
    }
  },
  {
    "service_request": "2026-1292124",
    "request_type": "Trash/Recycling",
    "request_reason": "Request a Large Item Pick Up",
    "date_created": "2026-06-18T19:07:26.000",
    "date_modified": "2026-06-18T19:07:28.000",
    "request_status": "Pending",
    "responsible_agency": "Department of Sanitation",
    "final_address": "3141 St Philip St",
    "address_councildis": "A",
    "status": "Assigned to Contractor",
    "contractor": "IV Waste",
    "rowid": "1292124",
    "final_x": "3675719.54421",
    "final_y": "539194.374602",
    "longitude": "-90.08605915716954",
    "latitude": "29.97677185812415",
    "geocoded_column": {
      "latitude": "29.97677185812415",
      "longitude": "-90.08605915716954"
    }
  },
  {
    "service_request": "2026-1292123",
    "request_type": "Trash/Recycling",
    "request_reason": "Request a Large Item Pick Up",
    "date_created": "2026-06-18T19:02:21.000",
    "date_modified": "2026-06-18T19:02:23.000",
    "request_status": "Pending",
    "responsible_agency": "Department of Sanitation",
    "final_address": "7122 Tudor Ct",
    "address_councildis": "E",
    "status": "Assigned to Contractor",
    "contractor": "Waste Pro",
    "rowid": "1292123",
    "final_x": "3703682.5953",
    "final_y": "559676.621981",
    "longitude": "-89.9969893127179",
    "latitude": "30.032223716386827",
    "geocoded_column": {
      "latitude": "30.032223716386827",
      "longitude": "-89.9969893127179"
    }
  },
  {
    "service_request": "2026-1292122",
    "request_type": "Abandoned Vehicles",
    "request_reason": "Abandoned/Junk Vehicles",
    "date_created": "2026-06-18T18:56:41.000",
    "date_modified": "2026-06-18T18:56:50.000",
    "request_status": "Pending",
    "responsible_agency": "Department of Public Works",
    "final_address": "2221 Painters St",
    "address_councildis": "D",
    "status": "Pending",
    "rowid": "1292122",
    "final_x": "3687259.72911",
    "final_y": "540745.769739",
    "longitude": "-90.0495568314101",
    "latitude": "29.980687195479245",
    "geocoded_column": {
      "latitude": "29.980687195479245",
      "longitude": "-90.0495568314101"
    }
  },
  {
    "service_request": "2026-1292121",
    "request_type": "Trash/Recycling",
    "request_reason": "Order Trash Cart",
    "date_created": "2026-06-18T18:56:26.000",
    "date_modified": "2026-06-18T18:56:29.000",
    "request_status": "Pending",
    "responsible_agency": "Department of Sanitation",
    "final_address": "2923 Amelia St",
    "address_councildis": "B",
    "status": "Assigned to Contractor",
    "contractor": "IV Waste",
    "rowid": "1292121",
    "final_x": "3671975.62004",
    "final_y": "525805.380925",
    "longitude": "-90.09833943695031",
    "latitude": "29.940068102912353",
    "geocoded_column": {
      "latitude": "29.940068102912353",
      "longitude": "-90.09833943695031"
    }
  },
  {
    "service_request": "2026-1292120",
    "request_type": "Trash/Recycling",
    "request_reason": "Request a Large Item Pick Up",
    "date_created": "2026-06-18T18:52:09.000",
    "date_modified": "2026-06-18T18:52:12.000",
    "request_status": "Pending",
    "responsible_agency": "Department of Sanitation",
    "final_address": "6910 Deanne St",
    "address_councildis": "D",
    "status": "Assigned to Contractor",
    "contractor": "Waste Pro",
    "rowid": "1292120",
    "final_x": "3695664.98083",
    "final_y": "556086.41737",
    "longitude": "-90.022455197162",
    "latitude": "30.022606690504517",
    "geocoded_column": {
      "latitude": "30.022606690504517",
      "longitude": "-90.022455197162"
    }
  },
  {
    "service_request": "2026-1292119",
    "request_type": "Trash/Recycling",
    "request_reason": "Replace Trash Cart",
    "date_created": "2026-06-18T18:33:43.000",
    "date_modified": "2026-06-18T18:33:44.000",
    "request_status": "Pending",
    "responsible_agency": "Department of Sanitation",
    "final_address": "1709 Numa St",
    "address_councildis": "C",
    "status": "Assigned to Contractor",
    "contractor": "Richards Disposal",
    "rowid": "1292119",
    "final_x": "3691666.3094",
    "final_y": "525018.386941",
    "longitude": "-90.03620130288746",
    "latitude": "29.937305895658664",
    "geocoded_column": {
      "latitude": "29.937305895658664",
      "longitude": "-90.03620130288746"
    }
  },
  {
    "service_request": "2026-1292118",
    "request_type": "Trash/Recycling",
    "request_reason": "Order Second Trash Cart",
    "date_created": "2026-06-18T18:32:44.000",
    "date_modified": "2026-06-18T18:32:46.000",
    "request_status": "Pending",
    "responsible_agency": "Department of Sanitation",
    "final_address": "5933 Dover Pl",
    "address_councildis": "C",
    "status": "Assigned to Contractor",
    "contractor": "Richards Disposal",
    "rowid": "1292118",
    "final_x": "3705809.91793",
    "final_y": "519044.781751",
    "longitude": "-89.99177019158748",
    "latitude": "29.920432744403048",
    "geocoded_column": {
      "latitude": "29.920432744403048",
      "longitude": "-89.99177019158748"
    }
  },
  {
    "service_request": "2026-1292117",
    "request_type": "Trash/Recycling",
    "request_reason": "Request a Large Item Pick Up",
    "date_created": "2026-06-18T18:25:02.000",
    "date_modified": "2026-06-18T18:25:09.000",
    "request_status": "Pending",
    "responsible_agency": "Department of Sanitation",
    "final_address": "3639 Annunciation St",
    "address_councildis": "B",
    "status": "Assigned to Contractor",
    "contractor": "IV Waste",
    "rowid": "1292117",
    "final_x": "3674124.88673",
    "final_y": "518202.237174",
    "longitude": "-90.09181395190645",
    "latitude": "29.919098044985148",
    "geocoded_column": {
      "latitude": "29.919098044985148",
      "longitude": "-90.09181395190645"
    }
  },
  {
    "service_request": "2026-1292116",
    "request_type": "Trash/Recycling",
    "request_reason": "Request a Large Item Pick Up",
    "date_created": "2026-06-18T18:20:14.000",
    "date_modified": "2026-06-18T18:20:16.000",
    "request_status": "Pending",
    "responsible_agency": "Department of Sanitation",
    "final_address": "1618 Lisbon St",
    "address_councildis": "D",
    "status": "Assigned to Contractor",
    "contractor": "IV Waste",
    "rowid": "1292116",
    "final_x": "3679175.77666",
    "final_y": "556137.679194",
    "longitude": "-90.07455542702402",
    "latitude": "30.02325602943658",
    "geocoded_column": {
      "latitude": "30.02325602943658",
      "longitude": "-90.07455542702402"
    }
  },
  {
    "service_request": "2026-1292115",
    "request_type": "Trash/Recycling",
    "request_reason": "Request a Large Item Pick Up",
    "date_created": "2026-06-18T18:06:33.000",
    "date_modified": "2026-06-18T18:06:36.000",
    "request_status": "Pending",
    "responsible_agency": "Department of Sanitation",
    "final_address": "13026 Laval St",
    "address_councildis": "E",
    "status": "Assigned to Contractor",
    "contractor": "Waste Pro",
    "rowid": "1292115",
    "final_x": "3723818.83411",
    "final_y": "562361.092319",
    "longitude": "-89.93325465065008",
    "latitude": "30.038943815142815",
    "geocoded_column": {
      "latitude": "30.038943815142815",
      "longitude": "-89.93325465065008"
    }
  },
  {
    "service_request": "2026-1292114",
    "request_type": "Trash/Recycling",
    "request_reason": "Damaged Caused By Contractor",
    "date_created": "2026-06-18T18:05:00.000",
    "date_modified": "2026-06-18T18:05:02.000",
    "request_status": "Pending",
    "responsible_agency": "Department of Sanitation",
    "final_address": "926 Ninth St",
    "address_councildis": "B",
    "status": "Assigned to Contractor",
    "contractor": "IV Waste",
    "rowid": "1292114",
    "final_x": "3676100.80616",
    "final_y": "519596.348856",
    "longitude": "-90.08552905800263",
    "latitude": "29.922872387393333",
    "geocoded_column": {
      "latitude": "29.922872387393333",
      "longitude": "-90.08552905800263"
    }
  },
  {
    "service_request": "2026-1292113",
    "request_type": "Trash/Recycling",
    "request_reason": "Start Trash Service",
    "date_created": "2026-06-18T18:01:36.000",
    "date_modified": "2026-06-18T18:01:44.000",
    "request_status": "Pending",
    "responsible_agency": "Department of Sanitation",
    "final_address": "4934 Haik Dr",
    "address_councildis": "D",
    "status": "Assigned to Contractor",
    "contractor": "IV Waste",
    "rowid": "1292113",
    "final_x": "3681925.375",
    "final_y": "550894.726549",
    "longitude": "-90.06605051759907",
    "latitude": "30.00875647664343",
    "geocoded_column": {
      "latitude": "30.00875647664343",
      "longitude": "-90.06605051759907"
    }
  },
  {
    "service_request": "2026-1292112",
    "request_type": "Streetlights",
    "request_reason": "Streetlight Outage/Malfunction",
    "date_created": "2026-06-18T17:55:12.000",
    "date_modified": "2026-06-18T17:55:15.000",
    "request_status": "Pending",
    "responsible_agency": "Department of Public Works",
    "final_address": "LEON C SIMON DR & ST ANTHONY AVE",
    "address_councildis": "D",
    "status": "Pending",
    "rowid": "1292112",
    "final_x": "3681924.0",
    "final_y": "556390.88",
    "longitude": "-90.06586278840724",
    "latitude": "30.023868938150535",
    "geocoded_column": {
      "latitude": "30.023868938150535",
      "longitude": "-90.06586278840724"
    }
  },
  {
    "service_request": "2026-1292111",
    "request_type": "Trash/Recycling",
    "request_reason": "Order Trash Cart",
    "date_created": "2026-06-18T17:48:20.000",
    "date_modified": "2026-06-18T17:48:28.000",
    "request_status": "Pending",
    "responsible_agency": "Department of Sanitation",
    "final_address": "5591 New England Dr",
    "address_councildis": "E",
    "status": "Assigned to Contractor",
    "contractor": "Waste Pro",
    "rowid": "1292111",
    "final_x": "3723747.17414",
    "final_y": "564067.656737",
    "longitude": "-89.93341522233224",
    "latitude": "30.043638570970895",
    "geocoded_column": {
      "latitude": "30.043638570970895",
      "longitude": "-89.93341522233224"
    }
  },
  {
    "service_request": "2026-1292110",
    "request_type": "Tree Service",
    "request_reason": "Street or Sidewalk Blocked",
    "date_created": "2026-06-18T17:35:28.000",
    "date_modified": "2026-06-18T17:57:17.000",
    "request_status": "Pending",
    "responsible_agency": "Department of Parks & Parkways",
    "final_address": "2355 Oriole St",
    "address_councildis": "D",
    "status": "Pending",
    "rowid": "1292110",
    "final_x": "3684480.91612",
    "final_y": "558219.963804",
    "longitude": "-90.05771910446376",
    "latitude": "30.028820223719332",
    "geocoded_column": {
      "latitude": "30.028820223719332",
      "longitude": "-90.05771910446376"
    }
  },
  {
    "service_request": "2026-1292109",
    "request_type": "Trash/Recycling",
    "request_reason": "Order Trash Cart",
    "date_created": "2026-06-18T17:33:13.000",
    "date_modified": "2026-06-18T17:33:14.000",
    "request_status": "Pending",
    "responsible_agency": "Department of Sanitation",
    "final_address": "2629 Cupid St",
    "address_councildis": "C",
    "status": "Assigned to Contractor",
    "contractor": "Richards Disposal",
    "rowid": "1292109",
    "final_x": "3700290.38826",
    "final_y": "521367.843449",
    "longitude": "-90.00910789950466",
    "latitude": "29.926996905052597",
    "geocoded_column": {
      "latitude": "29.926996905052597",
      "longitude": "-90.00910789950466"
    }
  },
  {
    "service_request": "2026-1292108",
    "request_type": "General Services",
    "request_reason": "General Service Request",
    "date_created": "2026-06-18T17:32:56.000",
    "date_modified": "2026-06-18T17:32:58.000",
    "request_status": "Pending",
    "responsible_agency": "Orleans Parish Communication District",
    "final_address": "2111 Treasure St",
    "address_councildis": "D",
    "status": "Pending",
    "rowid": "1292108",
    "final_x": "3683716.23753",
    "final_y": "544032.268686",
    "longitude": "-90.06063341733822",
    "latitude": "29.98983259514649",
    "geocoded_column": {
      "latitude": "29.98983259514649",
      "longitude": "-90.06063341733822"
    }
  },
  {
    "service_request": "2026-1292107",
    "request_type": "Trash/Recycling",
    "request_reason": "Order Trash Cart",
    "date_created": "2026-06-18T17:32:33.000",
    "date_modified": "2026-06-18T17:32:34.000",
    "request_status": "Pending",
    "responsible_agency": "Department of Sanitation",
    "final_address": "7110 Pitt St",
    "address_councildis": "A",
    "status": "Assigned to Contractor",
    "contractor": "IV Waste",
    "rowid": "1292107",
    "final_x": "3662000.25408",
    "final_y": "522908.268539",
    "longitude": "-90.1299294042654",
    "latitude": "29.932393821112814",
    "geocoded_column": {
      "latitude": "29.932393821112814",
      "longitude": "-90.1299294042654"
    }
  },
  {
    "service_request": "2026-1292106",
    "request_type": "Trash/Recycling",
    "request_reason": "Request a Large Item Pick Up",
    "date_created": "2026-06-18T17:31:55.000",
    "date_modified": "2026-06-18T17:31:57.000",
    "request_status": "Pending",
    "responsible_agency": "Department of Sanitation",
    "final_address": "4854 Cerise Ave",
    "address_councildis": "E",
    "status": "Assigned to Contractor",
    "contractor": "Waste Pro",
    "rowid": "1292106",
    "final_x": "3708462.10705",
    "final_y": "556416.61481",
    "longitude": "-89.98200735440685",
    "latitude": "30.023105841513615",
    "geocoded_column": {
      "latitude": "30.023105841513615",
      "longitude": "-89.98200735440685"
    }
  },
  {
    "service_request": "2026-1292105",
    "request_type": "Drainage",
    "request_reason": "Catch Basin Not Draining",
    "date_created": "2026-06-18T17:29:09.000",
    "date_modified": "2026-06-18T17:29:10.000",
    "request_status": "Pending",
    "responsible_agency": "Sewerage & Water Board",
    "final_address": "7576 Pearl St",
    "address_councildis": "A",
    "status": "Pending",
    "rowid": "1292105",
    "final_x": "3661683.31942",
    "final_y": "525254.220989",
    "longitude": "-90.13085222275969",
    "latitude": "29.938853598944643",
    "geocoded_column": {
      "latitude": "29.938853598944643",
      "longitude": "-90.13085222275969"
    }
  },
  {
    "service_request": "2026-1292104",
    "request_type": "Abandoned Vehicles",
    "request_reason": "Abandoned/Junk Vehicles",
    "date_created": "2026-06-18T17:27:13.000",
    "date_modified": "2026-06-18T17:27:15.000",
    "request_status": "Pending",
    "responsible_agency": "Department of Public Works",
    "final_address": "2765 Banks St",
    "address_councildis": "B",
    "status": "Pending",
    "rowid": "1292104",
    "final_x": "3674228.48033",
    "final_y": "534535.042373",
    "longitude": "-90.09092796898115",
    "latitude": "29.964004817635775",
    "geocoded_column": {
      "latitude": "29.964004817635775",
      "longitude": "-90.09092796898115"
    }
  },
  {
    "service_request": "2026-1292103",
    "request_type": "Abandoned Vehicles",
    "request_reason": "Abandoned/Junk Vehicles",
    "date_created": "2026-06-18T17:24:21.000",
    "date_modified": "2026-06-18T17:24:23.000",
    "request_status": "Pending",
    "responsible_agency": "Department of Public Works",
    "final_address": "2765 Banks St",
    "address_councildis": "B",
    "status": "Pending",
    "rowid": "1292103",
    "final_x": "3674228.48033",
    "final_y": "534535.042373",
    "longitude": "-90.09092796898115",
    "latitude": "29.964004817635775",
    "geocoded_column": {
      "latitude": "29.964004817635775",
      "longitude": "-90.09092796898115"
    }
  },
  {
    "service_request": "2026-1292102",
    "request_type": "Trash/Recycling",
    "request_reason": "Order Trash Cart",
    "date_created": "2026-06-18T17:19:32.000",
    "date_modified": "2026-06-18T17:19:35.000",
    "request_status": "Pending",
    "responsible_agency": "Department of Sanitation",
    "final_address": "5591 New England Dr",
    "address_councildis": "E",
    "status": "Assigned to Contractor",
    "contractor": "Waste Pro",
    "rowid": "1292102",
    "final_x": "3723747.17414",
    "final_y": "564067.656737",
    "longitude": "-89.93341522233224",
    "latitude": "30.043638570970895",
    "geocoded_column": {
      "latitude": "30.043638570970895",
      "longitude": "-89.93341522233224"
    }
  },
  {
    "service_request": "2026-1292101",
    "request_type": "Trash/Recycling",
    "request_reason": "Request a Large Item Pick Up",
    "date_created": "2026-06-18T17:14:26.000",
    "date_modified": "2026-06-18T17:14:28.000",
    "request_status": "Pending",
    "responsible_agency": "Department of Sanitation",
    "final_address": "4533 Piety Dr",
    "address_councildis": "D",
    "status": "Assigned to Contractor",
    "contractor": "IV Waste",
    "rowid": "1292101",
    "final_x": "3691792.04156",
    "final_y": "551025.713941",
    "longitude": "-90.0348739318507",
    "latitude": "30.008812902007307",
    "geocoded_column": {
      "latitude": "30.008812902007307",
      "longitude": "-90.0348739318507"
    }
  },
  {
    "service_request": "2026-1292100",
    "request_type": "Abandoned Vehicles",
    "request_reason": "Abandoned/Junk Vehicles",
    "date_created": "2026-06-18T17:09:18.000",
    "date_modified": "2026-06-18T17:09:20.000",
    "request_status": "Pending",
    "responsible_agency": "Department of Public Works",
    "final_address": "2765 Banks St",
    "address_councildis": "B",
    "status": "Pending",
    "rowid": "1292100",
    "final_x": "3674228.48033",
    "final_y": "534535.042373",
    "longitude": "-90.09092796898115",
    "latitude": "29.964004817635775",
    "geocoded_column": {
      "latitude": "29.964004817635775",
      "longitude": "-90.09092796898115"
    }
  },
  {
    "service_request": "2026-1292099",
    "request_type": "Trash/Recycling",
    "request_reason": "Request a Large Item Pick Up",
    "date_created": "2026-06-18T16:58:44.000",
    "date_modified": "2026-06-18T16:58:46.000",
    "request_status": "Pending",
    "responsible_agency": "Department of Sanitation",
    "final_address": "0 BLK Admiralty Ct",
    "address_councildis": "C",
    "status": "Assigned to Contractor",
    "contractor": "Richards Disposal",
    "rowid": "1292099",
    "final_x": "3704031.03777",
    "final_y": "523040.620373",
    "longitude": "-89.99723816614093",
    "latitude": "29.931477060413563",
    "geocoded_column": {
      "latitude": "29.931477060413563",
      "longitude": "-89.99723816614093"
    }
  },
  {
    "service_request": "2026-1292098",
    "request_type": "Trash/Recycling",
    "request_reason": "Request a Large Item Pick Up",
    "date_created": "2026-06-18T16:51:03.000",
    "date_modified": "2026-06-18T16:51:05.000",
    "request_status": "Pending",
    "responsible_agency": "Department of Sanitation",
    "final_address": "623 N Hennessey St",
    "address_councildis": "A",
    "status": "Assigned to Contractor",
    "contractor": "IV Waste",
    "rowid": "1292098",
    "final_x": "3671463.6971",
    "final_y": "540567.520139",
    "longitude": "-90.09945378622635",
    "latitude": "29.98067423547402",
    "geocoded_column": {
      "latitude": "29.98067423547402",
      "longitude": "-90.09945378622635"
    }
  },
  {
    "service_request": "2026-1292097",
    "request_type": "Property Maintenance",
    "request_reason": "Property Maintenance",
    "date_created": "2026-06-18T16:50:04.000",
    "date_modified": "2026-06-18T16:50:05.000",
    "request_status": "Pending",
    "responsible_agency": "Department of Code Enforcement",
    "final_address": "4947 Charlene Dr",
    "address_councildis": "E",
    "status": "Pending",
    "rowid": "1292097",
    "final_x": "3707839.48241",
    "final_y": "556849.70857",
    "longitude": "-89.98395857841219",
    "latitude": "30.02431685574397",
    "geocoded_column": {
      "latitude": "30.02431685574397",
      "longitude": "-89.98395857841219"
    }
  },
  {
    "service_request": "2026-1292096",
    "request_type": "Trash/Recycling",
    "request_reason": "Replace Trash Cart",
    "date_created": "2026-06-18T16:48:15.000",
    "date_modified": "2026-06-18T16:48:18.000",
    "request_status": "Pending",
    "responsible_agency": "Department of Sanitation",
    "final_address": "1428 Chartres St",
    "address_councildis": "C",
    "status": "Assigned to Contractor",
    "contractor": "IV Waste",
    "rowid": "1292096",
    "final_x": "3684531.80348",
    "final_y": "534389.675589",
    "longitude": "-90.05839617047576",
    "latitude": "29.963293905001606",
    "geocoded_column": {
      "latitude": "29.963293905001606",
      "longitude": "-90.05839617047576"
    }
  },
  {
    "service_request": "2026-1292095",
    "request_type": "Tree Service",
    "request_reason": "Street or Sidewalk Blocked",
    "date_created": "2026-06-18T16:46:30.000",
    "date_modified": "2026-06-18T16:46:31.000",
    "request_status": "Pending",
    "responsible_agency": "Department of Parks & Parkways",
    "final_address": "5954 Orleans Ave",
    "address_councildis": "A",
    "status": "Pending",
    "rowid": "1292095",
    "final_x": "3670817.26145",
    "final_y": "546863.308689",
    "longitude": "-90.10128170773126",
    "latitude": "29.998004614597843",
    "geocoded_column": {
      "latitude": "29.998004614597843",
      "longitude": "-90.10128170773126"
    }
  },
  {
    "service_request": "2026-1292094",
    "request_type": "Trash/Recycling",
    "request_reason": "Missed Trash Pick-Up",
    "date_created": "2026-06-18T16:45:10.000",
    "date_modified": "2026-06-18T16:45:13.000",
    "request_status": "Pending",
    "responsible_agency": "Department of Sanitation",
    "final_address": "707 Tupelo St",
    "address_councildis": "E",
    "status": "Assigned to Contractor",
    "contractor": "Waste Pro",
    "rowid": "1292094",
    "final_x": "3699067.70903",
    "final_y": "531986.697283",
    "longitude": "-90.01258117600175",
    "latitude": "29.956233845103185",
    "geocoded_column": {
      "latitude": "29.956233845103185",
      "longitude": "-90.01258117600175"
    }
  },
  {
    "service_request": "2026-1292093",
    "request_type": "Trash/Recycling",
    "request_reason": "Order Trash Cart",
    "date_created": "2026-06-18T16:37:48.000",
    "date_modified": "2026-06-18T16:37:50.000",
    "request_status": "Pending",
    "responsible_agency": "Department of Sanitation",
    "final_address": "1201 Conery St",
    "address_councildis": "B",
    "status": "Assigned to Contractor",
    "contractor": "IV Waste",
    "rowid": "1292093",
    "final_x": "3676657.26254",
    "final_y": "521081.295033",
    "longitude": "-90.08372142298603",
    "latitude": "29.92693883464186",
    "geocoded_column": {
      "latitude": "29.92693883464186",
      "longitude": "-90.08372142298603"
    }
  },
  {
    "service_request": "2026-1292092",
    "request_type": "Trash/Recycling",
    "request_reason": "Request a Large Item Pick Up",
    "date_created": "2026-06-18T16:35:12.000",
    "date_modified": "2026-06-18T16:35:15.000",
    "request_status": "Pending",
    "responsible_agency": "Department of Sanitation",
    "final_address": "3220 Ursulines Ave",
    "address_councildis": "A",
    "status": "Assigned to Contractor",
    "contractor": "IV Waste",
    "rowid": "1292092",
    "final_x": "3675718.19726",
    "final_y": "539538.095306",
    "longitude": "-90.08605159442116",
    "latitude": "29.977717012544208",
    "geocoded_column": {
      "latitude": "29.977717012544208",
      "longitude": "-90.08605159442116"
    }
  },
  {
    "service_request": "2026-1292091",
    "request_type": "Trash/Recycling",
    "request_reason": "Replace Trash Cart",
    "date_created": "2026-06-18T16:31:52.000",
    "date_modified": "2026-06-18T16:31:53.000",
    "request_status": "Pending",
    "responsible_agency": "Department of Sanitation",
    "final_address": "2202 General Pershing St",
    "address_councildis": "B",
    "status": "Assigned to Contractor",
    "contractor": "IV Waste",
    "rowid": "1292091",
    "final_x": "3670943.517",
    "final_y": "523100.679163",
    "longitude": "-90.10168973696801",
    "latitude": "29.932661594396585",
    "geocoded_column": {
      "latitude": "29.932661594396585",
      "longitude": "-90.10168973696801"
    }
  },
  {
    "service_request": "2026-1292090",
    "request_type": "Tree Service",
    "request_reason": "Street or Sidewalk Blocked",
    "date_created": "2026-06-18T16:31:48.000",
    "date_modified": "2026-06-18T16:43:56.000",
    "request_status": "Pending",
    "responsible_agency": "Department of Parks & Parkways",
    "final_address": "FILMORE AVE & WISNER BLVD",
    "address_councildis": "A",
    "status": "Pending",
    "rowid": "1292090",
    "final_x": "3675505.3",
    "final_y": "551723.48",
    "longitude": "-90.08630515516315",
    "latitude": "30.011228929495186",
    "geocoded_column": {
      "latitude": "30.011228929495186",
      "longitude": "-90.08630515516315"
    }
  },
  {
    "service_request": "2026-1292089",
    "request_type": "Tree Service",
    "request_reason": "Tree Trim",
    "date_created": "2026-06-18T16:26:00.000",
    "date_modified": "2026-06-18T16:26:02.000",
    "request_status": "Pending",
    "responsible_agency": "Department of Parks & Parkways",
    "final_address": "900 Alabo St",
    "address_councildis": "E",
    "status": "Pending",
    "rowid": "1292089",
    "final_x": "3698617.28836",
    "final_y": "532822.667972",
    "longitude": "-90.01397304972328",
    "latitude": "29.958546736096412",
    "geocoded_column": {
      "latitude": "29.958546736096412",
      "longitude": "-90.01397304972328"
    }
  },
  {
    "service_request": "2026-1292088",
    "request_type": "Homeless Related Request",
    "request_reason": "Homeless Encampment Complaint",
    "date_created": "2026-06-18T16:25:16.000",
    "date_modified": "2026-06-18T16:25:18.000",
    "request_status": "Pending",
    "responsible_agency": "Office Of Homeless Services And Strategy",
    "final_address": "5467 St Claude Ave",
    "address_councildis": "E",
    "status": "Pending",
    "rowid": "1292088",
    "final_x": "3697685.46979",
    "final_y": "533964.925445",
    "longitude": "-90.01687403008464",
    "latitude": "29.961717007934926",
    "geocoded_column": {
      "latitude": "29.961717007934926",
      "longitude": "-90.01687403008464"
    }
  },
  {
    "service_request": "2026-1292087",
    "request_type": "Trash/Recycling",
    "request_reason": "Repair Trash Cart",
    "date_created": "2026-06-18T16:25:05.000",
    "date_modified": "2026-06-18T16:25:08.000",
    "request_status": "Pending",
    "responsible_agency": "Department of Sanitation",
    "final_address": "2239 General Pershing St",
    "address_councildis": "B",
    "status": "Assigned to Contractor",
    "contractor": "IV Waste",
    "rowid": "1292087",
    "final_x": "3671052.76878",
    "final_y": "523358.746235",
    "longitude": "-90.10133607771321",
    "latitude": "29.933367966262384",
    "geocoded_column": {
      "latitude": "29.933367966262384",
      "longitude": "-90.10133607771321"
    }
  },
  {
    "service_request": "2026-1292086",
    "request_type": "Trash/Recycling",
    "request_reason": "Order Trash Cart",
    "date_created": "2026-06-18T16:17:14.000",
    "date_modified": "2026-06-18T16:17:15.000",
    "request_status": "Pending",
    "responsible_agency": "Department of Sanitation",
    "final_address": "5756 Wickfield Dr",
    "address_councildis": "D",
    "status": "Assigned to Contractor",
    "contractor": "IV Waste",
    "rowid": "1292086",
    "final_x": "3680980.54184",
    "final_y": "554338.345752",
    "longitude": "-90.06891549814627",
    "latitude": "30.01825388094294",
    "geocoded_column": {
      "latitude": "30.01825388094294",
      "longitude": "-90.06891549814627"
    }
  },
  {
    "service_request": "2026-1292085",
    "request_type": "Trash/Recycling",
    "request_reason": "Order Recycling Cart",
    "date_created": "2026-06-18T16:15:43.000",
    "date_modified": "2026-06-18T16:15:45.000",
    "request_status": "Pending",
    "responsible_agency": "Department of Sanitation",
    "final_address": "5756 Wickfield Dr",
    "address_councildis": "D",
    "status": "Pending",
    "rowid": "1292085",
    "final_x": "3680980.54184",
    "final_y": "554338.345752",
    "longitude": "-90.06891549814627",
    "latitude": "30.01825388094294",
    "geocoded_column": {
      "latitude": "30.01825388094294",
      "longitude": "-90.06891549814627"
    }
  },
  {
    "service_request": "2026-1292084",
    "request_type": "Tree Service",
    "request_reason": "Tree Trim",
    "date_created": "2026-06-18T16:13:36.000",
    "date_modified": "2026-06-18T16:13:38.000",
    "request_status": "Pending",
    "responsible_agency": "Department of Parks & Parkways",
    "final_address": "9019 Dixon St",
    "address_councildis": "A",
    "status": "Pending",
    "rowid": "1292084",
    "final_x": "3665973.16596",
    "final_y": "537746.938184",
    "longitude": "-90.11688992588546",
    "latitude": "29.97308000721843",
    "geocoded_column": {
      "latitude": "29.97308000721843",
      "longitude": "-90.11688992588546"
    }
  },
  {
    "service_request": "2026-1292083",
    "request_type": "Tree Service",
    "request_reason": "Tree Trim",
    "date_created": "2026-06-18T16:11:25.000",
    "date_modified": "2026-06-18T16:11:27.000",
    "request_status": "Pending",
    "responsible_agency": "Department of Parks & Parkways",
    "final_address": "818 Louisiana Ave",
    "address_councildis": "B",
    "status": "Pending",
    "rowid": "1292083",
    "final_x": "3675330.4299",
    "final_y": "518737.662967",
    "longitude": "-90.08799029584688",
    "latitude": "29.92053432261213",
    "geocoded_column": {
      "latitude": "29.92053432261213",
      "longitude": "-90.08799029584688"
    }
  },
  {
    "service_request": "2026-1292082",
    "request_type": "Trash/Recycling",
    "request_reason": "Replace Trash Cart",
    "date_created": "2026-06-18T16:03:46.000",
    "date_modified": "2026-06-18T16:03:47.000",
    "request_status": "Pending",
    "responsible_agency": "Department of Sanitation",
    "final_address": "6027 Spain St",
    "address_councildis": "D",
    "status": "Assigned to Contractor",
    "contractor": "IV Waste",
    "rowid": "1292082",
    "final_x": "3684695.23042",
    "final_y": "555283.766041",
    "longitude": "-90.0571452179932",
    "latitude": "30.020740205274414",
    "geocoded_column": {
      "latitude": "30.020740205274414",
      "longitude": "-90.0571452179932"
    }
  },
  {
    "service_request": "2026-1292081",
    "request_type": "Trash/Recycling",
    "request_reason": "Request a Large Item Pick Up",
    "date_created": "2026-06-18T15:57:36.000",
    "date_modified": "2026-06-18T15:57:38.000",
    "request_status": "Pending",
    "responsible_agency": "Department of Sanitation",
    "final_address": "829 Pontalba St",
    "address_councildis": "A",
    "status": "Assigned to Contractor",
    "contractor": "IV Waste",
    "rowid": "1292081",
    "final_x": "3668979.49332",
    "final_y": "544430.403023",
    "longitude": "-90.10716945118497",
    "latitude": "29.991369168110353",
    "geocoded_column": {
      "latitude": "29.991369168110353",
      "longitude": "-90.10716945118497"
    }
  },
  {
    "service_request": "2026-1292080",
    "request_type": "Drainage",
    "request_reason": "Ditch and Culvert Maintenance",
    "date_created": "2026-06-18T15:55:07.000",
    "date_modified": "2026-06-18T15:55:08.000",
    "request_status": "Pending",
    "responsible_agency": "Department of Public Works",
    "final_address": "5901 Brighton Pl",
    "address_councildis": "C",
    "status": "Pending",
    "rowid": "1292080",
    "final_x": "3705646.91364",
    "final_y": "520043.987064",
    "longitude": "-89.9922478010014",
    "latitude": "29.923185458500157",
    "geocoded_column": {
      "latitude": "29.923185458500157",
      "longitude": "-89.9922478010014"
    }
  },
  {
    "service_request": "2026-1292079",
    "request_type": "Trash/Recycling",
    "request_reason": "Request a Large Item Pick Up",
    "date_created": "2026-06-18T15:51:07.000",
    "date_modified": "2026-06-18T15:51:09.000",
    "request_status": "Pending",
    "responsible_agency": "Department of Sanitation",
    "final_address": "2541 St Philip St",
    "address_councildis": "C",
    "status": "Assigned to Contractor",
    "contractor": "IV Waste",
    "rowid": "1292079",
    "final_x": "3677961.94466",
    "final_y": "537464.185736",
    "longitude": "-90.07903676844582",
    "latitude": "29.97194712603058",
    "geocoded_column": {
      "latitude": "29.97194712603058",
      "longitude": "-90.07903676844582"
    }
  },
  {
    "service_request": "2026-1292078",
    "request_type": "Trash/Recycling",
    "request_reason": "Request a Large Item Pick Up",
    "date_created": "2026-06-18T15:49:15.000",
    "date_modified": "2026-06-18T15:49:16.000",
    "request_status": "Pending",
    "responsible_agency": "Department of Sanitation",
    "final_address": "5513 Camp St",
    "address_councildis": "A",
    "status": "Assigned to Contractor",
    "contractor": "IV Waste",
    "rowid": "1292078",
    "final_x": "3666403.17325",
    "final_y": "519346.198903",
    "longitude": "-90.11614918854362",
    "latitude": "29.922471373852495",
    "geocoded_column": {
      "latitude": "29.922471373852495",
      "longitude": "-90.11614918854362"
    }
  },
  {
    "service_request": "2026-1292077",
    "request_type": "Streetlights",
    "request_reason": "Streetlight Outage/Malfunction",
    "date_created": "2026-06-18T15:46:14.000",
    "date_modified": "2026-06-18T15:47:17.000",
    "request_status": "Pending",
    "responsible_agency": "Department of Public Works",
    "final_address": "6131 S Laverne St",
    "address_councildis": "D",
    "status": "Pending",
    "rowid": "1292077",
    "final_x": "3696703.09514",
    "final_y": "555438.674265",
    "longitude": "-90.01919849107733",
    "latitude": "30.0207929461779",
    "geocoded_column": {
      "latitude": "30.0207929461779",
      "longitude": "-90.01919849107733"
    }
  },
  {
    "service_request": "2026-1292076",
    "request_type": "Trash/Recycling",
    "request_reason": "Request a Large Item Pick Up",
    "date_created": "2026-06-18T15:42:57.000",
    "date_modified": "2026-06-18T15:46:47.000",
    "request_status": "Pending",
    "responsible_agency": "Department of Sanitation",
    "final_address": "2001 Alvar St",
    "address_councildis": "D",
    "status": "Assigned to Contractor",
    "contractor": "IV Waste",
    "rowid": "1292076",
    "final_x": "3692427.4223",
    "final_y": "538814.294409",
    "longitude": "-90.03330427661932",
    "latitude": "29.9752161174562",
    "geocoded_column": {
      "latitude": "29.9752161174562",
      "longitude": "-90.03330427661932"
    }
  },
  {
    "service_request": "2026-1292075",
    "request_type": "Trash/Recycling",
    "request_reason": "Request a Large Item Pick Up",
    "date_created": "2026-06-18T15:41:12.000",
    "date_modified": "2026-06-18T15:41:14.000",
    "request_status": "Pending",
    "responsible_agency": "Department of Sanitation",
    "final_address": "7701 Duke Ct",
    "address_councildis": "E",
    "status": "Assigned to Contractor",
    "contractor": "Waste Pro",
    "rowid": "1292075",
    "final_x": "3700275.43178",
    "final_y": "560836.67363",
    "longitude": "-90.00771370583345",
    "latitude": "30.035522228191482",
    "geocoded_column": {
      "latitude": "30.035522228191482",
      "longitude": "-90.00771370583345"
    }
  },
  {
    "service_request": "2026-1292074",
    "request_type": "Street and Traffic Signs",
    "request_reason": "Stop Sign Missing or Damaged",
    "date_created": "2026-06-18T15:40:50.000",
    "date_modified": "2026-06-18T15:40:52.000",
    "request_status": "Pending",
    "responsible_agency": "Department of Public Works",
    "final_address": "ST PHILIP ST & ROYAL ST",
    "address_councildis": "C",
    "status": "Pending",
    "rowid": "1292074",
    "final_x": "3683225.8",
    "final_y": "533339.68",
    "longitude": "-90.06255714939553",
    "latitude": "29.960446669176594",
    "geocoded_column": {
      "latitude": "29.960446669176594",
      "longitude": "-90.06255714939553"
    }
  },
  {
    "service_request": "2026-1292073",
    "request_type": "Utility Poles",
    "request_reason": "Utility Pole Leaning",
    "date_created": "2026-06-18T15:39:17.000",
    "date_modified": "2026-06-18T15:39:20.000",
    "request_status": "Pending",
    "responsible_agency": "Utility Company Collective",
    "final_address": "1111 N Prieur St",
    "address_councildis": "C",
    "status": "Pending",
    "rowid": "1292073",
    "final_x": "3679857.15688",
    "final_y": "536548.475463",
    "longitude": "-90.07308319233553",
    "latitude": "29.969372057002886",
    "geocoded_column": {
      "latitude": "29.969372057002886",
      "longitude": "-90.07308319233553"
    }
  },
  {
    "service_request": "2026-1292072",
    "request_type": "Trash/Recycling",
    "request_reason": "Repair Recycling Cart",
    "date_created": "2026-06-18T15:39:12.000",
    "date_modified": "2026-06-18T15:39:14.000",
    "request_status": "Pending",
    "responsible_agency": "Department of Sanitation",
    "final_address": "5931 Laurel St",
    "address_councildis": "A",
    "status": "Pending",
    "rowid": "1292072",
    "final_x": "3664750.70804",
    "final_y": "518168.722614",
    "longitude": "-90.12140468685216",
    "latitude": "29.91928184529681",
    "geocoded_column": {
      "latitude": "29.91928184529681",
      "longitude": "-90.12140468685216"
    }
  },
  {
    "service_request": "2026-1292071",
    "request_type": "Tree Service",
    "request_reason": "Tree Trim",
    "date_created": "2026-06-18T15:38:43.000",
    "date_modified": "2026-06-18T15:38:45.000",
    "request_status": "Pending",
    "responsible_agency": "Department of Parks & Parkways",
    "final_address": "4515 Laine Ave",
    "address_councildis": "E",
    "status": "Pending",
    "rowid": "1292071",
    "final_x": "3705902.58635",
    "final_y": "553922.431255",
    "longitude": "-89.99018719191892",
    "latitude": "30.016330550569304",
    "geocoded_column": {
      "latitude": "30.016330550569304",
      "longitude": "-89.99018719191892"
    }
  },
  {
    "service_request": "2026-1292070",
    "request_type": "Streetlights",
    "request_reason": "Streetlight Outage/Malfunction",
    "date_created": "2026-06-18T15:34:56.000",
    "date_modified": "2026-06-18T15:34:58.000",
    "request_status": "Pending",
    "responsible_agency": "Department of Public Works",
    "final_address": "6240 Dover Pl",
    "address_councildis": "C",
    "status": "Pending",
    "rowid": "1292070",
    "final_x": "3707277.11108",
    "final_y": "519132.681399",
    "longitude": "-89.98713573210043",
    "latitude": "29.92062712230568",
    "geocoded_column": {
      "latitude": "29.92062712230568",
      "longitude": "-89.98713573210043"
    }
  },
  {
    "service_request": "2026-1292069",
    "request_type": "Trash/Recycling",
    "request_reason": "Order Trash Cart",
    "date_created": "2026-06-18T15:33:42.000",
    "date_modified": "2026-06-18T15:33:43.000",
    "request_status": "Pending",
    "responsible_agency": "Department of Sanitation",
    "final_address": "6226 Arts St",
    "address_councildis": "D",
    "status": "Assigned to Contractor",
    "contractor": "IV Waste",
    "rowid": "1292069",
    "final_x": "3685573.5407",
    "final_y": "556171.75657",
    "longitude": "-90.05433870304749",
    "latitude": "30.023154923979728",
    "geocoded_column": {
      "latitude": "30.023154923979728",
      "longitude": "-90.05433870304749"
    }
  },
  {
    "service_request": "2026-1292068",
    "request_type": "Trash/Recycling",
    "request_reason": "Order Second Trash Cart",
    "date_created": "2026-06-18T15:33:39.000",
    "date_modified": "2026-06-18T15:33:41.000",
    "request_status": "Pending",
    "responsible_agency": "Department of Sanitation",
    "final_address": "7620 Inlet Ln",
    "address_councildis": "E",
    "status": "Assigned to Contractor",
    "contractor": "Waste Pro",
    "rowid": "1292068",
    "final_x": "3714558.43755",
    "final_y": "568413.363301",
    "longitude": "-89.96229093237875",
    "latitude": "30.055892968118215",
    "geocoded_column": {
      "latitude": "30.055892968118215",
      "longitude": "-89.96229093237875"
    }
  },
  {
    "service_request": "2026-1292067",
    "request_type": "Trash/Recycling",
    "request_reason": "Illegal Dumping",
    "date_created": "2026-06-18T15:31:14.000",
    "date_modified": "2026-06-18T15:31:16.000",
    "request_status": "Pending",
    "responsible_agency": "Department of Sanitation",
    "final_address": "1726 St Ferdinand St",
    "address_councildis": "D",
    "status": "Pending",
    "rowid": "1292067",
    "final_x": "3688316.47011",
    "final_y": "538755.454857",
    "longitude": "-90.04628980005398",
    "latitude": "29.975181936571914",
    "geocoded_column": {
      "latitude": "29.975181936571914",
      "longitude": "-90.04628980005398"
    }
  },
  {
    "service_request": "2026-1292066",
    "request_type": "Trash/Recycling",
    "request_reason": "Request a Large Item Pick Up",
    "date_created": "2026-06-18T15:31:03.000",
    "date_modified": "2026-06-18T15:32:00.000",
    "request_status": "Pending",
    "responsible_agency": "Department of Sanitation",
    "final_address": "3631 Post Oak Ave",
    "address_councildis": "C",
    "status": "Pending",
    "contractor": "Richards Disposal",
    "rowid": "1292066",
    "final_x": "3703762.7091",
    "final_y": "514476.367731",
    "longitude": "-89.9984002202659",
    "latitude": "29.90793692128833",
    "geocoded_column": {
      "latitude": "29.90793692128833",
      "longitude": "-89.9984002202659"
    }
  },
  {
    "service_request": "2026-1292065",
    "request_type": "Trash/Recycling",
    "request_reason": "Request a Large Item Pick Up",
    "date_created": "2026-06-18T15:30:51.000",
    "date_modified": "2026-06-18T15:30:53.000",
    "request_status": "Pending",
    "responsible_agency": "Department of Sanitation",
    "final_address": "7620 Inlet Ln",
    "address_councildis": "E",
    "status": "Assigned to Contractor",
    "contractor": "Waste Pro",
    "rowid": "1292065",
    "final_x": "3714558.43755",
    "final_y": "568413.363301",
    "longitude": "-89.96229093237875",
    "latitude": "30.055892968118215",
    "geocoded_column": {
      "latitude": "30.055892968118215",
      "longitude": "-89.96229093237875"
    }
  },
  {
    "service_request": "2026-1292064",
    "request_type": "Trash/Recycling",
    "request_reason": "Request a Large Item Pick Up",
    "date_created": "2026-06-18T15:30:33.000",
    "date_modified": "2026-06-18T15:30:35.000",
    "request_status": "Pending",
    "responsible_agency": "Department of Sanitation",
    "final_address": "227 S Alexander St",
    "address_councildis": "A",
    "status": "Assigned to Contractor",
    "contractor": "IV Waste",
    "rowid": "1292064",
    "final_x": "3669554.08206",
    "final_y": "538675.648841",
    "longitude": "-90.10554922889158",
    "latitude": "29.975528633090384",
    "geocoded_column": {
      "latitude": "29.975528633090384",
      "longitude": "-90.10554922889158"
    }
  },
  {
    "service_request": "2026-1292063",
    "request_type": "Drainage",
    "request_reason": "Ditch and Culvert Maintenance",
    "date_created": "2026-06-18T15:30:13.000",
    "date_modified": "2026-06-18T15:30:15.000",
    "request_status": "Pending",
    "responsible_agency": "Department of Public Works",
    "final_address": "5901 Brighton Pl",
    "address_councildis": "C",
    "status": "Pending",
    "rowid": "1292063",
    "final_x": "3705646.91364",
    "final_y": "520043.987064",
    "longitude": "-89.9922478010014",
    "latitude": "29.923185458500157",
    "geocoded_column": {
      "latitude": "29.923185458500157",
      "longitude": "-89.9922478010014"
    }
  },
  {
    "service_request": "2026-1292062",
    "request_type": "Trash/Recycling",
    "request_reason": "Illegal Dumping",
    "date_created": "2026-06-18T15:24:25.000",
    "date_modified": "2026-06-18T15:24:27.000",
    "request_status": "Pending",
    "responsible_agency": "Department of Sanitation",
    "final_address": "1726 St Ferdinand St",
    "address_councildis": "D",
    "status": "Pending",
    "rowid": "1292062",
    "final_x": "3688316.47011",
    "final_y": "538755.454857",
    "longitude": "-90.04628980005398",
    "latitude": "29.975181936571914",
    "geocoded_column": {
      "latitude": "29.975181936571914",
      "longitude": "-90.04628980005398"
    }
  },
  {
    "service_request": "2026-1292061",
    "request_type": "Trash/Recycling",
    "request_reason": "Request a Large Item Pick Up",
    "date_created": "2026-06-18T15:23:26.000",
    "date_modified": "2026-06-18T15:23:29.000",
    "request_status": "Pending",
    "responsible_agency": "Department of Sanitation",
    "final_address": "4700 Francisco Verrett Dr",
    "address_councildis": "E",
    "status": "Assigned to Contractor",
    "contractor": "Waste Pro",
    "rowid": "1292061",
    "final_x": "3704206.50583",
    "final_y": "554964.477784",
    "longitude": "-89.99550758784385",
    "latitude": "30.019250335487822",
    "geocoded_column": {
      "latitude": "30.019250335487822",
      "longitude": "-89.99550758784385"
    }
  },
  {
    "service_request": "2026-1292060",
    "request_type": "Street and Traffic Signs",
    "request_reason": "Stop Sign Missing or Damaged",
    "date_created": "2026-06-18T15:19:19.000",
    "date_modified": "2026-06-18T15:19:21.000",
    "request_status": "Pending",
    "responsible_agency": "Department of Public Works",
    "final_address": "1726 St Ferdinand St",
    "address_councildis": "D",
    "status": "Pending",
    "rowid": "1292060",
    "final_x": "3688316.47011",
    "final_y": "538755.454857",
    "longitude": "-90.04628980005398",
    "latitude": "29.975181936571914",
    "geocoded_column": {
      "latitude": "29.975181936571914",
      "longitude": "-90.04628980005398"
    }
  },
  {
    "service_request": "2026-1292059",
    "request_type": "Street and Traffic Signs",
    "request_reason": "Additional Signage Request",
    "date_created": "2026-06-18T15:17:45.000",
    "date_modified": "2026-06-18T15:17:46.000",
    "request_status": "Pending",
    "responsible_agency": "Department of Public Works",
    "final_address": "OLIVE ST & S CARROLLTON AVE",
    "address_councildis": "A",
    "status": "Pending",
    "rowid": "1292059",
    "final_x": "3667278.8",
    "final_y": "534144.58",
    "longitude": "-90.112887639649",
    "latitude": "29.963136542069456",
    "geocoded_column": {
      "latitude": "29.963136542069456",
      "longitude": "-90.112887639649"
    }
  },
  {
    "service_request": "2026-1292058",
    "request_type": "Street and Traffic Signs",
    "request_reason": "Additional Signage Request",
    "date_created": "2026-06-18T15:15:44.000",
    "date_modified": "2026-06-18T15:15:45.000",
    "request_status": "Pending",
    "responsible_agency": "Department of Public Works",
    "final_address": "FORSHEY ST & S CARROLLTON AVE",
    "address_councildis": "A",
    "status": "Pending",
    "rowid": "1292058",
    "final_x": "3667040.5",
    "final_y": "533886.28",
    "longitude": "-90.11364884806996",
    "latitude": "29.962433279235547",
    "geocoded_column": {
      "latitude": "29.962433279235547",
      "longitude": "-90.11364884806996"
    }
  },
  {
    "service_request": "2026-1292057",
    "request_type": "Tree Service",
    "request_reason": "Street or Sidewalk Blocked",
    "date_created": "2026-06-18T15:15:17.000",
    "date_modified": "2026-06-18T15:15:18.000",
    "request_status": "Pending",
    "responsible_agency": "Department of Parks & Parkways",
    "final_address": "2104 General Pershing St",
    "address_councildis": "B",
    "status": "Pending",
    "rowid": "1292057",
    "final_x": "3671024.75092",
    "final_y": "522748.097146",
    "longitude": "-90.10144525415217",
    "latitude": "29.931689706104876",
    "geocoded_column": {
      "latitude": "29.931689706104876",
      "longitude": "-90.10144525415217"
    }
  },
  {
    "service_request": "2026-1292056",
    "request_type": "Trash/Recycling",
    "request_reason": "Request a Large Item Pick Up",
    "date_created": "2026-06-18T15:14:44.000",
    "date_modified": "2026-06-18T15:45:26.000",
    "request_status": "Pending",
    "responsible_agency": "Department of Sanitation",
    "final_address": "1007 Piety St",
    "address_councildis": "C",
    "status": "Assigned to Contractor",
    "contractor": "IV Waste",
    "rowid": "1292056",
    "final_x": "3689768.26569",
    "final_y": "535409.905286",
    "longitude": "-90.04182375639927",
    "latitude": "29.965937934171095",
    "geocoded_column": {
      "latitude": "29.965937934171095",
      "longitude": "-90.04182375639927"
    }
  },
  {
    "service_request": "2026-1292055",
    "request_type": "Trash/Recycling",
    "request_reason": "Replace Trash Cart",
    "date_created": "2026-06-18T15:12:49.000",
    "date_modified": "2026-06-18T15:12:50.000",
    "request_status": "Pending",
    "responsible_agency": "Department of Sanitation",
    "final_address": "2812 Soniat St",
    "address_councildis": "B",
    "status": "Assigned to Contractor",
    "contractor": "IV Waste",
    "rowid": "1292055",
    "final_x": "3668527.65652",
    "final_y": "525716.387901",
    "longitude": "-90.10922821755358",
    "latitude": "29.939925134728135",
    "geocoded_column": {
      "latitude": "29.939925134728135",
      "longitude": "-90.10922821755358"
    }
  },
  {
    "service_request": "2026-1292054",
    "request_type": "Drainage",
    "request_reason": "Catch Basin Not Draining",
    "date_created": "2026-06-18T15:12:48.000",
    "date_modified": "2026-06-18T15:12:50.000",
    "request_status": "Pending",
    "responsible_agency": "Sewerage & Water Board",
    "final_address": "2025 Gentilly Blvd",
    "address_councildis": "D",
    "status": "Pending",
    "rowid": "1292054",
    "final_x": "3679730.33141",
    "final_y": "543844.936142",
    "longitude": "-90.0732303109904",
    "latitude": "29.989438626692305",
    "geocoded_column": {
      "latitude": "29.989438626692305",
      "longitude": "-90.0732303109904"
    }
  },
  {
    "service_request": "2026-1292052",
    "request_type": "Traffic Signals",
    "request_reason": "Traffic Signal Malfunctioning or Damaged",
    "date_created": "2026-06-18T15:12:23.000",
    "date_modified": "2026-06-18T15:12:25.000",
    "request_status": "Pending",
    "responsible_agency": "Department of Public Works",
    "final_address": "ESPLANADE AVE & N CARROLLTON AVE & WISNER BLVD",
    "address_councildis": "A",
    "status": "Pending",
    "rowid": "1292052",
    "final_x": "3674535.0",
    "final_y": "541867.18",
    "longitude": "-90.0897087045684",
    "latitude": "29.984156556819595",
    "geocoded_column": {
      "latitude": "29.984156556819595",
      "longitude": "-90.0897087045684"
    }
  },
  {
    "service_request": "2026-1292053",
    "request_type": "Drainage",
    "request_reason": "Catch Basin Not Draining",
    "date_created": "2026-06-18T15:12:23.000",
    "date_modified": "2026-06-18T15:12:25.000",
    "request_status": "Pending",
    "responsible_agency": "Sewerage & Water Board",
    "final_address": "3237 Annunciation St",
    "address_councildis": "B",
    "status": "Pending",
    "rowid": "1292053",
    "final_x": "3675967.46369",
    "final_y": "518883.488695",
    "longitude": "-90.085974464165",
    "latitude": "29.92091624363043",
    "geocoded_column": {
      "latitude": "29.92091624363043",
      "longitude": "-90.085974464165"
    }
  },
  {
    "service_request": "2026-1292051",
    "request_type": "Trash/Recycling",
    "request_reason": "Order Recycling Cart",
    "date_created": "2026-06-18T15:11:41.000",
    "date_modified": "2026-06-18T15:11:42.000",
    "request_status": "Pending",
    "responsible_agency": "Department of Sanitation",
    "final_address": "8334 Forshey St",
    "address_councildis": "A",
    "status": "Pending",
    "rowid": "1292051",
    "final_x": "3666226.36929",
    "final_y": "534585.404357",
    "longitude": "-90.11619631724375",
    "latitude": "29.96437944418734",
    "geocoded_column": {
      "latitude": "29.96437944418734",
      "longitude": "-90.11619631724375"
    }
  },
  {
    "service_request": "2026-1292050",
    "request_type": "Trash/Recycling",
    "request_reason": "Request a Large Item Pick Up",
    "date_created": "2026-06-18T15:11:16.000",
    "date_modified": "2026-06-18T15:11:18.000",
    "request_status": "Pending",
    "responsible_agency": "Department of Sanitation",
    "final_address": "2514 Dubreuil St",
    "address_councildis": "E",
    "status": "Assigned to Contractor",
    "contractor": "Waste Pro",
    "rowid": "1292050",
    "final_x": "3702731.62353",
    "final_y": "537964.839433",
    "longitude": "-90.0007923260991",
    "latitude": "29.972554947071686",
    "geocoded_column": {
      "latitude": "29.972554947071686",
      "longitude": "-90.0007923260991"
    }
  },
  {
    "service_request": "2026-1292049",
    "request_type": "Drainage",
    "request_reason": "Catch Basin Not Draining",
    "date_created": "2026-06-18T15:09:06.000",
    "date_modified": "2026-06-18T15:09:08.000",
    "request_status": "Pending",
    "responsible_agency": "Sewerage & Water Board",
    "final_address": "City Park Avenue & North Carrollton Avenue",
    "address_councildis": "A",
    "status": "Pending",
    "rowid": "1292049",
    "final_x": "3673991.8795",
    "final_y": "541427.838604",
    "longitude": "-90.09143921897976",
    "latitude": "29.98296471627648",
    "geocoded_column": {
      "latitude": "29.98296471627648",
      "longitude": "-90.09143921897976"
    }
  },
  {
    "service_request": "2026-1292048",
    "request_type": "Trash/Recycling",
    "request_reason": "Request a Large Item Pick Up",
    "date_created": "2026-06-18T15:04:07.000",
    "date_modified": "2026-06-18T15:04:08.000",
    "request_status": "Pending",
    "responsible_agency": "Department of Sanitation",
    "final_address": "8723 Pear St",
    "address_councildis": "A",
    "status": "Assigned to Contractor",
    "contractor": "IV Waste",
    "rowid": "1292048",
    "final_x": "3667412.57466",
    "final_y": "537866.789065",
    "longitude": "-90.11233994115446",
    "latitude": "29.97336746099439",
    "geocoded_column": {
      "latitude": "29.97336746099439",
      "longitude": "-90.11233994115446"
    }
  },
  {
    "service_request": "2026-1292047",
    "request_type": "Trash/Recycling",
    "request_reason": "Request a Large Item Pick Up",
    "date_created": "2026-06-18T15:03:36.000",
    "date_modified": "2026-06-18T15:03:39.000",
    "request_status": "Pending",
    "responsible_agency": "Department of Sanitation",
    "final_address": "6200 Stratford Pl",
    "address_councildis": "C",
    "status": "Assigned to Contractor",
    "contractor": "Richards Disposal",
    "rowid": "1292047",
    "final_x": "3706926.2682",
    "final_y": "516215.02322",
    "longitude": "-89.98835127369813",
    "latitude": "29.912615903222868",
    "geocoded_column": {
      "latitude": "29.912615903222868",
      "longitude": "-89.98835127369813"
    }
  },
  {
    "service_request": "2026-1292046",
    "request_type": "Safety & Permits",
    "request_reason": "Zoning Enforcement",
    "date_created": "2026-06-18T15:01:08.000",
    "date_modified": "2026-06-18T15:01:11.000",
    "request_status": "Pending",
    "responsible_agency": "Safety and Permits",
    "final_address": "218 Norland Ave",
    "address_councildis": "C",
    "status": "Pending",
    "rowid": "1292046",
    "final_x": "3706885.80612",
    "final_y": "520474.132536",
    "longitude": "-89.98832118653608",
    "latitude": "29.92432828021319",
    "geocoded_column": {
      "latitude": "29.92432828021319",
      "longitude": "-89.98832118653608"
    }
  },
  {
    "service_request": "2026-1292045",
    "request_type": "Trash/Recycling",
    "request_reason": "Request a Large Item Pick Up",
    "date_created": "2026-06-18T14:59:42.000",
    "date_modified": "2026-06-18T15:45:00.000",
    "request_status": "Pending",
    "responsible_agency": "Department of Sanitation",
    "final_address": "919 St Roch Ave",
    "address_councildis": "C",
    "status": "Assigned to Contractor",
    "contractor": "IV Waste",
    "rowid": "1292045",
    "final_x": "3686567.3599",
    "final_y": "535881.161863",
    "longitude": "-90.05191545620613",
    "latitude": "29.967332540679948",
    "geocoded_column": {
      "latitude": "29.967332540679948",
      "longitude": "-90.05191545620613"
    }
  },
  {
    "service_request": "2026-1292044",
    "request_type": "Trash/Recycling",
    "request_reason": "Request a Large Item Pick Up",
    "date_created": "2026-06-18T14:59:04.000",
    "date_modified": "2026-06-18T14:59:06.000",
    "request_status": "Pending",
    "responsible_agency": "Department of Sanitation",
    "final_address": "2716 Ramsey Dr",
    "address_councildis": "C",
    "status": "Assigned to Contractor",
    "contractor": "Richards Disposal",
    "rowid": "1292044",
    "final_x": "3703169.8346",
    "final_y": "520815.213753",
    "longitude": "-90.000038607376",
    "latitude": "29.925385549796246",
    "geocoded_column": {
      "latitude": "29.925385549796246",
      "longitude": "-90.000038607376"
    }
  },
  {
    "service_request": "2026-1292043",
    "request_type": "Trash/Recycling",
    "request_reason": "Repair Trash Cart",
    "date_created": "2026-06-18T14:53:42.000",
    "date_modified": "2026-06-18T14:53:45.000",
    "request_status": "Pending",
    "responsible_agency": "Department of Sanitation",
    "final_address": "2311 New Orleans St",
    "address_councildis": "D",
    "status": "Assigned to Contractor",
    "contractor": "IV Waste",
    "rowid": "1292043",
    "final_x": "3682081.27938",
    "final_y": "540628.059083",
    "longitude": "-90.06591673768328",
    "latitude": "29.980522046188902",
    "geocoded_column": {
      "latitude": "29.980522046188902",
      "longitude": "-90.06591673768328"
    }
  },
  {
    "service_request": "2026-1292042",
    "request_type": "Tree Service",
    "request_reason": "Street or Sidewalk Blocked",
    "date_created": "2026-06-18T14:51:20.000",
    "date_modified": "2026-06-18T14:51:21.000",
    "request_status": "Pending",
    "responsible_agency": "Department of Parks & Parkways",
    "final_address": "2901 Aurora Dr",
    "address_councildis": "C",
    "status": "Pending",
    "rowid": "1292042",
    "final_x": "3706862.91531",
    "final_y": "519982.3262",
    "longitude": "-89.98841166613754",
    "latitude": "29.922976723328777",
    "geocoded_column": {
      "latitude": "29.922976723328777",
      "longitude": "-89.98841166613754"
    }
  },
  {
    "service_request": "2026-1292041",
    "request_type": "Tree Service",
    "request_reason": "Park Maintenance/Clean Up",
    "date_created": "2026-06-18T14:50:59.000",
    "date_modified": "2026-06-18T14:51:00.000",
    "request_status": "Pending",
    "responsible_agency": "Department of Parks & Parkways",
    "final_address": "Baronne St, New Orleans, Louisiana, 70112",
    "address_councildis": "B",
    "status": "Pending",
    "rowid": "1292041",
    "final_x": "3676702.61678",
    "final_y": "524326.366076",
    "longitude": "-90.083466513146",
    "latitude": "29.93586036166277",
    "geocoded_column": {
      "latitude": "29.93586036166277",
      "longitude": "-90.083466513146"
    }
  },
  {
    "service_request": "2026-1292040",
    "request_type": "Roads and Streets",
    "request_reason": "Pothole",
    "date_created": "2026-06-18T14:50:55.000",
    "date_modified": "2026-06-18T14:50:57.000",
    "request_status": "Pending",
    "responsible_agency": "Department of Public Works",
    "final_address": "FRANKLIN AVE & N GALVEZ ST",
    "address_councildis": "D",
    "status": "Pending",
    "rowid": "1292040",
    "final_x": "3687667.3",
    "final_y": "540216.38",
    "longitude": "-90.04828829942392",
    "latitude": "29.97921899891152",
    "geocoded_column": {
      "latitude": "29.97921899891152",
      "longitude": "-90.04828829942392"
    }
  },
  {
    "service_request": "2026-1292039",
    "request_type": "Trash/Recycling",
    "request_reason": "Request a Large Item Pick Up",
    "date_created": "2026-06-18T14:50:29.000",
    "date_modified": "2026-06-18T14:50:31.000",
    "request_status": "Pending",
    "responsible_agency": "Department of Sanitation",
    "final_address": "5340 Forest Park Ln",
    "address_councildis": "C",
    "status": "Assigned to Contractor",
    "contractor": "Richards Disposal",
    "rowid": "1292039",
    "final_x": "3704282.33278",
    "final_y": "510540.317103",
    "longitude": "-89.99690511958623",
    "latitude": "29.897097462477888",
    "geocoded_column": {
      "latitude": "29.897097462477888",
      "longitude": "-89.99690511958623"
    }
  },
  {
    "service_request": "2026-1292038",
    "request_type": "Trash/Recycling",
    "request_reason": "Request a Large Item Pick Up",
    "date_created": "2026-06-18T14:49:31.000",
    "date_modified": "2026-06-18T14:49:32.000",
    "request_status": "Pending",
    "responsible_agency": "Department of Sanitation",
    "final_address": "6019 Paris Ave",
    "address_councildis": "D",
    "status": "Assigned to Contractor",
    "contractor": "IV Waste",
    "rowid": "1292038",
    "final_x": "3679077.44885",
    "final_y": "554574.179992",
    "longitude": "-90.07492037863013",
    "latitude": "30.018959945539667",
    "geocoded_column": {
      "latitude": "30.018959945539667",
      "longitude": "-90.07492037863013"
    }
  },
  {
    "service_request": "2026-1292037",
    "request_type": "Trash/Recycling",
    "request_reason": "Request a Large Item Pick Up",
    "date_created": "2026-06-18T14:45:38.000",
    "date_modified": "2026-06-18T14:45:40.000",
    "request_status": "Pending",
    "responsible_agency": "Department of Sanitation",
    "final_address": "13708 N Cavelier Dr",
    "address_councildis": "E",
    "status": "Assigned to Contractor",
    "contractor": "Waste Pro",
    "rowid": "1292037",
    "final_x": "3724046.24953",
    "final_y": "570259.654311",
    "longitude": "-89.93223074072692",
    "latitude": "30.060653928102205",
    "geocoded_column": {
      "latitude": "30.060653928102205",
      "longitude": "-89.93223074072692"
    }
  },
  {
    "service_request": "2026-1292036",
    "request_type": "Trash/Recycling",
    "request_reason": "Replace Trash Cart",
    "date_created": "2026-06-18T14:43:58.000",
    "date_modified": "2026-06-18T14:43:59.000",
    "request_status": "Pending",
    "responsible_agency": "Department of Sanitation",
    "final_address": "1730 Gallier St",
    "address_councildis": "D",
    "status": "Assigned to Contractor",
    "contractor": "IV Waste",
    "rowid": "1292036",
    "final_x": "3691036.27228",
    "final_y": "538124.078473",
    "longitude": "-90.03772252778381",
    "latitude": "29.973361594072184",
    "geocoded_column": {
      "latitude": "29.973361594072184",
      "longitude": "-90.03772252778381"
    }
  },
  {
    "service_request": "2026-1292035",
    "request_type": "Trash/Recycling",
    "request_reason": "Request a Large Item Pick Up",
    "date_created": "2026-06-18T14:42:24.000",
    "date_modified": "2026-06-18T14:42:26.000",
    "request_status": "Pending",
    "responsible_agency": "Department of Sanitation",
    "final_address": "5525 Marshal Foch St",
    "address_councildis": "A",
    "status": "Assigned to Contractor",
    "contractor": "IV Waste",
    "rowid": "1292035",
    "final_x": "3669610.33274",
    "final_y": "543952.613326",
    "longitude": "-90.10519294175073",
    "latitude": "29.990036833547286",
    "geocoded_column": {
      "latitude": "29.990036833547286",
      "longitude": "-90.10519294175073"
    }
  },
  {
    "service_request": "2026-1292034",
    "request_type": "Roads and Streets",
    "request_reason": "Pothole",
    "date_created": "2026-06-18T14:35:09.000",
    "date_modified": "2026-06-18T14:35:11.000",
    "request_status": "Pending",
    "responsible_agency": "Department of Public Works",
    "final_address": "1212 Conery St",
    "address_councildis": "B",
    "status": "Pending",
    "rowid": "1292034",
    "final_x": "3676527.78734",
    "final_y": "521080.731961",
    "longitude": "-90.0841301617954",
    "latitude": "29.926941168307245",
    "geocoded_column": {
      "latitude": "29.926941168307245",
      "longitude": "-90.0841301617954"
    }
  },
  {
    "service_request": "2026-1292033",
    "request_type": "Roads and Streets",
    "request_reason": "Street Subsidence (Sinking)",
    "date_created": "2026-06-18T14:33:50.000",
    "date_modified": "2026-06-18T14:36:06.000",
    "request_status": "Pending",
    "responsible_agency": "Sewerage & Water Board",
    "final_address": "HAYNE BLVD & LADY GRAY ST",
    "address_councildis": "E",
    "status": "Pending",
    "rowid": "1292033",
    "final_x": "3709063.9",
    "final_y": "566762.98",
    "longitude": "-89.97971963710923",
    "latitude": "30.051534708227123",
    "geocoded_column": {
      "latitude": "30.051534708227123",
      "longitude": "-89.97971963710923"
    }
  },
  {
    "service_request": "2026-1292032",
    "request_type": "Trash/Recycling",
    "request_reason": "Replace Trash Cart",
    "date_created": "2026-06-18T14:31:43.000",
    "date_modified": "2026-06-18T14:31:45.000",
    "request_status": "Pending",
    "responsible_agency": "Department of Sanitation",
    "final_address": "3306 Robert St",
    "address_councildis": "B",
    "status": "Assigned to Contractor",
    "contractor": "IV Waste",
    "rowid": "1292032",
    "final_x": "3668845.2834",
    "final_y": "527020.837374",
    "longitude": "-90.10818138558541",
    "latitude": "29.943502614785217",
    "geocoded_column": {
      "latitude": "29.943502614785217",
      "longitude": "-90.10818138558541"
    }
  },
  {
    "service_request": "2026-1292031",
    "request_type": "Property Maintenance",
    "request_reason": "Property Maintenance",
    "date_created": "2026-06-18T14:29:01.000",
    "date_modified": "2026-06-18T14:30:19.000",
    "request_status": "Pending",
    "responsible_agency": "Department of Code Enforcement",
    "final_address": "5003 N Johnson St",
    "address_councildis": "E",
    "status": "Pending",
    "rowid": "1292031",
    "final_x": "3696966.7313",
    "final_y": "537646.987656",
    "longitude": "-90.01901030646809",
    "latitude": "29.971864051744873",
    "geocoded_column": {
      "latitude": "29.971864051744873",
      "longitude": "-90.01901030646809"
    }
  },
  {
    "service_request": "2026-1292030",
    "request_type": "Property Maintenance",
    "request_reason": "Property Maintenance",
    "date_created": "2026-06-18T14:27:11.000",
    "date_modified": "2026-06-18T14:28:39.000",
    "request_status": "Pending",
    "responsible_agency": "Department of Code Enforcement",
    "final_address": "5005 N Johnson St",
    "address_councildis": "E",
    "status": "Pending",
    "rowid": "1292030",
    "final_x": "3696993.88451",
    "final_y": "537652.280648",
    "longitude": "-90.01892436106311",
    "latitude": "29.971877749146156",
    "geocoded_column": {
      "latitude": "29.971877749146156",
      "longitude": "-90.01892436106311"
    }
  },
  {
    "service_request": "2026-1292029",
    "request_type": "Trash/Recycling",
    "request_reason": "Request a Large Item Pick Up",
    "date_created": "2026-06-18T14:26:31.000",
    "date_modified": "2026-06-18T14:26:33.000",
    "request_status": "Pending",
    "responsible_agency": "Department of Sanitation",
    "final_address": "9208 Colapissa St",
    "address_councildis": "A",
    "status": "Assigned to Contractor",
    "contractor": "IV Waste",
    "rowid": "1292029",
    "final_x": "3663547.19271",
    "final_y": "536026.024455",
    "longitude": "-90.12460899413492",
    "latitude": "29.968418656169927",
    "geocoded_column": {
      "latitude": "29.968418656169927",
      "longitude": "-90.12460899413492"
    }
  },
  {
    "service_request": "2026-1292028",
    "request_type": "Property Maintenance",
    "request_reason": "Property Maintenance",
    "date_created": "2026-06-18T14:26:19.000",
    "date_modified": "2026-06-18T14:26:41.000",
    "request_status": "Pending",
    "responsible_agency": "Department of Code Enforcement",
    "final_address": "5009 N Johnson St",
    "address_councildis": "E",
    "status": "Pending",
    "rowid": "1292028",
    "final_x": "3697028.11562",
    "final_y": "537642.311624",
    "longitude": "-90.01881661557736",
    "latitude": "29.97184925815713",
    "geocoded_column": {
      "latitude": "29.97184925815713",
      "longitude": "-90.01881661557736"
    }
  },
  {
    "service_request": "2026-1292027",
    "request_type": "Property Maintenance",
    "request_reason": "Property Maintenance",
    "date_created": "2026-06-18T14:24:04.000",
    "date_modified": "2026-06-18T14:25:19.000",
    "request_status": "Pending",
    "responsible_agency": "Department of Code Enforcement",
    "final_address": "5017 N Johnson St",
    "address_councildis": "E",
    "status": "Pending",
    "rowid": "1292027",
    "final_x": "3697090.66051",
    "final_y": "537623.803208",
    "longitude": "-90.018619760732",
    "latitude": "29.971796393576003",
    "geocoded_column": {
      "latitude": "29.971796393576003",
      "longitude": "-90.018619760732"
    }
  },
  {
    "service_request": "2026-1292026",
    "request_type": "Trash/Recycling",
    "request_reason": "Request a Large Item Pick Up",
    "date_created": "2026-06-18T14:21:42.000",
    "date_modified": "2026-06-18T15:43:38.000",
    "request_status": "Pending",
    "responsible_agency": "Department of Sanitation",
    "final_address": "2420 Josephine St",
    "address_councildis": "B",
    "status": "Assigned to Contractor",
    "contractor": "IV Waste",
    "rowid": "1292026",
    "final_x": "3675973.40565",
    "final_y": "526407.64147",
    "longitude": "-90.08569710499599",
    "latitude": "29.941605037050937",
    "geocoded_column": {
      "latitude": "29.941605037050937",
      "longitude": "-90.08569710499599"
    }
  },
  {
    "service_request": "2026-1292025",
    "request_type": "Trash/Recycling",
    "request_reason": "Repair Trash Cart",
    "date_created": "2026-06-18T14:19:40.000",
    "date_modified": "2026-06-18T14:19:42.000",
    "request_status": "Pending",
    "responsible_agency": "Department of Sanitation",
    "final_address": "2414 Orleans Ave",
    "address_councildis": "C",
    "status": "Assigned to Contractor",
    "contractor": "IV Waste",
    "rowid": "1292025",
    "final_x": "3677651.39854",
    "final_y": "536272.042631",
    "longitude": "-90.08005870325864",
    "latitude": "29.968678483313",
    "geocoded_column": {
      "latitude": "29.968678483313",
      "longitude": "-90.08005870325864"
    }
  },
  {
    "service_request": "2026-1292024",
    "request_type": "Tree Service",
    "request_reason": "Tree Trim",
    "date_created": "2026-06-18T14:17:47.000",
    "date_modified": "2026-06-18T14:27:08.000",
    "request_status": "Pending",
    "responsible_agency": "Department of Parks & Parkways",
    "final_address": "7325 Sycamore St",
    "address_councildis": "A",
    "status": "Pending",
    "rowid": "1292024",
    "final_x": "3665769.09658",
    "final_y": "529789.572865",
    "longitude": "-90.11780101427084",
    "latitude": "29.95120582402513",
    "geocoded_column": {
      "latitude": "29.95120582402513",
      "longitude": "-90.11780101427084"
    }
  },
  {
    "service_request": "2026-1292023",
    "request_type": "Trash/Recycling",
    "request_reason": "Replace Trash Cart",
    "date_created": "2026-06-18T14:16:27.000",
    "date_modified": "2026-06-18T14:16:29.000",
    "request_status": "Pending",
    "responsible_agency": "Department of Sanitation",
    "final_address": "2218 Pine St",
    "address_councildis": "A",
    "status": "Assigned to Contractor",
    "contractor": "IV Waste",
    "rowid": "1292023",
    "final_x": "3665952.71674",
    "final_y": "529752.602945",
    "longitude": "-90.11722246948011",
    "latitude": "29.951098811440843",
    "geocoded_column": {
      "latitude": "29.951098811440843",
      "longitude": "-90.11722246948011"
    }
  },
  {
    "service_request": "2026-1292022",
    "request_type": "Trash/Recycling",
    "request_reason": "Missed Trash Pick-Up",
    "date_created": "2026-06-18T14:14:44.000",
    "date_modified": "2026-06-18T14:18:51.000",
    "case_close_date": "2026-06-18T09:18:50.000",
    "request_status": "Closed",
    "responsible_agency": "Department of Sanitation",
    "final_address": "1347 Magazine St",
    "address_councildis": "B",
    "status": "Invalid Request",
    "contractor": "IV Waste",
    "contractor_action": "Invalid Request",
    "rowid": "1292022",
    "final_x": "3680400.3444",
    "final_y": "524860.841724",
    "longitude": "-90.07177414442371",
    "latitude": "29.937218568812625",
    "geocoded_column": {
      "latitude": "29.937218568812625",
      "longitude": "-90.07177414442371"
    }
  },
  {
    "service_request": "2026-1292021",
    "request_type": "Trash/Recycling",
    "request_reason": "Order Second Trash Cart",
    "date_created": "2026-06-18T14:11:59.000",
    "date_modified": "2026-06-18T14:12:01.000",
    "request_status": "Pending",
    "responsible_agency": "Department of Sanitation",
    "final_address": "5325 Canal Blvd",
    "address_councildis": "A",
    "status": "Assigned to Contractor",
    "contractor": "IV Waste",
    "rowid": "1292021",
    "final_x": "3668225.27565",
    "final_y": "542762.748557",
    "longitude": "-90.10960812132267",
    "latitude": "29.986805858396487",
    "geocoded_column": {
      "latitude": "29.986805858396487",
      "longitude": "-90.10960812132267"
    }
  },
  {
    "service_request": "2026-1292020",
    "request_type": "Trash/Recycling",
    "request_reason": "Request a Large Item Pick Up",
    "date_created": "2026-06-18T14:11:18.000",
    "date_modified": "2026-06-18T14:11:21.000",
    "request_status": "Pending",
    "responsible_agency": "Department of Sanitation",
    "final_address": "7729 Shelly St",
    "address_councildis": "E",
    "status": "Assigned to Contractor",
    "contractor": "Waste Pro",
    "rowid": "1292020",
    "final_x": "3695936.94627",
    "final_y": "559324.056861",
    "longitude": "-90.02147873128754",
    "latitude": "30.031500407712254",
    "geocoded_column": {
      "latitude": "30.031500407712254",
      "longitude": "-90.02147873128754"
    }
  },
  {
    "service_request": "2026-1292019",
    "request_type": "Tree Service",
    "request_reason": "Street or Sidewalk Blocked",
    "date_created": "2026-06-18T14:08:55.000",
    "date_modified": "2026-06-18T14:08:57.000",
    "request_status": "Pending",
    "responsible_agency": "Department of Parks & Parkways",
    "final_address": "2231 Lark St",
    "address_councildis": "D",
    "status": "Pending",
    "rowid": "1292019",
    "final_x": "3683766.60898",
    "final_y": "557862.900443",
    "longitude": "-90.0599888231158",
    "latitude": "30.027860277912314",
    "geocoded_column": {
      "latitude": "30.027860277912314",
      "longitude": "-90.0599888231158"
    }
  },
  {
    "service_request": "2026-1292018",
    "request_type": "Tree Service",
    "request_reason": "Tree Trim",
    "date_created": "2026-06-18T14:06:28.000",
    "date_modified": "2026-06-18T14:06:30.000",
    "request_status": "Pending",
    "responsible_agency": "Department of Parks & Parkways",
    "final_address": "7932 St Charles Ave",
    "address_councildis": "A",
    "status": "Pending",
    "rowid": "1292018",
    "final_x": "3660890.0336",
    "final_y": "526450.156926",
    "longitude": "-90.13331718732182",
    "latitude": "29.942164911263916",
    "geocoded_column": {
      "latitude": "29.942164911263916",
      "longitude": "-90.13331718732182"
    }
  },
  {
    "service_request": "2026-1292017",
    "request_type": "Tree Service",
    "request_reason": "Tree Trim",
    "date_created": "2026-06-18T14:03:37.000",
    "date_modified": "2026-06-18T14:03:38.000",
    "request_status": "Pending",
    "responsible_agency": "Department of Parks & Parkways",
    "final_address": "1832 Robert St",
    "address_councildis": "B",
    "status": "Pending",
    "rowid": "1292017",
    "final_x": "3668708.81569",
    "final_y": "522418.899002",
    "longitude": "-90.10876752894256",
    "latitude": "29.930852776050283",
    "geocoded_column": {
      "latitude": "29.930852776050283",
      "longitude": "-90.10876752894256"
    }
  },