[
  {
    "service_request": "2025-1242911",
    "request_type": "Trash/Recycling",
    "request_reason": "Request a Large Item Pick Up",
    "date_created": "2025-11-30T23:20:48.000",
    "date_modified": "2025-11-30T23:20:51.000",
    "request_status": "Pending",
    "responsible_agency": "Department of Sanitation",
    "final_address": "85 Audubon Blvd",
    "address_councildis": "A",
    "status": "Assigned to Contractor",
    "contractor": "IV Waste",
    "rowid": "1242911",
    "final_x": "3665940.62266",
    "final_y": "527736.288703",
    "longitude": "-90.11732822040973",
    "latitude": "29.94555495267322",
    "geocoded_column": {
      "latitude": "29.94555495267322",
      "longitude": "-90.11732822040973"
    }
  },
  {
    "service_request": "2025-1242910",
    "request_type": "Health Related Request",
    "request_reason": "Noise Ordinance Complaint",
    "date_created": "2025-11-30T23:06:13.000",
    "date_modified": "2025-11-30T23:06:15.000",
    "request_status": "Pending",
    "responsible_agency": "Health Department",
    "final_address": "1906 Magazine St, New Orleans, Louisiana, 70130",
    "address_councildis": "B",
    "status": "Pending",
    "rowid": "1242910",
    "final_x": "3679728.28987",
    "final_y": "522728.293498",
    "longitude": "-90.07396985782103",
    "latitude": "29.931375092629494",
    "geocoded_column": {
      "latitude": "29.931375092629494",
      "longitude": "-90.07396985782103"
    }
  },
  {
    "service_request": "2025-1242909",
    "request_type": "Health Related Request",
    "request_reason": "Noise Ordinance Complaint",
    "date_created": "2025-11-30T22:51:31.000",
    "date_modified": "2025-11-30T22:51:32.000",
    "request_status": "Pending",
    "responsible_agency": "Health Department",
    "final_address": "1906 Magazine St, New Orleans, Louisiana, 70130",
    "address_councildis": "B",
    "status": "Pending",
    "rowid": "1242909",
    "final_x": "3679728.28987",
    "final_y": "522728.293498",
    "longitude": "-90.07396985782103",
    "latitude": "29.931375092629494",
    "geocoded_column": {
      "latitude": "29.931375092629494",
      "longitude": "-90.07396985782103"
    }
  },
  {
    "service_request": "2025-1242908",
    "request_type": "Streetlights",
    "request_reason": "Streetlight Outage/Malfunction",
    "date_created": "2025-11-30T22:51:03.000",
    "date_modified": "2025-11-30T22:51:05.000",
    "request_status": "Pending",
    "responsible_agency": "Department of Public Works",
    "final_address": "1001 S Carrollton Ave",
    "address_councildis": "A",
    "status": "Pending",
    "rowid": "1242908",
    "final_x": "3661808.19206",
    "final_y": "527684.704767",
    "longitude": "-90.13037742554897",
    "latitude": "29.945533052555525",
    "geocoded_column": {
      "latitude": "29.945533052555525",
      "longitude": "-90.13037742554897"
    }
  },
  {
    "service_request": "2025-1242907",
    "request_type": "Streetlights",
    "request_reason": "Streetlight Outage/Malfunction",
    "date_created": "2025-11-30T22:48:21.000",
    "date_modified": "2025-11-30T22:48:23.000",
    "request_status": "Pending",
    "responsible_agency": "Department of Public Works",
    "final_address": "100 BLK Interstate 610",
    "address_councildis": "D",
    "status": "Pending",
    "rowid": "1242907",
    "final_x": "3686842.53671",
    "final_y": "544840.725395",
    "longitude": "-90.0507297306942",
    "latitude": "29.991959712179042",
    "geocoded_column": {
      "latitude": "29.991959712179042",
      "longitude": "-90.0507297306942"
    }
  },
  {
    "service_request": "2025-1242906",
    "request_type": "Streetlights",
    "request_reason": "Streetlight Outage/Malfunction",
    "date_created": "2025-11-30T22:46:45.000",
    "date_modified": "2025-11-30T22:46:47.000",
    "request_status": "Pending",
    "responsible_agency": "Department of Public Works",
    "final_address": "0 E Interstate 510 Service Rd",
    "address_councildis": "E",
    "status": "Pending",
    "rowid": "1242906",
    "final_x": "3722359.28767",
    "final_y": "561268.320926",
    "longitude": "-89.93790922288747",
    "latitude": "30.035988096688126",
    "geocoded_column": {
      "latitude": "30.035988096688126",
      "longitude": "-89.93790922288747"
    }
  },
  {
    "service_request": "2025-1242905",
    "request_type": "Streetlights",
    "request_reason": "Streetlight Outage/Malfunction",
    "date_created": "2025-11-30T22:44:49.000",
    "date_modified": "2025-11-30T22:44:51.000",
    "request_status": "Pending",
    "responsible_agency": "Department of Public Works",
    "final_address": "0 E Interstate 510 Service Rd",
    "address_councildis": "E",
    "status": "Pending",
    "rowid": "1242905",
    "final_x": "3722359.28767",
    "final_y": "561268.320926",
    "longitude": "-89.93790922288747",
    "latitude": "30.035988096688126",
    "geocoded_column": {
      "latitude": "30.035988096688126",
      "longitude": "-89.93790922288747"
    }
  },
  {
    "service_request": "2025-1242904",
    "request_type": "Trash/Recycling",
    "request_reason": "Missed Trash Pick-Up",
    "date_created": "2025-11-30T22:40:02.000",
    "date_modified": "2025-11-30T22:40:04.000",
    "request_status": "Pending",
    "responsible_agency": "Department of Sanitation",
    "final_address": "6531 Coventry St",
    "address_councildis": "E",
    "status": "Assigned to Contractor",
    "contractor": "Waste Pro",
    "rowid": "1242904",
    "final_x": "3697525.43197",
    "final_y": "559173.552348",
    "longitude": "-90.01646453680746",
    "latitude": "30.03103647686852",
    "geocoded_column": {
      "latitude": "30.03103647686852",
      "longitude": "-90.01646453680746"
    }
  },
  {
    "service_request": "2025-1242903",
    "request_type": "Abandoned Vehicles",
    "request_reason": "Abandoned/Junk Vehicles",
    "date_created": "2025-11-30T21:32:18.000",
    "date_modified": "2025-11-30T21:32:20.000",
    "request_status": "Pending",
    "responsible_agency": "Department of Public Works",
    "final_address": "2000 BLK Columbus St",
    "address_councildis": "D",
    "status": "Pending",
    "rowid": "1242903",
    "final_x": "3680462.76962",
    "final_y": "538163.211847",
    "longitude": "-90.07111444621584",
    "latitude": "29.973793696940575",
    "geocoded_column": {
      "latitude": "29.973793696940575",
      "longitude": "-90.07111444621584"
    }
  },
  {
    "service_request": "2025-1242902",
    "request_type": "Trash/Recycling",
    "request_reason": "Request a Large Item Pick Up",
    "date_created": "2025-11-30T21:28:54.000",
    "date_modified": "2025-11-30T21:28:56.000",
    "request_status": "Pending",
    "responsible_agency": "Department of Sanitation",
    "final_address": "7651 Michigan St",
    "address_councildis": "E",
    "status": "Assigned to Contractor",
    "contractor": "Waste Pro",
    "rowid": "1242902",
    "final_x": "3711715.68536",
    "final_y": "566672.276259",
    "longitude": "-89.97134168144463",
    "latitude": "30.05119890791",
    "geocoded_column": {
      "latitude": "30.05119890791",
      "longitude": "-89.97134168144463"
    }
  },
  {
    "service_request": "2025-1242901",
    "request_type": "Safety & Permits",
    "request_reason": "Zoning Enforcement",
    "date_created": "2025-11-30T21:10:32.000",
    "date_modified": "2025-11-30T21:10:34.000",
    "request_status": "Pending",
    "responsible_agency": "Safety and Permits",
    "final_address": "8480 Morrison Rd Ste B",
    "address_councildis": "E",
    "status": "Pending",
    "rowid": "1242901",
    "final_x": "3704505.26129",
    "final_y": "561093.578334",
    "longitude": "-89.99433732681197",
    "latitude": "30.036093384748046",
    "geocoded_column": {
      "latitude": "30.036093384748046",
      "longitude": "-89.99433732681197"
    }
  },
  {
    "service_request": "2025-1242900",
    "request_type": "Property Maintenance",
    "request_reason": "Property Maintenance",
    "date_created": "2025-11-30T20:59:03.000",
    "date_modified": "2025-11-30T20:59:06.000",
    "request_status": "Pending",
    "responsible_agency": "Department of Code Enforcement",
    "final_address": "8040 Crowder Blvd",
    "address_councildis": "E",
    "status": "Pending",
    "rowid": "1242900",
    "final_x": "3702654.93322",
    "final_y": "562866.93328",
    "longitude": "-90.00011947085582",
    "latitude": "30.041028739250848",
    "geocoded_column": {
      "latitude": "30.041028739250848",
      "longitude": "-90.00011947085582"
    }
  },
  {
    "service_request": "2025-1242899",
    "request_type": "Property Maintenance",
    "request_reason": "Property Maintenance",
    "date_created": "2025-11-30T20:45:56.000",
    "date_modified": "2025-11-30T20:45:58.000",
    "request_status": "Pending",
    "responsible_agency": "Department of Code Enforcement",
    "final_address": "1 Poydras St Ste 275",
    "address_councildis": "C",
    "status": "Pending",
    "rowid": "1242899",
    "final_x": "3683175.13365",
    "final_y": "529231.648897",
    "longitude": "-90.06286097630463",
    "latitude": "29.949152526250863",
    "geocoded_column": {
      "latitude": "29.949152526250863",
      "longitude": "-90.06286097630463"
    }
  },
  {
    "service_request": "2025-1242898",
    "request_type": "Abandoned Vehicles",
    "request_reason": "Abandoned/Junk Vehicles",
    "date_created": "2025-11-30T19:50:27.000",
    "date_modified": "2025-11-30T19:50:29.000",
    "request_status": "Pending",
    "responsible_agency": "Department of Public Works",
    "final_address": "5355 Cameron Blvd",
    "address_councildis": "D",
    "status": "Pending",
    "rowid": "1242898",
    "final_x": "3682631.7748",
    "final_y": "552858.063447",
    "longitude": "-90.06375004584893",
    "latitude": "30.014133439867887",
    "geocoded_column": {
      "latitude": "30.014133439867887",
      "longitude": "-90.06375004584893"
    }
  },
  {
    "service_request": "2025-1242897",
    "request_type": "Trash/Recycling",
    "request_reason": "Replace Recycling Cart",
    "date_created": "2025-11-30T19:41:53.000",
    "date_modified": "2025-11-30T19:41:56.000",
    "request_status": "Pending",
    "responsible_agency": "Department of Sanitation",
    "final_address": "8202 Plum St",
    "address_councildis": "A",
    "status": "Pending",
    "rowid": "1242897",
    "final_x": "3661878.87264",
    "final_y": "528871.282368",
    "longitude": "-90.13011492267508",
    "latitude": "29.94879372082046",
    "geocoded_column": {
      "latitude": "29.94879372082046",
      "longitude": "-90.13011492267508"
    }
  },
  {
    "service_request": "2025-1242896",
    "request_type": "Trash/Recycling",
    "request_reason": "Request a Large Item Pick Up",
    "date_created": "2025-11-30T19:32:23.000",
    "date_modified": "2025-11-30T19:32:26.000",
    "request_status": "Pending",
    "responsible_agency": "Department of Sanitation",
    "final_address": "1321 Eagle St",
    "address_councildis": "A",
    "status": "Assigned to Contractor",
    "contractor": "IV Waste",
    "rowid": "1242896",
    "final_x": "3660520.67699",
    "final_y": "530418.931842",
    "longitude": "-90.13435221884664",
    "latitude": "29.953088407337063",
    "geocoded_column": {
      "latitude": "29.953088407337063",
      "longitude": "-90.13435221884664"
    }
  },
  {
    "service_request": "2025-1242895",
    "request_type": "General Services",
    "request_reason": "General Service Request",
    "date_created": "2025-11-30T19:29:51.000",
    "date_modified": "2025-11-30T19:29:53.000",
    "request_status": "Pending",
    "responsible_agency": "Orleans Parish Communication District",
    "final_address": "3801 Tchoupitoulas St",
    "address_councildis": "B",
    "status": "Pending",
    "rowid": "1242895",
    "final_x": "3673671.26804",
    "final_y": "517749.470262",
    "longitude": "-90.09326126339094",
    "latitude": "29.917866587178136",
    "geocoded_column": {
      "latitude": "29.917866587178136",
      "longitude": "-90.09326126339094"
    }
  },
  {
    "service_request": "2025-1242894",
    "request_type": "Trash/Recycling",
    "request_reason": "Replace Trash Cart",
    "date_created": "2025-11-30T19:25:07.000",
    "date_modified": "2025-11-30T19:25:09.000",
    "request_status": "Pending",
    "responsible_agency": "Department of Sanitation",
    "final_address": "4626 Orleans Ave",
    "address_councildis": "A",
    "status": "Assigned to Contractor",
    "contractor": "IV Waste",
    "rowid": "1242894",
    "final_x": "3670602.33396",
    "final_y": "541575.692876",
    "longitude": "-90.10214013979962",
    "latitude": "29.983471843314177",
    "geocoded_column": {
      "latitude": "29.983471843314177",
      "longitude": "-90.10214013979962"
    }
  },
  {
    "service_request": "2025-1242892",
    "request_type": "Property Maintenance",
    "request_reason": "Property Maintenance",
    "date_created": "2025-11-30T17:56:44.000",
    "date_modified": "2025-11-30T17:56:46.000",
    "request_status": "Pending",
    "responsible_agency": "Department of Code Enforcement",
    "final_address": "4691 Arthur Dr",
    "address_councildis": "E",
    "status": "Pending",
    "rowid": "1242892",
    "final_x": "3707795.4147",
    "final_y": "555157.185305",
    "longitude": "-89.9841607939076",
    "latitude": "30.019664502321678",
    "geocoded_column": {
      "latitude": "30.019664502321678",
      "longitude": "-89.9841607939076"
    }
  },
  {
    "service_request": "2025-1242891",
    "request_type": "General Services",
    "request_reason": "General Service Request",
    "date_created": "2025-11-30T17:23:10.000",
    "date_modified": "2025-11-30T17:23:17.000",
    "request_status": "Pending",
    "responsible_agency": "Orleans Parish Communication District",
    "final_address": "2225 Jena St",
    "address_councildis": "B",
    "status": "Pending",
    "rowid": "1242891",
    "final_x": "3670266.95578",
    "final_y": "523199.915195",
    "longitude": "-90.10382222911669",
    "latitude": "29.932954440534846",
    "geocoded_column": {
      "latitude": "29.932954440534846",
      "longitude": "-90.10382222911669"
    }
  },
  {
    "service_request": "2025-1242890",
    "request_type": "Trash/Recycling",
    "request_reason": "Request a Large Item Pick Up",
    "date_created": "2025-11-30T16:53:38.000",
    "date_modified": "2025-11-30T16:53:40.000",
    "request_status": "Pending",
    "responsible_agency": "Department of Sanitation",
    "final_address": "3608 Havana St",
    "address_councildis": "D",
    "status": "Assigned to Contractor",
    "contractor": "IV Waste",
    "rowid": "1242890",
    "final_x": "3680776.54184",
    "final_y": "545679.799504",
    "longitude": "-90.06986172476225",
    "latitude": "29.994452175994443",
    "geocoded_column": {
      "latitude": "29.994452175994443",
      "longitude": "-90.06986172476225"
    }
  },
  {
    "service_request": "2025-1242889",
    "request_type": "Trash/Recycling",
    "request_reason": "Request a Large Item Pick Up",
    "date_created": "2025-11-30T16:47:58.000",
    "date_modified": "2025-11-30T16:48:00.000",
    "request_status": "Pending",
    "responsible_agency": "Department of Sanitation",
    "final_address": "339 40Th St",
    "address_councildis": "A",
    "status": "Assigned to Contractor",
    "contractor": "IV Waste",
    "rowid": "1242889",
    "final_x": "3665118.55469",
    "final_y": "553416.291287",
    "longitude": "-90.11906454458766",
    "latitude": "30.016190298539307",
    "geocoded_column": {
      "latitude": "30.016190298539307",
      "longitude": "-90.11906454458766"
    }
  },
  {
    "service_request": "2025-1242888",
    "request_type": "Trash/Recycling",
    "request_reason": "Request a Large Item Pick Up",
    "date_created": "2025-11-30T16:47:43.000",
    "date_modified": "2025-11-30T16:47:44.000",
    "request_status": "Pending",
    "responsible_agency": "Department of Sanitation",
    "final_address": "4858 Read Blvd",
    "address_councildis": "E",
    "status": "Assigned to Contractor",
    "contractor": "Waste Pro",
    "rowid": "1242888",
    "final_x": "3712596.7404",
    "final_y": "556871.831642",
    "longitude": "-89.96892583028524",
    "latitude": "30.02422278561527",
    "geocoded_column": {
      "latitude": "30.02422278561527",
      "longitude": "-89.96892583028524"
    }
  },
  {
    "service_request": "2025-1242887",
    "request_type": "Trash/Recycling",
    "request_reason": "Request a Large Item Pick Up",
    "date_created": "2025-11-30T16:46:51.000",
    "date_modified": "2025-11-30T16:46:53.000",
    "request_status": "Pending",
    "responsible_agency": "Department of Sanitation",
    "final_address": "400 40Th St",
    "address_councildis": "A",
    "status": "Assigned to Contractor",
    "contractor": "IV Waste",
    "rowid": "1242887",
    "final_x": "3665011.32884",
    "final_y": "553309.459607",
    "longitude": "-90.11940690867381",
    "latitude": "30.01589967280443",
    "geocoded_column": {
      "latitude": "30.01589967280443",
      "longitude": "-90.11940690867381"
    }
  },
  {
    "service_request": "2025-1242886",
    "request_type": "Trash/Recycling",
    "request_reason": "Replace Trash Cart",
    "date_created": "2025-11-30T15:55:50.000",
    "date_modified": "2025-11-30T15:55:51.000",
    "request_status": "Pending",
    "responsible_agency": "Department of Sanitation",
    "final_address": "4626 Orleans Ave",
    "address_councildis": "A",
    "status": "Assigned to Contractor",
    "contractor": "IV Waste",
    "rowid": "1242886",
    "final_x": "3670602.33396",
    "final_y": "541575.692876",
    "longitude": "-90.10214013979962",
    "latitude": "29.983471843314177",
    "geocoded_column": {
      "latitude": "29.983471843314177",
      "longitude": "-90.10214013979962"
    }
  },
  {
    "service_request": "2025-1242885",
    "request_type": "Trash/Recycling",
    "request_reason": "Start Trash Service",
    "date_created": "2025-11-30T15:53:30.000",
    "date_modified": "2025-11-30T15:53:32.000",
    "request_status": "Pending",
    "responsible_agency": "Department of Sanitation",
    "final_address": "1816 Dumaine St",
    "address_councildis": "D",
    "status": "Assigned to Contractor",
    "contractor": "IV Waste",
    "rowid": "1242885",
    "final_x": "3679769.18491",
    "final_y": "535465.246598",
    "longitude": "-90.07339863024326",
    "latitude": "29.966396208733816",
    "geocoded_column": {
      "latitude": "29.966396208733816",
      "longitude": "-90.07339863024326"
    }
  },
  {
    "service_request": "2025-1242884",
    "request_type": "Abandoned Vehicles",
    "request_reason": "Abandoned/Junk Vehicles",
    "date_created": "2025-11-30T15:49:13.000",
    "date_modified": "2025-11-30T15:49:16.000",
    "request_status": "Pending",
    "responsible_agency": "Department of Public Works",
    "final_address": "2763 Banks St",
    "address_councildis": "B",
    "status": "Pending",
    "rowid": "1242884",
    "final_x": "3674242.81416",
    "final_y": "534518.297157",
    "longitude": "-90.09088327736426",
    "latitude": "29.96395834656929",
    "geocoded_column": {
      "latitude": "29.96395834656929",
      "longitude": "-90.09088327736426"
    }
  },
  {
    "service_request": "2025-1242883",
    "request_type": "Trash/Recycling",
    "request_reason": "Request a Large Item Pick Up",
    "date_created": "2025-11-30T15:29:36.000",
    "date_modified": "2025-11-30T15:29:37.000",
    "request_status": "Pending",
    "responsible_agency": "Department of Sanitation",
    "final_address": "5573 Rosemary Pl",
    "address_councildis": "A",
    "status": "Assigned to Contractor",
    "contractor": "IV Waste",
    "rowid": "1242883",
    "final_x": "3667205.3378",
    "final_y": "544618.575375",
    "longitude": "-90.11276729845154",
    "latitude": "29.991938661266854",
    "geocoded_column": {
      "latitude": "29.991938661266854",
      "longitude": "-90.11276729845154"
    }
  },
  {
    "service_request": "2025-1242882",
    "request_type": "Abandoned Vehicles",
    "request_reason": "Abandoned/Junk Vehicles",
    "date_created": "2025-11-30T15:27:05.000",
    "date_modified": "2025-11-30T15:27:07.000",
    "request_status": "Pending",
    "responsible_agency": "Department of Public Works",
    "final_address": "2918 Baudin St",
    "address_councildis": "B",
    "status": "Pending",
    "rowid": "1242882",
    "final_x": "3673473.14843",
    "final_y": "534461.035973",
    "longitude": "-90.09331577175766",
    "latitude": "29.96382382262713",
    "geocoded_column": {
      "latitude": "29.96382382262713",
      "longitude": "-90.09331577175766"
    }
  },
  {
    "service_request": "2025-1242881",
    "request_type": "Trash/Recycling",
    "request_reason": "Request a Large Item Pick Up",
    "date_created": "2025-11-30T15:02:38.000",
    "date_modified": "2025-11-30T15:02:40.000",
    "request_status": "Pending",
    "responsible_agency": "Department of Sanitation",
    "final_address": "7021 Yorktown Dr",
    "address_councildis": "E",
    "status": "Assigned to Contractor",
    "contractor": "Waste Pro",
    "rowid": "1242881",
    "final_x": "3706226.61015",
    "final_y": "560528.951262",
    "longitude": "-89.98891851514233",
    "latitude": "30.03448546108901",
    "geocoded_column": {
      "latitude": "30.03448546108901",
      "longitude": "-89.98891851514233"
    }
  },
  {
    "service_request": "2025-1242880",
    "request_type": "Trash/Recycling",
    "request_reason": "Request a Large Item Pick Up",
    "date_created": "2025-11-30T14:48:18.000",
    "date_modified": "2025-11-30T14:48:21.000",
    "request_status": "Pending",
    "responsible_agency": "Department of Sanitation",
    "final_address": "14 Castle Pines Dr",
    "address_councildis": "C",
    "status": "Assigned to Contractor",
    "contractor": "Richards Disposal",
    "rowid": "1242880",
    "final_x": "3719680.04479",
    "final_y": "511508.910576",
    "longitude": "-89.948276799906",
    "latitude": "29.899257967580226",
    "geocoded_column": {
      "latitude": "29.899257967580226",
      "longitude": "-89.948276799906"
    }
  },
  {
    "service_request": "2025-1242879",
    "request_type": "Drainage",
    "request_reason": "Catch Basin Not Draining",
    "date_created": "2025-11-30T14:03:07.000",
    "date_modified": "2025-11-30T14:03:08.000",
    "request_status": "Pending",
    "responsible_agency": "Sewerage & Water Board",
    "final_address": "445 Topaz St",
    "address_councildis": "D",
    "status": "Pending",
    "rowid": "1242879",
    "final_x": "3668030.1817",
    "final_y": "556567.57289",
    "longitude": "-90.10975872785272",
    "latitude": "30.02477004359848",
    "geocoded_column": {
      "latitude": "30.02477004359848",
      "longitude": "-90.10975872785272"
    }
  },
  {
    "service_request": "2025-1242878",
    "request_type": "Trash/Recycling",
    "request_reason": "Request a Large Item Pick Up",
    "date_created": "2025-11-30T13:47:59.000",
    "date_modified": "2025-11-30T13:48:01.000",
    "request_status": "Pending",
    "responsible_agency": "Department of Sanitation",
    "final_address": "14 Castle Pines Dr",
    "address_councildis": "C",
    "status": "Assigned to Contractor",
    "contractor": "Richards Disposal",
    "rowid": "1242878",
    "final_x": "3719680.04479",
    "final_y": "511508.910576",
    "longitude": "-89.948276799906",
    "latitude": "29.899257967580226",
    "geocoded_column": {
      "latitude": "29.899257967580226",
      "longitude": "-89.948276799906"
    }
  },
  {
    "service_request": "2025-1242877",
    "request_type": "Parks & Parkways",
    "request_reason": "Park Maintenance/Clean Up",
    "date_created": "2025-11-30T13:05:41.000",
    "date_modified": "2025-11-30T13:05:42.000",
    "request_status": "Pending",
    "responsible_agency": "Department of Parks & Parkway",
    "final_address": "35 Diagonal Dr",
    "address_councildis": "A",
    "status": "Pending",
    "rowid": "1242877",
    "final_x": "3673065.32462",
    "final_y": "546633.136209",
    "longitude": "-90.09418795884343",
    "latitude": "29.997305064459447",
    "geocoded_column": {
      "latitude": "29.997305064459447",
      "longitude": "-90.09418795884343"
    }
  },
  {
    "service_request": "2025-1242876",
    "request_type": "Mosquito, Termite & Rodent Control",
    "request_reason": "Rodent Complaint (Mice & Rats)",
    "date_created": "2025-11-30T13:03:17.000",
    "date_modified": "2025-11-30T13:03:19.000",
    "request_status": "Pending",
    "responsible_agency": "Mosquito, Termite & Rodent Control Board",
    "final_address": "535 Madison St",
    "address_councildis": "C",
    "status": "Pending",
    "rowid": "1242876",
    "final_x": "3683291.09045",
    "final_y": "532639.222596",
    "longitude": "-90.06237550993669",
    "latitude": "29.958518659782698",
    "geocoded_column": {
      "latitude": "29.958518659782698",
      "longitude": "-90.06237550993669"
    }
  },
  {
    "service_request": "2025-1242875",
    "request_type": "Abandoned Vehicles",
    "request_reason": "Abandoned/Junk Vehicles",
    "date_created": "2025-11-30T12:58:26.000",
    "date_modified": "2025-11-30T12:58:27.000",
    "request_status": "Pending",
    "responsible_agency": "Department of Public Works",
    "final_address": "616 Upperline St",
    "address_councildis": "B",
    "status": "Pending",
    "rowid": "1242875",
    "final_x": "3668918.33582",
    "final_y": "517673.733814",
    "longitude": "-90.10826625697591",
    "latitude": "29.91779891831212",
    "geocoded_column": {
      "latitude": "29.91779891831212",
      "longitude": "-90.10826625697591"
    }
  },
  {
    "service_request": "2025-1242874",
    "request_type": "Abandoned Vehicles",
    "request_reason": "Abandoned/Junk Vehicles",
    "date_created": "2025-11-30T12:57:09.000",
    "date_modified": "2025-11-30T12:57:10.000",
    "request_status": "Pending",
    "responsible_agency": "Department of Public Works",
    "final_address": "4023 Tchoupitoulas St",
    "address_councildis": "B",
    "status": "Pending",
    "rowid": "1242874",
    "final_x": "3672456.92334",
    "final_y": "517628.933814",
    "longitude": "-90.09709839396619",
    "latitude": "29.917571230941423",
    "geocoded_column": {
      "latitude": "29.917571230941423",
      "longitude": "-90.09709839396619"
    }
  },
  {
    "service_request": "2025-1242873",
    "request_type": "Abandoned Vehicles",
    "request_reason": "Abandoned/Junk Vehicles",
    "date_created": "2025-11-30T12:56:50.000",
    "date_modified": "2025-11-30T12:56:52.000",
    "request_status": "Pending",
    "responsible_agency": "Department of Public Works",
    "final_address": "7800 BLK Fig St",
    "address_councildis": "B",
    "status": "Pending",
    "rowid": "1242873",
    "final_x": "3667005.29981",
    "final_y": "532498.819633",
    "longitude": "-90.11380663740664",
    "latitude": "29.958619250068953",
    "geocoded_column": {
      "latitude": "29.958619250068953",
      "longitude": "-90.11380663740664"
    }
  },
  {
    "service_request": "2025-1242872",
    "request_type": "Abandoned Vehicles",
    "request_reason": "Abandoned/Junk Vehicles",
    "date_created": "2025-11-30T12:51:32.000",
    "date_modified": "2025-11-30T12:51:33.000",
    "request_status": "Pending",
    "responsible_agency": "Department of Public Works",
    "final_address": "1120 N White St",
    "address_councildis": "A",
    "status": "Pending",
    "rowid": "1242872",
    "final_x": "3677396.15502",
    "final_y": "538920.781194",
    "longitude": "-90.08077333786179",
    "latitude": "29.975969281763565",
    "geocoded_column": {
      "latitude": "29.975969281763565",
      "longitude": "-90.08077333786179"
    }
  },
  {
    "service_request": "2025-1242871",
    "request_type": "Streetlights",
    "request_reason": "Streetlight Outage/Malfunction",
    "date_created": "2025-11-30T12:48:09.000",
    "date_modified": "2025-11-30T12:48:10.000",
    "request_status": "Pending",
    "responsible_agency": "Department of Public Works",
    "final_address": "230 N Broad St",
    "address_councildis": "B",
    "status": "Pending",
    "rowid": "1242871",
    "final_x": "3675822.33269",
    "final_y": "535572.72647",
    "longitude": "-90.08585904720267",
    "latitude": "29.966810482811358",
    "geocoded_column": {
      "latitude": "29.966810482811358",
      "longitude": "-90.08585904720267"
    }
  },
  {
    "service_request": "2025-1242870",
    "request_type": "Streetlights",
    "request_reason": "Streetlight Outage/Malfunction",
    "date_created": "2025-11-30T12:43:16.000",
    "date_modified": "2025-11-30T12:43:18.000",
    "request_status": "Pending",
    "responsible_agency": "Department of Public Works",
    "final_address": "318 N Lopez St",
    "address_councildis": "B",
    "status": "Pending",
    "rowid": "1242870",
    "final_x": "3674493.29499",
    "final_y": "536974.166024",
    "longitude": "-90.09000812872539",
    "latitude": "29.970703685758362",
    "geocoded_column": {
      "latitude": "29.970703685758362",
      "longitude": "-90.09000812872539"
    }
  },
  {
    "service_request": "2025-1242869",
    "request_type": "Trash/Recycling",
    "request_reason": "Request a Large Item Pick Up",
    "date_created": "2025-11-30T12:41:15.000",
    "date_modified": "2025-11-30T12:41:17.000",
    "request_status": "Pending",
    "responsible_agency": "Department of Sanitation",
    "final_address": "8120 Zimple St",
    "address_councildis": "A",
    "status": "Assigned to Contractor",
    "contractor": "IV Waste",
    "rowid": "1242869",
    "final_x": "3661589.07462",
    "final_y": "528188.636928",
    "longitude": "-90.1310525595442",
    "latitude": "29.946925028593476",
    "geocoded_column": {
      "latitude": "29.946925028593476",
      "longitude": "-90.1310525595442"
    }
  },
  {
    "service_request": "2025-1242868",
    "request_type": "New Orleans Recreation Development Commission (NORDC)",
    "request_reason": "Facilities and Parks Maintenance/Clean Up",
    "date_created": "2025-11-30T12:33:19.000",
    "date_modified": "2025-11-30T12:33:21.000",
    "request_status": "Pending",
    "responsible_agency": "New Orleans Recreation Development Commission",
    "final_address": "2000 BLK Philip St",
    "address_councildis": "B",
    "status": "Pending",
    "rowid": "1242868",
    "final_x": "3676254.42633",
    "final_y": "524682.938283",
    "longitude": "-90.0848691947947",
    "latitude": "29.936854253418108",
    "geocoded_column": {
      "latitude": "29.936854253418108",
      "longitude": "-90.0848691947947"
    }
  },
  {
    "service_request": "2025-1242867",
    "request_type": "Trash/Recycling",
    "request_reason": "Request a Large Item Pick Up",
    "date_created": "2025-11-30T12:22:21.000",
    "date_modified": "2025-11-30T12:22:23.000",
    "request_status": "Pending",
    "responsible_agency": "Department of Sanitation",
    "final_address": "1515 Jefferson Ave",
    "address_councildis": "B",
    "status": "Assigned to Contractor",
    "contractor": "IV Waste",
    "rowid": "1242867",
    "final_x": "3667248.21767",
    "final_y": "520687.835257",
    "longitude": "-90.11343662860484",
    "latitude": "29.926135740304627",
    "geocoded_column": {
      "latitude": "29.926135740304627",
      "longitude": "-90.11343662860484"
    }
  },
  {
    "service_request": "2025-1242866",
    "request_type": "Property Maintenance",
    "request_reason": "Property Maintenance",
    "date_created": "2025-11-30T12:20:42.000",
    "date_modified": "2025-11-30T12:20:43.000",
    "request_status": "Pending",
    "responsible_agency": "Department of Code Enforcement",
    "final_address": "2501 Banks St",
    "address_councildis": "B",
    "status": "Pending",
    "rowid": "1242866",
    "final_x": "3675422.22798",
    "final_y": "533620.953349",
    "longitude": "-90.08718961099208",
    "latitude": "29.96145573647873",
    "geocoded_column": {
      "latitude": "29.96145573647873",
      "longitude": "-90.08718961099208"
    }
  },
  {
    "service_request": "2025-1242865",
    "request_type": "Trash/Recycling",
    "request_reason": "Replace Trash Cart",
    "date_created": "2025-11-30T12:20:32.000",
    "date_modified": "2025-11-30T12:20:33.000",
    "request_status": "Pending",
    "responsible_agency": "Department of Sanitation",
    "final_address": "707 Fern St",
    "address_councildis": "A",
    "status": "Assigned to Contractor",
    "contractor": "IV Waste",
    "rowid": "1242865",
    "final_x": "3661456.75942",
    "final_y": "526606.984894",
    "longitude": "-90.13152270761292",
    "latitude": "29.942579806294148",
    "geocoded_column": {
      "latitude": "29.942579806294148",
      "longitude": "-90.13152270761292"
    }
  },
  {
    "service_request": "2025-1242864",
    "request_type": "Trash/Recycling",
    "request_reason": "Request a Large Item Pick Up",
    "date_created": "2025-11-30T12:11:10.000",
    "date_modified": "2025-11-30T12:11:12.000",
    "request_status": "Pending",
    "responsible_agency": "Department of Sanitation",
    "final_address": "6119 West End Blvd",
    "address_councildis": "A",
    "status": "Assigned to Contractor",
    "contractor": "IV Waste",
    "rowid": "1242864",
    "final_x": "3666550.68775",
    "final_y": "548302.613586",
    "longitude": "-90.11471144752696",
    "latitude": "30.00208765935878",
    "geocoded_column": {
      "latitude": "30.00208765935878",
      "longitude": "-90.11471144752696"
    }
  },
  {
    "service_request": "2025-1242863",
    "request_type": "Trash/Recycling",
    "request_reason": "Request a Large Item Pick Up",
    "date_created": "2025-11-30T11:50:00.000",
    "date_modified": "2025-11-30T11:50:01.000",
    "request_status": "Pending",
    "responsible_agency": "Department of Sanitation",
    "final_address": "7920 Pompano St",
    "address_councildis": "E",
    "status": "Assigned to Contractor",
    "contractor": "Waste Pro",
    "rowid": "1242863",
    "final_x": "3700124.51837",
    "final_y": "561565.625183",
    "longitude": "-90.0081639740403",
    "latitude": "30.037531361232844",
    "geocoded_column": {
      "latitude": "30.037531361232844",
      "longitude": "-90.0081639740403"
    }
  },
  {
    "service_request": "2025-1242862",
    "request_type": "General Services",
    "request_reason": "General Service Request",
    "date_created": "2025-11-30T11:45:19.000",
    "date_modified": "2025-11-30T11:45:21.000",
    "request_status": "Pending",
    "responsible_agency": "Orleans Parish Communication District",
    "final_address": "735 Girod St",
    "address_councildis": "B",
    "status": "Pending",
    "rowid": "1242862",
    "final_x": "3680217.83624",
    "final_y": "528656.385984",
    "longitude": "-90.07221845114026",
    "latitude": "29.947660575210747",
    "geocoded_column": {
      "latitude": "29.947660575210747",
      "longitude": "-90.07221845114026"
    }
  },
  {
    "service_request": "2025-1242861",
    "request_type": "Street and Traffic Signs",
    "request_reason": "Additional Signage Request",
    "date_created": "2025-11-30T11:30:05.000",
    "date_modified": "2025-11-30T11:30:07.000",
    "request_status": "Pending",
    "responsible_agency": "Department of Public Works",
    "final_address": "3701 Freret St",
    "address_councildis": "B",
    "status": "Pending",
    "rowid": "1242861",
    "final_x": "3672312.45358",
    "final_y": "524306.933436",
    "longitude": "-90.09732703108892",
    "latitude": "29.935937872438373",
    "geocoded_column": {
      "latitude": "29.935937872438373",
      "longitude": "-90.09732703108892"
    }
  },
  {
    "service_request": "2025-1242860",
    "request_type": "Trash/Recycling",
    "request_reason": "Order Recycling Cart",
    "date_created": "2025-11-30T11:03:42.000",
    "date_modified": "2025-11-30T11:03:44.000",
    "request_status": "Pending",
    "responsible_agency": "Department of Sanitation",
    "final_address": "1427 Louisiana Ave",
    "address_councildis": "B",
    "status": "Pending",
    "rowid": "1242860",
    "final_x": "3674592.92488",
    "final_y": "520840.467129",
    "longitude": "-90.09024624976593",
    "latitude": "29.926338377387005",
    "geocoded_column": {
      "latitude": "29.926338377387005",
      "longitude": "-90.09024624976593"
    }
  },
  {
    "service_request": "2025-1242859",
    "request_type": "Trash/Recycling",
    "request_reason": "Repair Trash Cart",
    "date_created": "2025-11-30T10:53:57.000",
    "date_modified": "2025-11-30T10:53:59.000",
    "request_status": "Pending",
    "responsible_agency": "Department of Sanitation",
    "final_address": "1306 Calhoun St",
    "address_councildis": "A",
    "status": "Assigned to Contractor",
    "contractor": "IV Waste",
    "rowid": "1242859",
    "final_x": "3664103.11738",
    "final_y": "521391.034809",
    "longitude": "-90.12334140557269",
    "latitude": "29.928161012734737",
    "geocoded_column": {
      "latitude": "29.928161012734737",
      "longitude": "-90.12334140557269"
    }
  },
  {
    "service_request": "2025-1242858",
    "request_type": "Property Maintenance",
    "request_reason": "Property Maintenance",
    "date_created": "2025-11-30T10:46:57.000",
    "date_modified": "2025-11-30T10:47:16.000",
    "request_status": "Pending",
    "responsible_agency": "Department of Code Enforcement",
    "final_address": "2216 Amelia St",
    "address_councildis": "B",
    "status": "Pending",
    "rowid": "1242858",
    "final_x": "3672517.77319",
    "final_y": "523397.130299",
    "longitude": "-90.096709829775",
    "latitude": "29.93343011699422",
    "geocoded_column": {
      "latitude": "29.93343011699422",
      "longitude": "-90.096709829775"
    }
  },
  {
    "service_request": "2025-1242857",
    "request_type": "Trash/Recycling",
    "request_reason": "Request a Large Item Pick Up",
    "date_created": "2025-11-30T10:32:11.000",
    "date_modified": "2025-11-30T10:32:13.000",
    "request_status": "Pending",
    "responsible_agency": "Department of Sanitation",
    "final_address": "5027 Tchoupitoulas St",
    "address_councildis": "B",
    "status": "Assigned to Contractor",
    "contractor": "IV Waste",
    "rowid": "1242857",
    "final_x": "3668370.31521",
    "final_y": "517252.007477",
    "longitude": "-90.11001027262392",
    "latitude": "29.916655402742535",
    "geocoded_column": {
      "latitude": "29.916655402742535",
      "longitude": "-90.11001027262392"
    }
  },
  {
    "service_request": "2025-1242856",
    "request_type": "Street and Traffic Signs",
    "request_reason": "Additional Signage Request",
    "date_created": "2025-11-30T10:05:41.000",
    "date_modified": "2025-11-30T10:05:42.000",
    "request_status": "Pending",
    "responsible_agency": "Department of Public Works",
    "final_address": "2520 Upperline St",
    "address_councildis": "B",
    "status": "Pending",
    "rowid": "1242856",
    "final_x": "3669130.7545",
    "final_y": "524093.779196",
    "longitude": "-90.10737895257795",
    "latitude": "29.935445753914102",
    "geocoded_column": {
      "latitude": "29.935445753914102",
      "longitude": "-90.10737895257795"
    }
  },
  {
    "service_request": "2025-1242855",
    "request_type": "Street and Traffic Signs",
    "request_reason": "Stop Sign Missing or Damaged",
    "date_created": "2025-11-30T10:04:41.000",
    "date_modified": "2025-11-30T10:04:44.000",
    "request_status": "Pending",
    "responsible_agency": "Department of Public Works",
    "final_address": "3176 Toulouse St",
    "address_councildis": "A",
    "status": "Pending",
    "rowid": "1242855",
    "final_x": "3674690.96072",
    "final_y": "537842.518729",
    "longitude": "-90.08935410313273",
    "latitude": "29.973085461589733",
    "geocoded_column": {
      "latitude": "29.973085461589733",
      "longitude": "-90.08935410313273"
    }
  },
  {
    "service_request": "2025-1242854",
    "request_type": "Streetlights",
    "request_reason": "Streetlight Outage/Malfunction",
    "date_created": "2025-11-30T09:54:17.000",
    "date_modified": "2025-11-30T09:54:20.000",
    "request_status": "Pending",
    "responsible_agency": "Department of Public Works",
    "final_address": "5701 Memphis St",
    "address_councildis": "A",
    "status": "Pending",
    "rowid": "1242854",
    "final_x": "3669114.39745",
    "final_y": "545409.193424",
    "longitude": "-90.10671022050226",
    "latitude": "29.994056535176238",
    "geocoded_column": {
      "latitude": "29.994056535176238",
      "longitude": "-90.10671022050226"
    }
  },
  {
    "service_request": "2025-1242853",
    "request_type": "Trash/Recycling",
    "request_reason": "Request a Large Item Pick Up",
    "date_created": "2025-11-30T09:08:48.000",
    "date_modified": "2025-11-30T09:08:49.000",
    "request_status": "Pending",
    "responsible_agency": "Department of Sanitation",
    "final_address": "10001 Flossmoor Dr",
    "address_councildis": "E",
    "status": "Assigned to Contractor",
    "contractor": "Waste Pro",
    "rowid": "1242853",
    "final_x": "3709214.14545",
    "final_y": "563424.249632",
    "longitude": "-89.97936945701574",
    "latitude": "30.042349659710577",
    "geocoded_column": {
      "latitude": "30.042349659710577",
      "longitude": "-89.97936945701574"
    }
  },
  {
    "service_request": "2025-1242852",
    "request_type": "Trash/Recycling",
    "request_reason": "Dead Animal Pick Up",
    "date_created": "2025-11-30T09:06:28.000",
    "date_modified": "2025-11-30T09:06:30.000",
    "request_status": "Pending",
    "responsible_agency": "Department of Sanitation",
    "final_address": "4131 Ulloa St",
    "address_councildis": "A",
    "status": "Assigned to Contractor",
    "contractor": "IV Waste",
    "rowid": "1242852",
    "final_x": "3669327.75745",
    "final_y": "536833.966152",
    "longitude": "-90.10632631175253",
    "latitude": "29.970471290545717",
    "geocoded_column": {
      "latitude": "29.970471290545717",
      "longitude": "-90.10632631175253"
    }
  },
  {
    "service_request": "2025-1242851",
    "request_type": "Trash/Recycling",
    "request_reason": "Dead Animal Pick Up",
    "date_created": "2025-11-30T09:06:13.000",
    "date_modified": "2025-11-30T09:06:15.000",
    "request_status": "Pending",
    "responsible_agency": "Department of Sanitation",
    "final_address": "4131 Ulloa St",
    "address_councildis": "A",
    "status": "Assigned to Contractor",
    "contractor": "IV Waste",
    "rowid": "1242851",
    "final_x": "3669327.75745",
    "final_y": "536833.966152",
    "longitude": "-90.10632631175253",
    "latitude": "29.970471290545717",
    "geocoded_column": {
      "latitude": "29.970471290545717",
      "longitude": "-90.10632631175253"
    }
  },
  {
    "service_request": "2025-1242850",
    "request_type": "Trash/Recycling",
    "request_reason": "Request a Large Item Pick Up",
    "date_created": "2025-11-30T08:55:05.000",
    "date_modified": "2025-11-30T08:55:09.000",
    "request_status": "Pending",
    "responsible_agency": "Department of Sanitation",
    "final_address": "1615 Lisbon St",
    "address_councildis": "D",
    "status": "Assigned to Contractor",
    "contractor": "IV Waste",
    "rowid": "1242850",
    "final_x": "3679069.3661",
    "final_y": "556270.297434",
    "longitude": "-90.07488705930703",
    "latitude": "30.02362389504491",
    "geocoded_column": {
      "latitude": "30.02362389504491",
      "longitude": "-90.07488705930703"
    }
  },
  {
    "service_request": "2025-1242849",
    "request_type": "Trash/Recycling",
    "request_reason": "Request a Large Item Pick Up",
    "date_created": "2025-11-30T08:09:45.000",
    "date_modified": "2025-11-30T08:09:47.000",
    "request_status": "Pending",
    "responsible_agency": "Department of Sanitation",
    "final_address": "6320 Laurel St",
    "address_councildis": "A",
    "status": "Assigned to Contractor",
    "contractor": "IV Waste",
    "rowid": "1242849",
    "final_x": "3662841.00333",
    "final_y": "518802.169463",
    "longitude": "-90.12741164526388",
    "latitude": "29.92107902852174",
    "geocoded_column": {
      "latitude": "29.92107902852174",
      "longitude": "-90.12741164526388"
    }
  },
  {
    "service_request": "2025-1242848",
    "request_type": "Trash/Recycling",
    "request_reason": "Request a Large Item Pick Up",
    "date_created": "2025-11-30T08:06:06.000",
    "date_modified": "2025-11-30T08:06:08.000",
    "request_status": "Pending",
    "responsible_agency": "Department of Sanitation",
    "final_address": "1228 Cambronne St",
    "address_councildis": "A",
    "status": "Assigned to Contractor",
    "contractor": "IV Waste",
    "rowid": "1242848",
    "final_x": "3661302.00704",
    "final_y": "529306.519361",
    "longitude": "-90.1319219350396",
    "latitude": "29.95000712672728",
    "geocoded_column": {
      "latitude": "29.95000712672728",
      "longitude": "-90.1319219350396"
    }
  },
  {
    "service_request": "2025-1242847",
    "request_type": "Trash/Recycling",
    "request_reason": "Request a Large Item Pick Up",
    "date_created": "2025-11-30T08:01:13.000",
    "date_modified": "2025-11-30T08:01:14.000",
    "request_status": "Pending",
    "responsible_agency": "Department of Sanitation",
    "final_address": "4971 Marigny St",
    "address_councildis": "D",
    "status": "Assigned to Contractor",
    "contractor": "IV Waste",
    "rowid": "1242847",
    "final_x": "3684392.93148",
    "final_y": "551300.085205",
    "longitude": "-90.05824046329683",
    "latitude": "30.0097957949418",
    "geocoded_column": {
      "latitude": "30.0097957949418",
      "longitude": "-90.05824046329683"
    }
  },
  {
    "service_request": "2025-1242846",
    "request_type": "Trash/Recycling",
    "request_reason": "Request a Large Item Pick Up",
    "date_created": "2025-11-30T07:38:04.000",
    "date_modified": "2025-11-30T07:38:06.000",
    "request_status": "Pending",
    "responsible_agency": "Department of Sanitation",
    "final_address": "4749 W Adams Ct",
    "address_councildis": "E",
    "status": "Assigned to Contractor",
    "contractor": "Waste Pro",
    "rowid": "1242846",
    "final_x": "3718594.3797",
    "final_y": "557144.231899",
    "longitude": "-89.94996423929999",
    "latitude": "30.024774044293345",
    "geocoded_column": {
      "latitude": "30.024774044293345",
      "longitude": "-89.94996423929999"
    }
  },
  {
    "service_request": "2025-1242845",
    "request_type": "General Services",
    "request_reason": "General Service Request",
    "date_created": "2025-11-30T06:30:36.000",
    "date_modified": "2025-11-30T06:30:38.000",
    "request_status": "Pending",
    "responsible_agency": "Orleans Parish Communication District",
    "final_address": "126 S Hennessey St",
    "address_councildis": "A",
    "status": "Pending",
    "rowid": "1242845",
    "final_x": "3670160.6777",
    "final_y": "538705.892169",
    "longitude": "-90.10363240345818",
    "latitude": "29.975593905982524",
    "geocoded_column": {
      "latitude": "29.975593905982524",
      "longitude": "-90.10363240345818"
    }
  },
  {
    "service_request": "2025-1242843",
    "request_type": "Streetlights",
    "request_reason": "Streetlight Outage/Malfunction",
    "date_created": "2025-11-30T02:05:50.000",
    "date_modified": "2025-11-30T02:05:51.000",
    "request_status": "Pending",
    "responsible_agency": "Department of Public Works",
    "final_address": "6220 Elysian Fields Ave",
    "address_councildis": "D",
    "status": "Pending",
    "rowid": "1242843",
    "final_x": "3683263.61583",
    "final_y": "556091.029018",
    "longitude": "-90.06164038445051",
    "latitude": "30.023003645931365",
    "geocoded_column": {
      "latitude": "30.023003645931365",
      "longitude": "-90.06164038445051"
    }
  },
  {
    "service_request": "2025-1242844",
    "request_type": "Streetlights",
    "request_reason": "Streetlight Outage/Malfunction",
    "date_created": "2025-11-30T02:05:50.000",
    "date_modified": "2025-11-30T02:05:51.000",
    "request_status": "Pending",
    "responsible_agency": "Department of Public Works",
    "final_address": "6220 Elysian Fields Ave",
    "address_councildis": "D",
    "status": "Pending",
    "rowid": "1242844",
    "final_x": "3683263.61583",
    "final_y": "556091.029018",
    "longitude": "-90.06164038445051",
    "latitude": "30.023003645931365",
    "geocoded_column": {
      "latitude": "30.023003645931365",
      "longitude": "-90.06164038445051"
    }
  },
  {
    "service_request": "2025-1242842",
    "request_type": "Streetlights",
    "request_reason": "Streetlight Outage/Malfunction",
    "date_created": "2025-11-30T02:05:49.000",
    "date_modified": "2025-11-30T02:05:51.000",
    "request_status": "Pending",
    "responsible_agency": "Department of Public Works",
    "final_address": "6220 Elysian Fields Ave",
    "address_councildis": "D",
    "status": "Pending",
    "rowid": "1242842",
    "final_x": "3683263.61583",
    "final_y": "556091.029018",
    "longitude": "-90.06164038445051",
    "latitude": "30.023003645931365",
    "geocoded_column": {
      "latitude": "30.023003645931365",
      "longitude": "-90.06164038445051"
    }
  },
  {
    "service_request": "2025-1242841",
    "request_type": "Streetlights",
    "request_reason": "Streetlight Outage/Malfunction",
    "date_created": "2025-11-30T01:03:12.000",
    "date_modified": "2025-11-30T01:03:13.000",
    "request_status": "Pending",
    "responsible_agency": "Department of Public Works",
    "final_address": "3541 Preston Pl",
    "address_councildis": "C",
    "status": "Pending",
    "rowid": "1242841",
    "final_x": "3708451.87704",
    "final_y": "517722.918006",
    "longitude": "-89.98347999640333",
    "latitude": "29.916712762086483",
    "geocoded_column": {
      "latitude": "29.916712762086483",
      "longitude": "-89.98347999640333"
    }
  },
  {
    "service_request": "2025-1242840",
    "request_type": "Trash/Recycling",
    "request_reason": "Request a Large Item Pick Up",
    "date_created": "2025-11-29T23:40:17.000",
    "date_modified": "2025-11-29T23:40:19.000",
    "request_status": "Pending",
    "responsible_agency": "Department of Sanitation",
    "final_address": "0 BLK Alice Ct",
    "address_councildis": "E",
    "status": "Assigned to Contractor",
    "contractor": "Waste Pro",
    "rowid": "1242840",
    "final_x": "3696830.85368",
    "final_y": "533835.980016",
    "longitude": "-90.01957742212986",
    "latitude": "29.961389424106756",
    "geocoded_column": {
      "latitude": "29.961389424106756",
      "longitude": "-90.01957742212986"
    }
  },
  {
    "service_request": "2025-1242839",
    "request_type": "Trash/Recycling",
    "request_reason": "Request a Large Item Pick Up",
    "date_created": "2025-11-29T22:49:51.000",
    "date_modified": "2025-11-29T22:49:53.000",
    "request_status": "Pending",
    "responsible_agency": "Department of Sanitation",
    "final_address": "332 Bragg St",
    "address_councildis": "A",
    "status": "Assigned to Contractor",
    "contractor": "IV Waste",
    "rowid": "1242839",
    "final_x": "3667564.40301",
    "final_y": "550069.334996",
    "longitude": "-90.11144947669369",
    "latitude": "30.0069158464596",
    "geocoded_column": {
      "latitude": "30.0069158464596",
      "longitude": "-90.11144947669369"
    }
  },
  {
    "service_request": "2025-1242838",
    "request_type": "Health Related Request",
    "request_reason": "Noise Ordinance Complaint",
    "date_created": "2025-11-29T22:42:26.000",
    "date_modified": "2025-11-29T22:42:29.000",
    "request_status": "Pending",
    "responsible_agency": "Health Department",
    "final_address": "530 Lyons St",
    "address_councildis": "B",
    "status": "Pending",
    "rowid": "1242838",
    "final_x": "3669312.65748",
    "final_y": "517527.298038",
    "longitude": "-90.10702654441026",
    "latitude": "29.91738466791682",
    "geocoded_column": {
      "latitude": "29.91738466791682",
      "longitude": "-90.10702654441026"
    }
  },
  {
    "service_request": "2025-1242837",
    "request_type": "Trash/Recycling",
    "request_reason": "Request a Large Item Pick Up",
    "date_created": "2025-11-29T22:08:51.000",
    "date_modified": "2025-11-29T22:08:53.000",
    "request_status": "Pending",
    "responsible_agency": "Department of Sanitation",
    "final_address": "825 Weiblen Pl",
    "address_councildis": "A",
    "status": "Assigned to Contractor",
    "contractor": "IV Waste",
    "rowid": "1242837",
    "final_x": "3668771.74612",
    "final_y": "542590.790285",
    "longitude": "-90.10788782630425",
    "latitude": "29.986316973061715",
    "geocoded_column": {
      "latitude": "29.986316973061715",
      "longitude": "-90.10788782630425"
    }
  },
  {
    "service_request": "2025-1242836",
    "request_type": "Property Maintenance",
    "request_reason": "Property Maintenance",
    "date_created": "2025-11-29T19:51:11.000",
    "date_modified": "2025-11-29T19:51:13.000",
    "request_status": "Pending",
    "responsible_agency": "Department of Code Enforcement",
    "final_address": "4609 Shalimar Dr",
    "address_councildis": "D",
    "status": "Pending",
    "rowid": "1242836",
    "final_x": "3697310.17731",
    "final_y": "553513.208151",
    "longitude": "-90.01735017263164",
    "latitude": "30.015479484466784",
    "geocoded_column": {
      "latitude": "30.015479484466784",
      "longitude": "-90.01735017263164"
    }
  },
  {
    "service_request": "2025-1242835",
    "request_type": "Trash/Recycling",
    "request_reason": "Order Second Trash Cart",
    "date_created": "2025-11-29T19:34:45.000",
    "date_modified": "2025-11-29T19:34:47.000",
    "request_status": "Pending",
    "responsible_agency": "Department of Sanitation",
    "final_address": "1510 Murl St",
    "address_councildis": "C",
    "status": "Assigned to Contractor",
    "contractor": "Richards Disposal",
    "rowid": "1242835",
    "final_x": "3695442.38659",
    "final_y": "525761.544445",
    "longitude": "-90.02425323916324",
    "latitude": "29.93923124402799",
    "geocoded_column": {
      "latitude": "29.93923124402799",
      "longitude": "-90.02425323916324"
    }
  },
  {
    "service_request": "2025-1242834",
    "request_type": "Property Maintenance",
    "request_reason": "Property Maintenance",
    "date_created": "2025-11-29T19:09:46.000",
    "date_modified": "2025-11-29T19:09:47.000",
    "request_status": "Pending",
    "responsible_agency": "Department of Code Enforcement",
    "final_address": "500 BLK S dOrgenois St",
    "address_councildis": "B",
    "status": "Pending",
    "rowid": "1242834",
    "final_x": "3674686.33169",
    "final_y": "533261.467385",
    "longitude": "-90.08952577095398",
    "latitude": "29.960489256118688",
    "geocoded_column": {
      "latitude": "29.960489256118688",
      "longitude": "-90.08952577095398"
    }
  },
  {
    "service_request": "2025-1242833",
    "request_type": "Property Maintenance",
    "request_reason": "Property Maintenance",
    "date_created": "2025-11-29T17:59:06.000",
    "date_modified": "2025-11-29T17:59:09.000",
    "request_status": "Pending",
    "responsible_agency": "Department of Code Enforcement",
    "final_address": "1919 Sophie Wright Pl Unit 6",
    "address_councildis": "B",
    "status": "Pending",
    "rowid": "1242833",
    "final_x": "3679465.3892",
    "final_y": "522982.118011",
    "longitude": "-90.07479100174558",
    "latitude": "29.932080969139108",
    "geocoded_column": {
      "latitude": "29.932080969139108",
      "longitude": "-90.07479100174558"
    }
  },
  {
    "service_request": "2025-1242832",
    "request_type": "Trash/Recycling",
    "request_reason": "Request a Large Item Pick Up",
    "date_created": "2025-11-29T17:37:04.000",
    "date_modified": "2025-11-29T17:37:05.000",
    "request_status": "Pending",
    "responsible_agency": "Department of Sanitation",
    "final_address": "722 General Taylor St",
    "address_councildis": "B",
    "status": "Assigned to Contractor",
    "contractor": "IV Waste",
    "rowid": "1242832",
    "final_x": "3673188.99803",
    "final_y": "518473.239094",
    "longitude": "-90.09475883286191",
    "latitude": "29.919871063388157",
    "geocoded_column": {
      "latitude": "29.919871063388157",
      "longitude": "-90.09475883286191"
    }
  },
  {
    "service_request": "2025-1242831",
    "request_type": "Streetlights",
    "request_reason": "Streetlight Outage/Malfunction",
    "date_created": "2025-11-29T17:37:02.000",
    "date_modified": "2025-11-29T17:37:04.000",
    "request_status": "Pending",
    "responsible_agency": "Department of Public Works",
    "final_address": "2121 Royal St",
    "address_councildis": "C",
    "status": "Pending",
    "rowid": "1242831",
    "final_x": "3684809.85167",
    "final_y": "534902.595334",
    "longitude": "-90.0575000923337",
    "latitude": "29.964695747592184",
    "geocoded_column": {
      "latitude": "29.964695747592184",
      "longitude": "-90.0575000923337"
    }
  },
  {
    "service_request": "2025-1242830",
    "request_type": "Trash/Recycling",
    "request_reason": "Request a Large Item Pick Up",
    "date_created": "2025-11-29T17:20:02.000",
    "date_modified": "2025-11-29T17:20:05.000",
    "request_status": "Pending",
    "responsible_agency": "Department of Sanitation",
    "final_address": "4850 Redwood St",
    "address_councildis": "E",
    "status": "Assigned to Contractor",
    "contractor": "Waste Pro",
    "rowid": "1242830",
    "final_x": "3712350.46424",
    "final_y": "556791.048538",
    "longitude": "-89.96970704724926",
    "latitude": "30.02400872498034",
    "geocoded_column": {
      "latitude": "30.02400872498034",
      "longitude": "-89.96970704724926"
    }
  },
  {
    "service_request": "2025-1242829",
    "request_type": "Abandoned Vehicles",
    "request_reason": "Abandoned/Junk Vehicles",
    "date_created": "2025-11-29T15:46:02.000",
    "date_modified": "2025-11-29T15:46:04.000",
    "request_status": "Pending",
    "responsible_agency": "Department of Public Works",
    "final_address": "318 Lake Marina Ave",
    "address_councildis": "A",
    "status": "Pending",
    "rowid": "1242829",
    "final_x": "3665352.0505",
    "final_y": "555356.038169",
    "longitude": "-90.11826180662696",
    "latitude": "30.02151711429282",
    "geocoded_column": {
      "latitude": "30.02151711429282",
      "longitude": "-90.11826180662696"
    }
  },
  {
    "service_request": "2025-1242828",
    "request_type": "Trash/Recycling",
    "request_reason": "Repair Trash Cart",
    "date_created": "2025-11-29T15:37:24.000",
    "date_modified": "2025-11-29T15:37:26.000",
    "request_status": "Pending",
    "responsible_agency": "Department of Sanitation",
    "final_address": "718 Arabella St",
    "address_councildis": "A",
    "status": "Assigned to Contractor",
    "contractor": "IV Waste",
    "rowid": "1242828",
    "final_x": "3665750.83392",
    "final_y": "518774.884855",
    "longitude": "-90.11822749230781",
    "latitude": "29.92091947738867",
    "geocoded_column": {
      "latitude": "29.92091947738867",
      "longitude": "-90.11822749230781"
    }
  },
  {
    "service_request": "2025-1242827",
    "request_type": "Property Maintenance",
    "request_reason": "Property Maintenance",
    "date_created": "2025-11-29T15:30:41.000",
    "date_modified": "2025-11-29T15:30:43.000",
    "request_status": "Pending",
    "responsible_agency": "Department of Code Enforcement",
    "final_address": "3628 Johnny Jackson Jr Blvd",
    "address_councildis": "D",
    "status": "Pending",
    "rowid": "1242827",
    "final_x": "3691839.63452",
    "final_y": "545801.448592",
    "longitude": "-90.03491060069447",
    "latitude": "29.994446603634767",
    "geocoded_column": {
      "latitude": "29.994446603634767",
      "longitude": "-90.03491060069447"
    }
  },
  {
    "service_request": "2025-1242826",
    "request_type": "Trash/Recycling",
    "request_reason": "Missed Trash Pick-Up",
    "date_created": "2025-11-29T14:56:36.000",
    "date_modified": "2025-11-29T14:56:38.000",
    "request_status": "Pending",
    "responsible_agency": "Department of Sanitation",
    "final_address": "6721 Coventry St",
    "address_councildis": "E",
    "status": "Assigned to Contractor",
    "contractor": "Waste Pro",
    "rowid": "1242826",
    "final_x": "3698053.65552",
    "final_y": "559567.239261",
    "longitude": "-90.01478102751648",
    "latitude": "30.032102261744388",
    "geocoded_column": {
      "latitude": "30.032102261744388",
      "longitude": "-90.01478102751648"
    }
  },
  {
    "service_request": "2025-1242825",
    "request_type": "Abandoned Vehicles",
    "request_reason": "Abandoned/Junk Vehicles",
    "date_created": "2025-11-29T14:15:17.000",
    "date_modified": "2025-11-29T14:15:19.000",
    "request_status": "Pending",
    "responsible_agency": "Department of Public Works",
    "final_address": "3729 Mimosa Ct",
    "address_councildis": "C",
    "status": "Pending",
    "rowid": "1242825",
    "final_x": "3703662.90244",
    "final_y": "513216.162354",
    "longitude": "-89.99876154605371",
    "latitude": "29.904474982159577",
    "geocoded_column": {
      "latitude": "29.904474982159577",
      "longitude": "-89.99876154605371"
    }
  },
  {
    "service_request": "2025-1242824",
    "request_type": "General Services",
    "request_reason": "General Service Request",
    "date_created": "2025-11-29T14:10:25.000",
    "date_modified": "2025-11-29T14:10:28.000",
    "request_status": "Pending",
    "responsible_agency": "Orleans Parish Communication District",
    "final_address": "2506 General Pershing St",
    "address_councildis": "B",
    "status": "Pending",
    "rowid": "1242824",
    "final_x": "3670885.21294",
    "final_y": "524149.353212",
    "longitude": "-90.10183821798768",
    "latitude": "29.935546833119076",
    "geocoded_column": {
      "latitude": "29.935546833119076",
      "longitude": "-90.10183821798768"
    }
  },
  {
    "service_request": "2025-1242823",
    "request_type": "Utility Poles",
    "request_reason": "Wires Sagging/Hanging Low",
    "date_created": "2025-11-29T13:33:08.000",
    "date_modified": "2025-11-29T13:33:11.000",
    "request_status": "Pending",
    "responsible_agency": "Utility Company Collective",
    "final_address": "3613 Franklin Ave",
    "address_councildis": "D",
    "status": "Pending",
    "rowid": "1242823",
    "final_x": "3687217.82902",
    "final_y": "546159.455888",
    "longitude": "-90.0494975898386",
    "latitude": "29.99557419115604",
    "geocoded_column": {
      "latitude": "29.99557419115604",
      "longitude": "-90.0494975898386"
    }
  },
  {
    "service_request": "2025-1242822",
    "request_type": "Trash/Recycling",
    "request_reason": "Replace Recycling Cart",
    "date_created": "2025-11-29T13:32:45.000",
    "date_modified": "2025-11-29T13:32:47.000",
    "request_status": "Pending",
    "responsible_agency": "Department of Sanitation",
    "final_address": "1535 Annunciation St",
    "address_councildis": "B",
    "status": "Pending",
    "rowid": "1242822",
    "final_x": "3680760.96853",
    "final_y": "523405.708987",
    "longitude": "-90.07068625480736",
    "latitude": "29.933206512920485",
    "geocoded_column": {
      "latitude": "29.933206512920485",
      "longitude": "-90.07068625480736"
    }
  },
  {
    "service_request": "2025-1242821",
    "request_type": "Trash/Recycling",
    "request_reason": "Missed Trash Pick-Up",
    "date_created": "2025-11-29T13:05:46.000",
    "date_modified": "2025-11-29T13:05:48.000",
    "request_status": "Pending",
    "responsible_agency": "Department of Sanitation",
    "final_address": "6911 Downman Rd",
    "address_councildis": "D",
    "status": "Assigned to Contractor",
    "contractor": "Waste Pro",
    "rowid": "1242821",
    "final_x": "3695552.84938",
    "final_y": "556050.317529",
    "longitude": "-90.02281080898757",
    "latitude": "30.022510956414845",
    "geocoded_column": {
      "latitude": "30.022510956414845",
      "longitude": "-90.02281080898757"
    }
  },
  {
    "service_request": "2025-1242820",
    "request_type": "Trash/Recycling",
    "request_reason": "Request a Large Item Pick Up",
    "date_created": "2025-11-29T12:38:23.000",
    "date_modified": "2025-11-29T12:38:25.000",
    "request_status": "Pending",
    "responsible_agency": "Department of Sanitation",
    "final_address": "617 David St",
    "address_councildis": "A",
    "status": "Assigned to Contractor",
    "contractor": "IV Waste",
    "rowid": "1242820",
    "final_x": "3672047.77876",
    "final_y": "540096.798859",
    "longitude": "-90.09762503075697",
    "latitude": "29.97936260530238",
    "geocoded_column": {
      "latitude": "29.97936260530238",
      "longitude": "-90.09762503075697"
    }
  },
  {
    "service_request": "2025-1242819",
    "request_type": "Trash/Recycling",
    "request_reason": "Request a Large Item Pick Up",
    "date_created": "2025-11-29T12:24:06.000",
    "date_modified": "2025-11-29T12:24:08.000",
    "request_status": "Pending",
    "responsible_agency": "Department of Sanitation",
    "final_address": "5472 Grand Bayou Dr",
    "address_councildis": "E",
    "status": "Assigned to Contractor",
    "contractor": "Waste Pro",
    "rowid": "1242819",
    "final_x": "3725513.15852",
    "final_y": "563428.62672",
    "longitude": "-89.92785880504294",
    "latitude": "30.04182206024453",
    "geocoded_column": {
      "latitude": "30.04182206024453",
      "longitude": "-89.92785880504294"
    }
  },
  {
    "service_request": "2025-1242818",
    "request_type": "Trash/Recycling",
    "request_reason": "Order Trash Cart",
    "date_created": "2025-11-29T12:06:32.000",
    "date_modified": "2025-11-29T12:06:34.000",
    "request_status": "Pending",
    "responsible_agency": "Department of Sanitation",
    "final_address": "1931 Iberville St",
    "address_councildis": "B",
    "status": "Assigned to Contractor",
    "contractor": "IV Waste",
    "rowid": "1242818",
    "final_x": "3677891.51528",
    "final_y": "533770.452677",
    "longitude": "-90.07938685575878",
    "latitude": "29.96179273748409",
    "geocoded_column": {
      "latitude": "29.96179273748409",
      "longitude": "-90.07938685575878"
    }
  },
  {
    "service_request": "2025-1242817",
    "request_type": "Trash/Recycling",
    "request_reason": "Request a Large Item Pick Up",
    "date_created": "2025-11-29T12:03:33.000",
    "date_modified": "2025-11-29T12:03:34.000",
    "request_status": "Pending",
    "responsible_agency": "Department of Sanitation",
    "final_address": "1300 General Pershing St",
    "address_councildis": "B",
    "status": "Assigned to Contractor",
    "contractor": "IV Waste",
    "rowid": "1242817",
    "final_x": "3671277.14043",
    "final_y": "520139.50316",
    "longitude": "-90.10073707260977",
    "latitude": "29.92450944513096",
    "geocoded_column": {
      "latitude": "29.92450944513096",
      "longitude": "-90.10073707260977"
    }
  },
  {
    "service_request": "2025-1242816",
    "request_type": "Trash/Recycling",
    "request_reason": "Missed Trash Pick-Up",
    "date_created": "2025-11-29T11:42:16.000",
    "date_modified": "2025-11-29T13:11:47.000",
    "request_status": "Pending",
    "responsible_agency": "Department of Sanitation",
    "final_address": "3129 Royal St, New Orleans, Louisiana, 70117",
    "address_councildis": "C",
    "status": "Assigned to Contractor",
    "contractor": "Sanitation Dept. ",
    "rowid": "1242816",
    "final_x": "3688862.76924",
    "final_y": "534478.333957",
    "longitude": "-90.04471636329471",
    "latitude": "29.963404470224724",
    "geocoded_column": {
      "latitude": "29.963404470224724",
      "longitude": "-90.04471636329471"
    }
  },
  {
    "service_request": "2025-1242815",
    "request_type": "Trash/Recycling",
    "request_reason": "Replace Recycling Cart",
    "date_created": "2025-11-29T11:34:10.000",
    "date_modified": "2025-11-29T11:34:11.000",
    "request_status": "Pending",
    "responsible_agency": "Department of Sanitation",
    "final_address": "4516 Perrier St",
    "address_councildis": "B",
    "status": "Pending",
    "rowid": "1242815",
    "final_x": "3670342.95393",
    "final_y": "519966.86732",
    "longitude": "-90.1036918374493",
    "latitude": "29.92406235044517",
    "geocoded_column": {
      "latitude": "29.92406235044517",
      "longitude": "-90.1036918374493"
    }
  },
  {
    "service_request": "2025-1242814",
    "request_type": "Roads and Streets",
    "request_reason": "Debris in Driving Lanes",
    "date_created": "2025-11-29T11:33:48.000",
    "date_modified": "2025-11-29T11:33:50.000",
    "request_status": "Pending",
    "responsible_agency": "Department of Public Works",
    "final_address": "2646 Piety St",
    "address_councildis": "D",
    "status": "Pending",
    "rowid": "1242814",
    "final_x": "3691313.58294",
    "final_y": "541826.631692",
    "longitude": "-90.03671440588731",
    "latitude": "29.983533671119613",
    "geocoded_column": {
      "latitude": "29.983533671119613",
      "longitude": "-90.03671440588731"
    }
  },
  {
    "service_request": "2025-1242813",
    "request_type": "Trash/Recycling",
    "request_reason": "Replace Recycling Cart",
    "date_created": "2025-11-29T11:01:20.000",
    "date_modified": "2025-11-29T11:01:24.000",
    "request_status": "Pending",
    "responsible_agency": "Department of Sanitation",
    "final_address": "2026 Gallier St",
    "address_councildis": "D",
    "status": "Pending",
    "rowid": "1242813",
    "final_x": "3691304.89443",
    "final_y": "539236.23393",
    "longitude": "-90.03683442471375",
    "latitude": "29.97641127244752",
    "geocoded_column": {
      "latitude": "29.97641127244752",
      "longitude": "-90.03683442471375"
    }
  },
  {
    "service_request": "2025-1242812",
    "request_type": "Abandoned Vehicles",
    "request_reason": "Abandoned/Junk Vehicles",
    "date_created": "2025-11-29T10:47:29.000",
    "date_modified": "2025-11-29T10:47:31.000",
    "request_status": "Pending",
    "responsible_agency": "Department of Public Works",
    "final_address": "2500 Marengo St",
    "address_councildis": "B",
    "status": "Pending",
    "rowid": "1242812",
    "final_x": "3671585.08071",
    "final_y": "524177.938748",
    "longitude": "-90.0996277525683",
    "latitude": "29.935604732926834",
    "geocoded_column": {
      "latitude": "29.935604732926834",
      "longitude": "-90.0996277525683"
    }
  },
  {
    "service_request": "2025-1242811",
    "request_type": "General Services",
    "request_reason": "General Service Request",
    "date_created": "2025-11-29T10:43:57.000",
    "date_modified": "2025-11-29T10:43:58.000",
    "request_status": "Pending",
    "responsible_agency": "Orleans Parish Communication District",
    "final_address": "8310 Aberdeen Rd",
    "address_councildis": "E",
    "status": "Pending",
    "rowid": "1242811",
    "final_x": "3703283.46954",
    "final_y": "561491.561183",
    "longitude": "-89.99818373962212",
    "latitude": "30.0372268828288",
    "geocoded_column": {
      "latitude": "30.0372268828288",
      "longitude": "-89.99818373962212"
    }
  },
  {
    "service_request": "2025-1242810",
    "request_type": "Property Maintenance",
    "request_reason": "Property Maintenance",
    "date_created": "2025-11-29T10:43:05.000",
    "date_modified": "2025-11-29T10:43:07.000",
    "request_status": "Pending",
    "responsible_agency": "Department of Code Enforcement",
    "final_address": "4788 Donna Dr",
    "address_councildis": "E",
    "status": "Pending",
    "rowid": "1242810",
    "final_x": "3710904.33195",
    "final_y": "556155.86153",
    "longitude": "-89.97430030871489",
    "latitude": "30.022309451603167",
    "geocoded_column": {
      "latitude": "30.022309451603167",
      "longitude": "-89.97430030871489"
    }
  },
  {
    "service_request": "2025-1242809",
    "request_type": "Streetlights",
    "request_reason": "Streetlight Outage/Malfunction",
    "date_created": "2025-11-29T10:39:05.000",
    "date_modified": "2025-11-29T10:39:07.000",
    "request_status": "Pending",
    "responsible_agency": "Department of Public Works",
    "final_address": "4209 Canal St",
    "address_councildis": "A",
    "status": "Pending",
    "rowid": "1242809",
    "final_x": "3670571.79899",
    "final_y": "538876.339017",
    "longitude": "-90.10232818232302",
    "latitude": "29.976050439032683",
    "geocoded_column": {
      "latitude": "29.976050439032683",
      "longitude": "-90.10232818232302"
    }
  },
  {
    "service_request": "2025-1242808",
    "request_type": "Trash/Recycling",
    "request_reason": "Request a Large Item Pick Up",
    "date_created": "2025-11-29T10:35:56.000",
    "date_modified": "2025-11-29T10:35:58.000",
    "request_status": "Pending",
    "responsible_agency": "Department of Sanitation",
    "final_address": "6920 Lake Willow Dr",
    "address_councildis": "E",
    "status": "Assigned to Contractor",
    "contractor": "Waste Pro",
    "rowid": "1242808",
    "final_x": "3702995.77655",
    "final_y": "558563.051228",
    "longitude": "-89.9992006637303",
    "latitude": "30.029183836552754",
    "geocoded_column": {
      "latitude": "30.029183836552754",
      "longitude": "-89.9992006637303"
    }
  },
  {
    "service_request": "2025-1242807",
    "request_type": "Trash/Recycling",
    "request_reason": "Request a Large Item Pick Up",
    "date_created": "2025-11-29T10:32:14.000",
    "date_modified": "2025-11-29T13:43:11.000",
    "request_status": "Pending",
    "responsible_agency": "Department of Sanitation",
    "final_address": "4956 Copernicus St",
    "address_councildis": "C",
    "status": "Assigned to Contractor",
    "contractor": "Richards Disposal",
    "rowid": "1242807",
    "final_x": "3702445.32164",
    "final_y": "522514.981114",
    "longitude": "-90.00226332185771",
    "latitude": "29.93008248156346",
    "geocoded_column": {
      "latitude": "29.93008248156346",
      "longitude": "-90.00226332185771"
    }
  },
  {
    "service_request": "2025-1242806",
    "request_type": "Trash/Recycling",
    "request_reason": "Repair Recycling Cart",
    "date_created": "2025-11-29T10:32:12.000",
    "date_modified": "2025-11-29T10:32:13.000",
    "request_status": "Pending",
    "responsible_agency": "Department of Sanitation",
    "final_address": "922 Mazant St",
    "address_councildis": "C",
    "status": "Pending",
    "rowid": "1242806",
    "final_x": "3691928.97283",
    "final_y": "534628.772614",
    "longitude": "-90.03502828420501",
    "latitude": "29.963722952043387",
    "geocoded_column": {
      "latitude": "29.963722952043387",
      "longitude": "-90.03502828420501"
    }
  },
  {
    "service_request": "2025-1242805",
    "request_type": "Traffic Signals",
    "request_reason": "Traffic Signal Malfunctioning or Damaged",
    "date_created": "2025-11-29T10:25:12.000",
    "date_modified": "2025-11-29T10:25:14.000",
    "request_status": "Pending",
    "responsible_agency": "Department of Public Works",
    "final_address": "8700 BLK Airline Hwy",
    "address_councildis": "A",
    "status": "Pending",
    "rowid": "1242805",
    "final_x": "3666332.77589",
    "final_y": "537123.806774",
    "longitude": "-90.11577511423475",
    "latitude": "29.9713561012189",
    "geocoded_column": {
      "latitude": "29.9713561012189",
      "longitude": "-90.11577511423475"
    }
  },
  {
    "service_request": "2025-1242804",
    "request_type": "Property Maintenance",
    "request_reason": "Property Maintenance",
    "date_created": "2025-11-29T10:22:31.000",
    "date_modified": "2025-11-29T10:22:32.000",
    "request_status": "Pending",
    "responsible_agency": "Department of Code Enforcement",
    "final_address": "8926 Peach St",
    "address_councildis": "A",
    "status": "Pending",
    "rowid": "1242804",
    "final_x": "3666405.53594",
    "final_y": "537729.343624",
    "longitude": "-90.11552500194306",
    "latitude": "29.97301899971755",
    "geocoded_column": {
      "latitude": "29.97301899971755",
      "longitude": "-90.11552500194306"
    }
  },
  {
    "service_request": "2025-1242803",
    "request_type": "Property Maintenance",
    "request_reason": "Property Maintenance",
    "date_created": "2025-11-29T10:21:07.000",
    "date_modified": "2025-11-29T10:21:09.000",
    "request_status": "Pending",
    "responsible_agency": "Department of Code Enforcement",
    "final_address": "4109 Hamilton St",
    "address_councildis": "A",
    "status": "Pending",
    "rowid": "1242803",
    "final_x": "3666386.51687",
    "final_y": "538409.189001",
    "longitude": "-90.11556224938447",
    "latitude": "29.97488890330526",
    "geocoded_column": {
      "latitude": "29.97488890330526",
      "longitude": "-90.11556224938447"
    }
  },
  {
    "service_request": "2025-1242802",
    "request_type": "Abandoned Vehicles",
    "request_reason": "Abandoned/Junk Vehicles",
    "date_created": "2025-11-29T10:19:24.000",
    "date_modified": "2025-11-29T10:19:26.000",
    "request_status": "Pending",
    "responsible_agency": "Department of Public Works",
    "final_address": "9020 Heaton St",
    "address_councildis": "A",
    "status": "Pending",
    "rowid": "1242802",
    "final_x": "3666859.04948",
    "final_y": "538742.792073",
    "longitude": "-90.11405865478307",
    "latitude": "29.9757923829185",
    "geocoded_column": {
      "latitude": "29.9757923829185",
      "longitude": "-90.11405865478307"
    }
  },
  {
    "service_request": "2025-1242801",
    "request_type": "Property Maintenance",
    "request_reason": "Property Maintenance",
    "date_created": "2025-11-29T10:17:03.000",
    "date_modified": "2025-11-29T10:17:04.000",
    "request_status": "Pending",
    "responsible_agency": "Department of Code Enforcement",
    "final_address": "4335 Hollygrove St",
    "address_councildis": "A",
    "status": "Pending",
    "rowid": "1242801",
    "final_x": "3667239.3785",
    "final_y": "538827.465737",
    "longitude": "-90.11285461567545",
    "latitude": "29.976014073657073",
    "geocoded_column": {
      "latitude": "29.976014073657073",
      "longitude": "-90.11285461567545"
    }
  },
  {
    "service_request": "2025-1242800",
    "request_type": "Abandoned Vehicles",
    "request_reason": "Abandoned/Junk Vehicles",
    "date_created": "2025-11-29T10:14:39.000",
    "date_modified": "2025-11-29T10:14:41.000",
    "request_status": "Pending",
    "responsible_agency": "Department of Public Works",
    "final_address": "4221 Hollygrove St",
    "address_councildis": "A",
    "status": "Pending",
    "rowid": "1242800",
    "final_x": "3666922.74381",
    "final_y": "538481.364361",
    "longitude": "-90.11386627654478",
    "latitude": "29.975071680492974",
    "geocoded_column": {
      "latitude": "29.975071680492974",
      "longitude": "-90.11386627654478"
    }
  },
  {
    "service_request": "2025-1242799",
    "request_type": "Abandoned Vehicles",
    "request_reason": "Abandoned/Junk Vehicles",
    "date_created": "2025-11-29T10:12:33.000",
    "date_modified": "2025-11-29T10:12:35.000",
    "request_status": "Pending",
    "responsible_agency": "Department of Public Works",
    "final_address": "4210 Hollygrove St",
    "address_councildis": "A",
    "status": "Pending",
    "rowid": "1242799",
    "final_x": "3666824.15393",
    "final_y": "538490.593609",
    "longitude": "-90.1141773399775",
    "latitude": "29.97509994254214",
    "geocoded_column": {
      "latitude": "29.97509994254214",
      "longitude": "-90.1141773399775"
    }
  },
  {
    "service_request": "2025-1242798",
    "request_type": "Abandoned Vehicles",
    "request_reason": "Abandoned/Junk Vehicles",
    "date_created": "2025-11-29T10:09:15.000",
    "date_modified": "2025-11-29T10:09:17.000",
    "request_status": "Pending",
    "responsible_agency": "Department of Public Works",
    "final_address": "4103 Hollygrove St",
    "address_councildis": "A",
    "status": "Pending",
    "rowid": "1242798",
    "final_x": "3666597.48065",
    "final_y": "538126.262729",
    "longitude": "-90.11490547134898",
    "latitude": "29.97410478401417",
    "geocoded_column": {
      "latitude": "29.97410478401417",
      "longitude": "-90.11490547134898"
    }
  },
  {
    "service_request": "2025-1242797",
    "request_type": "Trash/Recycling",
    "request_reason": "Replace Trash Cart",
    "date_created": "2025-11-29T09:50:23.000",
    "date_modified": "2025-11-29T09:50:24.000",
    "request_status": "Pending",
    "responsible_agency": "Department of Sanitation",
    "final_address": "4424 St Claude Ave",
    "address_councildis": "C",
    "status": "Assigned to Contractor",
    "contractor": "IV Waste",
    "rowid": "1242797",
    "final_x": "3693241.6975",
    "final_y": "534844.536454",
    "longitude": "-90.03087510366721",
    "latitude": "29.9642752630526",
    "geocoded_column": {
      "latitude": "29.9642752630526",
      "longitude": "-90.03087510366721"
    }
  },
  {
    "service_request": "2025-1242796",
    "request_type": "Trash/Recycling",
    "request_reason": "Repair Recycling Cart",
    "date_created": "2025-11-29T09:47:18.000",
    "date_modified": "2025-11-29T09:47:20.000",
    "request_status": "Pending",
    "responsible_agency": "Department of Sanitation",
    "final_address": "1406 Third St",
    "address_councildis": "B",
    "status": "Pending",
    "rowid": "1242796",
    "final_x": "3676879.67189",
    "final_y": "522106.179002",
    "longitude": "-90.0829840310538",
    "latitude": "29.929750261072115",
    "geocoded_column": {
      "latitude": "29.929750261072115",
      "longitude": "-90.0829840310538"
    }
  },
  {
    "service_request": "2025-1242795",
    "request_type": "Trash/Recycling",
    "request_reason": "Order Trash Cart",
    "date_created": "2025-11-29T09:41:49.000",
    "date_modified": "2025-11-29T09:41:51.000",
    "request_status": "Pending",
    "responsible_agency": "Department of Sanitation",
    "final_address": "3428 S Robertson St",
    "address_councildis": "B",
    "status": "Assigned to Contractor",
    "contractor": "IV Waste",
    "rowid": "1242795",
    "final_x": "3672541.20078",
    "final_y": "524645.348668",
    "longitude": "-90.09659333849103",
    "latitude": "29.93686161778688",
    "geocoded_column": {
      "latitude": "29.93686161778688",
      "longitude": "-90.09659333849103"
    }
  },
  {
    "service_request": "2025-1242794",
    "request_type": "Abandoned Vehicles",
    "request_reason": "Abandoned/Junk Vehicles",
    "date_created": "2025-11-29T09:38:06.000",
    "date_modified": "2025-11-29T09:38:08.000",
    "request_status": "Pending",
    "responsible_agency": "Department of Public Works",
    "final_address": "6901 Yorktown Dr",
    "address_councildis": "E",
    "status": "Pending",
    "rowid": "1242794",
    "final_x": "3706457.49284",
    "final_y": "560053.703901",
    "longitude": "-89.98820652994448",
    "latitude": "30.033171267135167",
    "geocoded_column": {
      "latitude": "30.033171267135167",
      "longitude": "-89.98820652994448"
    }
  },
  {
    "service_request": "2025-1242793",
    "request_type": "Abandoned Vehicles",
    "request_reason": "Abandoned/Junk Vehicles",
    "date_created": "2025-11-29T09:35:22.000",
    "date_modified": "2025-11-29T09:35:24.000",
    "request_status": "Pending",
    "responsible_agency": "Department of Public Works",
    "final_address": "6913 Yorktown Dr",
    "address_councildis": "E",
    "status": "Pending",
    "rowid": "1242793",
    "final_x": "3706424.63057",
    "final_y": "560117.522525",
    "longitude": "-89.98830800980392",
    "latitude": "30.033347803973584",
    "geocoded_column": {
      "latitude": "30.033347803973584",
      "longitude": "-89.98830800980392"
    }
  },
  {
    "service_request": "2025-1242792",
    "request_type": "Abandoned Vehicles",
    "request_reason": "Abandoned/Junk Vehicles",
    "date_created": "2025-11-29T09:32:28.000",
    "date_modified": "2025-11-29T09:32:29.000",
    "request_status": "Pending",
    "responsible_agency": "Department of Public Works",
    "final_address": "6941 Yorktown Dr",
    "address_councildis": "E",
    "status": "Pending",
    "rowid": "1242792",
    "final_x": "3706341.91601",
    "final_y": "560267.764125",
    "longitude": "-89.98856382224932",
    "latitude": "30.03376357875856",
    "geocoded_column": {
      "latitude": "30.03376357875856",
      "longitude": "-89.98856382224932"
    }
  },
  {
    "service_request": "2025-1242791",
    "request_type": "Property Maintenance",
    "request_reason": "Property Maintenance",
    "date_created": "2025-11-29T09:30:08.000",
    "date_modified": "2025-11-29T09:30:11.000",
    "request_status": "Pending",
    "responsible_agency": "Department of Code Enforcement",
    "final_address": "6951 Yorktown Dr",
    "address_councildis": "E",
    "status": "Pending",
    "rowid": "1242791",
    "final_x": "3706315.97771",
    "final_y": "560320.976413",
    "longitude": "-89.98864381626501",
    "latitude": "30.033910728630428",
    "geocoded_column": {
      "latitude": "30.033910728630428",
      "longitude": "-89.98864381626501"
    }
  },
  {
    "service_request": "2025-1242790",
    "request_type": "Abandoned Vehicles",
    "request_reason": "Abandoned/Junk Vehicles",
    "date_created": "2025-11-29T09:28:47.000",
    "date_modified": "2025-11-29T09:28:48.000",
    "request_status": "Pending",
    "responsible_agency": "Department of Public Works",
    "final_address": "6951 Yorktown Dr",
    "address_councildis": "E",
    "status": "Pending",
    "rowid": "1242790",
    "final_x": "3706315.97771",
    "final_y": "560320.976413",
    "longitude": "-89.98864381626501",
    "latitude": "30.033910728630428",
    "geocoded_column": {
      "latitude": "30.033910728630428",
      "longitude": "-89.98864381626501"
    }
  },
  {
    "service_request": "2025-1242789",
    "request_type": "Abandoned Vehicles",
    "request_reason": "Abandoned/Junk Vehicles",
    "date_created": "2025-11-29T09:24:04.000",
    "date_modified": "2025-11-29T09:24:06.000",
    "request_status": "Pending",
    "responsible_agency": "Department of Public Works",
    "final_address": "6961 Yorktown Dr",
    "address_councildis": "E",
    "status": "Pending",
    "rowid": "1242789",
    "final_x": "3706291.61105",
    "final_y": "560376.54243",
    "longitude": "-89.98871875669215",
    "latitude": "30.03406429956883",
    "geocoded_column": {
      "latitude": "30.03406429956883",
      "longitude": "-89.98871875669215"
    }
  },
  {
    "service_request": "2025-1242788",
    "request_type": "Property Maintenance",
    "request_reason": "Property Maintenance",
    "date_created": "2025-11-29T09:20:14.000",
    "date_modified": "2025-11-29T09:20:16.000",
    "request_status": "Pending",
    "responsible_agency": "Department of Code Enforcement",
    "final_address": "7070 Boston Dr",
    "address_councildis": "E",
    "status": "Pending",
    "rowid": "1242788",
    "final_x": "3706282.94391",
    "final_y": "560849.44547",
    "longitude": "-89.98872860910454",
    "latitude": "30.035364876495724",
    "geocoded_column": {
      "latitude": "30.035364876495724",
      "longitude": "-89.98872860910454"
    }
  },
  {
    "service_request": "2025-1242787",
    "request_type": "Abandoned Vehicles",
    "request_reason": "Abandoned/Junk Vehicles",
    "date_created": "2025-11-29T09:19:02.000",
    "date_modified": "2025-11-29T09:19:04.000",
    "request_status": "Pending",
    "responsible_agency": "Department of Public Works",
    "final_address": "8831 Middleboro Rd",
    "address_councildis": "E",
    "status": "Pending",
    "rowid": "1242787",
    "final_x": "3705974.07377",
    "final_y": "560818.115038",
    "longitude": "-89.98970584378415",
    "latitude": "30.035288692484748",
    "geocoded_column": {
      "latitude": "30.035288692484748",
      "longitude": "-89.98970584378415"
    }
  },
  {
    "service_request": "2025-1242786",
    "request_type": "Property Maintenance",
    "request_reason": "Property Maintenance",
    "date_created": "2025-11-29T09:17:25.000",
    "date_modified": "2025-11-29T09:17:27.000",
    "request_status": "Pending",
    "responsible_agency": "Department of Code Enforcement",
    "final_address": "7072 Boston Dr",
    "address_councildis": "E",
    "status": "Pending",
    "rowid": "1242786",
    "final_x": "3706271.03883",
    "final_y": "560866.900702",
    "longitude": "-89.98876558356966",
    "latitude": "30.035413255632495",
    "geocoded_column": {
      "latitude": "30.035413255632495",
      "longitude": "-89.98876558356966"
    }
  },
  {
    "service_request": "2025-1242785",
    "request_type": "Trash/Recycling",
    "request_reason": "Missed Trash Pick-Up",
    "date_created": "2025-11-29T09:11:10.000",
    "date_modified": "2025-11-29T10:26:53.000",
    "case_close_date": "2025-11-29T04:26:53.000",
    "request_status": "Closed",
    "responsible_agency": "Department of Sanitation",
    "final_address": "4919 Virgilian St",
    "address_councildis": "D",
    "status": "Invalid Request",
    "contractor": "Waste Pro",
    "contractor_action": "Invalid",
    "rowid": "1242785",
    "final_x": "3697471.43722",
    "final_y": "554689.511128",
    "longitude": "-90.0167979663185",
    "latitude": "30.01870877964808",
    "geocoded_column": {
      "latitude": "30.01870877964808",
      "longitude": "-90.0167979663185"
    }
  },
  {
    "service_request": "2025-1242784",
    "request_type": "Parks & Parkways",
    "request_reason": "Park Maintenance/Clean Up",
    "date_created": "2025-11-29T08:42:39.000",
    "date_modified": "2025-11-29T08:42:41.000",
    "request_status": "Pending",
    "responsible_agency": "Department of Parks & Parkway",
    "final_address": "35 Diagonal Dr",
    "address_councildis": "A",
    "status": "Pending",
    "rowid": "1242784",
    "final_x": "3673065.32462",
    "final_y": "546633.136209",
    "longitude": "-90.09418795884343",
    "latitude": "29.997305064459447",
    "geocoded_column": {
      "latitude": "29.997305064459447",
      "longitude": "-90.09418795884343"
    }
  },
  {
    "service_request": "2025-1242783",
    "request_type": "Trash/Recycling",
    "request_reason": "Missed Trash Pick-Up",
    "date_created": "2025-11-29T08:35:52.000",
    "date_modified": "2025-11-29T09:14:28.000",
    "case_close_date": "2025-11-29T03:14:17.000",
    "request_status": "Closed",
    "responsible_agency": "Department of Sanitation",
    "final_address": "2225 St Andrew St",
    "address_councildis": "B",
    "status": "Invalid Request",
    "contractor": "IV Waste",
    "contractor_action": "Invalid",
    "rowid": "1242783",
    "final_x": "3676663.98747",
    "final_y": "526127.85203",
    "longitude": "-90.08352643310593",
    "latitude": "29.940815014603846",
    "geocoded_column": {
      "latitude": "29.940815014603846",
      "longitude": "-90.08352643310593"
    }
  },
  {
    "service_request": "2025-1242782",
    "request_type": "Abandoned Vehicles",
    "request_reason": "Abandoned/Junk Vehicles",
    "date_created": "2025-11-29T08:31:46.000",
    "date_modified": "2025-11-29T08:31:48.000",
    "request_status": "Pending",
    "responsible_agency": "Department of Public Works",
    "final_address": "6913 Yorktown Dr",
    "address_councildis": "E",
    "status": "Pending",
    "rowid": "1242782",
    "final_x": "3706424.63057",
    "final_y": "560117.522525",
    "longitude": "-89.98830800980392",
    "latitude": "30.033347803973584",
    "geocoded_column": {
      "latitude": "30.033347803973584",
      "longitude": "-89.98830800980392"
    }
  },
  {
    "service_request": "2025-1242781",
    "request_type": "Abandoned Vehicles",
    "request_reason": "Abandoned/Junk Vehicles",
    "date_created": "2025-11-29T08:29:24.000",
    "date_modified": "2025-11-29T08:29:26.000",
    "request_status": "Pending",
    "responsible_agency": "Department of Public Works",
    "final_address": "6941 Yorktown Dr",
    "address_councildis": "E",
    "status": "Pending",
    "rowid": "1242781",
    "final_x": "3706341.91601",
    "final_y": "560267.764125",
    "longitude": "-89.98856382224932",
    "latitude": "30.03376357875856",
    "geocoded_column": {
      "latitude": "30.03376357875856",
      "longitude": "-89.98856382224932"
    }
  },
  {
    "service_request": "2025-1242780",
    "request_type": "General Services",
    "request_reason": "General Service Request",
    "date_created": "2025-11-29T08:25:43.000",
    "date_modified": "2025-11-29T08:25:45.000",
    "request_status": "Pending",
    "responsible_agency": "Orleans Parish Communication District",
    "final_address": "5727 Tchoupitoulas St",
    "address_councildis": "A",
    "status": "Pending",
    "rowid": "1242780",
    "final_x": "3665248.78023",
    "final_y": "517296.372725",
    "longitude": "-90.1198616791742",
    "latitude": "29.916868660597434",
    "geocoded_column": {
      "latitude": "29.916868660597434",
      "longitude": "-90.1198616791742"
    }
  },
  {
    "service_request": "2025-1242779",
    "request_type": "Abandoned Vehicles",
    "request_reason": "Abandoned/Junk Vehicles",
    "date_created": "2025-11-29T08:24:22.000",
    "date_modified": "2025-11-29T08:24:24.000",
    "request_status": "Pending",
    "responsible_agency": "Department of Public Works",
    "final_address": "7020 Yorktown Dr",
    "address_councildis": "E",
    "status": "Pending",
    "rowid": "1242779",
    "final_x": "3706147.81329",
    "final_y": "560502.181534",
    "longitude": "-89.98916851462484",
    "latitude": "30.034414396719963",
    "geocoded_column": {
      "latitude": "30.034414396719963",
      "longitude": "-89.98916851462484"
    }
  },
  {
    "service_request": "2025-1242778",
    "request_type": "Property Maintenance",
    "request_reason": "Property Maintenance",
    "date_created": "2025-11-29T08:22:51.000",
    "date_modified": "2025-11-29T08:22:53.000",
    "request_status": "Pending",
    "responsible_agency": "Department of Code Enforcement",
    "final_address": "1450 Josephine St",
    "address_councildis": "B",
    "status": "Pending",
    "rowid": "1242778",
    "final_x": "3678247.27253",
    "final_y": "523444.999739",
    "longitude": "-90.07862047326248",
    "latitude": "29.933390474531205",
    "geocoded_column": {
      "latitude": "29.933390474531205",
      "longitude": "-90.07862047326248"
    }
  },
  {
    "service_request": "2025-1242777",
    "request_type": "Property Maintenance",
    "request_reason": "Property Maintenance",
    "date_created": "2025-11-29T08:21:52.000",
    "date_modified": "2025-11-29T08:21:54.000",
    "request_status": "Pending",
    "responsible_agency": "Department of Code Enforcement",
    "final_address": "7071 Yorktown Dr",
    "address_councildis": "E",
    "status": "Pending",
    "rowid": "1242777",
    "final_x": "3706121.88004",
    "final_y": "560767.23619",
    "longitude": "-89.98924064131506",
    "latitude": "30.03514402921631",
    "geocoded_column": {
      "latitude": "30.03514402921631",
      "longitude": "-89.98924064131506"
    }
  },
  {
    "service_request": "2025-1242776",
    "request_type": "Trash/Recycling",
    "request_reason": "Order Recycling Cart",
    "date_created": "2025-11-29T08:19:08.000",
    "date_modified": "2025-11-29T08:19:10.000",
    "request_status": "Pending",
    "responsible_agency": "Department of Sanitation",
    "final_address": "1738 Philip St",
    "address_councildis": "B",
    "status": "Pending",
    "rowid": "1242776",
    "final_x": "3676751.5796",
    "final_y": "523878.61766",
    "longitude": "-90.0833273570193",
    "latitude": "29.934627731542204",
    "geocoded_column": {
      "latitude": "29.934627731542204",
      "longitude": "-90.0833273570193"
    }
  },
  {
    "service_request": "2025-1242775",
    "request_type": "Property Maintenance",
    "request_reason": "Property Maintenance",
    "date_created": "2025-11-29T08:17:57.000",
    "date_modified": "2025-11-29T08:18:00.000",
    "request_status": "Pending",
    "responsible_agency": "Department of Code Enforcement",
    "final_address": "7070 Boston Dr",
    "address_councildis": "E",
    "status": "Pending",
    "rowid": "1242775",
    "final_x": "3706282.94391",
    "final_y": "560849.44547",
    "longitude": "-89.98872860910454",
    "latitude": "30.035364876495724",
    "geocoded_column": {
      "latitude": "30.035364876495724",
      "longitude": "-89.98872860910454"
    }
  },
  {
    "service_request": "2025-1242774",
    "request_type": "Trash/Recycling",
    "request_reason": "Missed Trash Pick-Up",
    "date_created": "2025-11-29T08:15:31.000",
    "date_modified": "2025-11-29T08:26:44.000",
    "case_close_date": "2025-11-29T02:26:43.000",
    "request_status": "Closed",
    "responsible_agency": "Department of Sanitation",
    "final_address": "1020 Toledano St",
    "address_councildis": "B",
    "status": "Invalid Request",
    "contractor": "IV Waste",
    "contractor_action": "Invalid",
    "rowid": "1242774",
    "final_x": "3675446.386",
    "final_y": "519593.525112",
    "longitude": "-90.08759490515976",
    "latitude": "29.92288420247195",
    "geocoded_column": {
      "latitude": "29.92288420247195",
      "longitude": "-90.08759490515976"
    }
  },
  {
    "service_request": "2025-1242773",
    "request_type": "Abandoned Vehicles",
    "request_reason": "Abandoned/Junk Vehicles",
    "date_created": "2025-11-29T08:15:18.000",
    "date_modified": "2025-11-29T08:15:19.000",
    "request_status": "Pending",
    "responsible_agency": "Department of Public Works",
    "final_address": "6900 Boston Dr",
    "address_councildis": "E",
    "status": "Pending",
    "rowid": "1242773",
    "final_x": "3706636.51639",
    "final_y": "560143.482781",
    "longitude": "-89.98763747063104",
    "latitude": "30.03341234394533",
    "geocoded_column": {
      "latitude": "30.03341234394533",
      "longitude": "-89.98763747063104"
    }
  },
  {
    "service_request": "2025-1242772",
    "request_type": "Abandoned Vehicles",
    "request_reason": "Abandoned/Junk Vehicles",
    "date_created": "2025-11-29T08:11:12.000",
    "date_modified": "2025-11-29T08:11:14.000",
    "request_status": "Pending",
    "responsible_agency": "Department of Public Works",
    "final_address": "6900 Boston Dr",
    "address_councildis": "E",
    "status": "Pending",
    "rowid": "1242772",
    "final_x": "3706636.51639",
    "final_y": "560143.482781",
    "longitude": "-89.98763747063104",
    "latitude": "30.03341234394533",
    "geocoded_column": {
      "latitude": "30.03341234394533",
      "longitude": "-89.98763747063104"
    }
  },