[
  {
    "service_request": "2026-1285857",
    "request_type": "Trash/Recycling",
    "request_reason": "Order Trash Cart",
    "date_created": "2026-05-30T23:56:25.000",
    "date_modified": "2026-05-30T23:56:28.000",
    "request_status": "Pending",
    "responsible_agency": "Department of Sanitation",
    "final_address": "2207 Jefferson Ave",
    "address_councildis": "B",
    "status": "Assigned to Contractor",
    "contractor": "IV Waste",
    "rowid": "1285857",
    "final_x": "3667911.39834",
    "final_y": "523708.361275",
    "longitude": "-90.11124145719772",
    "latitude": "29.934421794240592",
    "geocoded_column": {
      "latitude": "29.934421794240592",
      "longitude": "-90.11124145719772"
    }
  },
  {
    "service_request": "2026-1285856",
    "request_type": "Streetlights",
    "request_reason": "Streetlight Outage/Malfunction",
    "date_created": "2026-05-30T22:49:51.000",
    "date_modified": "2026-05-30T22:49:52.000",
    "request_status": "Pending",
    "responsible_agency": "Department of Public Works",
    "final_address": "2409 Burgundy St",
    "address_councildis": "C",
    "status": "Pending",
    "rowid": "1285856",
    "final_x": "3685929.94863",
    "final_y": "535683.361799",
    "longitude": "-90.05393538073409",
    "latitude": "29.966808244198667",
    "geocoded_column": {
      "latitude": "29.966808244198667",
      "longitude": "-90.05393538073409"
    }
  },
  {
    "service_request": "2026-1285855",
    "request_type": "Streetlights",
    "request_reason": "Streetlight Outage/Malfunction",
    "date_created": "2026-05-30T22:48:34.000",
    "date_modified": "2026-05-30T22:48:36.000",
    "request_status": "Pending",
    "responsible_agency": "Department of Public Works",
    "final_address": "2409 Burgundy St",
    "address_councildis": "C",
    "status": "Pending",
    "rowid": "1285855",
    "final_x": "3685929.94863",
    "final_y": "535683.361799",
    "longitude": "-90.05393538073409",
    "latitude": "29.966808244198667",
    "geocoded_column": {
      "latitude": "29.966808244198667",
      "longitude": "-90.05393538073409"
    }
  },
  {
    "service_request": "2026-1285854",
    "request_type": "Health Related Request",
    "request_reason": "Noise Ordinance Complaint",
    "date_created": "2026-05-30T22:43:50.000",
    "date_modified": "2026-05-30T22:43:52.000",
    "request_status": "Pending",
    "responsible_agency": "Health Department",
    "final_address": "800 Bourbon St, New Orleans, Louisiana, 70116",
    "address_councildis": "C",
    "status": "Pending",
    "rowid": "1285854",
    "final_x": "3682553.51528",
    "final_y": "533013.631428",
    "longitude": "-90.06469148499534",
    "latitude": "29.95957063099051",
    "geocoded_column": {
      "latitude": "29.95957063099051",
      "longitude": "-90.06469148499534"
    }
  },
  {
    "service_request": "2026-1285853",
    "request_type": "Abandoned Vehicles",
    "request_reason": "Abandoned/Junk Vehicles",
    "date_created": "2026-05-30T22:39:02.000",
    "date_modified": "2026-05-30T22:39:04.000",
    "request_status": "Pending",
    "responsible_agency": "Department of Public Works",
    "final_address": "1659 Abundance St",
    "address_councildis": "D",
    "status": "Pending",
    "rowid": "1285853",
    "final_x": "3680385.93307",
    "final_y": "543379.562382",
    "longitude": "-90.07117564545804",
    "latitude": "29.988139171719293",
    "geocoded_column": {
      "latitude": "29.988139171719293",
      "longitude": "-90.07117564545804"
    }
  },
  {
    "service_request": "2026-1285852",
    "request_type": "Roads and Streets",
    "request_reason": "Debris in Driving Lanes",
    "date_created": "2026-05-30T22:35:12.000",
    "date_modified": "2026-05-30T22:35:14.000",
    "request_status": "Pending",
    "responsible_agency": "Department of Public Works",
    "final_address": "1526 Henry Clay Ave",
    "address_councildis": "A",
    "status": "Pending",
    "rowid": "1285852",
    "final_x": "3664776.96359",
    "final_y": "522348.279482",
    "longitude": "-90.12118224858517",
    "latitude": "29.930773550247995",
    "geocoded_column": {
      "latitude": "29.930773550247995",
      "longitude": "-90.12118224858517"
    }
  },
  {
    "service_request": "2026-1285851",
    "request_type": "Trash/Recycling",
    "request_reason": "Request a Large Item Pick Up",
    "date_created": "2026-05-30T22:02:55.000",
    "date_modified": "2026-05-30T22:02:58.000",
    "request_status": "Pending",
    "responsible_agency": "Department of Sanitation",
    "final_address": "5624 Hawthorne Pl",
    "address_councildis": "A",
    "status": "Assigned to Contractor",
    "contractor": "IV Waste",
    "rowid": "1285851",
    "final_x": "3667757.44481",
    "final_y": "544857.784591",
    "longitude": "-90.11101524004481",
    "latitude": "29.992580222102728",
    "geocoded_column": {
      "latitude": "29.992580222102728",
      "longitude": "-90.11101524004481"
    }
  },
  {
    "service_request": "2026-1285850",
    "request_type": "Street and Traffic Signs",
    "request_reason": "Stop Sign Missing or Damaged",
    "date_created": "2026-05-30T21:33:57.000",
    "date_modified": "2026-05-30T21:33:59.000",
    "request_status": "Pending",
    "responsible_agency": "Department of Public Works",
    "final_address": "MAGAZINE ST & LAFAYETTE ST",
    "address_councildis": "B",
    "status": "Pending",
    "rowid": "1285850",
    "final_x": "3681404.3",
    "final_y": "528742.68",
    "longitude": "-90.06846931478425",
    "latitude": "29.947861895609325",
    "geocoded_column": {
      "latitude": "29.947861895609325",
      "longitude": "-90.06846931478425"
    }
  },
  {
    "service_request": "2026-1285849",
    "request_type": "Trash/Recycling",
    "request_reason": "Request a Large Item Pick Up",
    "date_created": "2026-05-30T21:03:28.000",
    "date_modified": "2026-05-30T21:03:30.000",
    "request_status": "Pending",
    "responsible_agency": "Department of Sanitation",
    "final_address": "2049 Chippewa St",
    "address_councildis": "B",
    "status": "Assigned to Contractor",
    "contractor": "IV Waste",
    "rowid": "1285849",
    "final_x": "3680162.76367",
    "final_y": "521278.308281",
    "longitude": "-90.07264863997659",
    "latitude": "29.927374971874773",
    "geocoded_column": {
      "latitude": "29.927374971874773",
      "longitude": "-90.07264863997659"
    }
  },
  {
    "service_request": "2026-1285848",
    "request_type": "Health Related Request",
    "request_reason": "Noise Ordinance Complaint",
    "date_created": "2026-05-30T20:26:56.000",
    "date_modified": "2026-05-30T20:26:58.000",
    "request_status": "Pending",
    "responsible_agency": "Health Department",
    "final_address": "800 Bourbon St, New Orleans, Louisiana, 70116",
    "address_councildis": "C",
    "status": "Pending",
    "rowid": "1285848",
    "final_x": "3682553.51528",
    "final_y": "533013.631428",
    "longitude": "-90.06469148499534",
    "latitude": "29.95957063099051",
    "geocoded_column": {
      "latitude": "29.95957063099051",
      "longitude": "-90.06469148499534"
    }
  },
  {
    "service_request": "2026-1285847",
    "request_type": "Trash/Recycling",
    "request_reason": "Replace Recycling Cart",
    "date_created": "2026-05-30T20:25:52.000",
    "date_modified": "2026-05-30T20:25:53.000",
    "request_status": "Pending",
    "responsible_agency": "Department of Sanitation",
    "final_address": "1333 Coliseum St",
    "address_councildis": "B",
    "status": "Pending",
    "rowid": "1285847",
    "final_x": "3679981.79944",
    "final_y": "525096.268989",
    "longitude": "-90.07308734169115",
    "latitude": "29.937878580071118",
    "geocoded_column": {
      "latitude": "29.937878580071118",
      "longitude": "-90.07308734169115"
    }
  },
  {
    "service_request": "2026-1285846",
    "request_type": "Trash/Recycling",
    "request_reason": "Request a Large Item Pick Up",
    "date_created": "2026-05-30T20:24:00.000",
    "date_modified": "2026-05-30T20:24:02.000",
    "request_status": "Pending",
    "responsible_agency": "Department of Sanitation",
    "final_address": "5443 Vermillion Blvd",
    "address_councildis": "D",
    "status": "Assigned to Contractor",
    "contractor": "IV Waste",
    "rowid": "1285846",
    "final_x": "3683328.15957",
    "final_y": "552921.667735",
    "longitude": "-90.06154759300553",
    "latitude": "30.014287094170292",
    "geocoded_column": {
      "latitude": "30.014287094170292",
      "longitude": "-90.06154759300553"
    }
  },
  {
    "service_request": "2026-1285845",
    "request_type": "Drainage",
    "request_reason": "Catch Basin Not Draining",
    "date_created": "2026-05-30T19:57:42.000",
    "date_modified": "2026-05-30T19:57:44.000",
    "request_status": "Pending",
    "responsible_agency": "Sewerage & Water Board",
    "final_address": "8013 Willow St",
    "address_councildis": "A",
    "status": "Pending",
    "rowid": "1285845",
    "final_x": "3662683.16608",
    "final_y": "528723.705536",
    "longitude": "-90.12758031500779",
    "latitude": "29.948364684564144",
    "geocoded_column": {
      "latitude": "29.948364684564144",
      "longitude": "-90.12758031500779"
    }
  },
  {
    "service_request": "2026-1285844",
    "request_type": "Street and Traffic Signs",
    "request_reason": "Stop Sign Missing or Damaged",
    "date_created": "2026-05-30T19:37:30.000",
    "date_modified": "2026-05-30T19:37:32.000",
    "request_status": "Pending",
    "responsible_agency": "Department of Public Works",
    "final_address": "1700 BLK Mardi Gras Blvd",
    "address_councildis": "C",
    "status": "Pending",
    "rowid": "1285844",
    "final_x": "3690559.59588",
    "final_y": "525287.889173",
    "longitude": "-90.0396856507573",
    "latitude": "29.93808133764293",
    "geocoded_column": {
      "latitude": "29.93808133764293",
      "longitude": "-90.0396856507573"
    }
  },
  {
    "service_request": "2026-1285843",
    "request_type": "Trash/Recycling",
    "request_reason": "Request a Large Item Pick Up",
    "date_created": "2026-05-30T19:25:34.000",
    "date_modified": "2026-05-30T19:25:36.000",
    "request_status": "Pending",
    "responsible_agency": "Department of Sanitation",
    "final_address": "131 26Th St",
    "address_councildis": "A",
    "status": "Assigned to Contractor",
    "contractor": "IV Waste",
    "rowid": "1285843",
    "final_x": "3665942.33901",
    "final_y": "549938.744404",
    "longitude": "-90.11657841245038",
    "latitude": "30.006604228864163",
    "geocoded_column": {
      "latitude": "30.006604228864163",
      "longitude": "-90.11657841245038"
    }
  },
  {
    "service_request": "2026-1285842",
    "request_type": "Trash/Recycling",
    "request_reason": "Order Second Trash Cart",
    "date_created": "2026-05-30T19:21:43.000",
    "date_modified": "2026-05-30T19:21:45.000",
    "request_status": "Pending",
    "responsible_agency": "Department of Sanitation",
    "final_address": "2501 Amelia St",
    "address_councildis": "B",
    "status": "Assigned to Contractor",
    "contractor": "IV Waste",
    "rowid": "1285842",
    "final_x": "3672390.71553",
    "final_y": "524322.746748",
    "longitude": "-90.09707941732725",
    "latitude": "29.93597903240438",
    "geocoded_column": {
      "latitude": "29.93597903240438",
      "longitude": "-90.09707941732725"
    }
  },
  {
    "service_request": "2026-1285841",
    "request_type": "Trash/Recycling",
    "request_reason": "Repair Recycling Cart",
    "date_created": "2026-05-30T19:05:06.000",
    "date_modified": "2026-05-30T19:05:08.000",
    "request_status": "Pending",
    "responsible_agency": "Department of Sanitation",
    "final_address": "826 Frenchmen St",
    "address_councildis": "C",
    "status": "Pending",
    "rowid": "1285841",
    "final_x": "3684631.30095",
    "final_y": "535406.803654",
    "longitude": "-90.05804622093298",
    "latitude": "29.96608761154468",
    "geocoded_column": {
      "latitude": "29.96608761154468",
      "longitude": "-90.05804622093298"
    }
  },
  {
    "service_request": "2026-1285840",
    "request_type": "Abandoned Vehicles",
    "request_reason": "Abandoned/Junk Vehicles",
    "date_created": "2026-05-30T18:55:54.000",
    "date_modified": "2026-05-30T18:55:55.000",
    "request_status": "Pending",
    "responsible_agency": "Department of Public Works",
    "final_address": "3148 Maurepas St",
    "address_councildis": "A",
    "status": "Pending",
    "rowid": "1285840",
    "final_x": "3676189.96117",
    "final_y": "540720.699275",
    "longitude": "-90.08452089349295",
    "latitude": "29.980954637882682",
    "geocoded_column": {
      "latitude": "29.980954637882682",
      "longitude": "-90.08452089349295"
    }
  },
  {
    "service_request": "2026-1285839",
    "request_type": "Abandoned Vehicles",
    "request_reason": "Abandoned/Junk Vehicles",
    "date_created": "2026-05-30T18:54:09.000",
    "date_modified": "2026-05-30T18:54:10.000",
    "request_status": "Pending",
    "responsible_agency": "Department of Public Works",
    "final_address": "10 N Derbigny St",
    "address_councildis": "D",
    "status": "Pending",
    "rowid": "1285839",
    "final_x": "3687885.255",
    "final_y": "538782.651593",
    "longitude": "-90.04765072335714",
    "latitude": "29.97527002902862",
    "geocoded_column": {
      "latitude": "29.97527002902862",
      "longitude": "-90.04765072335714"
    }
  },
  {
    "service_request": "2026-1285838",
    "request_type": "Trash/Recycling",
    "request_reason": "Order Second Trash Cart",
    "date_created": "2026-05-30T18:33:17.000",
    "date_modified": "2026-05-30T18:33:19.000",
    "request_status": "Pending",
    "responsible_agency": "Department of Sanitation",
    "final_address": "4930 S Johnson St",
    "address_councildis": "B",
    "status": "Assigned to Contractor",
    "contractor": "IV Waste",
    "rowid": "1285838",
    "final_x": "3668951.87111",
    "final_y": "526957.405374",
    "longitude": "-90.10784700131288",
    "latitude": "29.943325063246196",
    "geocoded_column": {
      "latitude": "29.943325063246196",
      "longitude": "-90.10784700131288"
    }
  },
  {
    "service_request": "2026-1285837",
    "request_type": "Abandoned Vehicles",
    "request_reason": "Abandoned/Junk Vehicles",
    "date_created": "2026-05-30T18:27:36.000",
    "date_modified": "2026-05-30T18:27:39.000",
    "request_status": "Pending",
    "responsible_agency": "Department of Public Works",
    "final_address": "3450 Laurel St",
    "address_councildis": "B",
    "status": "Pending",
    "rowid": "1285837",
    "final_x": "3674918.57992",
    "final_y": "518732.540215",
    "longitude": "-90.08929049157825",
    "latitude": "29.920532538207638",
    "geocoded_column": {
      "latitude": "29.920532538207638",
      "longitude": "-90.08929049157825"
    }
  },
  {
    "service_request": "2026-1285836",
    "request_type": "Trash/Recycling",
    "request_reason": "Missed Trash Pick-Up",
    "date_created": "2026-05-30T17:57:02.000",
    "date_modified": "2026-05-30T17:57:05.000",
    "request_status": "Pending",
    "responsible_agency": "Department of Sanitation",
    "final_address": "2428 Ursulines Ave, New Orleans, Louisiana, 70119",
    "address_councildis": "C",
    "status": "Assigned to Contractor",
    "contractor": "IV Waste",
    "rowid": "1285836",
    "final_x": "3678485.03355",
    "final_y": "537415.26132",
    "longitude": "-90.07738646298472",
    "latitude": "29.971796845754305",
    "geocoded_column": {
      "latitude": "29.971796845754305",
      "longitude": "-90.07738646298472"
    }
  },
  {
    "service_request": "2026-1285835",
    "request_type": "Abandoned Vehicles",
    "request_reason": "Abandoned/Junk Vehicles",
    "date_created": "2026-05-30T17:50:14.000",
    "date_modified": "2026-05-30T17:50:15.000",
    "request_status": "Pending",
    "responsible_agency": "Department of Public Works",
    "final_address": "1628 Dufossat St",
    "address_councildis": "B",
    "status": "Pending",
    "rowid": "1285835",
    "final_x": "3668058.9177",
    "final_y": "521478.991097",
    "longitude": "-90.11085082923725",
    "latitude": "29.92828741041209",
    "geocoded_column": {
      "latitude": "29.92828741041209",
      "longitude": "-90.11085082923725"
    }
  },
  {
    "service_request": "2026-1285834",
    "request_type": "Trash/Recycling",
    "request_reason": "Illegal Dumping",
    "date_created": "2026-05-30T17:49:47.000",
    "date_modified": "2026-05-30T17:49:49.000",
    "request_status": "Pending",
    "responsible_agency": "Department of Sanitation",
    "final_address": "1117 N Dorgenois St",
    "address_councildis": "C",
    "status": "Pending",
    "rowid": "1285834",
    "final_x": "3678124.44712",
    "final_y": "537974.154569",
    "longitude": "-90.07850592189534",
    "latitude": "29.97334447323052",
    "geocoded_column": {
      "latitude": "29.97334447323052",
      "longitude": "-90.07850592189534"
    }
  },
  {
    "service_request": "2026-1285833",
    "request_type": "Tree Service",
    "request_reason": "Tree Trim",
    "date_created": "2026-05-30T17:47:25.000",
    "date_modified": "2026-05-30T17:47:27.000",
    "request_status": "Pending",
    "responsible_agency": "Department of Parks & Parkways",
    "final_address": "438 Audubon Blvd",
    "address_councildis": "B",
    "status": "Pending",
    "rowid": "1285833",
    "final_x": "3667448.83239",
    "final_y": "530593.17485",
    "longitude": "-90.11247018775092",
    "latitude": "29.953366364044836",
    "geocoded_column": {
      "latitude": "29.953366364044836",
      "longitude": "-90.11247018775092"
    }
  },
  {
    "service_request": "2026-1285832",
    "request_type": "Trash/Recycling",
    "request_reason": "Replace Trash Cart",
    "date_created": "2026-05-30T17:43:18.000",
    "date_modified": "2026-05-30T17:43:21.000",
    "request_status": "Pending",
    "responsible_agency": "Department of Sanitation",
    "final_address": "2715 Annette St",
    "address_councildis": "D",
    "status": "Assigned to Contractor",
    "contractor": "IV Waste",
    "rowid": "1285832",
    "final_x": "3682690.67279",
    "final_y": "542195.400717",
    "longitude": "-90.06393717076656",
    "latitude": "29.98481313771732",
    "geocoded_column": {
      "latitude": "29.98481313771732",
      "longitude": "-90.06393717076656"
    }
  },
  {
    "service_request": "2026-1285831",
    "request_type": "Homeless Related Request",
    "request_reason": "Homeless Encampment Complaint",
    "date_created": "2026-05-30T16:40:20.000",
    "date_modified": "2026-05-30T16:40:22.000",
    "request_status": "Pending",
    "responsible_agency": "Office Of Homeless Services And Strategy",
    "final_address": "1 Columbus St",
    "address_councildis": "C",
    "status": "Pending",
    "rowid": "1285831",
    "final_x": "3683104.72751",
    "final_y": "535949.085191",
    "longitude": "-90.0628481081037",
    "latitude": "29.967625328022276",
    "geocoded_column": {
      "latitude": "29.967625328022276",
      "longitude": "-90.0628481081037"
    }
  },
  {
    "service_request": "2026-1285830",
    "request_type": "Roads and Streets",
    "request_reason": "Sidewalk Damaged or Missing",
    "date_created": "2026-05-30T16:12:59.000",
    "date_modified": "2026-05-30T16:13:01.000",
    "request_status": "Pending",
    "responsible_agency": "Department of Public Works",
    "final_address": "4710 Banks St",
    "address_councildis": "A",
    "status": "Pending",
    "rowid": "1285830",
    "final_x": "3668261.39885",
    "final_y": "538904.025546",
    "longitude": "-90.10962418693082",
    "latitude": "29.976194615218084",
    "geocoded_column": {
      "latitude": "29.976194615218084",
      "longitude": "-90.10962418693082"
    }
  },
  {
    "service_request": "2026-1285829",
    "request_type": "Property Maintenance",
    "request_reason": "Property Maintenance",
    "date_created": "2026-05-30T16:12:42.000",
    "date_modified": "2026-05-30T16:12:45.000",
    "request_status": "Pending",
    "responsible_agency": "Department of Code Enforcement",
    "final_address": "5237 Laurel St",
    "address_councildis": "B",
    "status": "Pending",
    "rowid": "1285829",
    "final_x": "3667706.34509",
    "final_y": "517911.862902",
    "longitude": "-90.11208384420443",
    "latitude": "29.9184892729979",
    "geocoded_column": {
      "latitude": "29.9184892729979",
      "longitude": "-90.11208384420443"
    }
  },
  {
    "service_request": "2026-1285828",
    "request_type": "Trash/Recycling",
    "request_reason": "Request a Large Item Pick Up",
    "date_created": "2026-05-30T16:10:20.000",
    "date_modified": "2026-05-30T16:10:21.000",
    "request_status": "Pending",
    "responsible_agency": "Department of Sanitation",
    "final_address": "5835 Pratt Dr",
    "address_councildis": "D",
    "status": "Assigned to Contractor",
    "contractor": "IV Waste",
    "rowid": "1285828",
    "final_x": "3680337.97781",
    "final_y": "554191.72668",
    "longitude": "-90.07095086383612",
    "latitude": "30.01787021274299",
    "geocoded_column": {
      "latitude": "30.01787021274299",
      "longitude": "-90.07095086383612"
    }
  },
  {
    "service_request": "2026-1285827",
    "request_type": "Trash/Recycling",
    "request_reason": "Request a Large Item Pick Up",
    "date_created": "2026-05-30T16:03:17.000",
    "date_modified": "2026-05-30T16:03:18.000",
    "request_status": "Pending",
    "responsible_agency": "Department of Sanitation",
    "final_address": "8633 Nelson St",
    "address_councildis": "A",
    "status": "Assigned to Contractor",
    "contractor": "IV Waste",
    "rowid": "1285827",
    "final_x": "3663632.9673",
    "final_y": "533260.259396",
    "longitude": "-90.12443026397565",
    "latitude": "29.96081122118298",
    "geocoded_column": {
      "latitude": "29.96081122118298",
      "longitude": "-90.12443026397565"
    }
  },
  {
    "service_request": "2026-1285826",
    "request_type": "Trash/Recycling",
    "request_reason": "Replace Trash Cart",
    "date_created": "2026-05-30T15:52:37.000",
    "date_modified": "2026-05-30T15:52:38.000",
    "request_status": "Pending",
    "responsible_agency": "Department of Sanitation",
    "final_address": "10730 Dwyer Rd",
    "address_councildis": "E",
    "status": "Assigned to Contractor",
    "contractor": "Waste Pro",
    "rowid": "1285826",
    "final_x": "3715140.16171",
    "final_y": "558244.70582",
    "longitude": "-89.96083721734513",
    "latitude": "30.027914124099937",
    "geocoded_column": {
      "latitude": "30.027914124099937",
      "longitude": "-89.96083721734513"
    }
  },
  {
    "service_request": "2026-1285825",
    "request_type": "Trash/Recycling",
    "request_reason": "Replace Trash Cart",
    "date_created": "2026-05-30T15:51:12.000",
    "date_modified": "2026-05-30T15:51:15.000",
    "request_status": "Pending",
    "responsible_agency": "Department of Sanitation",
    "final_address": "5202 S Liberty St",
    "address_councildis": "B",
    "status": "Assigned to Contractor",
    "contractor": "IV Waste",
    "rowid": "1285825",
    "final_x": "3668145.44845",
    "final_y": "523194.854715",
    "longitude": "-90.11051986511636",
    "latitude": "29.93300294954036",
    "geocoded_column": {
      "latitude": "29.93300294954036",
      "longitude": "-90.11051986511636"
    }
  },
  {
    "service_request": "2026-1285824",
    "request_type": "Trash/Recycling",
    "request_reason": "Request a Large Item Pick Up",
    "date_created": "2026-05-30T15:37:35.000",
    "date_modified": "2026-05-30T15:37:37.000",
    "request_status": "Pending",
    "responsible_agency": "Department of Sanitation",
    "final_address": "4225 S Roman St",
    "address_councildis": "B",
    "status": "Assigned to Contractor",
    "contractor": "IV Waste",
    "rowid": "1285824",
    "final_x": "3670820.74619",
    "final_y": "526680.587518",
    "longitude": "-90.10195586385639",
    "latitude": "29.94250881213357",
    "geocoded_column": {
      "latitude": "29.94250881213357",
      "longitude": "-90.10195586385639"
    }
  },
  {
    "service_request": "2026-1285823",
    "request_type": "Health Related Request",
    "request_reason": "Noise Ordinance Complaint",
    "date_created": "2026-05-30T15:37:26.000",
    "date_modified": "2026-05-30T15:37:28.000",
    "request_status": "Pending",
    "responsible_agency": "Health Department",
    "final_address": "6516 Colbert St",
    "address_councildis": "A",
    "status": "Pending",
    "rowid": "1285823",
    "final_x": "3667643.76762",
    "final_y": "550967.579221",
    "longitude": "-90.11116847354774",
    "latitude": "30.00938337726421",
    "geocoded_column": {
      "latitude": "30.00938337726421",
      "longitude": "-90.11116847354774"
    }
  },
  {
    "service_request": "2026-1285822",
    "request_type": "Abandoned Vehicles",
    "request_reason": "Abandoned/Junk Vehicles",
    "date_created": "2026-05-30T15:30:36.000",
    "date_modified": "2026-05-30T15:30:37.000",
    "request_status": "Pending",
    "responsible_agency": "Department of Public Works",
    "final_address": "1307 Constance St",
    "address_councildis": "B",
    "status": "Pending",
    "rowid": "1285822",
    "final_x": "3680854.29487",
    "final_y": "525085.851133",
    "longitude": "-90.0703331654778",
    "latitude": "29.937823519515696",
    "geocoded_column": {
      "latitude": "29.937823519515696",
      "longitude": "-90.0703331654778"
    }
  },
  {
    "service_request": "2026-1285821",
    "request_type": "Tree Service",
    "request_reason": "Street or Sidewalk Blocked",
    "date_created": "2026-05-30T15:24:20.000",
    "date_modified": "2026-05-30T15:24:21.000",
    "request_status": "Pending",
    "responsible_agency": "Department of Parks & Parkways",
    "final_address": "2221 Filmore Ave",
    "address_councildis": "D",
    "status": "Pending",
    "rowid": "1285821",
    "final_x": "3683956.72879",
    "final_y": "552362.274134",
    "longitude": "-90.05958127766745",
    "latitude": "30.01272976776943",
    "geocoded_column": {
      "latitude": "30.01272976776943",
      "longitude": "-90.05958127766745"
    }
  },
  {
    "service_request": "2026-1285820",
    "request_type": "Trash/Recycling",
    "request_reason": "Request a Large Item Pick Up",
    "date_created": "2026-05-30T15:21:50.000",
    "date_modified": "2026-05-30T15:21:53.000",
    "request_status": "Pending",
    "responsible_agency": "Department of Sanitation",
    "final_address": "150 Alvin Callender St",
    "address_councildis": "A",
    "status": "Assigned to Contractor",
    "contractor": "IV Waste",
    "rowid": "1285820",
    "final_x": "3661132.49421",
    "final_y": "523467.876091",
    "longitude": "-90.13265034604385",
    "latitude": "29.93395759683155",
    "geocoded_column": {
      "latitude": "29.93395759683155",
      "longitude": "-90.13265034604385"
    }
  },
  {
    "service_request": "2026-1285819",
    "request_type": "General Services",
    "request_reason": "General Service Request",
    "date_created": "2026-05-30T14:48:33.000",
    "date_modified": "2026-05-30T14:48:35.000",
    "request_status": "Pending",
    "responsible_agency": "Orleans Parish Communication District",
    "final_address": "1201 Kabel Dr",
    "address_councildis": "C",
    "status": "Pending",
    "rowid": "1285819",
    "final_x": "3700695.18449",
    "final_y": "523222.915195",
    "longitude": "-90.00776232723918",
    "latitude": "29.93208484120383",
    "geocoded_column": {
      "latitude": "29.93208484120383",
      "longitude": "-90.00776232723918"
    }
  },
  {
    "service_request": "2026-1285818",
    "request_type": "General Services",
    "request_reason": "General Service Request",
    "date_created": "2026-05-30T14:44:15.000",
    "date_modified": "2026-05-30T14:44:16.000",
    "request_status": "Pending",
    "responsible_agency": "Orleans Parish Communication District",
    "final_address": "2833 Chestnut St",
    "address_councildis": "B",
    "status": "Pending",
    "rowid": "1285818",
    "final_x": "3676372.01499",
    "final_y": "521309.684537",
    "longitude": "-90.08461401815946",
    "latitude": "29.92757538232393",
    "geocoded_column": {
      "latitude": "29.92757538232393",
      "longitude": "-90.08461401815946"
    }
  },
  {
    "service_request": "2026-1285817",
    "request_type": "Safety & Permits",
    "request_reason": "Zoning Enforcement",
    "date_created": "2026-05-30T14:43:21.000",
    "date_modified": "2026-05-30T14:43:22.000",
    "request_status": "Pending",
    "responsible_agency": "Safety and Permits",
    "final_address": "3105 Patterson St",
    "address_councildis": "C",
    "status": "Pending",
    "rowid": "1285817",
    "final_x": "3695845.54851",
    "final_y": "528538.070656",
    "longitude": "-90.02288016165049",
    "latitude": "29.946853057751845",
    "geocoded_column": {
      "latitude": "29.946853057751845",
      "longitude": "-90.02288016165049"
    }
  },
  {
    "service_request": "2026-1285816",
    "request_type": "Property Maintenance",
    "request_reason": "Property Maintenance",
    "date_created": "2026-05-30T14:40:34.000",
    "date_modified": "2026-05-30T14:40:36.000",
    "request_status": "Pending",
    "responsible_agency": "Department of Code Enforcement",
    "final_address": "4500 General Meyer Ave",
    "address_councildis": "C",
    "status": "Pending",
    "rowid": "1285816",
    "final_x": "3700689.88836",
    "final_y": "524028.745724",
    "longitude": "-90.00774961673321",
    "latitude": "29.934300763858566",
    "geocoded_column": {
      "latitude": "29.934300763858566",
      "longitude": "-90.00774961673321"
    }
  },
  {
    "service_request": "2026-1285815",
    "request_type": "Trash/Recycling",
    "request_reason": "Replace Recycling Cart",
    "date_created": "2026-05-30T14:39:36.000",
    "date_modified": "2026-05-30T14:39:37.000",
    "request_status": "Pending",
    "responsible_agency": "Department of Sanitation",
    "final_address": "2833 Chestnut St",
    "address_councildis": "B",
    "status": "Pending",
    "rowid": "1285815",
    "final_x": "3676372.01499",
    "final_y": "521309.684537",
    "longitude": "-90.08461401815946",
    "latitude": "29.92757538232393",
    "geocoded_column": {
      "latitude": "29.92757538232393",
      "longitude": "-90.08461401815946"
    }
  },
  {
    "service_request": "2026-1285814",
    "request_type": "Trash/Recycling",
    "request_reason": "Illegal Dumping",
    "date_created": "2026-05-30T14:38:03.000",
    "date_modified": "2026-05-30T14:38:05.000",
    "request_status": "Pending",
    "responsible_agency": "Department of Sanitation",
    "final_address": "2400 BLK Westbend Pkwy",
    "address_councildis": "C",
    "status": "Pending",
    "rowid": "1285814",
    "final_x": "3696800.33865",
    "final_y": "521996.962027",
    "longitude": "-90.02010225250808",
    "latitude": "29.928837209317496",
    "geocoded_column": {
      "latitude": "29.928837209317496",
      "longitude": "-90.02010225250808"
    }
  },
  {
    "service_request": "2026-1285813",
    "request_type": "General Services",
    "request_reason": "General Service Request",
    "date_created": "2026-05-30T14:30:57.000",
    "date_modified": "2026-05-30T14:30:59.000",
    "request_status": "Pending",
    "responsible_agency": "Orleans Parish Communication District",
    "final_address": "2601 General De Gaulle Dr",
    "address_councildis": "C",
    "status": "Pending",
    "rowid": "1285813",
    "final_x": "3693043.13405",
    "final_y": "521933.018682",
    "longitude": "-90.03196522537318",
    "latitude": "29.928779254950022",
    "geocoded_column": {
      "latitude": "29.928779254950022",
      "longitude": "-90.03196522537318"
    }
  },
  {
    "service_request": "2026-1285812",
    "request_type": "Abandoned Vehicles",
    "request_reason": "Abandoned/Junk Vehicles",
    "date_created": "2026-05-30T14:24:20.000",
    "date_modified": "2026-05-30T14:24:22.000",
    "request_status": "Pending",
    "responsible_agency": "Department of Public Works",
    "final_address": "1432 Shirley Dr",
    "address_councildis": "C",
    "status": "Pending",
    "rowid": "1285812",
    "final_x": "3693165.45622",
    "final_y": "525748.726653",
    "longitude": "-90.03144222268169",
    "latitude": "29.939267330358945",
    "geocoded_column": {
      "latitude": "29.939267330358945",
      "longitude": "-90.03144222268169"
    }
  },
  {
    "service_request": "2026-1285811",
    "request_type": "Roads and Streets",
    "request_reason": "Street Flooding",
    "date_created": "2026-05-30T13:48:40.000",
    "date_modified": "2026-05-30T13:48:43.000",
    "request_status": "Pending",
    "responsible_agency": "Sewerage & Water Board",
    "final_address": "922 Esplanade Ave, New Orleans, Louisiana, 70116",
    "address_councildis": "C",
    "status": "Pending",
    "rowid": "1285811",
    "final_x": "3683292.8173",
    "final_y": "534913.109254",
    "longitude": "-90.06229040798526",
    "latitude": "29.96477101557513",
    "geocoded_column": {
      "latitude": "29.96477101557513",
      "longitude": "-90.06229040798526"
    }
  },
  {
    "service_request": "2026-1285810",
    "request_type": "General Services",
    "request_reason": "General Service Request",
    "date_created": "2026-05-30T13:44:27.000",
    "date_modified": "2026-05-30T13:44:32.000",
    "request_status": "Pending",
    "responsible_agency": "Orleans Parish Communication District",
    "final_address": "932 Esplanade Ave, New Orleans, Louisiana, 70116 and 908 Esplanade Ave, New Orleans, Louisiana, 70116",
    "address_councildis": "C",
    "status": "Pending",
    "rowid": "1285810",
    "final_x": "3683221.22671",
    "final_y": "534954.574854",
    "longitude": "-90.06251503374615",
    "latitude": "29.964887215099008",
    "geocoded_column": {
      "latitude": "29.964887215099008",
      "longitude": "-90.06251503374615"
    }
  },
  {
    "service_request": "2026-1285809",
    "request_type": "Trash/Recycling",
    "request_reason": "Order Trash Cart",
    "date_created": "2026-05-30T13:41:05.000",
    "date_modified": "2026-05-30T14:31:53.000",
    "request_status": "Pending",
    "responsible_agency": "Department of Sanitation",
    "final_address": "7605 Plum St",
    "address_councildis": "A",
    "status": "Assigned to Contractor",
    "contractor": "IV Waste",
    "rowid": "1285809",
    "final_x": "3663507.0473",
    "final_y": "527503.994239",
    "longitude": "-90.12501957966293",
    "latitude": "29.944987005803004",
    "geocoded_column": {
      "latitude": "29.944987005803004",
      "longitude": "-90.12501957966293"
    }
  },
  {
    "service_request": "2026-1285808",
    "request_type": "Trash/Recycling",
    "request_reason": "Request a Large Item Pick Up",
    "date_created": "2026-05-30T13:25:52.000",
    "date_modified": "2026-05-30T13:25:55.000",
    "request_status": "Pending",
    "responsible_agency": "Department of Sanitation",
    "final_address": "4601 Murano Rd",
    "address_councildis": "E",
    "status": "Assigned to Contractor",
    "contractor": "Waste Pro",
    "rowid": "1285808",
    "final_x": "3761457.84086",
    "final_y": "573989.479402",
    "longitude": "-89.81382068365772",
    "latitude": "30.06959832373683",
    "geocoded_column": {
      "latitude": "30.06959832373683",
      "longitude": "-89.81382068365772"
    }
  },
  {
    "service_request": "2026-1285807",
    "request_type": "Trash/Recycling",
    "request_reason": "Request a Large Item Pick Up",
    "date_created": "2026-05-30T13:23:01.000",
    "date_modified": "2026-05-30T13:23:03.000",
    "request_status": "Pending",
    "responsible_agency": "Department of Sanitation",
    "final_address": "425 River Oaks Dr",
    "address_councildis": "C",
    "status": "Assigned to Contractor",
    "contractor": "Richards Disposal",
    "rowid": "1285807",
    "final_x": "3701494.30321",
    "final_y": "521698.585913",
    "longitude": "-90.00529538046133",
    "latitude": "29.9278680203176",
    "geocoded_column": {
      "latitude": "29.9278680203176",
      "longitude": "-90.00529538046133"
    }
  },
  {
    "service_request": "2026-1285806",
    "request_type": "Roads and Streets",
    "request_reason": "Pothole",
    "date_created": "2026-05-30T13:20:51.000",
    "date_modified": "2026-05-30T13:20:53.000",
    "request_status": "Pending",
    "responsible_agency": "Department of Public Works",
    "final_address": "1530 Felicity St",
    "address_councildis": "B",
    "status": "Pending",
    "rowid": "1285806",
    "final_x": "3678729.10651",
    "final_y": "524276.383932",
    "longitude": "-90.07707057617375",
    "latitude": "29.935661991116742",
    "geocoded_column": {
      "latitude": "29.935661991116742",
      "longitude": "-90.07707057617375"
    }
  },
  {
    "service_request": "2026-1285805",
    "request_type": "Trash/Recycling",
    "request_reason": "Replace Recycling Cart",
    "date_created": "2026-05-30T13:19:30.000",
    "date_modified": "2026-05-30T13:19:32.000",
    "request_status": "Pending",
    "responsible_agency": "Department of Sanitation",
    "final_address": "947 St Mary St",
    "address_councildis": "B",
    "status": "Pending",
    "rowid": "1285805",
    "final_x": "3680024.14805",
    "final_y": "522565.902074",
    "longitude": "-90.07304150875532",
    "latitude": "29.93091962517862",
    "geocoded_column": {
      "latitude": "29.93091962517862",
      "longitude": "-90.07304150875532"
    }
  },
  {
    "service_request": "2026-1285804",
    "request_type": "Trash/Recycling",
    "request_reason": "Order Second Trash Cart",
    "date_created": "2026-05-30T13:15:27.000",
    "date_modified": "2026-05-30T13:15:29.000",
    "request_status": "Pending",
    "responsible_agency": "Department of Sanitation",
    "final_address": "425 River Oaks Dr",
    "address_councildis": "C",
    "status": "Assigned to Contractor",
    "contractor": "Richards Disposal",
    "rowid": "1285804",
    "final_x": "3701494.30321",
    "final_y": "521698.585913",
    "longitude": "-90.00529538046133",
    "latitude": "29.9278680203176",
    "geocoded_column": {
      "latitude": "29.9278680203176",
      "longitude": "-90.00529538046133"
    }
  },
  {
    "service_request": "2026-1285803",
    "request_type": "Trash/Recycling",
    "request_reason": "Repair Recycling Cart",
    "date_created": "2026-05-30T13:11:20.000",
    "date_modified": "2026-05-30T13:11:24.000",
    "request_status": "Pending",
    "responsible_agency": "Department of Sanitation",
    "final_address": "8425 Sycamore St",
    "address_councildis": "A",
    "status": "Pending",
    "rowid": "1285803",
    "final_x": "3663406.80269",
    "final_y": "531857.754819",
    "longitude": "-90.12519114829104",
    "latitude": "29.95696134932335",
    "geocoded_column": {
      "latitude": "29.95696134932335",
      "longitude": "-90.12519114829104"
    }
  },
  {
    "service_request": "2026-1285802",
    "request_type": "Trash/Recycling",
    "request_reason": "Request a Large Item Pick Up",
    "date_created": "2026-05-30T13:04:48.000",
    "date_modified": "2026-05-30T13:04:49.000",
    "request_status": "Pending",
    "responsible_agency": "Department of Sanitation",
    "final_address": "3034 Marais St",
    "address_councildis": "C",
    "status": "Assigned to Contractor",
    "contractor": "IV Waste",
    "rowid": "1285802",
    "final_x": "3688791.7622",
    "final_y": "536395.005895",
    "longitude": "-90.04487253514812",
    "latitude": "29.968676844047295",
    "geocoded_column": {
      "latitude": "29.968676844047295",
      "longitude": "-90.04487253514812"
    }
  },
  {
    "service_request": "2026-1285801",
    "request_type": "General Services",
    "request_reason": "General Service Request",
    "date_created": "2026-05-30T12:56:46.000",
    "date_modified": "2026-05-30T12:56:48.000",
    "request_status": "Pending",
    "responsible_agency": "Orleans Parish Communication District",
    "final_address": "4818 Strasbourg Pl",
    "address_councildis": "E",
    "status": "Pending",
    "rowid": "1285801",
    "final_x": "3725794.04012",
    "final_y": "561078.313566",
    "longitude": "-89.92706228801497",
    "latitude": "30.035350193642994",
    "geocoded_column": {
      "latitude": "30.035350193642994",
      "longitude": "-89.92706228801497"
    }
  },
  {
    "service_request": "2026-1285800",
    "request_type": "Roads and Streets",
    "request_reason": "Sidewalk Damaged or Missing",
    "date_created": "2026-05-30T12:53:52.000",
    "date_modified": "2026-05-30T12:53:53.000",
    "request_status": "Pending",
    "responsible_agency": "Department of Public Works",
    "final_address": "3053 Mercedes Blvd",
    "address_councildis": "C",
    "status": "Pending",
    "rowid": "1285800",
    "final_x": "3697891.04227",
    "final_y": "520029.072376",
    "longitude": "-90.016730522985",
    "latitude": "29.923391769133943",
    "geocoded_column": {
      "latitude": "29.923391769133943",
      "longitude": "-90.016730522985"
    }
  },
  {
    "service_request": "2026-1285799",
    "request_type": "Roads and Streets",
    "request_reason": "Pothole",
    "date_created": "2026-05-30T12:45:22.000",
    "date_modified": "2026-05-30T12:45:26.000",
    "request_status": "Pending",
    "responsible_agency": "Department of Public Works",
    "final_address": "811 Behrman Ave",
    "address_councildis": "C",
    "status": "Pending",
    "rowid": "1285799",
    "final_x": "3691411.00809",
    "final_y": "528461.308992",
    "longitude": "-90.03688432059984",
    "latitude": "29.946780696786504",
    "geocoded_column": {
      "latitude": "29.946780696786504",
      "longitude": "-90.03688432059984"
    }
  },
  {
    "service_request": "2026-1285798",
    "request_type": "Trash/Recycling",
    "request_reason": "Change Size of Trash Cart",
    "date_created": "2026-05-30T12:14:50.000",
    "date_modified": "2026-05-30T12:14:52.000",
    "request_status": "Pending",
    "responsible_agency": "Department of Sanitation",
    "final_address": "2036 Royal St",
    "address_councildis": "C",
    "status": "Assigned to Contractor",
    "contractor": "IV Waste",
    "rowid": "1285798",
    "final_x": "3684515.09013",
    "final_y": "534790.581894",
    "longitude": "-90.05843486315965",
    "latitude": "29.964396770416368",
    "geocoded_column": {
      "latitude": "29.964396770416368",
      "longitude": "-90.05843486315965"
    }
  },
  {
    "service_request": "2026-1285797",
    "request_type": "Roads and Streets",
    "request_reason": "Street Subsidence (Sinking)",
    "date_created": "2026-05-30T11:47:35.000",
    "date_modified": "2026-05-30T11:48:01.000",
    "request_status": "Pending",
    "responsible_agency": "Sewerage & Water Board",
    "final_address": "2501 St Ann St",
    "address_councildis": "C",
    "status": "Pending",
    "rowid": "1285797",
    "final_x": "3677728.22882",
    "final_y": "536659.567239",
    "longitude": "-90.07980268029661",
    "latitude": "29.969741732864403",
    "geocoded_column": {
      "latitude": "29.969741732864403",
      "longitude": "-90.07980268029661"
    }
  },
  {
    "service_request": "2026-1285796",
    "request_type": "Trash/Recycling",
    "request_reason": "Return Recycling Cart",
    "date_created": "2026-05-30T11:19:00.000",
    "date_modified": "2026-05-30T11:19:02.000",
    "request_status": "Pending",
    "responsible_agency": "Department of Sanitation",
    "final_address": "5181 Metropolitan Dr",
    "address_councildis": "D",
    "status": "Pending",
    "rowid": "1285796",
    "final_x": "3690388.83248",
    "final_y": "552748.116182",
    "longitude": "-90.03924565751525",
    "latitude": "30.01359251970259",
    "geocoded_column": {
      "latitude": "30.01359251970259",
      "longitude": "-90.03924565751525"
    }
  },
  {
    "service_request": "2026-1285795",
    "request_type": "Trash/Recycling",
    "request_reason": "Request a Large Item Pick Up",
    "date_created": "2026-05-30T11:13:11.000",
    "date_modified": "2026-05-30T11:13:14.000",
    "request_status": "Pending",
    "responsible_agency": "Department of Sanitation",
    "final_address": "7524 Kingsport Blvd",
    "address_councildis": "E",
    "status": "Assigned to Contractor",
    "contractor": "Waste Pro",
    "rowid": "1285795",
    "final_x": "3720451.71609",
    "final_y": "572605.497321",
    "longitude": "-89.94350286579446",
    "latitude": "30.067224374749635",
    "geocoded_column": {
      "latitude": "30.067224374749635",
      "longitude": "-89.94350286579446"
    }
  },
  {
    "service_request": "2026-1285794",
    "request_type": "Trash/Recycling",
    "request_reason": "Missed Trash Pick-Up",
    "date_created": "2026-05-30T10:51:35.000",
    "date_modified": "2026-05-30T12:32:53.000",
    "request_status": "Pending",
    "responsible_agency": "Department of Sanitation",
    "final_address": "5176 Bayouview Ct",
    "address_councildis": "E",
    "status": "Assigned to Contractor",
    "contractor": "Waste Pro",
    "rowid": "1285794",
    "final_x": "3699199.78852",
    "final_y": "556495.327194",
    "longitude": "-90.01127119793156",
    "latitude": "30.02361936939045",
    "geocoded_column": {
      "latitude": "30.02361936939045",
      "longitude": "-90.01127119793156"
    }
  },
  {
    "service_request": "2026-1285793",
    "request_type": "Parks & Grass Service",
    "request_reason": "Park Maintenance/Clean Up",
    "date_created": "2026-05-30T10:47:23.000",
    "date_modified": "2026-05-30T10:47:25.000",
    "request_status": "Pending",
    "responsible_agency": "Department of Parks & Parkways",
    "final_address": "722 Third St",
    "address_councildis": "B",
    "status": "Pending",
    "rowid": "1285793",
    "final_x": "3678259.62114",
    "final_y": "520059.002936",
    "longitude": "-90.0786985326164",
    "latitude": "29.924079716802403",
    "geocoded_column": {
      "latitude": "29.924079716802403",
      "longitude": "-90.0786985326164"
    }
  },
  {
    "service_request": "2026-1285792",
    "request_type": "Healthy Homes",
    "request_reason": "Healthy Homes",
    "date_created": "2026-05-30T10:40:35.000",
    "date_modified": "2026-05-30T10:40:36.000",
    "request_status": "Pending",
    "responsible_agency": "Department of Code Enforcement",
    "final_address": "7260 Voyageur Ct",
    "address_councildis": "E",
    "status": "Pending",
    "rowid": "1285792",
    "final_x": "3726256.3936",
    "final_y": "568909.851365",
    "longitude": "-89.92529707527724",
    "latitude": "30.056868047199657",
    "geocoded_column": {
      "latitude": "30.056868047199657",
      "longitude": "-89.92529707527724"
    }
  },
  {
    "service_request": "2026-1285791",
    "request_type": "Property Maintenance",
    "request_reason": "Property Maintenance",
    "date_created": "2026-05-30T10:38:21.000",
    "date_modified": "2026-05-30T10:38:22.000",
    "request_status": "Pending",
    "responsible_agency": "Department of Code Enforcement",
    "final_address": "7920 Pompano St",
    "address_councildis": "E",
    "status": "Pending",
    "rowid": "1285791",
    "final_x": "3700124.51837",
    "final_y": "561565.625183",
    "longitude": "-90.0081639740403",
    "latitude": "30.037531361232844",
    "geocoded_column": {
      "latitude": "30.037531361232844",
      "longitude": "-90.0081639740403"
    }
  },
  {
    "service_request": "2026-1285790",
    "request_type": "Drainage",
    "request_reason": "Catch Basin Not Draining",
    "date_created": "2026-05-30T10:34:16.000",
    "date_modified": "2026-05-30T10:34:18.000",
    "request_status": "Pending",
    "responsible_agency": "Sewerage & Water Board",
    "final_address": "1708 Cleveland Ave",
    "address_councildis": "B",
    "status": "Pending",
    "rowid": "1285790",
    "final_x": "3677899.40834",
    "final_y": "532580.523524",
    "longitude": "-90.07940305142588",
    "latitude": "29.95852059685258",
    "geocoded_column": {
      "latitude": "29.95852059685258",
      "longitude": "-90.07940305142588"
    }
  },
  {
    "service_request": "2026-1285789",
    "request_type": "Roads and Streets",
    "request_reason": "Pothole",
    "date_created": "2026-05-30T10:03:43.000",
    "date_modified": "2026-05-30T10:03:45.000",
    "request_status": "Pending",
    "responsible_agency": "Department of Public Works",
    "final_address": "10317 Willow Dr",
    "address_councildis": "C",
    "status": "Pending",
    "rowid": "1285789",
    "final_x": "3722314.98086",
    "final_y": "517240.380021",
    "longitude": "-89.93974143589126",
    "latitude": "29.914929619592506",
    "geocoded_column": {
      "latitude": "29.914929619592506",
      "longitude": "-89.93974143589126"
    }
  },
  {
    "service_request": "2026-1285788",
    "request_type": "Trash/Recycling",
    "request_reason": "Request a Large Item Pick Up",
    "date_created": "2026-05-30T09:54:47.000",
    "date_modified": "2026-05-30T09:54:51.000",
    "request_status": "Pending",
    "responsible_agency": "Department of Sanitation",
    "final_address": "1610 Tita St",
    "address_councildis": "C",
    "status": "Assigned to Contractor",
    "contractor": "Richards Disposal",
    "rowid": "1285788",
    "final_x": "3695684.50096",
    "final_y": "525410.558461",
    "longitude": "-90.02350152458872",
    "latitude": "29.93825854563581",
    "geocoded_column": {
      "latitude": "29.93825854563581",
      "longitude": "-90.02350152458872"
    }
  },
  {
    "service_request": "2026-1285787",
    "request_type": "Trash/Recycling",
    "request_reason": "Order Trash Cart",
    "date_created": "2026-05-30T09:53:29.000",
    "date_modified": "2026-05-30T09:53:30.000",
    "request_status": "Pending",
    "responsible_agency": "Department of Sanitation",
    "final_address": "810 Valence St",
    "address_councildis": "B",
    "status": "Assigned to Contractor",
    "contractor": "IV Waste",
    "rowid": "1285787",
    "final_x": "3669919.01716",
    "final_y": "518400.50399",
    "longitude": "-90.1050830600026",
    "latitude": "29.919767850662712",
    "geocoded_column": {
      "latitude": "29.919767850662712",
      "longitude": "-90.1050830600026"
    }
  },
  {
    "service_request": "2026-1285786",
    "request_type": "Trash/Recycling",
    "request_reason": "Order Second Trash Cart",
    "date_created": "2026-05-30T09:37:27.000",
    "date_modified": "2026-05-30T09:37:29.000",
    "request_status": "Pending",
    "responsible_agency": "Department of Sanitation",
    "final_address": "5181 Metropolitan Dr",
    "address_councildis": "D",
    "status": "Assigned to Contractor",
    "contractor": "IV Waste",
    "rowid": "1285786",
    "final_x": "3690388.83248",
    "final_y": "552748.116182",
    "longitude": "-90.03924565751525",
    "latitude": "30.01359251970259",
    "geocoded_column": {
      "latitude": "30.01359251970259",
      "longitude": "-90.03924565751525"
    }
  },
  {
    "service_request": "2026-1285785",
    "request_type": "Property Maintenance",
    "request_reason": "Property Maintenance",
    "date_created": "2026-05-30T09:35:27.000",
    "date_modified": "2026-05-30T09:35:29.000",
    "request_status": "Pending",
    "responsible_agency": "Department of Code Enforcement",
    "final_address": "4759 Citrus Dr",
    "address_councildis": "E",
    "status": "Pending",
    "rowid": "1285785",
    "final_x": "3710843.52088",
    "final_y": "555916.028953",
    "longitude": "-89.97450144163825",
    "latitude": "30.021651989048912",
    "geocoded_column": {
      "latitude": "30.021651989048912",
      "longitude": "-89.97450144163825"
    }
  },
  {
    "service_request": "2026-1285784",
    "request_type": "Trash/Recycling",
    "request_reason": "Order Second Trash Cart",
    "date_created": "2026-05-30T09:24:04.000",
    "date_modified": "2026-05-30T09:24:06.000",
    "request_status": "Pending",
    "responsible_agency": "Department of Sanitation",
    "final_address": "4870 Francis Dr",
    "address_councildis": "D",
    "status": "Assigned to Contractor",
    "contractor": "Waste Pro",
    "rowid": "1285784",
    "final_x": "3698125.69635",
    "final_y": "555103.585369",
    "longitude": "-90.01471569826731",
    "latitude": "30.019826640833795",
    "geocoded_column": {
      "latitude": "30.019826640833795",
      "longitude": "-90.01471569826731"
    }
  },
  {
    "service_request": "2026-1285783",
    "request_type": "Roads and Streets",
    "request_reason": "Street Subsidence (Sinking)",
    "date_created": "2026-05-30T09:19:33.000",
    "date_modified": "2026-05-30T09:19:34.000",
    "request_status": "Pending",
    "responsible_agency": "Sewerage & Water Board",
    "final_address": "4118 Cleveland Ave",
    "address_councildis": "A",
    "status": "Pending",
    "rowid": "1285783",
    "final_x": "3670661.59918",
    "final_y": "538123.036233",
    "longitude": "-90.10207013169179",
    "latitude": "29.973976457794386",
    "geocoded_column": {
      "latitude": "29.973976457794386",
      "longitude": "-90.10207013169179"
    }
  },
  {
    "service_request": "2026-1285782",
    "request_type": "Trash/Recycling",
    "request_reason": "Request a Large Item Pick Up",
    "date_created": "2026-05-30T09:11:57.000",
    "date_modified": "2026-05-30T09:12:00.000",
    "request_status": "Pending",
    "responsible_agency": "Department of Sanitation",
    "final_address": "6415 Perlita Dr",
    "address_councildis": "D",
    "status": "Assigned to Contractor",
    "contractor": "IV Waste",
    "rowid": "1285782",
    "final_x": "3677796.31419",
    "final_y": "556742.833754",
    "longitude": "-90.07889330034071",
    "latitude": "30.024961580586684",
    "geocoded_column": {
      "latitude": "30.024961580586684",
      "longitude": "-90.07889330034071"
    }
  },
  {
    "service_request": "2026-1285781",
    "request_type": "Trash/Recycling",
    "request_reason": "Dead Animal Pick Up",
    "date_created": "2026-05-30T08:58:19.000",
    "date_modified": "2026-05-30T08:58:21.000",
    "request_status": "Pending",
    "responsible_agency": "Department of Sanitation",
    "final_address": "4725 Wisner Blvd",
    "address_councildis": "A",
    "status": "Assigned to Contractor",
    "rowid": "1285781",
    "final_x": "3675181.65205",
    "final_y": "543806.081678",
    "longitude": "-90.08759964110746",
    "latitude": "29.989468551192353",
    "geocoded_column": {
      "latitude": "29.989468551192353",
      "longitude": "-90.08759964110746"
    }
  },
  {
    "service_request": "2026-1285780",
    "request_type": "Mosquito, Termite & Rodent Control",
    "request_reason": "Mosquito Complaint",
    "date_created": "2026-05-30T08:49:38.000",
    "date_modified": "2026-05-30T08:49:40.000",
    "request_status": "Pending",
    "responsible_agency": "Mosquito, Termite & Rodent Control Board",
    "final_address": "7563 Berg Rd",
    "address_councildis": "E",
    "status": "Pending",
    "rowid": "1285780",
    "final_x": "3712238.64696",
    "final_y": "566369.623267",
    "longitude": "-89.96970017315964",
    "latitude": "30.050349632787682",
    "geocoded_column": {
      "latitude": "30.050349632787682",
      "longitude": "-89.96970017315964"
    }
  },
  {
    "service_request": "2026-1285779",
    "request_type": "Trash/Recycling",
    "request_reason": "Request a Large Item Pick Up",
    "date_created": "2026-05-30T08:47:32.000",
    "date_modified": "2026-05-30T08:47:34.000",
    "request_status": "Pending",
    "responsible_agency": "Department of Sanitation",
    "final_address": "7563 Berg Rd",
    "address_councildis": "E",
    "status": "Assigned to Contractor",
    "contractor": "Waste Pro",
    "rowid": "1285779",
    "final_x": "3712238.64696",
    "final_y": "566369.623267",
    "longitude": "-89.96970017315964",
    "latitude": "30.050349632787682",
    "geocoded_column": {
      "latitude": "30.050349632787682",
      "longitude": "-89.96970017315964"
    }
  },
  {
    "service_request": "2026-1285778",
    "request_type": "General Services",
    "request_reason": "General Service Request",
    "date_created": "2026-05-30T08:47:30.000",
    "date_modified": "2026-05-30T08:47:34.000",
    "request_status": "Pending",
    "responsible_agency": "Orleans Parish Communication District",
    "final_address": "136 N Murat St",
    "address_councildis": "A",
    "status": "Pending",
    "rowid": "1285778",
    "final_x": "3670000.14906",
    "final_y": "539674.043722",
    "longitude": "-90.10410659649624",
    "latitude": "29.978260731574707",
    "geocoded_column": {
      "latitude": "29.978260731574707",
      "longitude": "-90.10410659649624"
    }
  },
  {
    "service_request": "2026-1285777",
    "request_type": "Tree Service",
    "request_reason": "Dead or Dying Tree",
    "date_created": "2026-05-30T08:29:16.000",
    "date_modified": "2026-05-30T08:29:19.000",
    "request_status": "Pending",
    "responsible_agency": "Department of Parks & Parkways",
    "final_address": "2147 Carnot St",
    "address_councildis": "D",
    "status": "Pending",
    "rowid": "1285777",
    "final_x": "3683541.35951",
    "final_y": "549940.04866",
    "longitude": "-90.06097859392806",
    "latitude": "30.00608221578773",
    "geocoded_column": {
      "latitude": "30.00608221578773",
      "longitude": "-90.06097859392806"
    }
  },
  {
    "service_request": "2026-1285776",
    "request_type": "Trash/Recycling",
    "request_reason": "Illegal Dumping",
    "date_created": "2026-05-30T08:28:39.000",
    "date_modified": "2026-05-30T08:28:41.000",
    "request_status": "Pending",
    "responsible_agency": "Department of Sanitation",
    "final_address": "7900 Drum St",
    "address_councildis": "E",
    "status": "Pending",
    "rowid": "1285776",
    "final_x": "3699950.92125",
    "final_y": "561345.211806",
    "longitude": "-90.00872063100383",
    "latitude": "30.03693082935523",
    "geocoded_column": {
      "latitude": "30.03693082935523",
      "longitude": "-90.00872063100383"
    }
  },
  {
    "service_request": "2026-1285775",
    "request_type": "Tree Service",
    "request_reason": "Street or Sidewalk Blocked",
    "date_created": "2026-05-30T08:19:18.000",
    "date_modified": "2026-05-30T08:19:19.000",
    "request_status": "Pending",
    "responsible_agency": "Department of Parks & Parkways",
    "final_address": "2303 Filmore Ave",
    "address_councildis": "D",
    "status": "Pending",
    "rowid": "1285775",
    "final_x": "3684508.80098",
    "final_y": "552553.57743",
    "longitude": "-90.057830306878",
    "latitude": "30.013238895899196",
    "geocoded_column": {
      "latitude": "30.013238895899196",
      "longitude": "-90.057830306878"
    }
  },
  {
    "service_request": "2026-1285774",
    "request_type": "Trash/Recycling",
    "request_reason": "Return Recycling Cart",
    "date_created": "2026-05-30T08:19:01.000",
    "date_modified": "2026-05-30T08:19:04.000",
    "request_status": "Pending",
    "responsible_agency": "Department of Sanitation",
    "final_address": "1929 General Taylor St",
    "address_councildis": "B",
    "status": "Pending",
    "rowid": "1285774",
    "final_x": "3672368.77524",
    "final_y": "522353.66713",
    "longitude": "-90.09721574551604",
    "latitude": "29.930565350777094",
    "geocoded_column": {
      "latitude": "29.930565350777094",
      "longitude": "-90.09721574551604"
    }
  },
  {
    "service_request": "2026-1285773",
    "request_type": "Abandoned Vehicles",
    "request_reason": "Abandoned/Junk Vehicles",
    "date_created": "2026-05-30T07:59:04.000",
    "date_modified": "2026-05-30T07:59:06.000",
    "request_status": "Pending",
    "responsible_agency": "Department of Public Works",
    "final_address": "1038 Burdette St",
    "address_councildis": "A",
    "status": "Pending",
    "rowid": "1285773",
    "final_x": "3662499.1113",
    "final_y": "527355.789567",
    "longitude": "-90.1282068806243",
    "latitude": "29.944608677815346",
    "geocoded_column": {
      "latitude": "29.944608677815346",
      "longitude": "-90.1282068806243"
    }
  },
  {
    "service_request": "2026-1285772",
    "request_type": "Trash/Recycling",
    "request_reason": "Replace Trash Cart",
    "date_created": "2026-05-30T07:39:51.000",
    "date_modified": "2026-05-30T07:39:59.000",
    "request_status": "Pending",
    "responsible_agency": "Department of Sanitation",
    "final_address": "2713 Dante St",
    "address_councildis": "A",
    "status": "Assigned to Contractor",
    "contractor": "IV Waste",
    "rowid": "1285772",
    "final_x": "3665178.53837",
    "final_y": "532931.376324",
    "longitude": "-90.11956062799926",
    "latitude": "29.95986197300416",
    "geocoded_column": {
      "latitude": "29.95986197300416",
      "longitude": "-90.11956062799926"
    }
  },
  {
    "service_request": "2026-1285771",
    "request_type": "Abandoned Vehicles",
    "request_reason": "Abandoned/Junk Vehicles",
    "date_created": "2026-05-30T07:30:24.000",
    "date_modified": "2026-05-30T07:30:26.000",
    "request_status": "Pending",
    "responsible_agency": "Department of Public Works",
    "final_address": "4237 Alfred St",
    "address_councildis": "D",
    "status": "Pending",
    "rowid": "1285771",
    "final_x": "3677646.23106",
    "final_y": "547826.883346",
    "longitude": "-90.07967577812066",
    "latitude": "30.00045043651846",
    "geocoded_column": {
      "latitude": "30.00045043651846",
      "longitude": "-90.07967577812066"
    }
  },
  {
    "service_request": "2026-1285770",
    "request_type": "Streetlights",
    "request_reason": "Streetlight Outage/Malfunction",
    "date_created": "2026-05-30T07:00:24.000",
    "date_modified": "2026-05-30T07:00:26.000",
    "request_status": "Pending",
    "responsible_agency": "Department of Public Works",
    "final_address": "210 Baronne St",
    "address_councildis": "B",
    "status": "Pending",
    "rowid": "1285770",
    "final_x": "3680240.2836",
    "final_y": "530605.158914",
    "longitude": "-90.0720798481",
    "latitude": "29.953018366512932",
    "geocoded_column": {
      "latitude": "29.953018366512932",
      "longitude": "-90.0720798481"
    }
  },
  {
    "service_request": "2026-1285769",
    "request_type": "Trash/Recycling",
    "request_reason": "Replace Trash Cart",
    "date_created": "2026-05-30T06:58:08.000",
    "date_modified": "2026-05-30T06:58:10.000",
    "request_status": "Pending",
    "responsible_agency": "Department of Sanitation",
    "final_address": "2037 Foucher St",
    "address_councildis": "B",
    "status": "Assigned to Contractor",
    "contractor": "IV Waste",
    "rowid": "1285769",
    "final_x": "3672956.59003",
    "final_y": "522931.875771",
    "longitude": "-90.09534037698656",
    "latitude": "29.93213778826998",
    "geocoded_column": {
      "latitude": "29.93213778826998",
      "longitude": "-90.09534037698656"
    }
  },
  {
    "service_request": "2026-1285768",
    "request_type": "Parks & Grass Service",
    "request_reason": "Request Grass Cutting Service (City Owned Property)",
    "date_created": "2026-05-30T06:52:25.000",
    "date_modified": "2026-05-30T06:52:28.000",
    "request_status": "Pending",
    "responsible_agency": "Department of Parks & Parkways",
    "final_address": "3100 Gentilly Blvd",
    "address_councildis": "D",
    "status": "Pending",
    "rowid": "1285768",
    "final_x": "3683960.1334",
    "final_y": "547034.030993",
    "longitude": "-90.05975763063837",
    "latitude": "29.998078920326204",
    "geocoded_column": {
      "latitude": "29.998078920326204",
      "longitude": "-90.05975763063837"
    }
  },
  {
    "service_request": "2026-1285767",
    "request_type": "Abandoned Vehicles",
    "request_reason": "Abandoned/Junk Vehicles",
    "date_created": "2026-05-30T06:36:09.000",
    "date_modified": "2026-05-30T06:36:15.000",
    "request_status": "Pending",
    "responsible_agency": "Department of Public Works",
    "final_address": "7321 Dartmoor Dr",
    "address_councildis": "E",
    "status": "Pending",
    "rowid": "1285767",
    "final_x": "3705147.55499",
    "final_y": "561842.379871",
    "longitude": "-89.99227987679173",
    "latitude": "30.038131640907775",
    "geocoded_column": {
      "latitude": "30.038131640907775",
      "longitude": "-89.99227987679173"
    }
  },
  {
    "service_request": "2026-1285766",
    "request_type": "Abandoned Vehicles",
    "request_reason": "Abandoned/Junk Vehicles",
    "date_created": "2026-05-30T06:30:05.000",
    "date_modified": "2026-05-30T06:30:07.000",
    "request_status": "Pending",
    "responsible_agency": "Department of Public Works",
    "final_address": "8601 Scottsdale Dr",
    "address_councildis": "E",
    "status": "Pending",
    "rowid": "1285766",
    "final_x": "3704606.66039",
    "final_y": "561720.490335",
    "longitude": "-89.99399373154418",
    "latitude": "30.037813887890547",
    "geocoded_column": {
      "latitude": "30.037813887890547",
      "longitude": "-89.99399373154418"
    }
  },
  {
    "service_request": "2026-1285765",
    "request_type": "Drainage",
    "request_reason": "Catch Basin Not Draining",
    "date_created": "2026-05-30T06:26:52.000",
    "date_modified": "2026-05-30T06:26:54.000",
    "request_status": "Pending",
    "responsible_agency": "Sewerage & Water Board",
    "final_address": "4810 Bienville Ave",
    "address_councildis": "A",
    "status": "Pending",
    "rowid": "1285765",
    "final_x": "3669177.79854",
    "final_y": "540724.592267",
    "longitude": "-90.10666836299133",
    "latitude": "29.98117361622397",
    "geocoded_column": {
      "latitude": "29.98117361622397",
      "longitude": "-90.10666836299133"
    }
  },
  {
    "service_request": "2026-1285764",
    "request_type": "Abandoned Vehicles",
    "request_reason": "Abandoned/Junk Vehicles",
    "date_created": "2026-05-30T06:26:34.000",
    "date_modified": "2026-05-30T06:26:35.000",
    "request_status": "Pending",
    "responsible_agency": "Department of Public Works",
    "final_address": "8601 Scottsdale Dr",
    "address_councildis": "E",
    "status": "Pending",
    "rowid": "1285764",
    "final_x": "3704606.66039",
    "final_y": "561720.490335",
    "longitude": "-89.99399373154418",
    "latitude": "30.037813887890547",
    "geocoded_column": {
      "latitude": "30.037813887890547",
      "longitude": "-89.99399373154418"
    }
  },
  {
    "service_request": "2026-1285763",
    "request_type": "Abandoned Vehicles",
    "request_reason": "Abandoned/Junk Vehicles",
    "date_created": "2026-05-30T06:20:44.000",
    "date_modified": "2026-05-30T06:20:46.000",
    "request_status": "Pending",
    "responsible_agency": "Department of Public Works",
    "final_address": "8421 Lomond Rd",
    "address_councildis": "E",
    "status": "Pending",
    "rowid": "1285763",
    "final_x": "3703614.27556",
    "final_y": "562107.635231",
    "longitude": "-89.99711562106411",
    "latitude": "30.03891024172641",
    "geocoded_column": {
      "latitude": "30.03891024172641",
      "longitude": "-89.99711562106411"
    }
  },
  {
    "service_request": "2026-1285762",
    "request_type": "Trash/Recycling",
    "request_reason": "Request a Large Item Pick Up",
    "date_created": "2026-05-30T03:46:27.000",
    "date_modified": "2026-05-30T03:46:29.000",
    "request_status": "Pending",
    "responsible_agency": "Department of Sanitation",
    "final_address": "5458 General Diaz St",
    "address_councildis": "A",
    "status": "Assigned to Contractor",
    "contractor": "IV Waste",
    "rowid": "1285762",
    "final_x": "3669019.55642",
    "final_y": "543404.091086",
    "longitude": "-90.1070775945529",
    "latitude": "29.98854598291778",
    "geocoded_column": {
      "latitude": "29.98854598291778",
      "longitude": "-90.1070775945529"
    }
  },
  {
    "service_request": "2026-1285761",
    "request_type": "Streetlights",
    "request_reason": "Streetlight Outage/Malfunction",
    "date_created": "2026-05-30T01:32:11.000",
    "date_modified": "2026-05-30T01:32:13.000",
    "request_status": "Pending",
    "responsible_agency": "Department of Public Works",
    "final_address": "4866 Strasbourg Pl",
    "address_councildis": "E",
    "status": "Pending",
    "rowid": "1285761",
    "final_x": "3725703.97017",
    "final_y": "561425.456478",
    "longitude": "-89.92733345899234",
    "latitude": "30.036307732895537",
    "geocoded_column": {
      "latitude": "30.036307732895537",
      "longitude": "-89.92733345899234"
    }
  },
  {
    "service_request": "2026-1285760",
    "request_type": "Abandoned Vehicles",
    "request_reason": "Abandoned/Junk Vehicles",
    "date_created": "2026-05-29T23:38:54.000",
    "date_modified": "2026-05-29T23:38:56.000",
    "request_status": "Pending",
    "responsible_agency": "Department of Public Works",
    "final_address": "4824 Bonita Dr",
    "address_councildis": "E",
    "status": "Pending",
    "rowid": "1285760",
    "final_x": "3704396.18481",
    "final_y": "555793.593177",
    "longitude": "-89.99487767089465",
    "latitude": "30.02152399254928",
    "geocoded_column": {
      "latitude": "30.02152399254928",
      "longitude": "-89.99487767089465"
    }
  },
  {
    "service_request": "2026-1285759",
    "request_type": "Health Related Request",
    "request_reason": "Noise Ordinance Complaint",
    "date_created": "2026-05-29T23:30:39.000",
    "date_modified": "2026-05-29T23:30:41.000",
    "request_status": "Pending",
    "responsible_agency": "Health Department",
    "final_address": "800 Bourbon St, New Orleans, Louisiana, 70116",
    "address_councildis": "C",
    "status": "Pending",
    "rowid": "1285759",
    "final_x": "3682553.51528",
    "final_y": "533013.631428",
    "longitude": "-90.06469148499534",
    "latitude": "29.95957063099051",
    "geocoded_column": {
      "latitude": "29.95957063099051",
      "longitude": "-90.06469148499534"
    }
  },
  {
    "service_request": "2026-1285758",
    "request_type": "Health Related Request",
    "request_reason": "Noise Ordinance Complaint",
    "date_created": "2026-05-29T23:11:46.000",
    "date_modified": "2026-05-29T23:11:49.000",
    "request_status": "Pending",
    "responsible_agency": "Health Department",
    "final_address": "800 Bourbon St, New Orleans, Louisiana, 70116",
    "address_councildis": "C",
    "status": "Pending",
    "rowid": "1285758",
    "final_x": "3682553.51528",
    "final_y": "533013.631428",
    "longitude": "-90.06469148499534",
    "latitude": "29.95957063099051",
    "geocoded_column": {
      "latitude": "29.95957063099051",
      "longitude": "-90.06469148499534"
    }
  },
  {
    "service_request": "2026-1285757",
    "request_type": "Trash/Recycling",
    "request_reason": "Request a Large Item Pick Up",
    "date_created": "2026-05-29T22:28:44.000",
    "date_modified": "2026-05-29T22:28:46.000",
    "request_status": "Pending",
    "responsible_agency": "Department of Sanitation",
    "final_address": "1116 Upperline St",
    "address_councildis": "B",
    "status": "Assigned to Contractor",
    "contractor": "IV Waste",
    "rowid": "1285757",
    "final_x": "3668944.56718",
    "final_y": "519487.305847",
    "longitude": "-90.1081222490633",
    "latitude": "29.922784897541703",
    "geocoded_column": {
      "latitude": "29.922784897541703",
      "longitude": "-90.1081222490633"
    }
  },
  {
    "service_request": "2026-1285756",
    "request_type": "Utility Poles",
    "request_reason": "Utility Pole Leaning",
    "date_created": "2026-05-29T22:23:17.000",
    "date_modified": "2026-05-29T22:23:19.000",
    "request_status": "Pending",
    "responsible_agency": "Utility Company Collective",
    "final_address": "2323 Filmore Ave",
    "address_councildis": "D",
    "status": "Pending",
    "rowid": "1285756",
    "final_x": "3684630.42613",
    "final_y": "552543.253782",
    "longitude": "-90.0574463999321",
    "latitude": "30.01320678639251",
    "geocoded_column": {
      "latitude": "30.01320678639251",
      "longitude": "-90.0574463999321"
    }
  },
  {
    "service_request": "2026-1285755",
    "request_type": "Health Related Request",
    "request_reason": "Noise Ordinance Complaint",
    "date_created": "2026-05-29T21:31:53.000",
    "date_modified": "2026-05-29T21:31:55.000",
    "request_status": "Pending",
    "responsible_agency": "Health Department",
    "final_address": "800 Bourbon St, New Orleans, Louisiana, 70116",
    "address_councildis": "C",
    "status": "Pending",
    "rowid": "1285755",
    "final_x": "3682553.51528",
    "final_y": "533013.631428",
    "longitude": "-90.06469148499534",
    "latitude": "29.95957063099051",
    "geocoded_column": {
      "latitude": "29.95957063099051",
      "longitude": "-90.06469148499534"
    }
  },
  {
    "service_request": "2026-1285754",
    "request_type": "Trash/Recycling",
    "request_reason": "Order Recycling Cart",
    "date_created": "2026-05-29T21:21:58.000",
    "date_modified": "2026-05-29T21:22:09.000",
    "request_status": "Pending",
    "responsible_agency": "Department of Sanitation",
    "final_address": "545 Huntlee Dr",
    "address_councildis": "C",
    "status": "Pending",
    "rowid": "1285754",
    "final_x": "3701772.45348",
    "final_y": "520980.485305",
    "longitude": "-90.00444362136439",
    "latitude": "29.925884624733627",
    "geocoded_column": {
      "latitude": "29.925884624733627",
      "longitude": "-90.00444362136439"
    }
  },
  {
    "service_request": "2026-1285752",
    "request_type": "Health Related Request",
    "request_reason": "Noise Ordinance Complaint",
    "date_created": "2026-05-29T20:18:48.000",
    "date_modified": "2026-05-29T20:18:50.000",
    "request_status": "Pending",
    "responsible_agency": "Health Department",
    "final_address": "800 Bourbon St, New Orleans, Louisiana, 70116",
    "address_councildis": "C",
    "status": "Pending",
    "rowid": "1285752",
    "final_x": "3682553.51528",
    "final_y": "533013.631428",
    "longitude": "-90.06469148499534",
    "latitude": "29.95957063099051",
    "geocoded_column": {
      "latitude": "29.95957063099051",
      "longitude": "-90.06469148499534"
    }
  },
  {
    "service_request": "2026-1285751",
    "request_type": "Trash/Recycling",
    "request_reason": "Request a Large Item Pick Up",
    "date_created": "2026-05-29T20:09:15.000",
    "date_modified": "2026-05-29T20:09:17.000",
    "request_status": "Pending",
    "responsible_agency": "Department of Sanitation",
    "final_address": "2250 Cambronne St",
    "address_councildis": "A",
    "status": "Assigned to Contractor",
    "contractor": "IV Waste",
    "rowid": "1285751",
    "final_x": "3663784.82317",
    "final_y": "532040.487811",
    "longitude": "-90.12399138282785",
    "latitude": "29.957452840742857",
    "geocoded_column": {
      "latitude": "29.957452840742857",
      "longitude": "-90.12399138282785"
    }
  },
  {
    "service_request": "2026-1285750",
    "request_type": "Trash/Recycling",
    "request_reason": "Request a Large Item Pick Up",
    "date_created": "2026-05-29T19:44:11.000",
    "date_modified": "2026-05-29T19:44:14.000",
    "request_status": "Pending",
    "responsible_agency": "Department of Sanitation",
    "final_address": "4010 Sullen Pl",
    "address_councildis": "C",
    "status": "Assigned to Contractor",
    "contractor": "Richards Disposal",
    "rowid": "1285750",
    "final_x": "3707560.73342",
    "final_y": "516083.288756",
    "longitude": "-89.98635362700051",
    "latitude": "29.91223318608092",
    "geocoded_column": {
      "latitude": "29.91223318608092",
      "longitude": "-89.98635362700051"
    }
  },
  {
    "service_request": "2026-1285749",
    "request_type": "Road Striping",
    "request_reason": "Lane Striping or other Pavement Markings",
    "date_created": "2026-05-29T19:38:44.000",
    "date_modified": "2026-05-29T19:38:46.000",
    "request_status": "Pending",
    "responsible_agency": "Department of Public Works",
    "final_address": "433 N Bernadotte St",
    "address_councildis": "A",
    "status": "Pending",
    "rowid": "1285749",
    "final_x": "3669616.25422",
    "final_y": "541212.019084",
    "longitude": "-90.10526701762241",
    "latitude": "29.98250096070414",
    "geocoded_column": {
      "latitude": "29.98250096070414",
      "longitude": "-90.10526701762241"
    }
  },
  {
    "service_request": "2026-1285748",
    "request_type": "Trash/Recycling",
    "request_reason": "Replace Trash Cart",
    "date_created": "2026-05-29T19:32:01.000",
    "date_modified": "2026-05-29T19:32:02.000",
    "request_status": "Pending",
    "responsible_agency": "Department of Sanitation",
    "final_address": "1020 N Tonti St",
    "address_councildis": "C",
    "status": "Assigned to Contractor",
    "contractor": "IV Waste",
    "rowid": "1285748",
    "final_x": "3678691.16014",
    "final_y": "537093.440008",
    "longitude": "-90.07674662894205",
    "latitude": "29.970905733492405",
    "geocoded_column": {
      "latitude": "29.970905733492405",
      "longitude": "-90.07674662894205"
    }
  },
  {
    "service_request": "2026-1285747",
    "request_type": "Drainage",
    "request_reason": "Catch Basin Not Draining",
    "date_created": "2026-05-29T19:29:58.000",
    "date_modified": "2026-05-29T19:30:01.000",
    "request_status": "Pending",
    "responsible_agency": "Sewerage & Water Board",
    "final_address": "4143 Canal St",
    "address_councildis": "A",
    "status": "Pending",
    "rowid": "1285747",
    "final_x": "3670930.69281",
    "final_y": "538702.312841",
    "longitude": "-90.10120059877731",
    "latitude": "29.975561319226305",
    "geocoded_column": {
      "latitude": "29.975561319226305",
      "longitude": "-90.10120059877731"
    }
  },
  {
    "service_request": "2026-1285746",
    "request_type": "Trash/Recycling",
    "request_reason": "Replace Trash Cart",
    "date_created": "2026-05-29T19:07:59.000",
    "date_modified": "2026-05-29T19:08:01.000",
    "request_status": "Pending",
    "responsible_agency": "Department of Sanitation",
    "final_address": "2109 Ellen Park Pl",
    "address_councildis": "C",
    "status": "Assigned to Contractor",
    "contractor": "Richards Disposal",
    "rowid": "1285746",
    "final_x": "3702861.44574",
    "final_y": "523135.400187",
    "longitude": "-90.0009269215071",
    "latitude": "29.931775119720243",
    "geocoded_column": {
      "latitude": "29.931775119720243",
      "longitude": "-90.0009269215071"
    }
  },
  {
    "service_request": "2026-1285745",
    "request_type": "Trash/Recycling",
    "request_reason": "Missed Trash Pick-Up",
    "date_created": "2026-05-29T18:48:38.000",
    "date_modified": "2026-05-30T07:01:14.000",
    "case_close_date": "2026-05-30T02:01:13.000",
    "request_status": "Closed",
    "responsible_agency": "Department of Sanitation",
    "final_address": "3001 Burgundy St",
    "address_councildis": "C",
    "status": "Invalid Request",
    "contractor": "IV Waste",
    "contractor_action": "Invalid",
    "rowid": "1285745",
    "final_x": "3688332.88879",
    "final_y": "535365.241222",
    "longitude": "-90.04635820562042",
    "latitude": "29.965859530942087",
    "geocoded_column": {
      "latitude": "29.965859530942087",
      "longitude": "-90.04635820562042"
    }
  },
  {
    "service_request": "2026-1285744",
    "request_type": "Trash/Recycling",
    "request_reason": "Repair Recycling Cart",
    "date_created": "2026-05-29T18:35:07.000",
    "date_modified": "2026-05-29T18:35:09.000",
    "request_status": "Pending",
    "responsible_agency": "Department of Sanitation",
    "final_address": "1020 Franklin Ave",
    "address_councildis": "C",
    "status": "Pending",
    "rowid": "1285744",
    "final_x": "3687041.00591",
    "final_y": "536272.093703",
    "longitude": "-90.05040585613712",
    "latitude": "29.968392893868263",
    "geocoded_column": {
      "latitude": "29.968392893868263",
      "longitude": "-90.05040585613712"
    }
  },
  {
    "service_request": "2026-1285743",
    "request_type": "Trash/Recycling",
    "request_reason": "Repair Trash Cart",
    "date_created": "2026-05-29T18:06:51.000",
    "date_modified": "2026-05-29T18:06:53.000",
    "request_status": "Pending",
    "responsible_agency": "Department of Sanitation",
    "final_address": "300 Leslie Ln",
    "address_councildis": "A",
    "status": "Assigned to Contractor",
    "contractor": "IV Waste",
    "rowid": "1285743",
    "final_x": "3665045.83239",
    "final_y": "547316.106001",
    "longitude": "-90.11949849271788",
    "latitude": "29.99941902330447",
    "geocoded_column": {
      "latitude": "29.99941902330447",
      "longitude": "-90.11949849271788"
    }
  },
  {
    "service_request": "2026-1285742",
    "request_type": "Trash/Recycling",
    "request_reason": "Request a Large Item Pick Up",
    "date_created": "2026-05-29T18:04:15.000",
    "date_modified": "2026-05-29T18:04:16.000",
    "request_status": "Pending",
    "responsible_agency": "Department of Sanitation",
    "final_address": "300 Leslie Ln",
    "address_councildis": "A",
    "status": "Assigned to Contractor",
    "contractor": "IV Waste",
    "rowid": "1285742",
    "final_x": "3665045.83239",
    "final_y": "547316.106001",
    "longitude": "-90.11949849271788",
    "latitude": "29.99941902330447",
    "geocoded_column": {
      "latitude": "29.99941902330447",
      "longitude": "-90.11949849271788"
    }
  },
  {
    "service_request": "2026-1285741",
    "request_type": "Trash/Recycling",
    "request_reason": "Request a Large Item Pick Up",
    "date_created": "2026-05-29T17:55:12.000",
    "date_modified": "2026-05-29T17:55:14.000",
    "request_status": "Pending",
    "responsible_agency": "Department of Sanitation",
    "final_address": "3618 Bruxelles St",
    "address_councildis": "D",
    "status": "Assigned to Contractor",
    "contractor": "IV Waste",
    "rowid": "1285741",
    "final_x": "3680040.40431",
    "final_y": "545717.258896",
    "longitude": "-90.07218578678001",
    "latitude": "29.994577474671946",
    "geocoded_column": {
      "latitude": "29.994577474671946",
      "longitude": "-90.07218578678001"
    }
  },
  {
    "service_request": "2026-1285740",
    "request_type": "Trash/Recycling",
    "request_reason": "Order Recycling Cart",
    "date_created": "2026-05-29T17:42:46.000",
    "date_modified": "2026-05-29T17:42:48.000",
    "request_status": "Pending",
    "responsible_agency": "Department of Sanitation",
    "final_address": "2110 Piety St",
    "address_councildis": "D",
    "status": "Pending",
    "rowid": "1285740",
    "final_x": "3690694.57436",
    "final_y": "539682.54209",
    "longitude": "-90.0387460673311",
    "latitude": "29.977657435367217",
    "geocoded_column": {
      "latitude": "29.977657435367217",
      "longitude": "-90.0387460673311"
    }
  },
  {
    "service_request": "2026-1285739",
    "request_type": "Trash/Recycling",
    "request_reason": "Replace Recycling Cart",
    "date_created": "2026-05-29T17:25:31.000",
    "date_modified": "2026-05-29T17:25:34.000",
    "request_status": "Pending",
    "responsible_agency": "Department of Sanitation",
    "final_address": "5604 St Bernard Ave",
    "address_councildis": "D",
    "status": "Pending",
    "rowid": "1285739",
    "final_x": "3676796.07381",
    "final_y": "552715.40623",
    "longitude": "-90.08219285686455",
    "latitude": "30.013917682092337",
    "geocoded_column": {
      "latitude": "30.013917682092337",
      "longitude": "-90.08219285686455"
    }
  },
  {
    "service_request": "2026-1285738",
    "request_type": "Trash/Recycling",
    "request_reason": "Missed Trash Pick-Up",
    "date_created": "2026-05-29T17:23:55.000",
    "date_modified": "2026-05-29T17:43:56.000",
    "case_close_date": "2026-05-29T12:43:55.000",
    "request_status": "Closed",
    "responsible_agency": "Department of Sanitation",
    "final_address": "4549 Danneel St",
    "address_councildis": "B",
    "status": "Invalid Request",
    "contractor": "IV Waste",
    "contractor_action": "Invalid Request",
    "rowid": "1285738",
    "final_x": "3669987.74823",
    "final_y": "522255.919098",
    "longitude": "-90.1047356230178",
    "latitude": "29.930366988954045",
    "geocoded_column": {
      "latitude": "29.930366988954045",
      "longitude": "-90.1047356230178"
    }
  },
  {
    "service_request": "2026-1285737",
    "request_type": "Trash/Recycling",
    "request_reason": "Request a Large Item Pick Up",
    "date_created": "2026-05-29T17:21:54.000",
    "date_modified": "2026-05-29T17:21:58.000",
    "request_status": "Pending",
    "responsible_agency": "Department of Sanitation",
    "final_address": "5604 St Bernard Ave",
    "address_councildis": "D",
    "status": "Assigned to Contractor",
    "contractor": "IV Waste",
    "rowid": "1285737",
    "final_x": "3676796.07381",
    "final_y": "552715.40623",
    "longitude": "-90.08219285686455",
    "latitude": "30.013917682092337",
    "geocoded_column": {
      "latitude": "30.013917682092337",
      "longitude": "-90.08219285686455"
    }
  },
  {
    "service_request": "2026-1285736",
    "request_type": "Trash/Recycling",
    "request_reason": "Order Trash Cart",
    "date_created": "2026-05-29T17:10:55.000",
    "date_modified": "2026-05-29T17:10:57.000",
    "request_status": "Pending",
    "responsible_agency": "Department of Sanitation",
    "final_address": "1724 Constantinople St",
    "address_councildis": "B",
    "status": "Assigned to Contractor",
    "contractor": "IV Waste",
    "rowid": "1285736",
    "final_x": "3672212.09447",
    "final_y": "521593.964409",
    "longitude": "-90.09773622577097",
    "latitude": "29.928481059427604",
    "geocoded_column": {
      "latitude": "29.928481059427604",
      "longitude": "-90.09773622577097"
    }
  },
  {
    "service_request": "2026-1285735",
    "request_type": "Trash/Recycling",
    "request_reason": "Start Trash Service",
    "date_created": "2026-05-29T17:10:31.000",
    "date_modified": "2026-05-29T17:10:33.000",
    "request_status": "Pending",
    "responsible_agency": "Department of Sanitation",
    "final_address": "4726 Owens Blvd",
    "address_councildis": "D",
    "status": "Assigned to Contractor",
    "contractor": "IV Waste",
    "rowid": "1285735",
    "final_x": "3676534.81736",
    "final_y": "549710.99458",
    "longitude": "-90.08312186499545",
    "latitude": "30.005664463812803",
    "geocoded_column": {
      "latitude": "30.005664463812803",
      "longitude": "-90.08312186499545"
    }
  },
  {
    "service_request": "2026-1285734",
    "request_type": "Trash/Recycling",
    "request_reason": "Replace Trash Cart",
    "date_created": "2026-05-29T17:08:28.000",
    "date_modified": "2026-05-29T17:08:30.000",
    "request_status": "Pending",
    "responsible_agency": "Department of Sanitation",
    "final_address": "918 Foucher St Apt 1",
    "address_councildis": "B",
    "status": "Assigned to Contractor",
    "contractor": "IV Waste",
    "rowid": "1285734",
    "final_x": "3674303.09294",
    "final_y": "518765.083511",
    "longitude": "-90.09123218649236",
    "latitude": "29.92064038184057",
    "geocoded_column": {
      "latitude": "29.92064038184057",
      "longitude": "-90.09123218649236"
    }
  },
  {
    "service_request": "2026-1285733",
    "request_type": "Trash/Recycling",
    "request_reason": "Request a Large Item Pick Up",
    "date_created": "2026-05-29T16:45:40.000",
    "date_modified": "2026-05-29T16:45:41.000",
    "request_status": "Pending",
    "responsible_agency": "Department of Sanitation",
    "final_address": "2222 Halsey Ave",
    "address_councildis": "C",
    "status": "Assigned to Contractor",
    "contractor": "Richards Disposal",
    "rowid": "1285733",
    "final_x": "3697785.69802",
    "final_y": "522834.705659",
    "longitude": "-90.01696130961838",
    "latitude": "29.93110962763171",
    "geocoded_column": {
      "latitude": "29.93110962763171",
      "longitude": "-90.01696130961838"
    }
  },
  {
    "service_request": "2026-1285732",
    "request_type": "Trash/Recycling",
    "request_reason": "Replace Trash Cart",
    "date_created": "2026-05-29T16:42:15.000",
    "date_modified": "2026-05-29T16:42:17.000",
    "request_status": "Pending",
    "responsible_agency": "Department of Sanitation",
    "final_address": "4417 Chestnut St",
    "address_councildis": "B",
    "status": "Assigned to Contractor",
    "contractor": "IV Waste",
    "rowid": "1285732",
    "final_x": "3670766.34862",
    "final_y": "519542.946487",
    "longitude": "-90.10236970287436",
    "latitude": "29.92288420291195",
    "geocoded_column": {
      "latitude": "29.92288420291195",
      "longitude": "-90.10236970287436"
    }
  },
  {
    "service_request": "2026-1285731",
    "request_type": "Abandoned Vehicles",
    "request_reason": "Abandoned/Junk Vehicles",
    "date_created": "2026-05-29T16:42:05.000",
    "date_modified": "2026-05-29T16:42:06.000",
    "request_status": "Pending",
    "responsible_agency": "Department of Public Works",
    "final_address": "4333 S Carrollton Ave",
    "address_councildis": "A",
    "status": "Pending",
    "rowid": "1285731",
    "final_x": "3669890.22196",
    "final_y": "537107.152456",
    "longitude": "-90.1045407277373",
    "latitude": "29.971205887848555",
    "geocoded_column": {
      "latitude": "29.971205887848555",
      "longitude": "-90.1045407277373"
    }
  },
  {
    "service_request": "2026-1285730",
    "request_type": "Trash/Recycling",
    "request_reason": "Replace Trash Cart",
    "date_created": "2026-05-29T16:41:59.000",
    "date_modified": "2026-05-29T16:42:01.000",
    "request_status": "Pending",
    "responsible_agency": "Department of Sanitation",
    "final_address": "8507 Sycamore St",
    "address_councildis": "A",
    "status": "Assigned to Contractor",
    "contractor": "IV Waste",
    "rowid": "1285730",
    "final_x": "3663243.52218",
    "final_y": "532008.829379",
    "longitude": "-90.1257017116341",
    "latitude": "29.95738148806699",
    "geocoded_column": {
      "latitude": "29.95738148806699",
      "longitude": "-90.1257017116341"
    }
  },
  {
    "service_request": "2026-1285729",
    "request_type": "Abandoned Vehicles",
    "request_reason": "Abandoned/Junk Vehicles",
    "date_created": "2026-05-29T16:40:22.000",
    "date_modified": "2026-05-29T16:40:23.000",
    "request_status": "Pending",
    "responsible_agency": "Department of Public Works",
    "final_address": "4333 S Carrollton Ave",
    "address_councildis": "A",
    "status": "Pending",
    "rowid": "1285729",
    "final_x": "3669890.22196",
    "final_y": "537107.152456",
    "longitude": "-90.1045407277373",
    "latitude": "29.971205887848555",
    "geocoded_column": {
      "latitude": "29.971205887848555",
      "longitude": "-90.1045407277373"
    }
  },
  {
    "service_request": "2026-1285728",
    "request_type": "Trash/Recycling",
    "request_reason": "Request a Large Item Pick Up",
    "date_created": "2026-05-29T16:35:28.000",
    "date_modified": "2026-05-29T16:35:31.000",
    "request_status": "Pending",
    "responsible_agency": "Department of Sanitation",
    "final_address": "3620 Bennett St",
    "address_councildis": "C",
    "status": "Assigned to Contractor",
    "contractor": "Richards Disposal",
    "rowid": "1285728",
    "final_x": "3710383.9651",
    "final_y": "517176.367285",
    "longitude": "-89.9774020021709",
    "latitude": "29.915147212384024",
    "geocoded_column": {
      "latitude": "29.915147212384024",
      "longitude": "-89.9774020021709"
    }
  },
  {
    "service_request": "2026-1285727",
    "request_type": "Trash/Recycling",
    "request_reason": "Request a Large Item Pick Up",
    "date_created": "2026-05-29T16:30:14.000",
    "date_modified": "2026-05-29T16:30:15.000",
    "request_status": "Pending",
    "responsible_agency": "Department of Sanitation",
    "final_address": "7951 Bullard Ave Unit B",
    "address_councildis": "E",
    "status": "Assigned to Contractor",
    "contractor": "Waste Pro",
    "rowid": "1285727",
    "final_x": "3712423.58942",
    "final_y": "568521.666021",
    "longitude": "-89.96903465594299",
    "latitude": "30.05626082030535",
    "geocoded_column": {
      "latitude": "30.05626082030535",
      "longitude": "-89.96903465594299"
    }
  },
  {
    "service_request": "2026-1285726",
    "request_type": "Trash/Recycling",
    "request_reason": "Request a Large Item Pick Up",
    "date_created": "2026-05-29T16:29:04.000",
    "date_modified": "2026-05-29T16:29:06.000",
    "request_status": "Pending",
    "responsible_agency": "Department of Sanitation",
    "final_address": "2304 Audubon St",
    "address_councildis": "A",
    "status": "Assigned to Contractor",
    "contractor": "IV Waste",
    "rowid": "1285726",
    "final_x": "3666619.74324",
    "final_y": "529665.538497",
    "longitude": "-90.11511924758926",
    "latitude": "29.95083992985546",
    "geocoded_column": {
      "latitude": "29.95083992985546",
      "longitude": "-90.11511924758926"
    }
  },
  {
    "service_request": "2026-1285725",
    "request_type": "Trash/Recycling",
    "request_reason": "Request a Large Item Pick Up",
    "date_created": "2026-05-29T16:24:41.000",
    "date_modified": "2026-05-29T16:24:44.000",
    "request_status": "Pending",
    "responsible_agency": "Department of Sanitation",
    "final_address": "13501 Wales St",
    "address_councildis": "E",
    "status": "Assigned to Contractor",
    "contractor": "Waste Pro",
    "rowid": "1285725",
    "final_x": "3716569.75",
    "final_y": "571310.989544",
    "longitude": "-89.95582350562118",
    "latitude": "30.06379391381431",
    "geocoded_column": {
      "latitude": "30.06379391381431",
      "longitude": "-89.95582350562118"
    }
  },
  {
    "service_request": "2026-1285724",
    "request_type": "Trash/Recycling",
    "request_reason": "Request a Large Item Pick Up",
    "date_created": "2026-05-29T16:17:55.000",
    "date_modified": "2026-05-29T16:17:56.000",
    "request_status": "Pending",
    "responsible_agency": "Department of Sanitation",
    "final_address": "7820 Henley St",
    "address_councildis": "E",
    "status": "Assigned to Contractor",
    "contractor": "Waste Pro",
    "rowid": "1285724",
    "final_x": "3696613.32099",
    "final_y": "559788.827165",
    "longitude": "-90.01932452471519",
    "latitude": "30.032757038011013",
    "geocoded_column": {
      "latitude": "30.032757038011013",
      "longitude": "-90.01932452471519"
    }
  },
  {
    "service_request": "2026-1285723",
    "request_type": "Trash/Recycling",
    "request_reason": "Repair Trash Cart",
    "date_created": "2026-05-29T16:13:36.000",
    "date_modified": "2026-05-29T16:16:35.000",
    "request_status": "Pending",
    "responsible_agency": "Department of Sanitation",
    "final_address": "3104 General Taylor St",
    "address_councildis": "B",
    "status": "Pending",
    "contractor": "IV Waste",
    "rowid": "1285723",
    "final_x": "3671306.80411",
    "final_y": "526411.996542",
    "longitude": "-90.10043038841003",
    "latitude": "29.94175590277173",
    "geocoded_column": {
      "latitude": "29.94175590277173",
      "longitude": "-90.10043038841003"
    }
  },
  {
    "service_request": "2026-1285722",
    "request_type": "Trash/Recycling",
    "request_reason": "Repair Trash Cart",
    "date_created": "2026-05-29T16:10:55.000",
    "date_modified": "2026-05-29T16:10:57.000",
    "request_status": "Pending",
    "responsible_agency": "Department of Sanitation",
    "final_address": "3518 Hamilton St",
    "address_councildis": "A",
    "status": "Assigned to Contractor",
    "contractor": "IV Waste",
    "rowid": "1285722",
    "final_x": "3664955.01645",
    "final_y": "536953.949064",
    "longitude": "-90.12013197208991",
    "latitude": "29.97092923174953",
    "geocoded_column": {
      "latitude": "29.97092923174953",
      "longitude": "-90.12013197208991"
    }
  },
  {
    "service_request": "2026-1285721",
    "request_type": "Health Related Request",
    "request_reason": "Smoke-Free Ordinance Complaint",
    "date_created": "2026-05-29T16:09:30.000",
    "date_modified": "2026-05-29T16:09:31.000",
    "request_status": "Pending",
    "responsible_agency": "Health Department",
    "final_address": "2828 Canal St",
    "address_councildis": "B",
    "status": "Pending",
    "rowid": "1285721",
    "final_x": "3674637.80622",
    "final_y": "535532.54887",
    "longitude": "-90.08960116172035",
    "latitude": "29.9667354141973",
    "geocoded_column": {
      "latitude": "29.9667354141973",
      "longitude": "-90.08960116172035"
    }
  },
  {
    "service_request": "2026-1285720",
    "request_type": "Trash/Recycling",
    "request_reason": "Order Trash Cart",
    "date_created": "2026-05-29T16:07:33.000",
    "date_modified": "2026-05-29T16:07:35.000",
    "request_status": "Pending",
    "responsible_agency": "Department of Sanitation",
    "final_address": "2717 Josephine St",
    "address_councildis": "B",
    "status": "Assigned to Contractor",
    "contractor": "IV Waste",
    "rowid": "1285720",
    "final_x": "3675449.06126",
    "final_y": "527205.168959",
    "longitude": "-90.08732518649681",
    "latitude": "29.943813663259117",
    "geocoded_column": {
      "latitude": "29.943813663259117",
      "longitude": "-90.08732518649681"
    }
  },
  {
    "service_request": "2026-1285719",
    "request_type": "Trash/Recycling",
    "request_reason": "Request a Large Item Pick Up",
    "date_created": "2026-05-29T16:04:45.000",
    "date_modified": "2026-05-29T16:04:46.000",
    "request_status": "Pending",
    "responsible_agency": "Department of Sanitation",
    "final_address": "5534 S Johnson St",
    "address_councildis": "B",
    "status": "Assigned to Contractor",
    "contractor": "IV Waste",
    "rowid": "1285719",
    "final_x": "3667951.53479",
    "final_y": "527054.73907",
    "longitude": "-90.11100205039655",
    "latitude": "29.94362207937838",
    "geocoded_column": {
      "latitude": "29.94362207937838",
      "longitude": "-90.11100205039655"
    }
  },
  {
    "service_request": "2026-1285718",
    "request_type": "Trash/Recycling",
    "request_reason": "Damaged Caused By Contractor",
    "date_created": "2026-05-29T16:04:42.000",
    "date_modified": "2026-05-29T16:04:44.000",
    "request_status": "Pending",
    "responsible_agency": "Department of Sanitation",
    "final_address": "541 Audubon St",
    "address_councildis": "A",
    "status": "Assigned to Contractor",
    "contractor": "IV Waste",
    "rowid": "1285718",
    "final_x": "3662921.3417",
    "final_y": "524026.812348",
    "longitude": "-90.12698442419376",
    "latitude": "29.935442831917573",
    "geocoded_column": {
      "latitude": "29.935442831917573",
      "longitude": "-90.12698442419376"
    }
  },