[
  {
    "service_request": "2024-1125667",
    "request_type": "Trash/Recycling",
    "request_reason": "Request a Large Item Pick Up",
    "date_created": "2024-08-27T22:46:23.000",
    "date_modified": "2024-08-27T22:46:24.000",
    "request_status": "Pending",
    "responsible_agency": "Department of Sanitation",
    "final_address": "3120 Frenchmen St",
    "address_councildis": "D",
    "status": "Assigned to Contractor",
    "contractor": "IV Waste",
    "rowid": "1125667",
    "final_x": "3683914.76028",
    "final_y": "544195.771022",
    "longitude": "-90.0600005998907",
    "latitude": "29.99027610403387",
    "geocoded_column": {
      "latitude": "29.99027610403387",
      "longitude": "-90.0600005998907"
    }
  },
  {
    "service_request": "2024-1125666",
    "request_type": "Abandoned Vehicles",
    "request_reason": "Abandoned/Junk Vehicles",
    "date_created": "2024-08-27T22:04:47.000",
    "date_modified": "2024-08-27T22:04:47.000",
    "request_status": "Pending",
    "responsible_agency": "Department of Public Works",
    "final_address": "2252 N Galvez St",
    "address_councildis": "D",
    "status": "Pending",
    "rowid": "1125666",
    "final_x": "3685236.39049",
    "final_y": "539996.984075",
    "longitude": "-90.05597377205928",
    "latitude": "29.97869047519888",
    "geocoded_column": {
      "latitude": "29.97869047519888",
      "longitude": "-90.05597377205928"
    }
  },
  {
    "service_request": "2024-1125665",
    "request_type": "Abandoned Vehicles",
    "request_reason": "Abandoned/Junk Vehicles",
    "date_created": "2024-08-27T22:00:55.000",
    "date_modified": "2024-08-27T22:00:55.000",
    "request_status": "Pending",
    "responsible_agency": "Department of Public Works",
    "final_address": "1225 St Roch Ave",
    "address_councildis": "C",
    "status": "Pending",
    "rowid": "1125665",
    "final_x": "3686537.23542",
    "final_y": "537009.624008",
    "longitude": "-90.05197073766934",
    "latitude": "29.97043634456776",
    "geocoded_column": {
      "latitude": "29.97043634456776",
      "longitude": "-90.05197073766934"
    }
  },
  {
    "service_request": "2024-1125664",
    "request_type": "Trash/Recycling",
    "request_reason": "Request a Large Item Pick Up",
    "date_created": "2024-08-27T21:46:48.000",
    "date_modified": "2024-08-27T21:46:49.000",
    "request_status": "Pending",
    "responsible_agency": "Department of Sanitation",
    "final_address": "4766 Galahad Dr",
    "address_councildis": "E",
    "status": "Assigned to Contractor",
    "contractor": "Waste Pro",
    "rowid": "1125664",
    "final_x": "3707120.49803",
    "final_y": "555640.954841",
    "longitude": "-89.98627532054213",
    "latitude": "30.02101651445104",
    "geocoded_column": {
      "latitude": "30.02101651445104",
      "longitude": "-89.98627532054213"
    }
  },
  {
    "service_request": "2024-1125663",
    "request_type": "Trash/Recycling",
    "request_reason": "Request a Large Item Pick Up",
    "date_created": "2024-08-27T21:40:07.000",
    "date_modified": "2024-08-27T21:40:08.000",
    "request_status": "Pending",
    "responsible_agency": "Department of Sanitation",
    "final_address": "1207 France St",
    "address_councildis": "D",
    "status": "Assigned to Contractor",
    "contractor": "IV Waste",
    "rowid": "1125663",
    "final_x": "3692529.84361",
    "final_y": "535578.38311",
    "longitude": "-90.03309677360788",
    "latitude": "29.9663153125797",
    "geocoded_column": {
      "latitude": "29.9663153125797",
      "longitude": "-90.03309677360788"
    }
  },
  {
    "service_request": "2024-1125662",
    "request_type": "Roads/Drainage",
    "request_reason": "Pothole",
    "date_created": "2024-08-27T21:23:17.000",
    "date_modified": "2024-08-27T21:23:17.000",
    "request_status": "Pending",
    "responsible_agency": "Department of Public Works",
    "final_address": "734 Jefferson Ave",
    "address_councildis": "A",
    "status": "Pending",
    "rowid": "1125662",
    "final_x": "3666512.67489",
    "final_y": "518165.675062",
    "longitude": "-90.1158431294325",
    "latitude": "29.919222105117242",
    "geocoded_column": {
      "latitude": "29.919222105117242",
      "longitude": "-90.1158431294325"
    }
  },
  {
    "service_request": "2024-1125661",
    "request_type": "Trash/Recycling",
    "request_reason": "Order Recycling Cart",
    "date_created": "2024-08-27T21:21:20.000",
    "date_modified": "2024-08-27T21:21:20.000",
    "request_status": "Pending",
    "responsible_agency": "Department of Sanitation",
    "final_address": "332 Harney St",
    "address_councildis": "A",
    "status": "Pending",
    "rowid": "1125661",
    "final_x": "3667223.6841",
    "final_y": "547100.982161",
    "longitude": "-90.11262580843967",
    "latitude": "29.99876389038997",
    "geocoded_column": {
      "latitude": "29.99876389038997",
      "longitude": "-90.11262580843967"
    }
  },
  {
    "service_request": "2024-1125660",
    "request_type": "Trash/Recycling",
    "request_reason": "Request a Large Item Pick Up",
    "date_created": "2024-08-27T21:05:27.000",
    "date_modified": "2024-08-27T21:05:28.000",
    "request_status": "Pending",
    "responsible_agency": "Department of Sanitation",
    "final_address": "4623 Dart St",
    "address_councildis": "B",
    "status": "Assigned to Contractor",
    "contractor": "IV Waste",
    "rowid": "1125660",
    "final_x": "3669207.88385",
    "final_y": "531658.224579",
    "longitude": "-90.106879842914",
    "latitude": "29.956243248612864",
    "geocoded_column": {
      "latitude": "29.956243248612864",
      "longitude": "-90.106879842914"
    }
  },
  {
    "service_request": "2024-1125659",
    "request_type": "Trash/Recycling",
    "request_reason": "Missed Trash Pick-Up",
    "date_created": "2024-08-27T20:46:50.000",
    "date_modified": "2024-08-27T20:46:51.000",
    "request_status": "Pending",
    "responsible_agency": "Department of Sanitation",
    "final_address": "7550 Branch Dr",
    "address_councildis": "E",
    "status": "Assigned to Contractor",
    "contractor": "Waste Pro",
    "rowid": "1125659",
    "final_x": "3714991.91506",
    "final_y": "568277.014885",
    "longitude": "-89.96092596548338",
    "latitude": "30.055503797408562",
    "geocoded_column": {
      "latitude": "30.055503797408562",
      "longitude": "-89.96092596548338"
    }
  },
  {
    "service_request": "2024-1125658",
    "request_type": "Trash/Recycling",
    "request_reason": "Missed Trash Pick-Up",
    "date_created": "2024-08-27T20:44:54.000",
    "date_modified": "2024-08-27T20:44:55.000",
    "request_status": "Pending",
    "responsible_agency": "Department of Sanitation",
    "final_address": "7550 Branch Dr",
    "address_councildis": "E",
    "status": "Assigned to Contractor",
    "contractor": "Waste Pro",
    "rowid": "1125658",
    "final_x": "3714991.91506",
    "final_y": "568277.014885",
    "longitude": "-89.96092596548338",
    "latitude": "30.055503797408562",
    "geocoded_column": {
      "latitude": "30.055503797408562",
      "longitude": "-89.96092596548338"
    }
  },
  {
    "service_request": "2024-1125657",
    "request_type": "Trash/Recycling",
    "request_reason": "Missed Trash Pick-Up",
    "date_created": "2024-08-27T20:41:17.000",
    "date_modified": "2024-08-27T20:41:18.000",
    "request_status": "Pending",
    "responsible_agency": "Department of Sanitation",
    "final_address": "7550 Branch Dr",
    "address_councildis": "E",
    "status": "Assigned to Contractor",
    "contractor": "Waste Pro",
    "rowid": "1125657",
    "final_x": "3714991.91506",
    "final_y": "568277.014885",
    "longitude": "-89.96092596548338",
    "latitude": "30.055503797408562",
    "geocoded_column": {
      "latitude": "30.055503797408562",
      "longitude": "-89.96092596548338"
    }
  },
  {
    "service_request": "2024-1125656",
    "request_type": "Abandoned Vehicles",
    "request_reason": "Abandoned/Junk Vehicles",
    "date_created": "2024-08-27T20:23:35.000",
    "date_modified": "2024-08-27T20:23:35.000",
    "request_status": "Pending",
    "responsible_agency": "Department of Public Works",
    "final_address": "2335 Urquhart St",
    "address_councildis": "C",
    "status": "Pending",
    "rowid": "1125656",
    "final_x": "3685995.5711",
    "final_y": "537155.395464",
    "longitude": "-90.05367622984078",
    "latitude": "29.97085380956173",
    "geocoded_column": {
      "latitude": "29.97085380956173",
      "longitude": "-90.05367622984078"
    }
  },
  {
    "service_request": "2024-1125655",
    "request_type": "Property Maintenance",
    "request_reason": "Property Maintenance",
    "date_created": "2024-08-27T20:02:51.000",
    "date_modified": "2024-08-27T20:02:51.000",
    "request_status": "Pending",
    "responsible_agency": "Department of Code Enforcement",
    "final_address": "ST ANTHONY AVE & MCSHANE PL",
    "address_councildis": "C",
    "status": "Pending",
    "rowid": "1125655",
    "final_x": "3683524.2",
    "final_y": "536107.18",
    "longitude": "-90.06151786419282",
    "latitude": "29.968047238715368",
    "geocoded_column": {
      "latitude": "29.968047238715368",
      "longitude": "-90.06151786419282"
    }
  },
  {
    "service_request": "2024-1125654",
    "request_type": "Trash/Recycling",
    "request_reason": "Repair Trash Cart",
    "date_created": "2024-08-27T19:48:58.000",
    "date_modified": "2024-08-27T19:48:59.000",
    "request_status": "Pending",
    "responsible_agency": "Department of Sanitation",
    "final_address": "4533 Canal St",
    "address_councildis": "A",
    "status": "Assigned to Contractor",
    "contractor": "IV Waste",
    "rowid": "1125654",
    "final_x": "3669568.76129",
    "final_y": "539654.111818",
    "longitude": "-90.10546975304848",
    "latitude": "29.97821864341939",
    "geocoded_column": {
      "latitude": "29.97821864341939",
      "longitude": "-90.10546975304848"
    }
  },
  {
    "service_request": "2024-1125653",
    "request_type": "Trash/Recycling",
    "request_reason": "Replace Trash Cart",
    "date_created": "2024-08-27T19:47:51.000",
    "date_modified": "2024-08-27T19:47:52.000",
    "request_status": "Pending",
    "responsible_agency": "Department of Sanitation",
    "final_address": "4531 Canal St",
    "address_councildis": "A",
    "status": "Assigned to Contractor",
    "contractor": "IV Waste",
    "rowid": "1125653",
    "final_x": "3669592.95706",
    "final_y": "539689.033418",
    "longitude": "-90.10539215192156",
    "latitude": "29.97831395306147",
    "geocoded_column": {
      "latitude": "29.97831395306147",
      "longitude": "-90.10539215192156"
    }
  },
  {
    "service_request": "2024-1125652",
    "request_type": "Trash/Recycling",
    "request_reason": "Replace Trash Cart",
    "date_created": "2024-08-27T19:43:01.000",
    "date_modified": "2024-08-27T19:43:02.000",
    "request_status": "Pending",
    "responsible_agency": "Department of Sanitation",
    "final_address": "5804 Tullis dr",
    "address_councildis": "C",
    "status": "Assigned to Contractor",
    "contractor": "Richards Disposal",
    "rowid": "1125652",
    "final_x": "3705426.22366",
    "final_y": "513033.601969",
    "longitude": "-89.99320324190622",
    "latitude": "29.90391641399251",
    "geocoded_column": {
      "latitude": "29.90391641399251",
      "longitude": "-89.99320324190622"
    }
  },
  {
    "service_request": "2024-1125651",
    "request_type": "Property Maintenance",
    "request_reason": "Property Maintenance",
    "date_created": "2024-08-27T19:32:13.000",
    "date_modified": "2024-08-27T19:32:13.000",
    "request_status": "Pending",
    "responsible_agency": "Department of Code Enforcement",
    "final_address": "2121 Franklin Ave",
    "address_councildis": "D",
    "status": "Pending",
    "rowid": "1125651",
    "final_x": "3687687.80873",
    "final_y": "540412.681291",
    "longitude": "-90.04821657145183",
    "latitude": "29.979758125579217",
    "geocoded_column": {
      "latitude": "29.979758125579217",
      "longitude": "-90.04821657145183"
    }
  },
  {
    "service_request": "2024-1125650",
    "request_type": "Property Maintenance",
    "request_reason": "Property Maintenance",
    "date_created": "2024-08-27T19:31:04.000",
    "date_modified": "2024-08-27T19:31:04.000",
    "request_status": "Pending",
    "responsible_agency": "Department of Code Enforcement",
    "final_address": "1403 Murl St",
    "address_councildis": "C",
    "status": "Pending",
    "rowid": "1125650",
    "final_x": "3695362.10045",
    "final_y": "526458.466494",
    "longitude": "-90.02448157846516",
    "latitude": "29.941150061002848",
    "geocoded_column": {
      "latitude": "29.941150061002848",
      "longitude": "-90.02448157846516"
    }
  },
  {
    "service_request": "2024-1125649",
    "request_type": "Property Maintenance",
    "request_reason": "Property Maintenance",
    "date_created": "2024-08-27T19:27:30.000",
    "date_modified": "2024-08-27T19:27:30.000",
    "request_status": "Pending",
    "responsible_agency": "Department of Code Enforcement",
    "final_address": "3809 Laurel St",
    "address_councildis": "B",
    "status": "Pending",
    "rowid": "1125649",
    "final_x": "3673465.3947",
    "final_y": "518348.272566",
    "longitude": "-90.09389064846286",
    "latitude": "29.919519227344004",
    "geocoded_column": {
      "latitude": "29.919519227344004",
      "longitude": "-90.09389064846286"
    }
  },
  {
    "service_request": "2024-1125648",
    "request_type": "Traffic Signals/Signs/Striping/Streetlights",
    "request_reason": "Request for Stop Sign",
    "date_created": "2024-08-27T19:27:28.000",
    "date_modified": "2024-08-27T19:27:28.000",
    "request_status": "Pending",
    "responsible_agency": "Department of Public Works",
    "final_address": "3721 N Claiborne Ave New Orleans, LA  70117 United States",
    "address_councildis": "D",
    "status": "Pending",
    "rowid": "1125648",
    "final_x": "3691607.44182",
    "final_y": "537410.438472",
    "longitude": "-90.03594418307269",
    "latitude": "29.971381566534557",
    "geocoded_column": {
      "latitude": "29.971381566534557",
      "longitude": "-90.03594418307269"
    }
  },
  {
    "service_request": "2024-1125647",
    "request_type": "Trash/Recycling",
    "request_reason": "Replace Recycling Cart",
    "date_created": "2024-08-27T19:24:22.000",
    "date_modified": "2024-08-27T19:24:22.000",
    "request_status": "Pending",
    "responsible_agency": "Department of Sanitation",
    "final_address": "4516 Canal St",
    "address_councildis": "A",
    "status": "Pending",
    "rowid": "1125647",
    "final_x": "3669489.00302",
    "final_y": "539403.272842",
    "longitude": "-90.10573014674928",
    "latitude": "29.97753127083559",
    "geocoded_column": {
      "latitude": "29.97753127083559",
      "longitude": "-90.10573014674928"
    }
  },
  {
    "service_request": "2024-1125646",
    "request_type": "Property Maintenance",
    "request_reason": "Property Maintenance",
    "date_created": "2024-08-27T19:24:12.000",
    "date_modified": "2024-08-27T19:24:12.000",
    "request_status": "Pending",
    "responsible_agency": "Department of Code Enforcement",
    "final_address": "ST CLAUDE AVE & MCSHANE PL",
    "address_councildis": "C",
    "status": "Pending",
    "rowid": "1125646",
    "final_x": "3683712.3",
    "final_y": "536190.38",
    "longitude": "-90.06092092050667",
    "latitude": "29.968270267867993",
    "geocoded_column": {
      "latitude": "29.968270267867993",
      "longitude": "-90.06092092050667"
    }
  },
  {
    "service_request": "2024-1125645",
    "request_type": "Property Maintenance",
    "request_reason": "Property Maintenance",
    "date_created": "2024-08-27T19:17:12.000",
    "date_modified": "2024-08-27T19:17:12.000",
    "request_status": "Pending",
    "responsible_agency": "Department of Code Enforcement",
    "final_address": "4737 Coliseum St",
    "address_councildis": "B",
    "status": "Pending",
    "rowid": "1125645",
    "final_x": "3669527.21799",
    "final_y": "519713.457208",
    "longitude": "-90.10627540044335",
    "latitude": "29.92338959841289",
    "geocoded_column": {
      "latitude": "29.92338959841289",
      "longitude": "-90.10627540044335"
    }
  },
  {
    "service_request": "2024-1125644",
    "request_type": "Property Maintenance",
    "request_reason": "Property Maintenance",
    "date_created": "2024-08-27T19:06:02.000",
    "date_modified": "2024-08-27T19:06:02.000",
    "request_status": "Pending",
    "responsible_agency": "Department of Code Enforcement",
    "final_address": "3632 First St",
    "address_councildis": "B",
    "status": "Pending",
    "rowid": "1125644",
    "final_x": "3672898.80155",
    "final_y": "529282.621761",
    "longitude": "-90.0953061931179",
    "latitude": "29.949601983143516",
    "geocoded_column": {
      "latitude": "29.949601983143516",
      "longitude": "-90.0953061931179"
    }
  },
  {
    "service_request": "2024-1125643",
    "request_type": "Abandoned Vehicles",
    "request_reason": "Abandoned/Junk Vehicles",
    "date_created": "2024-08-27T19:00:28.000",
    "date_modified": "2024-08-27T19:00:28.000",
    "request_status": "Pending",
    "responsible_agency": "Department of Public Works",
    "final_address": "4820 Press Dr",
    "address_councildis": "D",
    "status": "Pending",
    "rowid": "1125643",
    "final_x": "3689436.46108",
    "final_y": "551197.177237",
    "longitude": "-90.04230985599757",
    "latitude": "30.00935754961142",
    "geocoded_column": {
      "latitude": "30.00935754961142",
      "longitude": "-90.04230985599757"
    }
  },
  {
    "service_request": "2024-1125641",
    "request_type": "Trash/Recycling",
    "request_reason": "Request a Large Item Pick Up",
    "date_created": "2024-08-27T18:32:31.000",
    "date_modified": "2024-08-27T18:32:32.000",
    "request_status": "Pending",
    "responsible_agency": "Department of Sanitation",
    "final_address": "4747 Donna Dr",
    "address_councildis": "E",
    "status": "Assigned to Contractor",
    "contractor": "Waste Pro",
    "rowid": "1125641",
    "final_x": "3711057.16587",
    "final_y": "555845.840857",
    "longitude": "-89.97382901824699",
    "latitude": "30.021452031168323",
    "geocoded_column": {
      "latitude": "30.021452031168323",
      "longitude": "-89.97382901824699"
    }
  },
  {
    "service_request": "2024-1125640",
    "request_type": "Trash/Recycling",
    "request_reason": "MIssed Recycling Pick-Up",
    "date_created": "2024-08-27T18:32:23.000",
    "date_modified": "2024-08-27T18:32:24.000",
    "request_status": "Pending",
    "responsible_agency": "Department of Sanitation",
    "final_address": "616 Delaronde St",
    "address_councildis": "C",
    "status": "Assigned to Contractor",
    "contractor": "Richards Disposal",
    "rowid": "1125640",
    "final_x": "3687372.21244",
    "final_y": "531236.979714",
    "longitude": "-90.04953804812723",
    "latitude": "29.954537873504975",
    "geocoded_column": {
      "latitude": "29.954537873504975",
      "longitude": "-90.04953804812723"
    }
  },
  {
    "service_request": "2024-1125639",
    "request_type": "Trash/Recycling",
    "request_reason": "Replace Trash Cart",
    "date_created": "2024-08-27T18:29:26.000",
    "date_modified": "2024-08-27T18:29:27.000",
    "request_status": "Pending",
    "responsible_agency": "Department of Sanitation",
    "final_address": "7920 Colapissa St",
    "address_councildis": "B",
    "status": "Assigned to Contractor",
    "contractor": "IV Waste",
    "rowid": "1125639",
    "final_x": "3666914.51546",
    "final_y": "532919.840132",
    "longitude": "-90.11407916518037",
    "latitude": "29.959779574608028",
    "geocoded_column": {
      "latitude": "29.959779574608028",
      "longitude": "-90.11407916518037"
    }
  },
  {
    "service_request": "2024-1125638",
    "request_type": "Property Maintenance",
    "request_reason": "Property Maintenance",
    "date_created": "2024-08-27T18:25:49.000",
    "date_modified": "2024-08-27T18:25:49.000",
    "request_status": "Pending",
    "responsible_agency": "Department of Code Enforcement",
    "final_address": "801 Jackson Ave",
    "address_councildis": "B",
    "status": "Pending",
    "rowid": "1125638",
    "final_x": "3679542.93755",
    "final_y": "521261.312761",
    "longitude": "-90.07460586548063",
    "latitude": "29.927346976581564",
    "geocoded_column": {
      "latitude": "29.927346976581564",
      "longitude": "-90.07460586548063"
    }
  },
  {
    "service_request": "2024-1125637",
    "request_type": "Parks & Parkways",
    "request_reason": "Request Tree Service (Right of Way/Public Property)",
    "date_created": "2024-08-27T18:03:38.000",
    "date_modified": "2024-08-27T18:03:38.000",
    "request_status": "Pending",
    "responsible_agency": "Department of Parks & Parkway",
    "final_address": "2600 BLK Louisiana Ave",
    "address_councildis": "B",
    "status": "Pending",
    "rowid": "1125637",
    "final_x": "3672692.12472",
    "final_y": "524968.099458",
    "longitude": "-90.09610586100143",
    "latitude": "29.937744597589834",
    "geocoded_column": {
      "latitude": "29.937744597589834",
      "longitude": "-90.09610586100143"
    }
  },
  {
    "service_request": "2024-1125636",
    "request_type": "Trash/Recycling",
    "request_reason": "Request a Large Item Pick Up",
    "date_created": "2024-08-27T17:30:06.000",
    "date_modified": "2024-08-27T17:30:08.000",
    "request_status": "Pending",
    "responsible_agency": "Department of Sanitation",
    "final_address": "919 Upperline St",
    "address_councildis": "B",
    "status": "Assigned to Contractor",
    "contractor": "IV Waste",
    "rowid": "1125636",
    "final_x": "3669066.92135",
    "final_y": "518753.729207",
    "longitude": "-90.10776079151617",
    "latitude": "29.920764195930413",
    "geocoded_column": {
      "latitude": "29.920764195930413",
      "longitude": "-90.10776079151617"
    }
  },
  {
    "service_request": "2024-1125635",
    "request_type": "Parks & Parkways",
    "request_reason": "Request Tree Service (Right of Way/Public Property)",
    "date_created": "2024-08-27T17:24:25.000",
    "date_modified": "2024-08-27T17:24:25.000",
    "request_status": "Pending",
    "responsible_agency": "Department of Parks & Parkway",
    "final_address": "318 Calhoun St",
    "address_councildis": "A",
    "status": "Pending",
    "rowid": "1125635",
    "final_x": "3662779.06003",
    "final_y": "518252.184438",
    "longitude": "-90.12762544105557",
    "latitude": "29.91956853306251",
    "geocoded_column": {
      "latitude": "29.91956853306251",
      "longitude": "-90.12762544105557"
    }
  },
  {
    "service_request": "2024-1125634",
    "request_type": "Parks & Parkways",
    "request_reason": "Request Tree Service (Right of Way/Public Property)",
    "date_created": "2024-08-27T17:17:00.000",
    "date_modified": "2024-08-27T17:17:00.000",
    "request_status": "Pending",
    "responsible_agency": "Department of Parks & Parkway",
    "final_address": "318 Calhoun St",
    "address_councildis": "A",
    "status": "Pending",
    "rowid": "1125634",
    "final_x": "3662779.06003",
    "final_y": "518252.184438",
    "longitude": "-90.12762544105557",
    "latitude": "29.91956853306251",
    "geocoded_column": {
      "latitude": "29.91956853306251",
      "longitude": "-90.12762544105557"
    }
  },
  {
    "service_request": "2024-1125633",
    "request_type": "Traffic Signals/Signs/Striping/Streetlights",
    "request_reason": "Street Light Outage/Malfunction",
    "date_created": "2024-08-27T17:09:53.000",
    "date_modified": "2024-08-27T17:09:54.000",
    "request_status": "Pending",
    "responsible_agency": "Department of Public Works",
    "final_address": "5500 BLK Burgundy St",
    "address_councildis": "E",
    "status": "Assigned to Contractor",
    "contractor": "Legacy Professional Services",
    "rowid": "1125633",
    "final_x": "3697651.06693",
    "final_y": "533014.766763",
    "longitude": "-90.01701713647563",
    "latitude": "29.959105495413137",
    "geocoded_column": {
      "latitude": "29.959105495413137",
      "longitude": "-90.01701713647563"
    }
  },
  {
    "service_request": "2024-1125632",
    "request_type": "Traffic Signals/Signs/Striping/Streetlights",
    "request_reason": "Traffic Sign Missing/Damaged",
    "date_created": "2024-08-27T17:08:40.000",
    "date_modified": "2024-08-27T17:08:40.000",
    "request_status": "Pending",
    "responsible_agency": "Department of Public Works",
    "final_address": "4400 BLK Painters St",
    "address_councildis": "D",
    "status": "Pending",
    "rowid": "1125632",
    "final_x": "3686314.89932",
    "final_y": "549225.076862",
    "longitude": "-90.0522415851712",
    "latitude": "30.004031328744386",
    "geocoded_column": {
      "latitude": "30.004031328744386",
      "longitude": "-90.0522415851712"
    }
  },
  {
    "service_request": "2024-1125631",
    "request_type": "Trash/Recycling",
    "request_reason": "Request a Large Item Pick Up",
    "date_created": "2024-08-27T17:08:13.000",
    "date_modified": "2024-08-27T17:08:15.000",
    "request_status": "Pending",
    "responsible_agency": "Department of Sanitation",
    "final_address": "203 Audubon Blvd",
    "address_councildis": "A",
    "status": "Assigned to Contractor",
    "contractor": "IV Waste",
    "rowid": "1125631",
    "final_x": "3666360.57639",
    "final_y": "528402.465856",
    "longitude": "-90.11597993864528",
    "latitude": "29.947374463402497",
    "geocoded_column": {
      "latitude": "29.947374463402497",
      "longitude": "-90.11597993864528"
    }
  },
  {
    "service_request": "2024-1125630",
    "request_type": "Trash/Recycling",
    "request_reason": "Repair Recycling Cart",
    "date_created": "2024-08-27T16:52:18.000",
    "date_modified": "2024-08-27T16:52:19.000",
    "request_status": "Pending",
    "responsible_agency": "Department of Sanitation",
    "final_address": "4637 Palmyra St",
    "address_councildis": "A",
    "status": "Pending",
    "rowid": "1125630",
    "final_x": "3668700.38791",
    "final_y": "539224.987018",
    "longitude": "-90.10822688747504",
    "latitude": "29.977064252863165",
    "geocoded_column": {
      "latitude": "29.977064252863165",
      "longitude": "-90.10822688747504"
    }
  },
  {
    "service_request": "2024-1125629",
    "request_type": "Abandoned Vehicles",
    "request_reason": "Abandoned/Junk Vehicles",
    "date_created": "2024-08-27T16:42:45.000",
    "date_modified": "2024-08-27T16:42:45.000",
    "request_status": "Pending",
    "responsible_agency": "Department of Public Works",
    "final_address": "7315 Vanderkloot Ave",
    "address_councildis": "E",
    "status": "Pending",
    "rowid": "1125629",
    "final_x": "3706403.82667",
    "final_y": "562484.114591",
    "longitude": "-89.98828596335063",
    "latitude": "30.03985567008832",
    "geocoded_column": {
      "latitude": "30.03985567008832",
      "longitude": "-89.98828596335063"
    }
  },
  {
    "service_request": "2024-1125628",
    "request_type": "Abandoned Vehicles",
    "request_reason": "Abandoned/Junk Vehicles",
    "date_created": "2024-08-27T16:41:01.000",
    "date_modified": "2024-08-27T16:41:01.000",
    "request_status": "Pending",
    "responsible_agency": "Department of Public Works",
    "final_address": "7315 Vanderkloot Ave",
    "address_councildis": "E",
    "status": "Pending",
    "rowid": "1125628",
    "final_x": "3706403.82667",
    "final_y": "562484.114591",
    "longitude": "-89.98828596335063",
    "latitude": "30.03985567008832",
    "geocoded_column": {
      "latitude": "30.03985567008832",
      "longitude": "-89.98828596335063"
    }
  },
  {
    "service_request": "2024-1125627",
    "request_type": "Trash/Recycling",
    "request_reason": "Missed Trash Pick-Up",
    "date_created": "2024-08-27T16:29:12.000",
    "date_modified": "2024-08-27T16:29:13.000",
    "request_status": "Pending",
    "responsible_agency": "Department of Sanitation",
    "final_address": "8208 Nelson St",
    "address_councildis": "A",
    "status": "Assigned to Contractor",
    "contractor": "IV Waste",
    "rowid": "1125627",
    "final_x": "3664779.41268",
    "final_y": "532103.663107",
    "longitude": "-90.12084864133527",
    "latitude": "29.957597651235652",
    "geocoded_column": {
      "latitude": "29.957597651235652",
      "longitude": "-90.12084864133527"
    }
  },
  {
    "service_request": "2024-1125626",
    "request_type": "Trash/Recycling",
    "request_reason": "Request a Large Item Pick Up",
    "date_created": "2024-08-27T16:28:28.000",
    "date_modified": "2024-08-27T16:28:29.000",
    "request_status": "Pending",
    "responsible_agency": "Department of Sanitation",
    "final_address": "8208 Nelson St",
    "address_councildis": "A",
    "status": "Assigned to Contractor",
    "contractor": "IV Waste",
    "rowid": "1125626",
    "final_x": "3664779.41268",
    "final_y": "532103.663107",
    "longitude": "-90.12084864133527",
    "latitude": "29.957597651235652",
    "geocoded_column": {
      "latitude": "29.957597651235652",
      "longitude": "-90.12084864133527"
    }
  },
  {
    "service_request": "2024-1125625",
    "request_type": "Abandoned Vehicles",
    "request_reason": "Abandoned/Junk Vehicles",
    "date_created": "2024-08-27T16:28:17.000",
    "date_modified": "2024-08-27T16:28:18.000",
    "request_status": "Pending",
    "responsible_agency": "Department of Public Works",
    "final_address": "633 St Mary St",
    "address_councildis": "B",
    "status": "Pending",
    "rowid": "1125625",
    "final_x": "3680906.36175",
    "final_y": "521611.445049",
    "longitude": "-90.070289695704",
    "latitude": "29.928268471866996",
    "geocoded_column": {
      "latitude": "29.928268471866996",
      "longitude": "-90.070289695704"
    }
  },
  {
    "service_request": "2024-1125624",
    "request_type": "Trash/Recycling",
    "request_reason": "Repair Recycling Cart",
    "date_created": "2024-08-27T16:25:31.000",
    "date_modified": "2024-08-27T16:25:32.000",
    "request_status": "Pending",
    "responsible_agency": "Department of Sanitation",
    "final_address": "7040 Edgefield Dr",
    "address_councildis": "E",
    "status": "Pending",
    "rowid": "1125624",
    "final_x": "3718723.3333",
    "final_y": "569102.043814",
    "longitude": "-89.94910031628707",
    "latitude": "30.057648870345176",
    "geocoded_column": {
      "latitude": "30.057648870345176",
      "longitude": "-89.94910031628707"
    }
  },
  {
    "service_request": "2024-1125623",
    "request_type": "Trash/Recycling",
    "request_reason": "Replace Trash Cart",
    "date_created": "2024-08-27T16:22:42.000",
    "date_modified": "2024-08-27T16:25:39.000",
    "request_status": "Pending",
    "responsible_agency": "Department of Sanitation",
    "final_address": "12410 Carmel Pl",
    "address_councildis": "E",
    "contractor": "Waste Pro",
    "rowid": "1125623",
    "final_x": "3716119.88748",
    "final_y": "566650.621987",
    "longitude": "-89.95742243238769",
    "latitude": "30.050994689469167",
    "geocoded_column": {
      "latitude": "30.050994689469167",
      "longitude": "-89.95742243238769"
    }
  },
  {
    "service_request": "2024-1125622",
    "request_type": "Mosquito, Termite & Rodent Control",
    "request_reason": "Rodent Complaint (Rats)",
    "date_created": "2024-08-27T16:21:29.000",
    "date_modified": "2024-08-27T16:21:31.000",
    "request_status": "Pending",
    "responsible_agency": "Mosquito, Termite & Rodent Control Board",
    "final_address": "1621 St Ann St",
    "address_councildis": "C",
    "status": "Pending",
    "rowid": "1125622",
    "final_x": "3680176.49615",
    "final_y": "534780.834886",
    "longitude": "-90.07213613744874",
    "latitude": "29.964501989344644",
    "geocoded_column": {
      "latitude": "29.964501989344644",
      "longitude": "-90.07213613744874"
    }
  },
  {
    "service_request": "2024-1125621",
    "request_type": "Trash/Recycling",
    "request_reason": "Request a Large Item Pick Up",
    "date_created": "2024-08-27T16:19:34.000",
    "date_modified": "2024-08-27T16:19:35.000",
    "request_status": "Pending",
    "responsible_agency": "Department of Sanitation",
    "final_address": "4729 Corinne St",
    "address_councildis": "E",
    "status": "Assigned to Contractor",
    "contractor": "Waste Pro",
    "rowid": "1125621",
    "final_x": "3715115.48043",
    "final_y": "556819.672538",
    "longitude": "-89.96096913964354",
    "latitude": "30.023996661919245",
    "geocoded_column": {
      "latitude": "30.023996661919245",
      "longitude": "-89.96096913964354"
    }
  },
  {
    "service_request": "2024-1125620",
    "request_type": "Trash/Recycling",
    "request_reason": "Return Trash Cart",
    "date_created": "2024-08-27T16:16:52.000",
    "date_modified": "2024-08-27T16:17:36.000",
    "request_status": "Pending",
    "responsible_agency": "Department of Sanitation",
    "final_address": "2430 Pressburg St",
    "address_councildis": "D",
    "status": "Assigned to Contractor",
    "contractor": "IV Waste",
    "rowid": "1125620",
    "final_x": "3685335.95503",
    "final_y": "554657.945816",
    "longitude": "-90.05514277865976",
    "latitude": "30.018999793132224",
    "geocoded_column": {
      "latitude": "30.018999793132224",
      "longitude": "-90.05514277865976"
    }
  },
  {
    "service_request": "2024-1125619",
    "request_type": "Property Maintenance",
    "request_reason": "Property Maintenance",
    "date_created": "2024-08-27T16:12:54.000",
    "date_modified": "2024-08-27T16:12:55.000",
    "request_status": "Pending",
    "responsible_agency": "Department of Code Enforcement",
    "final_address": "2960 Preston Pl",
    "address_councildis": "C",
    "status": "Pending",
    "rowid": "1125619",
    "final_x": "3708668.59492",
    "final_y": "518830.918583",
    "longitude": "-89.9827547296195",
    "latitude": "29.91975235533838",
    "geocoded_column": {
      "latitude": "29.91975235533838",
      "longitude": "-89.9827547296195"
    }
  },
  {
    "service_request": "2024-1125618",
    "request_type": "Trash/Recycling",
    "request_reason": "Request a Large Item Pick Up",
    "date_created": "2024-08-27T16:07:12.000",
    "date_modified": "2024-08-27T16:07:13.000",
    "request_status": "Pending",
    "responsible_agency": "Department of Sanitation",
    "final_address": "4919 Citrus Dr",
    "address_councildis": "E",
    "status": "Assigned to Contractor",
    "contractor": "Waste Pro",
    "rowid": "1125618",
    "final_x": "3710729.54059",
    "final_y": "556953.348506",
    "longitude": "-89.97482272571641",
    "latitude": "30.02450792698972",
    "geocoded_column": {
      "latitude": "30.02450792698972",
      "longitude": "-89.97482272571641"
    }
  },
  {
    "service_request": "2024-1125617",
    "request_type": "Abandoned Vehicles",
    "request_reason": "Abandoned/Junk Vehicles",
    "date_created": "2024-08-27T16:06:48.000",
    "date_modified": "2024-08-27T16:06:49.000",
    "request_status": "Pending",
    "responsible_agency": "Department of Public Works",
    "final_address": "224 S Murat St",
    "address_councildis": "A",
    "status": "Pending",
    "rowid": "1125617",
    "final_x": "3669340.10407",
    "final_y": "538864.131465",
    "longitude": "-90.10621865694955",
    "latitude": "29.976053199477477",
    "geocoded_column": {
      "latitude": "29.976053199477477",
      "longitude": "-90.10621865694955"
    }
  },
  {
    "service_request": "2024-1125616",
    "request_type": "Trash/Recycling",
    "request_reason": "Request a Large Item Pick Up",
    "date_created": "2024-08-27T16:06:20.000",
    "date_modified": "2024-08-27T16:06:22.000",
    "request_status": "Pending",
    "responsible_agency": "Department of Sanitation",
    "final_address": "7831 Green St",
    "address_councildis": "A",
    "status": "Assigned to Contractor",
    "contractor": "IV Waste",
    "rowid": "1125616",
    "final_x": "3663799.17843",
    "final_y": "529127.44448",
    "longitude": "-90.1240431319469",
    "latitude": "29.94944249826954",
    "geocoded_column": {
      "latitude": "29.94944249826954",
      "longitude": "-90.1240431319469"
    }
  },
  {
    "service_request": "2024-1125615",
    "request_type": "Property Maintenance",
    "request_reason": "Property Maintenance",
    "date_created": "2024-08-27T16:05:06.000",
    "date_modified": "2024-08-27T16:05:07.000",
    "request_status": "Pending",
    "responsible_agency": "Department of Code Enforcement",
    "final_address": "5016 Warrington Dr",
    "address_councildis": "D",
    "status": "Pending",
    "rowid": "1125615",
    "final_x": "3680956.35336",
    "final_y": "551079.202965",
    "longitude": "-90.06910554089247",
    "latitude": "30.009293153269564",
    "geocoded_column": {
      "latitude": "30.009293153269564",
      "longitude": "-90.06910554089247"
    }
  },
  {
    "service_request": "2024-1125614",
    "request_type": "Roads/Drainage",
    "request_reason": "Pothole",
    "date_created": "2024-08-27T16:04:12.000",
    "date_modified": "2024-08-27T16:04:13.000",
    "request_status": "Pending",
    "responsible_agency": "Department of Public Works",
    "final_address": "4653 Tulip St",
    "address_councildis": "E",
    "status": "Pending",
    "rowid": "1125614",
    "final_x": "3702202.90001",
    "final_y": "553857.035799",
    "longitude": "-90.00187891210804",
    "latitude": "30.016269463660926",
    "geocoded_column": {
      "latitude": "30.016269463660926",
      "longitude": "-90.00187891210804"
    }
  },
  {
    "service_request": "2024-1125613",
    "request_type": "Trash/Recycling",
    "request_reason": "Repair Trash Cart",
    "date_created": "2024-08-27T16:04:08.000",
    "date_modified": "2024-08-27T16:04:09.000",
    "request_status": "Pending",
    "responsible_agency": "Department of Sanitation",
    "final_address": "4616 Francis Dr",
    "address_councildis": "D",
    "status": "Assigned to Contractor",
    "contractor": "Waste Pro",
    "rowid": "1125613",
    "final_x": "3698263.28503",
    "final_y": "553647.501335",
    "longitude": "-90.01433392517356",
    "latitude": "30.01581860715811",
    "geocoded_column": {
      "latitude": "30.01581860715811",
      "longitude": "-90.01433392517356"
    }
  },
  {
    "service_request": "2024-1125612",
    "request_type": "Trash/Recycling",
    "request_reason": "Replace Trash Cart",
    "date_created": "2024-08-27T16:03:10.000",
    "date_modified": "2024-08-27T16:03:12.000",
    "request_status": "Pending",
    "responsible_agency": "Department of Sanitation",
    "final_address": "7530 Hansbrough Ave",
    "address_councildis": "E",
    "status": "Assigned to Contractor",
    "contractor": "Waste Pro",
    "rowid": "1125612",
    "final_x": "3707712.96792",
    "final_y": "564253.205665",
    "longitude": "-89.98408287281936",
    "latitude": "30.044677646667182",
    "geocoded_column": {
      "latitude": "30.044677646667182",
      "longitude": "-89.98408287281936"
    }
  },
  {
    "service_request": "2024-1125611",
    "request_type": "Trash/Recycling",
    "request_reason": "Order Recycling Cart",
    "date_created": "2024-08-27T16:01:57.000",
    "date_modified": "2024-08-27T16:01:58.000",
    "request_status": "Pending",
    "responsible_agency": "Department of Sanitation",
    "final_address": "6147 S Laverne St",
    "address_councildis": "D",
    "status": "Pending",
    "rowid": "1125611",
    "final_x": "3696810.03351",
    "final_y": "555473.315737",
    "longitude": "-90.01885934331179",
    "latitude": "30.020884824382318",
    "geocoded_column": {
      "latitude": "30.020884824382318",
      "longitude": "-90.01885934331179"
    }
  },
  {
    "service_request": "2024-1125610",
    "request_type": "Trash/Recycling",
    "request_reason": "Request a Large Item Pick Up",
    "date_created": "2024-08-27T15:57:02.000",
    "date_modified": "2024-08-27T15:57:04.000",
    "request_status": "Pending",
    "responsible_agency": "Department of Sanitation",
    "final_address": "2701 Milan St",
    "address_councildis": "B",
    "status": "Assigned to Contractor",
    "contractor": "IV Waste",
    "rowid": "1125610",
    "final_x": "3671243.31585",
    "final_y": "524857.225852",
    "longitude": "-90.10068364056652",
    "latitude": "29.93748266631244",
    "geocoded_column": {
      "latitude": "29.93748266631244",
      "longitude": "-90.10068364056652"
    }
  },
  {
    "service_request": "2024-1125609",
    "request_type": "Roads/Drainage",
    "request_reason": "Pothole",
    "date_created": "2024-08-27T15:56:43.000",
    "date_modified": "2024-08-27T15:56:43.000",
    "request_status": "Pending",
    "responsible_agency": "Department of Public Works",
    "final_address": "2500 Louisa St",
    "address_councildis": "D",
    "status": "Pending",
    "rowid": "1125609",
    "final_x": "3690855.46716",
    "final_y": "541198.25134",
    "longitude": "-90.03818380569375",
    "latitude": "29.98182009611967",
    "geocoded_column": {
      "latitude": "29.98182009611967",
      "longitude": "-90.03818380569375"
    }
  },
  {
    "service_request": "2024-1125608",
    "request_type": "Parks & Parkways",
    "request_reason": "Request Tree Service (Right of Way/Public Property)",
    "date_created": "2024-08-27T15:55:18.000",
    "date_modified": "2024-08-27T15:55:19.000",
    "request_status": "Pending",
    "responsible_agency": "Department of Parks & Parkway",
    "final_address": "ELYSIAN FIELDS AVE & ROBERT E LEE BLVD",
    "address_councildis": "D",
    "status": "Pending",
    "rowid": "1125608",
    "final_x": "3683514.6",
    "final_y": "555709.98",
    "longitude": "-90.06086070231142",
    "latitude": "30.021948239967248",
    "geocoded_column": {
      "latitude": "30.021948239967248",
      "longitude": "-90.06086070231142"
    }
  },
  {
    "service_request": "2024-1125607",
    "request_type": "Trash/Recycling",
    "request_reason": "Replace Trash Cart",
    "date_created": "2024-08-27T15:54:49.000",
    "date_modified": "2024-08-27T15:54:50.000",
    "request_status": "Pending",
    "responsible_agency": "Department of Sanitation",
    "final_address": "3056 St Ann St",
    "address_councildis": "A",
    "status": "Assigned to Contractor",
    "contractor": "IV Waste",
    "rowid": "1125607",
    "final_x": "3675520.06197",
    "final_y": "538242.024329",
    "longitude": "-90.08672190871798",
    "latitude": "29.97415918963953",
    "geocoded_column": {
      "latitude": "29.97415918963953",
      "longitude": "-90.08672190871798"
    }
  },
  {
    "service_request": "2024-1125606",
    "request_type": "Trash/Recycling",
    "request_reason": "Request a Large Item Pick Up",
    "date_created": "2024-08-27T15:52:56.000",
    "date_modified": "2024-08-27T15:52:58.000",
    "request_status": "Pending",
    "responsible_agency": "Department of Sanitation",
    "final_address": "4620 Bonita Dr",
    "address_councildis": "E",
    "status": "Assigned to Contractor",
    "contractor": "Waste Pro",
    "rowid": "1125606",
    "final_x": "3704507.51518",
    "final_y": "554483.235032",
    "longitude": "-89.9945742742883",
    "latitude": "30.017917436257335",
    "geocoded_column": {
      "latitude": "30.017917436257335",
      "longitude": "-89.9945742742883"
    }
  },
  {
    "service_request": "2024-1125605",
    "request_type": "Trash/Recycling",
    "request_reason": "Request a Large Item Pick Up",
    "date_created": "2024-08-27T15:52:36.000",
    "date_modified": "2024-08-27T15:52:38.000",
    "request_status": "Pending",
    "responsible_agency": "Department of Sanitation",
    "final_address": "1815 Delachaise St",
    "address_councildis": "B",
    "status": "Assigned to Contractor",
    "contractor": "IV Waste",
    "rowid": "1125605",
    "final_x": "3673522.15604",
    "final_y": "522178.907258",
    "longitude": "-90.09358065672387",
    "latitude": "29.930050554331945",
    "geocoded_column": {
      "latitude": "29.930050554331945",
      "longitude": "-90.09358065672387"
    }
  },
  {
    "service_request": "2024-1125604",
    "request_type": "Trash/Recycling",
    "request_reason": "Request a Large Item Pick Up",
    "date_created": "2024-08-27T15:48:18.000",
    "date_modified": "2024-08-27T15:48:19.000",
    "request_status": "Pending",
    "responsible_agency": "Department of Sanitation",
    "final_address": "4918 Friar Tuck Dr",
    "address_councildis": "E",
    "status": "Assigned to Contractor",
    "contractor": "Waste Pro",
    "rowid": "1125604",
    "final_x": "3717630.86092",
    "final_y": "557794.632475",
    "longitude": "-89.95298400345273",
    "latitude": "30.02659433578124",
    "geocoded_column": {
      "latitude": "30.02659433578124",
      "longitude": "-89.95298400345273"
    }
  },
  {
    "service_request": "2024-1125603",
    "request_type": "Trash/Recycling",
    "request_reason": "Request a Large Item Pick Up",
    "date_created": "2024-08-27T15:40:30.000",
    "date_modified": "2024-08-27T15:40:31.000",
    "request_status": "Pending",
    "responsible_agency": "Department of Sanitation",
    "final_address": "3219 Martin Luther King, Jr. Blvd",
    "address_councildis": "B",
    "status": "Assigned to Contractor",
    "contractor": "IV Waste",
    "rowid": "1125603",
    "final_x": "3674315.8372",
    "final_y": "528701.025984",
    "longitude": "-90.09085187488368",
    "latitude": "29.947960612418697",
    "geocoded_column": {
      "latitude": "29.947960612418697",
      "longitude": "-90.09085187488368"
    }
  },
  {
    "service_request": "2024-1125601",
    "request_type": "Trash/Recycling",
    "request_reason": "Request a Large Item Pick Up",
    "date_created": "2024-08-27T15:38:53.000",
    "date_modified": "2024-08-27T15:41:09.000",
    "request_status": "Pending",
    "responsible_agency": "Department of Sanitation",
    "final_address": "1308 Ursulines Ave",
    "address_councildis": "C",
    "status": "Assigned to Contractor",
    "contractor": "IV Waste",
    "rowid": "1125601",
    "final_x": "3681596.99592",
    "final_y": "535013.26215",
    "longitude": "-90.06764220151743",
    "latitude": "29.965098017072226",
    "geocoded_column": {
      "latitude": "29.965098017072226",
      "longitude": "-90.06764220151743"
    }
  },
  {
    "service_request": "2024-1125600",
    "request_type": "Trash/Recycling",
    "request_reason": "Order Recycling Cart",
    "date_created": "2024-08-27T15:38:23.000",
    "date_modified": "2024-08-27T15:38:24.000",
    "request_status": "Pending",
    "responsible_agency": "Department of Sanitation",
    "final_address": "3701 Rue Renee",
    "address_councildis": "C",
    "status": "Pending",
    "rowid": "1125600",
    "final_x": "3705204.24574",
    "final_y": "516867.710965",
    "longitude": "-89.9937623374079",
    "latitude": "29.914466036735888",
    "geocoded_column": {
      "latitude": "29.914466036735888",
      "longitude": "-89.9937623374079"
    }
  },
  {
    "service_request": "2024-1125599",
    "request_type": "Roads/Drainage",
    "request_reason": "Road Shoulder Repair",
    "date_created": "2024-08-27T15:37:23.000",
    "date_modified": "2024-08-27T15:37:23.000",
    "request_status": "Pending",
    "responsible_agency": "Department of Public Works",
    "final_address": "4626 Spain St",
    "address_councildis": "D",
    "status": "Pending",
    "rowid": "1125599",
    "final_x": "3684956.49013",
    "final_y": "549750.64514",
    "longitude": "-90.05651453031628",
    "latitude": "30.00551814157691",
    "geocoded_column": {
      "latitude": "30.00551814157691",
      "longitude": "-90.05651453031628"
    }
  },
  {
    "service_request": "2024-1125598",
    "request_type": "Abandoned Vehicles",
    "request_reason": "Abandoned/Junk Vehicles",
    "date_created": "2024-08-27T15:35:58.000",
    "date_modified": "2024-08-27T15:42:12.000",
    "request_status": "Pending",
    "responsible_agency": "Department of Public Works",
    "final_address": "3207 Martin Luther King, Jr. Blvd",
    "address_councildis": "B",
    "status": "Pending",
    "rowid": "1125598",
    "final_x": "3674400.72097",
    "final_y": "528647.710784",
    "longitude": "-90.09058568809746",
    "latitude": "29.947811482081853",
    "geocoded_column": {
      "latitude": "29.947811482081853",
      "longitude": "-90.09058568809746"
    }
  },
  {
    "service_request": "2024-1125597",
    "request_type": "Abandoned Vehicles",
    "request_reason": "Abandoned/Junk Vehicles",
    "date_created": "2024-08-27T15:35:07.000",
    "date_modified": "2024-08-27T15:35:07.000",
    "request_status": "Pending",
    "responsible_agency": "Department of Public Works",
    "final_address": "8622 Nelson St",
    "address_councildis": "A",
    "status": "Pending",
    "rowid": "1125597",
    "final_x": "3663650.78099",
    "final_y": "533130.176772",
    "longitude": "-90.124378345529",
    "latitude": "29.960453019646838",
    "geocoded_column": {
      "latitude": "29.960453019646838",
      "longitude": "-90.124378345529"
    }
  },
  {
    "service_request": "2024-1125596",
    "request_type": "Property Maintenance",
    "request_reason": "Property Maintenance",
    "date_created": "2024-08-27T15:35:01.000",
    "date_modified": "2024-08-27T15:35:03.000",
    "request_status": "Pending",
    "responsible_agency": "Department of Code Enforcement",
    "final_address": "1814 OReilly St",
    "address_councildis": "D",
    "status": "Pending",
    "rowid": "1125596",
    "final_x": "3682357.45775",
    "final_y": "539457.210314",
    "longitude": "-90.06508537891075",
    "latitude": "29.977294218133654",
    "geocoded_column": {
      "latitude": "29.977294218133654",
      "longitude": "-90.06508537891075"
    }
  },
  {
    "service_request": "2024-1125595",
    "request_type": "Trash/Recycling",
    "request_reason": "Request a Large Item Pick Up",
    "date_created": "2024-08-27T15:34:35.000",
    "date_modified": "2024-08-27T15:34:37.000",
    "request_status": "Pending",
    "responsible_agency": "Department of Sanitation",
    "final_address": "11130 N Idlewood Ct",
    "address_councildis": "E",
    "status": "Assigned to Contractor",
    "contractor": "Waste Pro",
    "rowid": "1125595",
    "final_x": "3716039.81464",
    "final_y": "560093.223261",
    "longitude": "-89.95792429316029",
    "latitude": "30.032967146083504",
    "geocoded_column": {
      "latitude": "30.032967146083504",
      "longitude": "-89.95792429316029"
    }
  },
  {
    "service_request": "2024-1125594",
    "request_type": "Trash/Recycling",
    "request_reason": "Order Recycling Cart",
    "date_created": "2024-08-27T15:33:31.000",
    "date_modified": "2024-08-27T15:33:31.000",
    "request_status": "Pending",
    "responsible_agency": "Department of Sanitation",
    "final_address": "304 S Olympia St",
    "address_councildis": "A",
    "status": "Pending",
    "rowid": "1125594",
    "final_x": "3668915.11431",
    "final_y": "538917.540938",
    "longitude": "-90.10755909769628",
    "latitude": "29.97621256532707",
    "geocoded_column": {
      "latitude": "29.97621256532707",
      "longitude": "-90.10755909769628"
    }
  },
  {
    "service_request": "2024-1125593",
    "request_type": "Trash/Recycling",
    "request_reason": "Replace Trash Cart",
    "date_created": "2024-08-27T15:31:53.000",
    "date_modified": "2024-08-27T15:31:55.000",
    "request_status": "Pending",
    "responsible_agency": "Department of Sanitation",
    "final_address": "310 S Olympia St",
    "address_councildis": "A",
    "status": "Assigned to Contractor",
    "contractor": "IV Waste",
    "rowid": "1125593",
    "final_x": "3668901.92046",
    "final_y": "538876.222153",
    "longitude": "-90.10760216385857",
    "latitude": "29.976099340671464",
    "geocoded_column": {
      "latitude": "29.976099340671464",
      "longitude": "-90.10760216385857"
    }
  },
  {
    "service_request": "2024-1125592",
    "request_type": "Trash/Recycling",
    "request_reason": "Replace Recycling Cart",
    "date_created": "2024-08-27T15:29:59.000",
    "date_modified": "2024-08-27T15:29:59.000",
    "request_status": "Pending",
    "responsible_agency": "Department of Sanitation",
    "final_address": "310 S Olympia St",
    "address_councildis": "A",
    "status": "Pending",
    "rowid": "1125592",
    "final_x": "3668901.92046",
    "final_y": "538876.222153",
    "longitude": "-90.10760216385857",
    "latitude": "29.976099340671464",
    "geocoded_column": {
      "latitude": "29.976099340671464",
      "longitude": "-90.10760216385857"
    }
  },
  {
    "service_request": "2024-1125591",
    "request_type": "Property Maintenance",
    "request_reason": "Property Maintenance",
    "date_created": "2024-08-27T15:29:56.000",
    "date_modified": "2024-08-27T15:29:57.000",
    "request_status": "Pending",
    "responsible_agency": "Department of Code Enforcement",
    "final_address": "3123 N Rocheblave St",
    "address_councildis": "D",
    "status": "Pending",
    "rowid": "1125591",
    "final_x": "3690424.16041",
    "final_y": "540881.699531",
    "longitude": "-90.03955736077663",
    "latitude": "29.980963089323584",
    "geocoded_column": {
      "latitude": "29.980963089323584",
      "longitude": "-90.03955736077663"
    }
  },
  {
    "service_request": "2024-1125590",
    "request_type": "Trash/Recycling",
    "request_reason": "Illegal Dumping",
    "date_created": "2024-08-27T15:29:48.000",
    "date_modified": "2024-08-27T15:29:48.000",
    "request_status": "Pending",
    "responsible_agency": "Department of Sanitation",
    "final_address": "Jourdan Avenue & Marais Street",
    "address_councildis": "E",
    "status": "Pending",
    "rowid": "1125590",
    "final_x": "3695144.25194",
    "final_y": "534843.690822",
    "longitude": "-90.02486705333665",
    "latitude": "29.96421333659553",
    "geocoded_column": {
      "latitude": "29.96421333659553",
      "longitude": "-90.02486705333665"
    }
  },
  {
    "service_request": "2024-1125589",
    "request_type": "Abandoned Vehicles",
    "request_reason": "Abandoned/Junk Vehicles",
    "date_created": "2024-08-27T15:27:06.000",
    "date_modified": "2024-08-27T15:27:58.000",
    "request_status": "Pending",
    "responsible_agency": "Department of Public Works",
    "final_address": "3622 Erato St Apt A",
    "address_councildis": "B",
    "status": "Inspected",
    "rowid": "1125589",
    "final_x": "3673047.45339",
    "final_y": "530077.258497",
    "longitude": "-90.09480971121998",
    "latitude": "29.95178255462251",
    "geocoded_column": {
      "latitude": "29.95178255462251",
      "longitude": "-90.09480971121998"
    }
  },
  {
    "service_request": "2024-1125588",
    "request_type": "Trash/Recycling",
    "request_reason": "Order Recycling Cart",
    "date_created": "2024-08-27T15:27:01.000",
    "date_modified": "2024-08-27T15:27:03.000",
    "request_status": "Pending",
    "responsible_agency": "Department of Sanitation",
    "final_address": "6507 Center St",
    "address_councildis": "A",
    "status": "Pending",
    "rowid": "1125588",
    "final_x": "3664941.1545",
    "final_y": "551299.556565",
    "longitude": "-90.11969589054587",
    "latitude": "30.010375184878175",
    "geocoded_column": {
      "latitude": "30.010375184878175",
      "longitude": "-90.11969589054587"
    }
  },
  {
    "service_request": "2024-1125587",
    "request_type": "Trash/Recycling",
    "request_reason": "Order Trash Cart",
    "date_created": "2024-08-27T15:26:45.000",
    "date_modified": "2024-08-27T15:26:47.000",
    "request_status": "Pending",
    "responsible_agency": "Department of Sanitation",
    "final_address": "6507 Center St",
    "address_councildis": "A",
    "status": "Assigned to Contractor",
    "contractor": "IV Waste",
    "rowid": "1125587",
    "final_x": "3664941.1545",
    "final_y": "551299.556565",
    "longitude": "-90.11969589054587",
    "latitude": "30.010375184878175",
    "geocoded_column": {
      "latitude": "30.010375184878175",
      "longitude": "-90.11969589054587"
    }
  },
  {
    "service_request": "2024-1125586",
    "request_type": "Abandoned Vehicles",
    "request_reason": "Abandoned/Junk Vehicles",
    "date_created": "2024-08-27T15:25:42.000",
    "date_modified": "2024-08-27T15:25:42.000",
    "request_status": "Pending",
    "responsible_agency": "Department of Public Works",
    "final_address": "3622 Erato St Apt A",
    "address_councildis": "B",
    "status": "Inspected",
    "rowid": "1125586",
    "final_x": "3673047.45339",
    "final_y": "530077.258497",
    "longitude": "-90.09480971121998",
    "latitude": "29.95178255462251",
    "geocoded_column": {
      "latitude": "29.95178255462251",
      "longitude": "-90.09480971121998"
    }
  },
  {
    "service_request": "2024-1125584",
    "request_type": "Trash/Recycling",
    "request_reason": "Request a Large Item Pick Up",
    "date_created": "2024-08-27T15:23:57.000",
    "date_modified": "2024-08-27T15:23:58.000",
    "request_status": "Pending",
    "responsible_agency": "Department of Sanitation",
    "final_address": "4706 W Adams Ct",
    "address_councildis": "E",
    "status": "Assigned to Contractor",
    "contractor": "Waste Pro",
    "rowid": "1125584",
    "final_x": "3718486.30373",
    "final_y": "556767.886682",
    "longitude": "-89.95032009037851",
    "latitude": "30.02374283268497",
    "geocoded_column": {
      "latitude": "30.02374283268497",
      "longitude": "-89.95032009037851"
    }
  },
  {
    "service_request": "2024-1125583",
    "request_type": "Parks & Parkways",
    "request_reason": "Request Tree Service (Right of Way/Public Property)",
    "date_created": "2024-08-27T15:23:02.000",
    "date_modified": "2024-08-27T15:23:03.000",
    "request_status": "Pending",
    "responsible_agency": "Department of Parks & Parkway",
    "final_address": "4400 Jeanne Marie Pl",
    "address_councildis": "D",
    "status": "Pending",
    "rowid": "1125583",
    "final_x": "3678462.44392",
    "final_y": "548548.01301",
    "longitude": "-90.0770723334688",
    "latitude": "30.002408707105264",
    "geocoded_column": {
      "latitude": "30.002408707105264",
      "longitude": "-90.0770723334688"
    }
  },
  {
    "service_request": "2024-1125582",
    "request_type": "Trash/Recycling",
    "request_reason": "Order Trash Cart",
    "date_created": "2024-08-27T15:20:28.000",
    "date_modified": "2024-08-27T15:20:29.000",
    "request_status": "Pending",
    "responsible_agency": "Department of Sanitation",
    "final_address": "2620 Danbury Dr",
    "address_councildis": "C",
    "status": "Assigned to Contractor",
    "contractor": "Richards Disposal",
    "rowid": "1125582",
    "final_x": "3703731.09905",
    "final_y": "521309.545913",
    "longitude": "-89.99824870278727",
    "latitude": "29.926726821983547",
    "geocoded_column": {
      "latitude": "29.926726821983547",
      "longitude": "-89.99824870278727"
    }
  },
  {
    "service_request": "2024-1125581",
    "request_type": "Trash/Recycling",
    "request_reason": "Request a Large Item Pick Up",
    "date_created": "2024-08-27T15:20:03.000",
    "date_modified": "2024-08-27T15:20:04.000",
    "request_status": "Pending",
    "responsible_agency": "Department of Sanitation",
    "final_address": "11413 Campbell Ln",
    "address_councildis": "E",
    "status": "Assigned to Contractor",
    "contractor": "Waste Pro",
    "rowid": "1125581",
    "final_x": "3717945.89017",
    "final_y": "561396.461726",
    "longitude": "-89.9518513384824",
    "latitude": "30.036487477477632",
    "geocoded_column": {
      "latitude": "30.036487477477632",
      "longitude": "-89.9518513384824"
    }
  },
  {
    "service_request": "2024-1125579",
    "request_type": "Abandoned Vehicles",
    "request_reason": "Abandoned/Junk Vehicles",
    "date_created": "2024-08-27T15:19:15.000",
    "date_modified": "2024-08-27T15:19:15.000",
    "request_status": "Pending",
    "responsible_agency": "Department of Public Works",
    "final_address": "3500 BLK Erato St",
    "address_councildis": "B",
    "status": "Inspected",
    "rowid": "1125579",
    "final_x": "3673600.27514",
    "final_y": "529792.817827",
    "longitude": "-90.0930738825643",
    "latitude": "29.950983995053416",
    "geocoded_column": {
      "latitude": "29.950983995053416",
      "longitude": "-90.0930738825643"
    }
  },
  {
    "service_request": "2024-1125578",
    "request_type": "Property Maintenance",
    "request_reason": "Property Maintenance",
    "date_created": "2024-08-27T15:18:03.000",
    "date_modified": "2024-08-27T15:18:50.000",
    "request_status": "Pending",
    "responsible_agency": "Department of Code Enforcement",
    "final_address": "6730 Deanne St",
    "address_councildis": "D",
    "status": "Pending",
    "rowid": "1125578",
    "final_x": "3695899.90698",
    "final_y": "555426.230041",
    "longitude": "-90.02173676757864",
    "latitude": "30.0207840331984",
    "geocoded_column": {
      "latitude": "30.0207840331984",
      "longitude": "-90.02173676757864"
    }
  },
  {
    "service_request": "2024-1125577",
    "request_type": "Roads/Drainage",
    "request_reason": "Pothole",
    "date_created": "2024-08-27T15:16:34.000",
    "date_modified": "2024-08-27T15:16:35.000",
    "request_status": "Pending",
    "responsible_agency": "Department of Public Works",
    "final_address": "2326 Martin Luther King, Jr. Blvd",
    "address_councildis": "B",
    "status": "Pending",
    "rowid": "1125577",
    "final_x": "3676732.06689",
    "final_y": "527007.746366",
    "longitude": "-90.08328118794456",
    "latitude": "29.9432323916525",
    "geocoded_column": {
      "latitude": "29.9432323916525",
      "longitude": "-90.08328118794456"
    }
  },
  {
    "service_request": "2024-1125576",
    "request_type": "Parks & Parkways",
    "request_reason": "Request Tree Service (Right of Way/Public Property)",
    "date_created": "2024-08-27T15:14:31.000",
    "date_modified": "2024-08-27T15:14:32.000",
    "request_status": "Pending",
    "responsible_agency": "Department of Parks & Parkway",
    "final_address": "TOURO ST & DUELS ST",
    "address_councildis": "D",
    "status": "Pending",
    "rowid": "1125576",
    "final_x": "3683729.3",
    "final_y": "542496.88",
    "longitude": "-90.06064602423841",
    "latitude": "29.985610420446402",
    "geocoded_column": {
      "latitude": "29.985610420446402",
      "longitude": "-90.06064602423841"
    }
  },
  {
    "service_request": "2024-1125575",
    "request_type": "Trash/Recycling",
    "request_reason": "Request a Large Item Pick Up",
    "date_created": "2024-08-27T15:10:10.000",
    "date_modified": "2024-08-27T15:10:11.000",
    "request_status": "Pending",
    "responsible_agency": "Department of Sanitation",
    "final_address": "1917 Burgundy St",
    "address_councildis": "C",
    "status": "Assigned to Contractor",
    "contractor": "IV Waste",
    "rowid": "1125575",
    "final_x": "3684073.93525",
    "final_y": "535546.447878",
    "longitude": "-90.05980146394658",
    "latitude": "29.96648863015125",
    "geocoded_column": {
      "latitude": "29.96648863015125",
      "longitude": "-90.05980146394658"
    }
  },
  {
    "service_request": "2024-1125574",
    "request_type": "Trash/Recycling",
    "request_reason": "Replace Trash Cart",
    "date_created": "2024-08-27T15:08:44.000",
    "date_modified": "2024-08-27T15:08:45.000",
    "request_status": "Pending",
    "responsible_agency": "Department of Sanitation",
    "final_address": "1915 Burgundy St",
    "address_councildis": "C",
    "status": "Assigned to Contractor",
    "contractor": "IV Waste",
    "rowid": "1125574",
    "final_x": "3684054.5398",
    "final_y": "535542.950342",
    "longitude": "-90.05986283720445",
    "latitude": "29.966479605861114",
    "geocoded_column": {
      "latitude": "29.966479605861114",
      "longitude": "-90.05986283720445"
    }
  },
  {
    "service_request": "2024-1125573",
    "request_type": "Roads/Drainage",
    "request_reason": "Street Flooding / Drainage",
    "date_created": "2024-08-27T15:08:26.000",
    "date_modified": "2024-08-27T15:08:26.000",
    "request_status": "Pending",
    "responsible_agency": "Department of Public Works",
    "final_address": "117 S Solomon St",
    "address_councildis": "A",
    "status": "Pending",
    "rowid": "1125573",
    "final_x": "3670398.28308",
    "final_y": "538583.923657",
    "longitude": "-90.10288611465775",
    "latitude": "29.975251520138045",
    "geocoded_column": {
      "latitude": "29.975251520138045",
      "longitude": "-90.10288611465775"
    }
  },
  {
    "service_request": "2024-1125572",
    "request_type": "Trash/Recycling",
    "request_reason": "Request a Large Item Pick Up",
    "date_created": "2024-08-27T15:07:38.000",
    "date_modified": "2024-08-27T15:08:24.000",
    "request_status": "Pending",
    "responsible_agency": "Department of Sanitation",
    "final_address": "11299 Midpoint Dr",
    "address_councildis": "E",
    "status": "Assigned to Contractor",
    "contractor": "Waste Pro",
    "rowid": "1125572",
    "final_x": "3718522.94738",
    "final_y": "559684.433053",
    "longitude": "-89.95009305512761",
    "latitude": "30.031760948250856",
    "geocoded_column": {
      "latitude": "30.031760948250856",
      "longitude": "-89.95009305512761"
    }
  },
  {
    "service_request": "2024-1125571",
    "request_type": "Trash/Recycling",
    "request_reason": "Illegal Dumping",
    "date_created": "2024-08-27T15:07:21.000",
    "date_modified": "2024-08-27T15:07:22.000",
    "request_status": "Pending",
    "responsible_agency": "Department of Sanitation",
    "final_address": "11600 BLK Chef Menteur Hwy",
    "address_councildis": "E",
    "status": "Pending",
    "rowid": "1125571",
    "final_x": "3718692.65182",
    "final_y": "556662.561659",
    "longitude": "-89.94967209849278",
    "latitude": "30.02344638116938",
    "geocoded_column": {
      "latitude": "30.02344638116938",
      "longitude": "-89.94967209849278"
    }
  },
  {
    "service_request": "2024-1125570",
    "request_type": "Property Maintenance",
    "request_reason": "Property Maintenance",
    "date_created": "2024-08-27T15:06:46.000",
    "date_modified": "2024-08-27T15:06:46.000",
    "request_status": "Pending",
    "responsible_agency": "Department of Code Enforcement",
    "final_address": "0 BLK Alice Ct",
    "address_councildis": "E",
    "status": "Pending",
    "rowid": "1125570",
    "final_x": "3696830.85368",
    "final_y": "533835.980016",
    "longitude": "-90.01957742212986",
    "latitude": "29.961389424106756",
    "geocoded_column": {
      "latitude": "29.961389424106756",
      "longitude": "-90.01957742212986"
    }
  },
  {
    "service_request": "2024-1125569",
    "request_type": "Abandoned Vehicles",
    "request_reason": "Abandoned/Junk Vehicles",
    "date_created": "2024-08-27T15:06:35.000",
    "date_modified": "2024-08-27T15:07:21.000",
    "request_status": "Pending",
    "responsible_agency": "Department of Public Works",
    "final_address": "4210 Prytania St",
    "address_councildis": "B",
    "status": "Pending",
    "rowid": "1125569",
    "final_x": "3671552.23175",
    "final_y": "520327.948088",
    "longitude": "-90.0998622974185",
    "latitude": "29.92501946878317",
    "geocoded_column": {
      "latitude": "29.92501946878317",
      "longitude": "-90.0998622974185"
    }
  },
  {
    "service_request": "2024-1125568",
    "request_type": "Abandoned Vehicles",
    "request_reason": "Abandoned/Junk Vehicles",
    "date_created": "2024-08-27T15:04:56.000",
    "date_modified": "2024-08-27T15:04:56.000",
    "request_status": "Pending",
    "responsible_agency": "Department of Public Works",
    "final_address": "4138 St Claude Ave",
    "address_councildis": "C",
    "status": "Pending",
    "rowid": "1125568",
    "final_x": "3692314.87517",
    "final_y": "535126.37895",
    "longitude": "-90.03379182630373",
    "latitude": "29.96507916594128",
    "geocoded_column": {
      "latitude": "29.96507916594128",
      "longitude": "-90.03379182630373"
    }
  },
  {
    "service_request": "2024-1125567",
    "request_type": "Traffic Signals/Signs/Striping/Streetlights",
    "request_reason": "Street Light Outage/Malfunction",
    "date_created": "2024-08-27T15:04:22.000",
    "date_modified": "2024-08-27T15:04:23.000",
    "request_status": "Pending",
    "responsible_agency": "Department of Public Works",
    "final_address": "ROBERT E LEE BLVD & LARKSPUR LN",
    "address_councildis": "D",
    "status": "Assigned to Contractor",
    "contractor": "Legacy Professional Services",
    "rowid": "1125567",
    "final_x": "3673466.8",
    "final_y": "554348.28",
    "longitude": "-90.09265582025198",
    "latitude": "30.018507037054547",
    "geocoded_column": {
      "latitude": "30.018507037054547",
      "longitude": "-90.09265582025198"
    }
  },
  {
    "service_request": "2024-1125566",
    "request_type": "Traffic Signals/Signs/Striping/Streetlights",
    "request_reason": "Street Light Outage/Malfunction",
    "date_created": "2024-08-27T15:02:22.000",
    "date_modified": "2024-08-27T15:02:23.000",
    "request_status": "Pending",
    "responsible_agency": "Department of Public Works",
    "final_address": "ROBERT E LEE BLVD & LARKSPUR LN",
    "address_councildis": "D",
    "status": "Assigned to Contractor",
    "contractor": "Legacy Professional Services",
    "rowid": "1125566",
    "final_x": "3673466.8",
    "final_y": "554348.28",
    "longitude": "-90.09265582025198",
    "latitude": "30.018507037054547",
    "geocoded_column": {
      "latitude": "30.018507037054547",
      "longitude": "-90.09265582025198"
    }
  },
  {
    "service_request": "2024-1125565",
    "request_type": "Parks & Parkways",
    "request_reason": "Request Grass Cutting Service (City Owned Property)",
    "date_created": "2024-08-27T15:01:10.000",
    "date_modified": "2024-08-27T15:31:14.000",
    "case_close_date": "2024-08-27T10:31:14.000",
    "request_status": "Closed",
    "responsible_agency": "Department of Parks & Parkway",
    "final_address": "MURL ST & LAWRENCE ST",
    "address_councildis": "C",
    "status": "Referred to Property Owner",
    "rowid": "1125565",
    "final_x": "3695379.0",
    "final_y": "525516.28",
    "longitude": "-90.02446220258732",
    "latitude": "29.938558842401033",
    "geocoded_column": {
      "latitude": "29.938558842401033",
      "longitude": "-90.02446220258732"
    }
  },
  {
    "service_request": "2024-1125564",
    "request_type": "Trash/Recycling",
    "request_reason": "Request a Large Item Pick Up",
    "date_created": "2024-08-27T15:00:53.000",
    "date_modified": "2024-08-27T15:00:54.000",
    "request_status": "Pending",
    "responsible_agency": "Department of Sanitation",
    "final_address": "600 Delery St",
    "address_councildis": "E",
    "status": "Assigned to Contractor",
    "contractor": "Waste Pro",
    "rowid": "1125564",
    "final_x": "3699690.95376",
    "final_y": "531213.631682",
    "longitude": "-90.01064136988967",
    "latitude": "29.95408842099332",
    "geocoded_column": {
      "latitude": "29.95408842099332",
      "longitude": "-90.01064136988967"
    }
  },
  {
    "service_request": "2024-1125563",
    "request_type": "Abandoned Vehicles",
    "request_reason": "Abandoned/Junk Vehicles",
    "date_created": "2024-08-27T15:00:20.000",
    "date_modified": "2024-08-27T15:00:20.000",
    "request_status": "Pending",
    "responsible_agency": "Department of Public Works",
    "final_address": "3400 Toledano St",
    "address_councildis": "B",
    "status": "Pending",
    "rowid": "1125563",
    "final_x": "3671865.80353",
    "final_y": "527939.877951",
    "longitude": "-90.0986135285597",
    "latitude": "29.94594052711484",
    "geocoded_column": {
      "latitude": "29.94594052711484",
      "longitude": "-90.0986135285597"
    }
  },
  {
    "service_request": "2024-1125562",
    "request_type": "Trash/Recycling",
    "request_reason": "Return Trash Cart",
    "date_created": "2024-08-27T14:58:53.000",
    "date_modified": "2024-08-27T14:58:55.000",
    "request_status": "Pending",
    "responsible_agency": "Department of Sanitation",
    "final_address": "9738 W Rockton Cir",
    "address_councildis": "E",
    "status": "Assigned to Contractor",
    "contractor": "Waste Pro",
    "rowid": "1125562",
    "final_x": "3707869.11409",
    "final_y": "562524.743584",
    "longitude": "-89.98365372804501",
    "latitude": "30.03992000795981",
    "geocoded_column": {
      "latitude": "30.03992000795981",
      "longitude": "-89.98365372804501"
    }
  },
  {
    "service_request": "2024-1125561",
    "request_type": "Trash/Recycling",
    "request_reason": "Replace Trash Cart",
    "date_created": "2024-08-27T14:58:29.000",
    "date_modified": "2024-08-27T14:58:30.000",
    "request_status": "Pending",
    "responsible_agency": "Department of Sanitation",
    "final_address": "2271 Humanity St",
    "address_councildis": "D",
    "status": "Assigned to Contractor",
    "contractor": "IV Waste",
    "rowid": "1125561",
    "final_x": "3685040.48265",
    "final_y": "544875.558735",
    "longitude": "-90.05642081209902",
    "latitude": "29.992110832591944",
    "geocoded_column": {
      "latitude": "29.992110832591944",
      "longitude": "-90.05642081209902"
    }
  },
  {
    "service_request": "2024-1125560",
    "request_type": "Abandoned Vehicles",
    "request_reason": "Abandoned/Junk Vehicles",
    "date_created": "2024-08-27T14:57:16.000",
    "date_modified": "2024-08-27T14:57:16.000",
    "request_status": "Pending",
    "responsible_agency": "Department of Public Works",
    "final_address": "3400 Toledano St",
    "address_councildis": "B",
    "status": "Pending",
    "rowid": "1125560",
    "final_x": "3671865.80353",
    "final_y": "527939.877951",
    "longitude": "-90.0986135285597",
    "latitude": "29.94594052711484",
    "geocoded_column": {
      "latitude": "29.94594052711484",
      "longitude": "-90.0986135285597"
    }
  },
  {
    "service_request": "2024-1125559",
    "request_type": "Trash/Recycling",
    "request_reason": "Request a Large Item Pick Up",
    "date_created": "2024-08-27T14:46:34.000",
    "date_modified": "2024-08-27T14:46:40.000",
    "request_status": "Pending",
    "responsible_agency": "Department of Sanitation",
    "final_address": "7054 Warfield St",
    "address_councildis": "E",
    "status": "Assigned to Contractor",
    "contractor": "Waste Pro",
    "rowid": "1125559",
    "final_x": "3701260.92234",
    "final_y": "552780.988886",
    "longitude": "-90.004894546651",
    "latitude": "30.013340806780917",
    "geocoded_column": {
      "latitude": "30.013340806780917",
      "longitude": "-90.004894546651"
    }
  },
  {
    "service_request": "2024-1125558",
    "request_type": "Trash/Recycling",
    "request_reason": "Request a Large Item Pick Up",
    "date_created": "2024-08-27T14:45:05.000",
    "date_modified": "2024-08-27T14:45:06.000",
    "request_status": "Pending",
    "responsible_agency": "Department of Sanitation",
    "final_address": "1326 Lamanche St",
    "address_councildis": "E",
    "status": "Assigned to Contractor",
    "contractor": "Waste Pro",
    "rowid": "1125558",
    "final_x": "3698568.89149",
    "final_y": "534633.89671",
    "longitude": "-90.01406002288743",
    "latitude": "29.963528502856104",
    "geocoded_column": {
      "latitude": "29.963528502856104",
      "longitude": "-90.01406002288743"
    }
  },
  {
    "service_request": "2024-1125557",
    "request_type": "Trash/Recycling",
    "request_reason": "Order Recycling Cart",
    "date_created": "2024-08-27T14:40:52.000",
    "date_modified": "2024-08-27T14:44:14.000",
    "request_status": "Pending",
    "responsible_agency": "Department of Sanitation",
    "final_address": "7710 N Coronet Ct",
    "address_councildis": "E",
    "status": "Pending",
    "rowid": "1125557",
    "final_x": "3702458.33661",
    "final_y": "557474.842843",
    "longitude": "-90.000938932786",
    "latitude": "30.02620887958794",
    "geocoded_column": {
      "latitude": "30.02620887958794",
      "longitude": "-90.000938932786"
    }
  },
  {
    "service_request": "2024-1125556",
    "request_type": "Trash/Recycling",
    "request_reason": "Replace Trash Cart",
    "date_created": "2024-08-27T14:39:41.000",
    "date_modified": "2024-08-27T14:42:35.000",
    "request_status": "Pending",
    "responsible_agency": "Department of Sanitation",
    "final_address": "7710 N Coronet Ct",
    "address_councildis": "E",
    "status": "Assigned to Contractor",
    "contractor": "Waste Pro",
    "rowid": "1125556",
    "final_x": "3702458.33661",
    "final_y": "557474.842843",
    "longitude": "-90.000938932786",
    "latitude": "30.02620887958794",
    "geocoded_column": {
      "latitude": "30.02620887958794",
      "longitude": "-90.000938932786"
    }
  },
  {
    "service_request": "2024-1125555",
    "request_type": "Safety & Permits",
    "request_reason": "Licenses & Permits",
    "date_created": "2024-08-27T14:38:36.000",
    "date_modified": "2024-08-27T14:40:33.000",
    "request_status": "Pending",
    "responsible_agency": "Safety and Permits",
    "final_address": "1418 N Dorgenois St",
    "address_councildis": "D",
    "rowid": "1125555",
    "final_x": "3678789.79605",
    "final_y": "538726.789193",
    "longitude": "-90.07637853873844",
    "latitude": "29.975393907691753",
    "geocoded_column": {
      "latitude": "29.975393907691753",
      "longitude": "-90.07637853873844"
    }
  },
  {
    "service_request": "2024-1125554",
    "request_type": "Trash/Recycling",
    "request_reason": "Request a Large Item Pick Up",
    "date_created": "2024-08-27T14:36:01.000",
    "date_modified": "2024-08-27T14:36:02.000",
    "request_status": "Pending",
    "responsible_agency": "Department of Sanitation",
    "final_address": "37 Stilt St",
    "address_councildis": "D",
    "status": "Assigned to Contractor",
    "contractor": "IV Waste",
    "rowid": "1125554",
    "final_x": "3673426.91265",
    "final_y": "557300.428251",
    "longitude": "-90.0926808545949",
    "latitude": "30.02662556948795",
    "geocoded_column": {
      "latitude": "30.02662556948795",
      "longitude": "-90.0926808545949"
    }
  },
  {
    "service_request": "2024-1125553",
    "request_type": "Property Maintenance",
    "request_reason": "Property Maintenance",
    "date_created": "2024-08-27T14:33:10.000",
    "date_modified": "2024-08-27T14:50:32.000",
    "case_close_date": "2024-08-27T09:50:32.000",
    "request_status": "Closed",
    "responsible_agency": "Department of Code Enforcement",
    "final_address": "3916 Erato St",
    "address_councildis": "B",
    "status": "Referred to Code Enforcement",
    "rowid": "1125553",
    "final_x": "3672542.0194",
    "final_y": "530403.41581",
    "longitude": "-90.09639451629926",
    "latitude": "29.952694391671287",
    "geocoded_column": {
      "latitude": "29.952694391671287",
      "longitude": "-90.09639451629926"
    }
  },
  {
    "service_request": "2024-1125552",
    "request_type": "Trash/Recycling",
    "request_reason": "Request a Large Item Pick Up",
    "date_created": "2024-08-27T14:31:23.000",
    "date_modified": "2024-08-27T14:31:25.000",
    "request_status": "Pending",
    "responsible_agency": "Department of Sanitation",
    "final_address": "37 Stilt St",
    "address_councildis": "D",
    "status": "Assigned to Contractor",
    "contractor": "IV Waste",
    "rowid": "1125552",
    "final_x": "3673426.91265",
    "final_y": "557300.428251",
    "longitude": "-90.0926808545949",
    "latitude": "30.02662556948795",
    "geocoded_column": {
      "latitude": "30.02662556948795",
      "longitude": "-90.0926808545949"
    }
  },
  {
    "service_request": "2024-1125551",
    "request_type": "Trash/Recycling",
    "request_reason": "Request a Large Item Pick Up",
    "date_created": "2024-08-27T14:29:11.000",
    "date_modified": "2024-08-27T14:29:13.000",
    "request_status": "Pending",
    "responsible_agency": "Department of Sanitation",
    "final_address": "4722 Eastern St",
    "address_councildis": "D",
    "status": "Assigned to Contractor",
    "contractor": "IV Waste",
    "rowid": "1125551",
    "final_x": "3687974.11235",
    "final_y": "550568.924372",
    "longitude": "-90.04695219101913",
    "latitude": "30.007675307146236",
    "geocoded_column": {
      "latitude": "30.007675307146236",
      "longitude": "-90.04695219101913"
    }
  },
  {
    "service_request": "2024-1125550",
    "request_type": "Property Maintenance",
    "request_reason": "Property Maintenance",
    "date_created": "2024-08-27T14:23:35.000",
    "date_modified": "2024-08-27T14:43:19.000",
    "case_close_date": "2024-08-27T09:43:19.000",
    "request_status": "Closed",
    "responsible_agency": "Department of Code Enforcement",
    "final_address": "2407 Independence St",
    "address_councildis": "D",
    "status": "Referred to Code Enforcement",
    "rowid": "1125550",
    "final_x": "3692219.252",
    "final_y": "540480.733387",
    "longitude": "-90.03390204557815",
    "latitude": "29.97980472258323",
    "geocoded_column": {
      "latitude": "29.97980472258323",
      "longitude": "-90.03390204557815"
    }
  },
  {
    "service_request": "2024-1125549",
    "request_type": "Trash/Recycling",
    "request_reason": "Return Recycling Cart",
    "date_created": "2024-08-27T14:22:44.000",
    "date_modified": "2024-08-27T14:22:45.000",
    "request_status": "Pending",
    "responsible_agency": "Department of Sanitation",
    "final_address": "10132 Rosewood Pl",
    "address_councildis": "E",
    "status": "Pending",
    "rowid": "1125549",
    "final_x": "3712953.00728",
    "final_y": "557590.971035",
    "longitude": "-89.96777302378248",
    "latitude": "30.026188465335345",
    "geocoded_column": {
      "latitude": "30.026188465335345",
      "longitude": "-89.96777302378248"
    }
  },
  {
    "service_request": "2024-1125548",
    "request_type": "Trash/Recycling",
    "request_reason": "Order Recycling Cart",
    "date_created": "2024-08-27T14:22:14.000",
    "date_modified": "2024-08-27T14:22:15.000",
    "request_status": "Pending",
    "responsible_agency": "Department of Sanitation",
    "final_address": "10132 Rosewood Pl",
    "address_councildis": "E",
    "status": "Pending",
    "rowid": "1125548",
    "final_x": "3712953.00728",
    "final_y": "557590.971035",
    "longitude": "-89.96777302378248",
    "latitude": "30.026188465335345",
    "geocoded_column": {
      "latitude": "30.026188465335345",
      "longitude": "-89.96777302378248"
    }
  },
  {
    "service_request": "2024-1125547",
    "request_type": "Trash/Recycling",
    "request_reason": "Order Recycling Cart",
    "date_created": "2024-08-27T14:17:57.000",
    "date_modified": "2024-08-27T14:17:57.000",
    "request_status": "Pending",
    "responsible_agency": "Department of Sanitation",
    "final_address": "1311 Alvar St",
    "address_councildis": "D",
    "status": "Pending",
    "rowid": "1125547",
    "final_x": "3691734.28323",
    "final_y": "536206.215175",
    "longitude": "-90.03558667423631",
    "latitude": "29.96806642832244",
    "geocoded_column": {
      "latitude": "29.96806642832244",
      "longitude": "-90.03558667423631"
    }
  },
  {
    "service_request": "2024-1125546",
    "request_type": "Traffic Signals/Signs/Striping/Streetlights",
    "request_reason": "Crosswalks and Signage",
    "date_created": "2024-08-27T14:14:06.000",
    "date_modified": "2024-08-27T14:14:06.000",
    "request_status": "Pending",
    "responsible_agency": "Department of Public Works",
    "final_address": "812 General Pershing St",
    "address_councildis": "B",
    "status": "Pending",
    "rowid": "1125546",
    "final_x": "3671417.96737",
    "final_y": "518575.665207",
    "longitude": "-90.10034564839077",
    "latitude": "29.92020522265032",
    "geocoded_column": {
      "latitude": "29.92020522265032",
      "longitude": "-90.10034564839077"
    }
  },
  {
    "service_request": "2024-1125545",
    "request_type": "Traffic Signals/Signs/Striping/Streetlights",
    "request_reason": "Additional signage",
    "date_created": "2024-08-27T14:11:28.000",
    "date_modified": "2024-08-27T14:11:28.000",
    "request_status": "Pending",
    "responsible_agency": "Department of Public Works",
    "final_address": "821 General Pershing St",
    "address_councildis": "B",
    "status": "Pending",
    "rowid": "1125545",
    "final_x": "3671510.67956",
    "final_y": "518639.389239",
    "longitude": "-90.10005083452866",
    "latitude": "29.92037769998408",
    "geocoded_column": {
      "latitude": "29.92037769998408",
      "longitude": "-90.10005083452866"
    }
  },
  {
    "service_request": "2024-1125544",
    "request_type": "Traffic Signals/Signs/Striping/Streetlights",
    "request_reason": "Striping/Road Surface Markings",
    "date_created": "2024-08-27T14:05:57.000",
    "date_modified": "2024-08-27T14:05:57.000",
    "request_status": "Pending",
    "responsible_agency": "Department of Public Works",
    "final_address": "821 General Pershing St",
    "address_councildis": "B",
    "status": "Pending",
    "rowid": "1125544",
    "final_x": "3671510.67956",
    "final_y": "518639.389239",
    "longitude": "-90.10005083452866",
    "latitude": "29.92037769998408",
    "geocoded_column": {
      "latitude": "29.92037769998408",
      "longitude": "-90.10005083452866"
    }
  },
  {
    "service_request": "2024-1125542",
    "request_type": "Trash/Recycling",
    "request_reason": "Request a Large Item Pick Up",
    "date_created": "2024-08-27T13:55:55.000",
    "date_modified": "2024-08-27T13:56:33.000",
    "request_status": "Pending",
    "responsible_agency": "Department of Sanitation",
    "final_address": "1310 Poland Ave",
    "address_councildis": "D",
    "status": "Assigned to Contractor",
    "contractor": "IV Waste",
    "rowid": "1125542",
    "final_x": "3693151.42697",
    "final_y": "535861.121287",
    "longitude": "-90.03112368550622",
    "latitude": "29.967073333656657",
    "geocoded_column": {
      "latitude": "29.967073333656657",
      "longitude": "-90.03112368550622"
    }
  },
  {
    "service_request": "2024-1125541",
    "request_type": "Trash/Recycling",
    "request_reason": "Request a Large Item Pick Up",
    "date_created": "2024-08-27T13:54:59.000",
    "date_modified": "2024-08-27T13:55:00.000",
    "request_status": "Pending",
    "responsible_agency": "Department of Sanitation",
    "final_address": "3121 N Prieur St",
    "address_councildis": "D",
    "status": "Assigned to Contractor",
    "contractor": "IV Waste",
    "rowid": "1125541",
    "final_x": "3689974.10384",
    "final_y": "538984.971466",
    "longitude": "-90.04104639903873",
    "latitude": "29.975761725928567",
    "geocoded_column": {
      "latitude": "29.975761725928567",
      "longitude": "-90.04104639903873"
    }
  },
  {
    "service_request": "2024-1125539",
    "request_type": "Trash/Recycling",
    "request_reason": "Order Recycling Cart",
    "date_created": "2024-08-27T13:52:35.000",
    "date_modified": "2024-08-27T13:52:35.000",
    "request_status": "Pending",
    "responsible_agency": "Department of Sanitation",
    "final_address": "GENERAL PERSHING ST & CONSTANCE ST",
    "address_councildis": "B",
    "status": "Pending",
    "rowid": "1125539",
    "final_x": "3671493.4",
    "final_y": "518458.78",
    "longitude": "-90.10011151383155",
    "latitude": "29.919881593352294",
    "geocoded_column": {
      "latitude": "29.919881593352294",
      "longitude": "-90.10011151383155"
    }
  },
  {
    "service_request": "2024-1125537",
    "request_type": "Property Maintenance",
    "request_reason": "Property Maintenance",
    "date_created": "2024-08-27T13:51:47.000",
    "date_modified": "2024-08-27T14:30:09.000",
    "case_close_date": "2024-08-27T09:30:09.000",
    "request_status": "Closed",
    "responsible_agency": "Department of Code Enforcement",
    "final_address": "7568 Dearborn Rd",
    "address_councildis": "E",
    "status": "Referred to Code Enforcement",
    "rowid": "1125537",
    "final_x": "3709295.9772",
    "final_y": "564473.687777",
    "longitude": "-89.97907164020914",
    "latitude": "30.045232535508404",
    "geocoded_column": {
      "latitude": "30.045232535508404",
      "longitude": "-89.97907164020914"
    }
  },
  {
    "service_request": "2024-1125535",
    "request_type": "Trash/Recycling",
    "request_reason": "Request a Large Item Pick Up",
    "date_created": "2024-08-27T13:51:20.000",
    "date_modified": "2024-08-27T13:51:21.000",
    "request_status": "Pending",
    "responsible_agency": "Department of Sanitation",
    "final_address": "1116 N Derbigny St",
    "address_councildis": "D",
    "status": "Assigned to Contractor",
    "contractor": "IV Waste",
    "rowid": "1125535",
    "final_x": "3680508.01096",
    "final_y": "536128.917191",
    "longitude": "-90.07104234108606",
    "latitude": "29.968198716628148",
    "geocoded_column": {
      "latitude": "29.968198716628148",
      "longitude": "-90.07104234108606"
    }
  },
  {
    "service_request": "2024-1125534",
    "request_type": "Roads/Drainage",
    "request_reason": "Catch Basin - Clogged",
    "date_created": "2024-08-27T13:50:08.000",
    "date_modified": "2024-08-27T13:50:08.000",
    "request_status": "Pending",
    "responsible_agency": "Department of Public Works",
    "final_address": "1800 Dante St",
    "address_councildis": "A",
    "status": "Pending",
    "rowid": "1125534",
    "final_x": "3662836.29856",
    "final_y": "530478.777474",
    "longitude": "-90.12703847131706",
    "latitude": "29.953186135520873",
    "geocoded_column": {
      "latitude": "29.953186135520873",
      "longitude": "-90.12703847131706"
    }
  },
  {
    "service_request": "2024-1125533",
    "request_type": "Roads/Drainage",
    "request_reason": "Catch Basin - Clogged",
    "date_created": "2024-08-27T13:48:08.000",
    "date_modified": "2024-08-27T13:49:01.000",
    "request_status": "Pending",
    "responsible_agency": "Department of Public Works",
    "final_address": "1938 Octavia St",
    "address_councildis": "A",
    "status": "Pending",
    "rowid": "1125533",
    "final_x": "3667293.7081",
    "final_y": "522999.339387",
    "longitude": "-90.11321533032879",
    "latitude": "29.932490310615204",
    "geocoded_column": {
      "latitude": "29.932490310615204",
      "longitude": "-90.11321533032879"
    }
  },
  {
    "service_request": "2024-1125532",
    "request_type": "Parks & Parkways",
    "request_reason": "Request Tree Service (Right of Way/Public Property)",
    "date_created": "2024-08-27T13:45:01.000",
    "date_modified": "2024-08-27T13:45:02.000",
    "request_status": "Pending",
    "responsible_agency": "Department of Parks & Parkway",
    "final_address": "6421 St Roch Ave",
    "address_councildis": "D",
    "status": "Pending",
    "rowid": "1125532",
    "final_x": "3684939.28585",
    "final_y": "556877.910234",
    "longitude": "-90.05631793943733",
    "latitude": "30.025116036126857",
    "geocoded_column": {
      "latitude": "30.025116036126857",
      "longitude": "-90.05631793943733"
    }
  },
  {
    "service_request": "2024-1125531",
    "request_type": "Abandoned Vehicles",
    "request_reason": "Abandoned/Junk Vehicles",
    "date_created": "2024-08-27T13:44:11.000",
    "date_modified": "2024-08-27T13:46:00.000",
    "request_status": "Pending",
    "responsible_agency": "Department of Public Works",
    "final_address": "501 Opelousas Ave",
    "address_councildis": "C",
    "status": "Pending",
    "rowid": "1125531",
    "final_x": "3686940.23702",
    "final_y": "529037.857216",
    "longitude": "-90.05097976719192",
    "latitude": "29.94850433990693",
    "geocoded_column": {
      "latitude": "29.94850433990693",
      "longitude": "-90.05097976719192"
    }
  },
  {
    "service_request": "2024-1125530",
    "request_type": "Trash/Recycling",
    "request_reason": "Request a Large Item Pick Up",
    "date_created": "2024-08-27T13:43:54.000",
    "date_modified": "2024-08-27T13:43:55.000",
    "request_status": "Pending",
    "responsible_agency": "Department of Sanitation",
    "final_address": "2637 Fats Domino Ave",
    "address_councildis": "E",
    "status": "Assigned to Contractor",
    "contractor": "Waste Pro",
    "rowid": "1125530",
    "final_x": "3699726.98186",
    "final_y": "539673.580298",
    "longitude": "-90.0102191501685",
    "latitude": "29.97734910181082",
    "geocoded_column": {
      "latitude": "29.97734910181082",
      "longitude": "-90.0102191501685"
    }
  },
  {
    "service_request": "2024-1125529",
    "request_type": "Trash/Recycling",
    "request_reason": "Request a Large Item Pick Up",
    "date_created": "2024-08-27T13:42:30.000",
    "date_modified": "2024-08-27T13:42:32.000",
    "request_status": "Pending",
    "responsible_agency": "Department of Sanitation",
    "final_address": "910 First St",
    "address_councildis": "B",
    "status": "Assigned to Contractor",
    "contractor": "IV Waste",
    "rowid": "1125529",
    "final_x": "3678373.57307",
    "final_y": "520959.441209",
    "longitude": "-90.07830769450966",
    "latitude": "29.92655219784845",
    "geocoded_column": {
      "latitude": "29.92655219784845",
      "longitude": "-90.07830769450966"
    }
  },
  {
    "service_request": "2024-1125528",
    "request_type": "Trash/Recycling",
    "request_reason": "Request a Large Item Pick Up",
    "date_created": "2024-08-27T13:38:04.000",
    "date_modified": "2024-08-27T13:38:06.000",
    "request_status": "Pending",
    "responsible_agency": "Department of Sanitation",
    "final_address": "4767 Eunice Dr",
    "address_councildis": "E",
    "status": "Assigned to Contractor",
    "contractor": "Waste Pro",
    "rowid": "1125528",
    "final_x": "3710598.88433",
    "final_y": "555960.090969",
    "longitude": "-89.9752727704641",
    "latitude": "30.021781117016495",
    "geocoded_column": {
      "latitude": "30.021781117016495",
      "longitude": "-89.9752727704641"
    }
  },
  {
    "service_request": "2024-1125527",
    "request_type": "Trash/Recycling",
    "request_reason": "Request a Large Item Pick Up",
    "date_created": "2024-08-27T13:37:38.000",
    "date_modified": "2024-08-27T13:37:39.000",
    "request_status": "Pending",
    "responsible_agency": "Department of Sanitation",
    "final_address": "5109 Marigny St",
    "address_councildis": "D",
    "status": "Assigned to Contractor",
    "contractor": "IV Waste",
    "rowid": "1125527",
    "final_x": "3684407.56815",
    "final_y": "551494.521621",
    "longitude": "-90.05818738471747",
    "latitude": "30.010329976509666",
    "geocoded_column": {
      "latitude": "30.010329976509666",
      "longitude": "-90.05818738471747"
    }
  },
  {
    "service_request": "2024-1125526",
    "request_type": "Trash/Recycling",
    "request_reason": "Request a Large Item Pick Up",
    "date_created": "2024-08-27T13:32:49.000",
    "date_modified": "2024-08-27T13:35:58.000",
    "request_status": "Pending",
    "responsible_agency": "Department of Sanitation",
    "final_address": "7323 Cohn St Apt A",
    "address_councildis": "A",
    "status": "Assigned to Contractor",
    "contractor": "IV Waste",
    "rowid": "1125526",
    "final_x": "3665158.75047",
    "final_y": "528865.164352",
    "longitude": "-90.1197591063869",
    "latitude": "29.94868178884907",
    "geocoded_column": {
      "latitude": "29.94868178884907",
      "longitude": "-90.1197591063869"
    }
  },
  {
    "service_request": "2024-1125525",
    "request_type": "Abandoned Vehicles",
    "request_reason": "Abandoned/Junk Vehicles",
    "date_created": "2024-08-27T13:28:35.000",
    "date_modified": "2024-08-27T13:34:56.000",
    "request_status": "Pending",
    "responsible_agency": "Department of Public Works",
    "final_address": "2129 Lapeyrouse St",
    "address_councildis": "D",
    "status": "Pending",
    "rowid": "1125525",
    "final_x": "3680637.30299",
    "final_y": "539052.589514",
    "longitude": "-90.07053227625866",
    "latitude": "29.976233890158245",
    "geocoded_column": {
      "latitude": "29.976233890158245",
      "longitude": "-90.07053227625866"
    }
  },
  {
    "service_request": "2024-1125524",
    "request_type": "Trash/Recycling",
    "request_reason": "Request a Large Item Pick Up",
    "date_created": "2024-08-27T13:24:35.000",
    "date_modified": "2024-08-27T13:24:36.000",
    "request_status": "Pending",
    "responsible_agency": "Department of Sanitation",
    "final_address": "2501 Chelsea Dr",
    "address_councildis": "C",
    "status": "Assigned to Contractor",
    "contractor": "Richards Disposal",
    "rowid": "1125524",
    "final_x": "3704357.17802",
    "final_y": "522002.656378",
    "longitude": "-89.99624682473541",
    "latitude": "29.9286125611529",
    "geocoded_column": {
      "latitude": "29.9286125611529",
      "longitude": "-89.99624682473541"
    }
  },
  {
    "service_request": "2024-1125523",
    "request_type": "Trash/Recycling",
    "request_reason": "Request a Large Item Pick Up",
    "date_created": "2024-08-27T13:22:49.000",
    "date_modified": "2024-08-27T13:22:50.000",
    "request_status": "Pending",
    "responsible_agency": "Department of Sanitation",
    "final_address": "7041 Beauvoir Ct",
    "address_councildis": "E",
    "status": "Assigned to Contractor",
    "contractor": "Waste Pro",
    "rowid": "1125523",
    "final_x": "3716616.974",
    "final_y": "567262.755364",
    "longitude": "-89.95582806827882",
    "latitude": "30.052661383220023",
    "geocoded_column": {
      "latitude": "30.052661383220023",
      "longitude": "-89.95582806827882"
    }
  },
  {
    "service_request": "2024-1125522",
    "request_type": "Abandoned Vehicles",
    "request_reason": "Abandoned/Junk Vehicles",
    "date_created": "2024-08-27T13:21:16.000",
    "date_modified": "2024-08-27T13:21:18.000",
    "request_status": "Pending",
    "responsible_agency": "Department of Public Works",
    "final_address": "1600 BLK Gallier St",
    "address_councildis": "D",
    "status": "Pending",
    "rowid": "1125522",
    "final_x": "3690974.20922",
    "final_y": "537693.742642",
    "longitude": "-90.03793389976003",
    "latitude": "29.972180252240136",
    "geocoded_column": {
      "latitude": "29.972180252240136",
      "longitude": "-90.03793389976003"
    }
  },
  {
    "service_request": "2024-1125521",
    "request_type": "Abandoned Vehicles",
    "request_reason": "Abandoned/Junk Vehicles",
    "date_created": "2024-08-27T13:19:30.000",
    "date_modified": "2024-08-27T13:33:38.000",
    "request_status": "Pending",
    "responsible_agency": "Department of Public Works",
    "final_address": "3300 BLK Thalia St",
    "address_councildis": "B",
    "status": "Inspected",
    "rowid": "1125521",
    "final_x": "3674188.36451",
    "final_y": "529057.325203",
    "longitude": "-90.09124216316617",
    "latitude": "29.948944117649713",
    "geocoded_column": {
      "latitude": "29.948944117649713",
      "longitude": "-90.09124216316617"
    }
  },