[
  {
    "service_request": "2025-1165201",
    "request_type": "General Services",
    "request_reason": "General Service Request",
    "date_created": "2025-01-29T21:57:50.000",
    "date_modified": "2025-01-29T21:57:52.000",
    "request_status": "Pending",
    "responsible_agency": "Orleans Parish Communication District",
    "final_address": "3820 St Claude Ave",
    "address_councildis": "C",
    "status": "Pending",
    "rowid": "1165201",
    "final_x": "3691325.99593",
    "final_y": "535336.381382",
    "longitude": "-90.03690713581696",
    "latitude": "29.965687399911342",
    "geocoded_column": {
      "latitude": "29.965687399911342",
      "longitude": "-90.03690713581696"
    }
  },
  {
    "service_request": "2025-1165200",
    "request_type": "Trash/Recycling",
    "request_reason": "MIssed Recycling Pick-Up",
    "date_created": "2025-01-29T21:42:28.000",
    "date_modified": "2025-01-29T21:42:30.000",
    "request_status": "Pending",
    "responsible_agency": "Department of Sanitation",
    "final_address": "4751 Lennox Blvd",
    "address_councildis": "C",
    "status": "Assigned to Contractor",
    "contractor": "Richards Disposal",
    "rowid": "1165200",
    "final_x": "3700648.75697",
    "final_y": "513113.321713",
    "longitude": "-90.00827795867319",
    "latitude": "29.904288391246283",
    "geocoded_column": {
      "latitude": "29.904288391246283",
      "longitude": "-90.00827795867319"
    }
  },
  {
    "service_request": "2025-1165199",
    "request_type": "Trash/Recycling",
    "request_reason": "Missed Trash Pick-Up",
    "date_created": "2025-01-29T21:40:53.000",
    "date_modified": "2025-01-29T21:40:56.000",
    "request_status": "Pending",
    "responsible_agency": "Department of Sanitation",
    "final_address": "4751 Lennox Blvd",
    "address_councildis": "C",
    "status": "Assigned to Contractor",
    "contractor": "Richards Disposal",
    "rowid": "1165199",
    "final_x": "3700648.75697",
    "final_y": "513113.321713",
    "longitude": "-90.00827795867319",
    "latitude": "29.904288391246283",
    "geocoded_column": {
      "latitude": "29.904288391246283",
      "longitude": "-90.00827795867319"
    }
  },
  {
    "service_request": "2025-1165198",
    "request_type": "Drainage",
    "request_reason": "Street Flooding",
    "date_created": "2025-01-29T21:04:47.000",
    "date_modified": "2025-01-29T21:04:50.000",
    "request_status": "Pending",
    "responsible_agency": "Department of Public Works",
    "final_address": "Baudin Street & South Clark Street",
    "address_councildis": "B",
    "status": "Pending",
    "rowid": "1165198",
    "final_x": "3671890.39835",
    "final_y": "535717.196295",
    "longitude": "-90.09827119745249",
    "latitude": "29.967324844934616",
    "geocoded_column": {
      "latitude": "29.967324844934616",
      "longitude": "-90.09827119745249"
    }
  },
  {
    "service_request": "2025-1165197",
    "request_type": "Streetlights",
    "request_reason": "Streetlight Outage/Malfunction",
    "date_created": "2025-01-29T20:57:42.000",
    "date_modified": "2025-01-29T20:57:43.000",
    "request_status": "Pending",
    "responsible_agency": "Department of Public Works",
    "final_address": "507 State St",
    "address_councildis": "A",
    "status": "Pending",
    "contractor": "Legacy Professional Services",
    "rowid": "1165197",
    "final_x": "3664462.53997",
    "final_y": "518322.32863",
    "longitude": "-90.12230916735747",
    "latitude": "29.919712591499753",
    "geocoded_column": {
      "latitude": "29.919712591499753",
      "longitude": "-90.12230916735747"
    }
  },
  {
    "service_request": "2025-1165196",
    "request_type": "Abandoned Vehicles",
    "request_reason": "Abandoned/Junk Vehicles",
    "date_created": "2025-01-29T20:56:37.000",
    "date_modified": "2025-01-29T20:56:40.000",
    "request_status": "Pending",
    "responsible_agency": "Department of Public Works",
    "final_address": "3855 S Pin Oak Ave",
    "address_councildis": "C",
    "status": "Pending",
    "rowid": "1165196",
    "final_x": "3704712.35447",
    "final_y": "513984.405554",
    "longitude": "-89.99542116401103",
    "latitude": "29.90655373786686",
    "geocoded_column": {
      "latitude": "29.90655373786686",
      "longitude": "-89.99542116401103"
    }
  },
  {
    "service_request": "2025-1165195",
    "request_type": "Health Related Request",
    "request_reason": "Homeless Encampment Complaint",
    "date_created": "2025-01-29T20:40:35.000",
    "date_modified": "2025-01-29T20:40:37.000",
    "request_status": "Pending",
    "responsible_agency": "Health Department",
    "final_address": "5100 BLK Canal Blvd",
    "address_councildis": "A",
    "status": "Pending",
    "rowid": "1165195",
    "final_x": "3667898.10019",
    "final_y": "541845.150021",
    "longitude": "-90.11067247805775",
    "latitude": "29.98429237783102",
    "geocoded_column": {
      "latitude": "29.98429237783102",
      "longitude": "-90.11067247805775"
    }
  },
  {
    "service_request": "2025-1165194",
    "request_type": "Drainage",
    "request_reason": "Street Flooding",
    "date_created": "2025-01-29T20:16:32.000",
    "date_modified": "2025-01-29T20:16:35.000",
    "request_status": "Pending",
    "responsible_agency": "Department of Public Works",
    "final_address": "5508 Arts St",
    "address_councildis": "D",
    "status": "Pending",
    "rowid": "1165194",
    "final_x": "3685814.31292",
    "final_y": "553278.121751",
    "longitude": "-90.05368002692131",
    "latitude": "30.015191103596766",
    "geocoded_column": {
      "latitude": "30.015191103596766",
      "longitude": "-90.05368002692131"
    }
  },
  {
    "service_request": "2025-1165193",
    "request_type": "Streetlights",
    "request_reason": "Streetlight Outage/Malfunction",
    "date_created": "2025-01-29T19:30:50.000",
    "date_modified": "2025-01-29T19:30:51.000",
    "request_status": "Pending",
    "responsible_agency": "Department of Public Works",
    "final_address": "7328 Plum St",
    "address_councildis": "A",
    "status": "Pending",
    "contractor": "Legacy Professional Services",
    "rowid": "1165193",
    "final_x": "3663927.37088",
    "final_y": "527035.813182",
    "longitude": "-90.12370808767713",
    "latitude": "29.94368746359225",
    "geocoded_column": {
      "latitude": "29.94368746359225",
      "longitude": "-90.12370808767713"
    }
  },
  {
    "service_request": "2025-1165192",
    "request_type": "Safety & Permits",
    "request_reason": "Construction permit",
    "date_created": "2025-01-29T19:30:12.000",
    "date_modified": "2025-01-29T19:30:14.000",
    "request_status": "Pending",
    "responsible_agency": "Safety and Permits",
    "final_address": "1000 BLK Alabo St",
    "address_councildis": "E",
    "status": "Pending",
    "rowid": "1165192",
    "final_x": "3698845.48908",
    "final_y": "533323.290425",
    "longitude": "-90.0132342439612",
    "latitude": "29.959916043027782",
    "geocoded_column": {
      "latitude": "29.959916043027782",
      "longitude": "-90.0132342439612"
    }
  },
  {
    "service_request": "2025-1165191",
    "request_type": "Healthy Homes",
    "request_reason": "Healthy Homes",
    "date_created": "2025-01-29T19:28:12.000",
    "date_modified": "2025-01-29T19:28:14.000",
    "request_status": "Pending",
    "responsible_agency": "Department of Code Enforcement",
    "final_address": "612 Julia St",
    "address_councildis": "B",
    "status": "Pending",
    "rowid": "1165191",
    "final_x": "3680652.74504",
    "final_y": "527929.818431",
    "longitude": "-90.07087054961761",
    "latitude": "29.945649589090255",
    "geocoded_column": {
      "latitude": "29.945649589090255",
      "longitude": "-90.07087054961761"
    }
  },
  {
    "service_request": "2025-1165190",
    "request_type": "Trash/Recycling",
    "request_reason": "Order Recycling Cart",
    "date_created": "2025-01-29T19:28:00.000",
    "date_modified": "2025-01-29T19:28:01.000",
    "request_status": "Pending",
    "responsible_agency": "Department of Sanitation",
    "final_address": "824 Valmont St",
    "address_councildis": "B",
    "status": "Pending",
    "rowid": "1165190",
    "final_x": "3667403.53146",
    "final_y": "518463.585782",
    "longitude": "-90.1130211226863",
    "latitude": "29.920015208486788",
    "geocoded_column": {
      "latitude": "29.920015208486788",
      "longitude": "-90.1130211226863"
    }
  },
  {
    "service_request": "2025-1165189",
    "request_type": "Trash/Recycling",
    "request_reason": "Request a Large Item Pick Up",
    "date_created": "2025-01-29T19:27:52.000",
    "date_modified": "2025-01-29T19:27:55.000",
    "request_status": "Pending",
    "responsible_agency": "Department of Sanitation",
    "final_address": "1700 S Rampart St B",
    "address_councildis": "B",
    "status": "Assigned to Contractor",
    "contractor": "IV Waste",
    "rowid": "1165189",
    "final_x": "3677457.70549",
    "final_y": "525874.579645",
    "longitude": "-90.08102926394083",
    "latitude": "29.940094770423432",
    "geocoded_column": {
      "latitude": "29.940094770423432",
      "longitude": "-90.08102926394083"
    }
  },
  {
    "service_request": "2025-1165188",
    "request_type": "Trash/Recycling",
    "request_reason": "Missed Trash Pick-Up",
    "date_created": "2025-01-29T19:24:16.000",
    "date_modified": "2025-01-29T19:24:18.000",
    "request_status": "Pending",
    "responsible_agency": "Department of Sanitation",
    "final_address": "625 Broadway St",
    "address_councildis": "A",
    "status": "Assigned to Contractor",
    "contractor": "IV Waste",
    "rowid": "1165188",
    "final_x": "3663179.67975",
    "final_y": "524888.07334",
    "longitude": "-90.1261401997073",
    "latitude": "29.937803545509258",
    "geocoded_column": {
      "latitude": "29.937803545509258",
      "longitude": "-90.1261401997073"
    }
  },
  {
    "service_request": "2025-1165187",
    "request_type": "Trash/Recycling",
    "request_reason": "Repair Recycling Cart",
    "date_created": "2025-01-29T19:20:34.000",
    "date_modified": "2025-01-29T19:20:37.000",
    "request_status": "Pending",
    "responsible_agency": "Department of Sanitation",
    "final_address": "2812 Hudson Pl",
    "address_councildis": "C",
    "status": "Pending",
    "rowid": "1165187",
    "final_x": "3703417.07249",
    "final_y": "520349.41868",
    "longitude": "-89.99927527941595",
    "latitude": "29.924096862061976",
    "geocoded_column": {
      "latitude": "29.924096862061976",
      "longitude": "-89.99927527941595"
    }
  },
  {
    "service_request": "2025-1165186",
    "request_type": "Trash/Recycling",
    "request_reason": "Request a Large Item Pick Up",
    "date_created": "2025-01-29T19:17:09.000",
    "date_modified": "2025-01-29T19:17:11.000",
    "request_status": "Pending",
    "responsible_agency": "Department of Sanitation",
    "final_address": "1820 S Norman C Francis Prkwy",
    "address_councildis": "B",
    "status": "Assigned to Contractor",
    "contractor": "IV Waste",
    "rowid": "1165186",
    "final_x": "3669148.00225",
    "final_y": "530508.11757",
    "longitude": "-90.107107793719",
    "latitude": "29.953082594494642",
    "geocoded_column": {
      "latitude": "29.953082594494642",
      "longitude": "-90.107107793719"
    }
  },
  {
    "service_request": "2025-1165185",
    "request_type": "Trash/Recycling",
    "request_reason": "Missed Trash Pick-Up",
    "date_created": "2025-01-29T19:16:54.000",
    "date_modified": "2025-01-29T19:16:56.000",
    "request_status": "Pending",
    "responsible_agency": "Department of Sanitation",
    "final_address": "628 Nashville Ave",
    "address_councildis": "A",
    "status": "Assigned to Contractor",
    "contractor": "IV Waste",
    "rowid": "1165185",
    "final_x": "3665346.56525",
    "final_y": "518597.104887",
    "longitude": "-90.11950953497882",
    "latitude": "29.920442419987424",
    "geocoded_column": {
      "latitude": "29.920442419987424",
      "longitude": "-90.11950953497882"
    }
  },
  {
    "service_request": "2025-1165184",
    "request_type": "Roads and Streets",
    "request_reason": "Pothole",
    "date_created": "2025-01-29T19:15:20.000",
    "date_modified": "2025-01-29T19:15:22.000",
    "request_status": "Pending",
    "responsible_agency": "Department of Public Works",
    "final_address": "8001 Buffalo St",
    "address_councildis": "E",
    "status": "Pending",
    "rowid": "1165184",
    "final_x": "3719256.63052",
    "final_y": "574255.456874",
    "longitude": "-89.94721760197734",
    "latitude": "30.071800871220113",
    "geocoded_column": {
      "latitude": "30.071800871220113",
      "longitude": "-89.94721760197734"
    }
  },
  {
    "service_request": "2025-1165183",
    "request_type": "Streetlights",
    "request_reason": "Streetlight Outage/Malfunction",
    "date_created": "2025-01-29T19:09:28.000",
    "date_modified": "2025-01-29T19:09:29.000",
    "request_status": "Pending",
    "responsible_agency": "Department of Public Works",
    "final_address": "4657 Corinne St",
    "address_councildis": "E",
    "status": "Pending",
    "contractor": "Legacy Professional Services",
    "rowid": "1165183",
    "final_x": "3715147.7909",
    "final_y": "556489.26025",
    "longitude": "-89.96087955104767",
    "latitude": "30.023087095041852",
    "geocoded_column": {
      "latitude": "30.023087095041852",
      "longitude": "-89.96087955104767"
    }
  },
  {
    "service_request": "2025-1165182",
    "request_type": "Trash/Recycling",
    "request_reason": "Order Trash Cart",
    "date_created": "2025-01-29T19:03:08.000",
    "date_modified": "2025-01-29T19:03:11.000",
    "request_status": "Pending",
    "responsible_agency": "Department of Sanitation",
    "final_address": "4033 Franklin Ave",
    "address_councildis": "D",
    "status": "Assigned to Contractor",
    "contractor": "IV Waste",
    "rowid": "1165182",
    "final_x": "3687078.53417",
    "final_y": "547852.68757",
    "longitude": "-90.04987769702149",
    "latitude": "30.00023425801293",
    "geocoded_column": {
      "latitude": "30.00023425801293",
      "longitude": "-90.04987769702149"
    }
  },
  {
    "service_request": "2025-1165181",
    "request_type": "Trash/Recycling",
    "request_reason": "Missed Trash Pick-Up",
    "date_created": "2025-01-29T19:01:39.000",
    "date_modified": "2025-01-29T19:01:43.000",
    "request_status": "Pending",
    "responsible_agency": "Department of Sanitation",
    "final_address": "4033 Franklin Ave",
    "address_councildis": "D",
    "status": "Assigned to Contractor",
    "contractor": "IV Waste",
    "rowid": "1165181",
    "final_x": "3687078.53417",
    "final_y": "547852.68757",
    "longitude": "-90.04987769702149",
    "latitude": "30.00023425801293",
    "geocoded_column": {
      "latitude": "30.00023425801293",
      "longitude": "-90.04987769702149"
    }
  },
  {
    "service_request": "2025-1165180",
    "request_type": "Trash/Recycling",
    "request_reason": "Missed Trash Pick-Up",
    "date_created": "2025-01-29T18:56:57.000",
    "date_modified": "2025-01-29T18:57:00.000",
    "request_status": "Pending",
    "responsible_agency": "Department of Sanitation",
    "final_address": "7633 Zimple St",
    "address_councildis": "A",
    "status": "Assigned to Contractor",
    "contractor": "IV Waste",
    "rowid": "1165180",
    "final_x": "3662895.49831",
    "final_y": "527105.657215",
    "longitude": "-90.12696367827994",
    "latitude": "29.943909424569082",
    "geocoded_column": {
      "latitude": "29.943909424569082",
      "longitude": "-90.12696367827994"
    }
  },
  {
    "service_request": "2025-1165179",
    "request_type": "Trash/Recycling",
    "request_reason": "Request a Large Item Pick Up",
    "date_created": "2025-01-29T18:44:30.000",
    "date_modified": "2025-01-29T18:44:31.000",
    "request_status": "Pending",
    "responsible_agency": "Department of Sanitation",
    "final_address": "4710 Charlmark Dr",
    "address_councildis": "E",
    "status": "Assigned to Contractor",
    "contractor": "Waste Pro",
    "rowid": "1165179",
    "final_x": "3711372.93746",
    "final_y": "555779.343705",
    "longitude": "-89.97283377069996",
    "latitude": "30.021258884729072",
    "geocoded_column": {
      "latitude": "30.021258884729072",
      "longitude": "-89.97283377069996"
    }
  },
  {
    "service_request": "2025-1165178",
    "request_type": "Trash/Recycling",
    "request_reason": "Missed Trash Pick-Up",
    "date_created": "2025-01-29T18:43:46.000",
    "date_modified": "2025-01-29T18:43:48.000",
    "request_status": "Pending",
    "responsible_agency": "Department of Sanitation",
    "final_address": "7320 Hurst St",
    "address_councildis": "A",
    "status": "Assigned to Contractor",
    "contractor": "IV Waste",
    "rowid": "1165178",
    "final_x": "3661819.1513",
    "final_y": "523847.623483",
    "longitude": "-90.13047000182155",
    "latitude": "29.934981980100186",
    "geocoded_column": {
      "latitude": "29.934981980100186",
      "longitude": "-90.13047000182155"
    }
  },
  {
    "service_request": "2025-1165177",
    "request_type": "Trash/Recycling",
    "request_reason": "MIssed Recycling Pick-Up",
    "date_created": "2025-01-29T18:39:24.000",
    "date_modified": "2025-01-29T18:39:27.000",
    "request_status": "Pending",
    "responsible_agency": "Department of Sanitation",
    "final_address": "10930 Lincoln Beach Blvd",
    "address_councildis": "E",
    "status": "Assigned to Contractor",
    "contractor": "Waste Pro",
    "rowid": "1165177",
    "final_x": "3709478.98622",
    "final_y": "566938.95658",
    "longitude": "-89.97840111721955",
    "latitude": "30.052005083351833",
    "geocoded_column": {
      "latitude": "30.052005083351833",
      "longitude": "-89.97840111721955"
    }
  },
  {
    "service_request": "2025-1165176",
    "request_type": "Trash/Recycling",
    "request_reason": "Missed Trash Pick-Up",
    "date_created": "2025-01-29T18:30:35.000",
    "date_modified": "2025-01-29T18:30:38.000",
    "request_status": "Pending",
    "responsible_agency": "Department of Sanitation",
    "final_address": "2667 Allen Toussaint Blvd",
    "address_councildis": "D",
    "status": "Assigned to Contractor",
    "contractor": "IV Waste",
    "rowid": "1165176",
    "final_x": "3686950.95228",
    "final_y": "556098.446234",
    "longitude": "-90.04998898722111",
    "latitude": "30.022911000914586",
    "geocoded_column": {
      "latitude": "30.022911000914586",
      "longitude": "-90.04998898722111"
    }
  },
  {
    "service_request": "2025-1165175",
    "request_type": "Trash/Recycling",
    "request_reason": "MIssed Recycling Pick-Up",
    "date_created": "2025-01-29T18:29:15.000",
    "date_modified": "2025-01-29T18:29:17.000",
    "request_status": "Pending",
    "responsible_agency": "Department of Sanitation",
    "final_address": "2667 Allen Toussaint Blvd",
    "address_councildis": "D",
    "status": "Assigned to Contractor",
    "contractor": "IV Waste",
    "rowid": "1165175",
    "final_x": "3686950.95228",
    "final_y": "556098.446234",
    "longitude": "-90.04998898722111",
    "latitude": "30.022911000914586",
    "geocoded_column": {
      "latitude": "30.022911000914586",
      "longitude": "-90.04998898722111"
    }
  },
  {
    "service_request": "2025-1165174",
    "request_type": "Trash/Recycling",
    "request_reason": "Missed Trash Pick-Up",
    "date_created": "2025-01-29T18:29:13.000",
    "date_modified": "2025-01-29T18:29:14.000",
    "request_status": "Pending",
    "responsible_agency": "Department of Sanitation",
    "final_address": "7911 Jeannette St",
    "address_councildis": "A",
    "status": "Assigned to Contractor",
    "contractor": "IV Waste",
    "rowid": "1165174",
    "final_x": "3663202.66061",
    "final_y": "528727.407936",
    "longitude": "-90.12593992459634",
    "latitude": "29.9483598234777",
    "geocoded_column": {
      "latitude": "29.9483598234777",
      "longitude": "-90.12593992459634"
    }
  },
  {
    "service_request": "2025-1165173",
    "request_type": "Trash/Recycling",
    "request_reason": "MIssed Recycling Pick-Up",
    "date_created": "2025-01-29T18:28:05.000",
    "date_modified": "2025-01-29T18:28:07.000",
    "request_status": "Pending",
    "responsible_agency": "Department of Sanitation",
    "final_address": "7911 Jeannette St",
    "address_councildis": "A",
    "status": "Assigned to Contractor",
    "contractor": "IV Waste",
    "rowid": "1165173",
    "final_x": "3663202.66061",
    "final_y": "528727.407936",
    "longitude": "-90.12593992459634",
    "latitude": "29.9483598234777",
    "geocoded_column": {
      "latitude": "29.9483598234777",
      "longitude": "-90.12593992459634"
    }
  },
  {
    "service_request": "2025-1165172",
    "request_type": "Trash/Recycling",
    "request_reason": "Missed Trash Pick-Up",
    "date_created": "2025-01-29T18:24:47.000",
    "date_modified": "2025-01-29T18:24:50.000",
    "request_status": "Pending",
    "responsible_agency": "Department of Sanitation",
    "final_address": "902 Nashville Ave",
    "address_councildis": "A",
    "status": "Assigned to Contractor",
    "contractor": "IV Waste",
    "rowid": "1165172",
    "final_x": "3665555.0592",
    "final_y": "519395.933431",
    "longitude": "-90.11882468824541",
    "latitude": "29.922632873365387",
    "geocoded_column": {
      "latitude": "29.922632873365387",
      "longitude": "-90.11882468824541"
    }
  },
  {
    "service_request": "2025-1165171",
    "request_type": "Trash/Recycling",
    "request_reason": "Missed Trash Pick-Up",
    "date_created": "2025-01-29T18:17:42.000",
    "date_modified": "2025-01-29T18:17:44.000",
    "request_status": "Pending",
    "responsible_agency": "Department of Sanitation",
    "final_address": "6213 Arts St",
    "address_councildis": "D",
    "status": "Assigned to Contractor",
    "contractor": "IV Waste",
    "rowid": "1165171",
    "final_x": "3685720.56994",
    "final_y": "556202.104922",
    "longitude": "-90.05387305283377",
    "latitude": "30.023233857323106",
    "geocoded_column": {
      "latitude": "30.023233857323106",
      "longitude": "-90.05387305283377"
    }
  },
  {
    "service_request": "2025-1165170",
    "request_type": "Trash/Recycling",
    "request_reason": "Repair Recycling Cart",
    "date_created": "2025-01-29T18:11:15.000",
    "date_modified": "2025-01-29T18:11:18.000",
    "request_status": "Pending",
    "responsible_agency": "Department of Sanitation",
    "final_address": "4312 Fields St",
    "address_councildis": "C",
    "status": "Pending",
    "rowid": "1165170",
    "final_x": "3707954.60971",
    "final_y": "514876.930867",
    "longitude": "-89.98515525704497",
    "latitude": "29.908903381442176",
    "geocoded_column": {
      "latitude": "29.908903381442176",
      "longitude": "-89.98515525704497"
    }
  },
  {
    "service_request": "2025-1165169",
    "request_type": "Trash/Recycling",
    "request_reason": "Missed Trash Pick-Up",
    "date_created": "2025-01-29T18:07:29.000",
    "date_modified": "2025-01-29T18:07:31.000",
    "request_status": "Pending",
    "responsible_agency": "Department of Sanitation",
    "final_address": "2217 Monterrey St",
    "address_councildis": "D",
    "status": "Assigned to Contractor",
    "contractor": "IV Waste",
    "rowid": "1165169",
    "final_x": "3684391.07253",
    "final_y": "547044.247185",
    "longitude": "-90.05839594222088",
    "latitude": "29.9980938339304",
    "geocoded_column": {
      "latitude": "29.9980938339304",
      "longitude": "-90.05839594222088"
    }
  },
  {
    "service_request": "2025-1165168",
    "request_type": "Trash/Recycling",
    "request_reason": "Missed Trash Pick-Up",
    "date_created": "2025-01-29T18:06:17.000",
    "date_modified": "2025-01-29T18:06:19.000",
    "request_status": "Pending",
    "responsible_agency": "Department of Sanitation",
    "final_address": "4633 Knight Dr",
    "address_councildis": "E",
    "status": "Assigned to Contractor",
    "contractor": "Waste Pro",
    "rowid": "1165168",
    "final_x": "3708278.07614",
    "final_y": "554855.376984",
    "longitude": "-89.98264699711817",
    "latitude": "30.018819011394683",
    "geocoded_column": {
      "latitude": "30.018819011394683",
      "longitude": "-89.98264699711817"
    }
  },
  {
    "service_request": "2025-1165167",
    "request_type": "Trash/Recycling",
    "request_reason": "Request a Large Item Pick Up",
    "date_created": "2025-01-29T18:03:11.000",
    "date_modified": "2025-01-29T18:18:11.000",
    "case_close_date": "2025-01-29T12:18:09.000",
    "request_status": "Closed",
    "responsible_agency": "Department of Sanitation",
    "final_address": "2125 Forstall St",
    "address_councildis": "E",
    "status": "Duplicate Request",
    "contractor": "Waste Pro",
    "contractor_action": "Duplicate",
    "rowid": "1165167",
    "final_x": "3697441.99376",
    "final_y": "538131.746121",
    "longitude": "-90.01749178028349",
    "latitude": "29.97318196520593",
    "geocoded_column": {
      "latitude": "29.97318196520593",
      "longitude": "-90.01749178028349"
    }
  },
  {
    "service_request": "2025-1165166",
    "request_type": "Trash/Recycling",
    "request_reason": "Request a Large Item Pick Up",
    "date_created": "2025-01-29T17:46:31.000",
    "date_modified": "2025-01-29T17:46:34.000",
    "request_status": "Pending",
    "responsible_agency": "Department of Sanitation",
    "final_address": "8640 Chase St",
    "address_councildis": "E",
    "status": "Assigned to Contractor",
    "contractor": "Waste Pro",
    "rowid": "1165166",
    "final_x": "3703847.54154",
    "final_y": "563490.678816",
    "longitude": "-89.99632744064843",
    "latitude": "30.04270558489277",
    "geocoded_column": {
      "latitude": "30.04270558489277",
      "longitude": "-89.99632744064843"
    }
  },
  {
    "service_request": "2025-1165165",
    "request_type": "Trash/Recycling",
    "request_reason": "Request a Large Item Pick Up",
    "date_created": "2025-01-29T17:43:40.000",
    "date_modified": "2025-01-29T17:43:42.000",
    "request_status": "Pending",
    "responsible_agency": "Department of Sanitation",
    "final_address": "7860 Means Ave Apt A",
    "address_councildis": "E",
    "status": "Assigned to Contractor",
    "contractor": "Waste Pro",
    "rowid": "1165165",
    "final_x": "3707647.61572",
    "final_y": "565373.566114",
    "longitude": "-89.98424772514525",
    "latitude": "30.04776030558006",
    "geocoded_column": {
      "latitude": "30.04776030558006",
      "longitude": "-89.98424772514525"
    }
  },
  {
    "service_request": "2025-1165164",
    "request_type": "Trash/Recycling",
    "request_reason": "Request a Large Item Pick Up",
    "date_created": "2025-01-29T17:39:00.000",
    "date_modified": "2025-01-29T17:39:02.000",
    "request_status": "Pending",
    "responsible_agency": "Department of Sanitation",
    "final_address": "5215 Chestnut St",
    "address_councildis": "B",
    "status": "Assigned to Contractor",
    "contractor": "IV Waste",
    "rowid": "1165164",
    "final_x": "3667932.54919",
    "final_y": "519403.922871",
    "longitude": "-90.11131960813589",
    "latitude": "29.92258533668417",
    "geocoded_column": {
      "latitude": "29.92258533668417",
      "longitude": "-90.11131960813589"
    }
  },
  {
    "service_request": "2025-1165163",
    "request_type": "Abandoned Vehicles",
    "request_reason": "Abandoned/Junk Vehicles",
    "date_created": "2025-01-29T17:31:32.000",
    "date_modified": "2025-01-29T17:31:34.000",
    "request_status": "Pending",
    "responsible_agency": "Department of Public Works",
    "final_address": "2400 BLK Carondelet St",
    "address_councildis": "B",
    "status": "Pending",
    "rowid": "1165163",
    "final_x": "3676611.56045",
    "final_y": "523451.024408",
    "longitude": "-90.08378411580581",
    "latitude": "29.9334561892416",
    "geocoded_column": {
      "latitude": "29.9334561892416",
      "longitude": "-90.08378411580581"
    }
  },
  {
    "service_request": "2025-1165162",
    "request_type": "Trash/Recycling",
    "request_reason": "Order Recycling Cart",
    "date_created": "2025-01-29T17:26:40.000",
    "date_modified": "2025-01-29T17:26:43.000",
    "request_status": "Pending",
    "responsible_agency": "Department of Sanitation",
    "final_address": "7923 Forshey St",
    "address_councildis": "B",
    "status": "Pending",
    "rowid": "1165162",
    "final_x": "3667459.30772",
    "final_y": "533554.005125",
    "longitude": "-90.11233748853374",
    "latitude": "29.961507368403353",
    "geocoded_column": {
      "latitude": "29.961507368403353",
      "longitude": "-90.11233748853374"
    }
  },
  {
    "service_request": "2025-1165161",
    "request_type": "Graffiti Removal",
    "request_reason": "Graffiti Removal",
    "date_created": "2025-01-29T17:25:00.000",
    "date_modified": "2025-01-29T17:25:02.000",
    "request_status": "Pending",
    "responsible_agency": "Department of Code Enforcement",
    "final_address": "353 Carondelet St",
    "address_councildis": "B",
    "status": "Pending",
    "rowid": "1165161",
    "final_x": "3680386.79701",
    "final_y": "529839.389441",
    "longitude": "-90.07164384745582",
    "latitude": "29.950908323158778",
    "geocoded_column": {
      "latitude": "29.950908323158778",
      "longitude": "-90.07164384745582"
    }
  },
  {
    "service_request": "2025-1165160",
    "request_type": "Trash/Recycling",
    "request_reason": "Order Recycling Cart",
    "date_created": "2025-01-29T17:16:09.000",
    "date_modified": "2025-01-29T17:16:11.000",
    "request_status": "Pending",
    "responsible_agency": "Department of Sanitation",
    "final_address": "7535 Willow St",
    "address_councildis": "A",
    "status": "Pending",
    "rowid": "1165160",
    "final_x": "3663864.86688",
    "final_y": "527643.012991",
    "longitude": "-90.12388519519143",
    "latitude": "29.94535888263822",
    "geocoded_column": {
      "latitude": "29.94535888263822",
      "longitude": "-90.12388519519143"
    }
  },
  {
    "service_request": "2025-1165159",
    "request_type": "Trash/Recycling",
    "request_reason": "Request a Large Item Pick Up",
    "date_created": "2025-01-29T16:55:26.000",
    "date_modified": "2025-01-29T16:55:28.000",
    "request_status": "Pending",
    "responsible_agency": "Department of Sanitation",
    "final_address": "9528 Stroelitz St",
    "address_councildis": "A",
    "status": "Assigned to Contractor",
    "contractor": "IV Waste",
    "rowid": "1165159",
    "final_x": "3664060.23232",
    "final_y": "538364.311241",
    "longitude": "-90.12291077632969",
    "latitude": "29.974833279631028",
    "geocoded_column": {
      "latitude": "29.974833279631028",
      "longitude": "-90.12291077632969"
    }
  },
  {
    "service_request": "2025-1165158",
    "request_type": "Streetlights",
    "request_reason": "Streetlight Outage/Malfunction",
    "date_created": "2025-01-29T16:52:14.000",
    "date_modified": "2025-01-29T16:52:15.000",
    "request_status": "Pending",
    "responsible_agency": "Department of Public Works",
    "final_address": "1200 BLK Bourbon St",
    "address_councildis": "C",
    "status": "Pending",
    "contractor": "Legacy Professional Services",
    "rowid": "1165158",
    "final_x": "3683477.82625",
    "final_y": "534274.382354",
    "longitude": "-90.06172854722628",
    "latitude": "29.963009092049766",
    "geocoded_column": {
      "latitude": "29.963009092049766",
      "longitude": "-90.06172854722628"
    }
  },
  {
    "service_request": "2025-1165157",
    "request_type": "Abandoned Vehicles",
    "request_reason": "Abandoned/Junk Vehicles",
    "date_created": "2025-01-29T16:45:53.000",
    "date_modified": "2025-01-29T16:46:01.000",
    "request_status": "Pending",
    "responsible_agency": "Department of Public Works",
    "final_address": "7100 BLK Boston Dr",
    "address_councildis": "E",
    "status": "Pending",
    "rowid": "1165157",
    "final_x": "3706132.19695",
    "final_y": "561278.83786",
    "longitude": "-89.98918907308942",
    "latitude": "30.03655039954185",
    "geocoded_column": {
      "latitude": "30.03655039954185",
      "longitude": "-89.98918907308942"
    }
  },
  {
    "service_request": "2025-1165156",
    "request_type": "Safety & Permits",
    "request_reason": "Licenses & Permits",
    "date_created": "2025-01-29T16:45:09.000",
    "date_modified": "2025-01-29T16:48:22.000",
    "request_status": "Pending",
    "responsible_agency": "Safety and Permits",
    "final_address": "1723 Ursulines Ave",
    "address_councildis": "D",
    "rowid": "1165156",
    "final_x": "3680492.99535",
    "final_y": "535999.656583",
    "longitude": "-90.07109425777142",
    "latitude": "29.967843749135866",
    "geocoded_column": {
      "latitude": "29.967843749135866",
      "longitude": "-90.07109425777142"
    }
  },
  {
    "service_request": "2025-1165155",
    "request_type": "General Services",
    "request_reason": "General Service Request",
    "date_created": "2025-01-29T16:41:20.000",
    "date_modified": "2025-01-29T16:47:09.000",
    "case_close_date": "2025-01-29T10:47:08.000",
    "request_status": "Closed",
    "responsible_agency": "Orleans Parish Communication District",
    "final_address": "4920 Prytania St",
    "address_councildis": "B",
    "status": "Question Answered.",
    "rowid": "1165155",
    "final_x": "3668851.73678",
    "final_y": "520101.823096",
    "longitude": "-90.10839454193848",
    "latitude": "29.92447735426452",
    "geocoded_column": {
      "latitude": "29.92447735426452",
      "longitude": "-90.10839454193848"
    }
  },
  {
    "service_request": "2025-1165154",
    "request_type": "Trash/Recycling",
    "request_reason": "MIssed Recycling Pick-Up",
    "date_created": "2025-01-29T16:39:38.000",
    "date_modified": "2025-01-29T17:37:06.000",
    "case_close_date": "2025-01-29T11:37:05.000",
    "request_status": "Closed",
    "responsible_agency": "Department of Sanitation",
    "final_address": "7108 Coliseum St",
    "address_councildis": "A",
    "status": "Invalid Request",
    "contractor": "IV Waste",
    "contractor_action": "Invalid Request",
    "rowid": "1165154",
    "final_x": "3661434.62618",
    "final_y": "522060.35225",
    "longitude": "-90.1317431198825",
    "latitude": "29.930078639434413",
    "geocoded_column": {
      "latitude": "29.930078639434413",
      "longitude": "-90.1317431198825"
    }
  },
  {
    "service_request": "2025-1165153",
    "request_type": "Trash/Recycling",
    "request_reason": "Missed Trash Pick-Up",
    "date_created": "2025-01-29T16:37:36.000",
    "date_modified": "2025-01-29T17:36:32.000",
    "case_close_date": "2025-01-29T11:36:31.000",
    "request_status": "Closed",
    "responsible_agency": "Department of Sanitation",
    "final_address": "7108 Coliseum St",
    "address_councildis": "A",
    "status": "Invalid Request",
    "contractor": "IV Waste",
    "contractor_action": "Invalid Request",
    "rowid": "1165153",
    "final_x": "3661434.62618",
    "final_y": "522060.35225",
    "longitude": "-90.1317431198825",
    "latitude": "29.930078639434413",
    "geocoded_column": {
      "latitude": "29.930078639434413",
      "longitude": "-90.1317431198825"
    }
  },
  {
    "service_request": "2025-1165152",
    "request_type": "Trash/Recycling",
    "request_reason": "Request a Large Item Pick Up",
    "date_created": "2025-01-29T16:36:51.000",
    "date_modified": "2025-01-29T16:36:53.000",
    "request_status": "Pending",
    "responsible_agency": "Department of Sanitation",
    "final_address": "1124 N Robertson St",
    "address_councildis": "C",
    "status": "Assigned to Contractor",
    "contractor": "IV Waste",
    "rowid": "1165152",
    "final_x": "3681112.77736",
    "final_y": "535681.666503",
    "longitude": "-90.06914804771814",
    "latitude": "29.96695059799113",
    "geocoded_column": {
      "latitude": "29.96695059799113",
      "longitude": "-90.06914804771814"
    }
  },
  {
    "service_request": "2025-1165151",
    "request_type": "Trash/Recycling",
    "request_reason": "Request a Large Item Pick Up",
    "date_created": "2025-01-29T16:36:48.000",
    "date_modified": "2025-01-29T16:37:01.000",
    "request_status": "Pending",
    "responsible_agency": "Department of Sanitation",
    "final_address": "7530 Endeavors Ct",
    "address_councildis": "E",
    "status": "Assigned to Contractor",
    "contractor": "Waste Pro",
    "rowid": "1165151",
    "final_x": "3726033.68979",
    "final_y": "570850.478631",
    "longitude": "-89.92592565573936",
    "latitude": "30.06221147422306",
    "geocoded_column": {
      "latitude": "30.06221147422306",
      "longitude": "-89.92592565573936"
    }
  },
  {
    "service_request": "2025-1165150",
    "request_type": "Roads and Streets",
    "request_reason": "Pothole",
    "date_created": "2025-01-29T16:29:58.000",
    "date_modified": "2025-01-29T16:29:59.000",
    "request_status": "Pending",
    "responsible_agency": "Department of Public Works",
    "final_address": "2100 BLK Joseph St",
    "address_councildis": "A",
    "status": "Pending",
    "rowid": "1165150",
    "final_x": "3667235.12481",
    "final_y": "523965.734008",
    "longitude": "-90.11336779142604",
    "latitude": "29.935149302439058",
    "geocoded_column": {
      "latitude": "29.935149302439058",
      "longitude": "-90.11336779142604"
    }
  },
  {
    "service_request": "2025-1165149",
    "request_type": "Trash/Recycling",
    "request_reason": "Request a Large Item Pick Up",
    "date_created": "2025-01-29T16:28:40.000",
    "date_modified": "2025-01-29T16:28:52.000",
    "request_status": "Pending",
    "responsible_agency": "Department of Sanitation",
    "final_address": "2238 S Salcedo St",
    "address_councildis": "A",
    "status": "Assigned to Contractor",
    "contractor": "IV Waste",
    "rowid": "1165149",
    "final_x": "3669193.71534",
    "final_y": "528741.972416",
    "longitude": "-90.10702313491326",
    "latitude": "29.948224927806027",
    "geocoded_column": {
      "latitude": "29.948224927806027",
      "longitude": "-90.10702313491326"
    }
  },
  {
    "service_request": "2025-1165148",
    "request_type": "Trash/Recycling",
    "request_reason": "Request a Large Item Pick Up",
    "date_created": "2025-01-29T16:23:40.000",
    "date_modified": "2025-01-29T16:23:42.000",
    "request_status": "Pending",
    "responsible_agency": "Department of Sanitation",
    "final_address": "1434 Audubon St",
    "address_councildis": "A",
    "status": "Assigned to Contractor",
    "contractor": "IV Waste",
    "rowid": "1165148",
    "final_x": "3664896.74132",
    "final_y": "527102.732031",
    "longitude": "-90.12064527795641",
    "latitude": "29.94384329508611",
    "geocoded_column": {
      "latitude": "29.94384329508611",
      "longitude": "-90.12064527795641"
    }
  },
  {
    "service_request": "2025-1165147",
    "request_type": "Trash/Recycling",
    "request_reason": "Repair Recycling Cart",
    "date_created": "2025-01-29T16:22:40.000",
    "date_modified": "2025-01-29T16:22:41.000",
    "request_status": "Pending",
    "responsible_agency": "Department of Sanitation",
    "final_address": "10110 Flossmoor Dr",
    "address_councildis": "E",
    "status": "Pending",
    "rowid": "1165147",
    "final_x": "3709557.01797",
    "final_y": "563446.624928",
    "longitude": "-89.97828502006499",
    "latitude": "30.042400038298496",
    "geocoded_column": {
      "latitude": "30.042400038298496",
      "longitude": "-89.97828502006499"
    }
  },
  {
    "service_request": "2025-1165146",
    "request_type": "Safety & Permits",
    "request_reason": "Zoning Enforcement",
    "date_created": "2025-01-29T16:20:52.000",
    "date_modified": "2025-01-29T16:20:54.000",
    "request_status": "Pending",
    "responsible_agency": "Safety and Permits",
    "final_address": "723 Ursulines Ave",
    "address_councildis": "C",
    "status": "Pending",
    "rowid": "1165146",
    "final_x": "3683314.43714",
    "final_y": "533756.270213",
    "longitude": "-90.06226265889158",
    "latitude": "29.961589446225986",
    "geocoded_column": {
      "latitude": "29.961589446225986",
      "longitude": "-90.06226265889158"
    }
  },
  {
    "service_request": "2025-1165145",
    "request_type": "Trash/Recycling",
    "request_reason": "Request a Large Item Pick Up",
    "date_created": "2025-01-29T16:16:58.000",
    "date_modified": "2025-01-29T16:17:01.000",
    "request_status": "Pending",
    "responsible_agency": "Department of Sanitation",
    "final_address": "7640 Weaver Ave",
    "address_councildis": "E",
    "status": "Assigned to Contractor",
    "contractor": "Waste Pro",
    "rowid": "1165145",
    "final_x": "3707299.91556",
    "final_y": "564484.002785",
    "longitude": "-89.9853797176706",
    "latitude": "30.045325613692302",
    "geocoded_column": {
      "latitude": "30.045325613692302",
      "longitude": "-89.9853797176706"
    }
  },
  {
    "service_request": "2025-1165144",
    "request_type": "Drainage",
    "request_reason": "Street Flooding",
    "date_created": "2025-01-29T16:15:31.000",
    "date_modified": "2025-01-29T16:15:33.000",
    "request_status": "Pending",
    "responsible_agency": "Department of Public Works",
    "final_address": "812 N Dorgenois St",
    "address_councildis": "D",
    "status": "Pending",
    "rowid": "1165144",
    "final_x": "3677463.5204",
    "final_y": "536937.858248",
    "longitude": "-90.08062904560428",
    "latitude": "29.970514898112313",
    "geocoded_column": {
      "latitude": "29.970514898112313",
      "longitude": "-90.08062904560428"
    }
  },
  {
    "service_request": "2025-1165143",
    "request_type": "Trash/Recycling",
    "request_reason": "Repair Trash Cart",
    "date_created": "2025-01-29T16:15:04.000",
    "date_modified": "2025-01-29T16:15:07.000",
    "request_status": "Pending",
    "responsible_agency": "Department of Sanitation",
    "final_address": "2724 Bell St",
    "address_councildis": "A",
    "status": "Assigned to Contractor",
    "contractor": "IV Waste",
    "rowid": "1165143",
    "final_x": "3677517.03003",
    "final_y": "539095.82689",
    "longitude": "-90.08038553437366",
    "latitude": "29.976446963480136",
    "geocoded_column": {
      "latitude": "29.976446963480136",
      "longitude": "-90.08038553437366"
    }
  },
  {
    "service_request": "2025-1165142",
    "request_type": "Trash/Recycling",
    "request_reason": "Replace Trash Cart",
    "date_created": "2025-01-29T16:12:56.000",
    "date_modified": "2025-01-29T16:12:58.000",
    "request_status": "Pending",
    "responsible_agency": "Department of Sanitation",
    "final_address": "223 S Alexander St",
    "address_councildis": "A",
    "status": "Assigned to Contractor",
    "contractor": "IV Waste",
    "rowid": "1165142",
    "final_x": "3669576.76206",
    "final_y": "538705.787337",
    "longitude": "-90.10547657904476",
    "latitude": "29.975610835554782",
    "geocoded_column": {
      "latitude": "29.975610835554782",
      "longitude": "-90.10547657904476"
    }
  },
  {
    "service_request": "2025-1165141",
    "request_type": "Utility Poles",
    "request_reason": "Utility Pole Leaning",
    "date_created": "2025-01-29T16:10:24.000",
    "date_modified": "2025-01-29T16:10:26.000",
    "request_status": "Pending",
    "responsible_agency": "Utility Company Collective",
    "final_address": "2134 St Andrew St",
    "address_councildis": "B",
    "status": "Pending",
    "rowid": "1165141",
    "final_x": "3676826.41819",
    "final_y": "525842.009341",
    "longitude": "-90.08302345780565",
    "latitude": "29.940024168845994",
    "geocoded_column": {
      "latitude": "29.940024168845994",
      "longitude": "-90.08302345780565"
    }
  },
  {
    "service_request": "2025-1165140",
    "request_type": "Trash/Recycling",
    "request_reason": "Request a Large Item Pick Up",
    "date_created": "2025-01-29T16:09:47.000",
    "date_modified": "2025-01-29T16:09:49.000",
    "request_status": "Pending",
    "responsible_agency": "Department of Sanitation",
    "final_address": "7610 Brevard Ave",
    "address_councildis": "E",
    "status": "Assigned to Contractor",
    "contractor": "Waste Pro",
    "rowid": "1165140",
    "final_x": "3706367.81483",
    "final_y": "563358.507168",
    "longitude": "-89.98836733538437",
    "latitude": "30.042261065312218",
    "geocoded_column": {
      "latitude": "30.042261065312218",
      "longitude": "-89.98836733538437"
    }
  },
  {
    "service_request": "2025-1165139",
    "request_type": "General Services",
    "request_reason": "General Service Request",
    "date_created": "2025-01-29T16:02:11.000",
    "date_modified": "2025-01-29T16:02:13.000",
    "request_status": "Pending",
    "responsible_agency": "Orleans Parish Communication District",
    "final_address": "2718 Cambronne St",
    "address_councildis": "A",
    "status": "Pending",
    "rowid": "1165139",
    "final_x": "3664886.38388",
    "final_y": "533245.003524",
    "longitude": "-90.12047270803315",
    "latitude": "29.960732851444195",
    "geocoded_column": {
      "latitude": "29.960732851444195",
      "longitude": "-90.12047270803315"
    }
  },
  {
    "service_request": "2025-1165138",
    "request_type": "Parks & Parkways",
    "request_reason": "Request Tree Service (Right of Way/Public Property)",
    "date_created": "2025-01-29T15:55:03.000",
    "date_modified": "2025-01-29T15:56:57.000",
    "request_status": "Pending",
    "responsible_agency": "Department of Parks & Parkway",
    "final_address": "254 Audubon Blvd",
    "address_councildis": "A",
    "status": "Pending",
    "rowid": "1165138",
    "final_x": "3666675.19757",
    "final_y": "529337.915713",
    "longitude": "-90.11495514984976",
    "latitude": "29.94993745242734",
    "geocoded_column": {
      "latitude": "29.94993745242734",
      "longitude": "-90.11495514984976"
    }
  },
  {
    "service_request": "2025-1165137",
    "request_type": "Trash/Recycling",
    "request_reason": "Request a Large Item Pick Up",
    "date_created": "2025-01-29T15:49:55.000",
    "date_modified": "2025-01-29T15:50:20.000",
    "request_status": "Pending",
    "responsible_agency": "Department of Sanitation",
    "final_address": "1135 Philip St",
    "address_councildis": "B",
    "status": "Assigned to Contractor",
    "contractor": "IV Waste",
    "rowid": "1165137",
    "final_x": "3678404.33051",
    "final_y": "522111.522682",
    "longitude": "-90.0781707638938",
    "latitude": "29.92971911958499",
    "geocoded_column": {
      "latitude": "29.92971911958499",
      "longitude": "-90.0781707638938"
    }
  },
  {
    "service_request": "2025-1165135",
    "request_type": "Utility Poles",
    "request_reason": "Wires Sagging/Hanging Low",
    "date_created": "2025-01-29T15:47:45.000",
    "date_modified": "2025-01-29T15:48:09.000",
    "request_status": "Pending",
    "responsible_agency": "Utility Company Collective",
    "final_address": "2354 Kraft Pl",
    "address_councildis": "C",
    "status": "Pending",
    "rowid": "1165135",
    "final_x": "3692473.89264",
    "final_y": "522651.568314",
    "longitude": "-90.03373646948206",
    "latitude": "29.930772787484344",
    "geocoded_column": {
      "latitude": "29.930772787484344",
      "longitude": "-90.03373646948206"
    }
  },
  {
    "service_request": "2025-1165136",
    "request_type": "Trash/Recycling",
    "request_reason": "Request a Large Item Pick Up",
    "date_created": "2025-01-29T15:47:45.000",
    "date_modified": "2025-01-29T15:47:47.000",
    "request_status": "Pending",
    "responsible_agency": "Department of Sanitation",
    "final_address": "3124 N Rampart St",
    "address_councildis": "C",
    "status": "Assigned to Contractor",
    "contractor": "IV Waste",
    "rowid": "1165136",
    "final_x": "3689091.39427",
    "final_y": "535479.591366",
    "longitude": "-90.04395881346248",
    "latitude": "29.966150506876335",
    "geocoded_column": {
      "latitude": "29.966150506876335",
      "longitude": "-90.04395881346248"
    }
  },
  {
    "service_request": "2025-1165134",
    "request_type": "Trash/Recycling",
    "request_reason": "Request a Large Item Pick Up",
    "date_created": "2025-01-29T15:44:21.000",
    "date_modified": "2025-01-29T17:23:21.000",
    "case_close_date": "2025-01-29T11:23:20.000",
    "request_status": "Closed",
    "responsible_agency": "Department of Sanitation",
    "final_address": "8750 Aberdeen Rd",
    "address_councildis": "E",
    "status": "Invalid Request",
    "contractor": "Waste Pro",
    "contractor_action": "Invalid Request",
    "rowid": "1165134",
    "final_x": "3704942.68414",
    "final_y": "562323.797855",
    "longitude": "-89.99290951846602",
    "latitude": "30.039461941897308",
    "geocoded_column": {
      "latitude": "30.039461941897308",
      "longitude": "-89.99290951846602"
    }
  },
  {
    "service_request": "2025-1165133",
    "request_type": "Trash/Recycling",
    "request_reason": "Repair Trash Cart",
    "date_created": "2025-01-29T15:43:41.000",
    "date_modified": "2025-01-29T15:43:43.000",
    "request_status": "Pending",
    "responsible_agency": "Department of Sanitation",
    "final_address": "526 Vallette St",
    "address_councildis": "C",
    "status": "Assigned to Contractor",
    "contractor": "Richards Disposal",
    "rowid": "1165133",
    "final_x": "3687567.99535",
    "final_y": "529711.365121",
    "longitude": "-90.04897384017586",
    "latitude": "29.950336923748267",
    "geocoded_column": {
      "latitude": "29.950336923748267",
      "longitude": "-90.04897384017586"
    }
  },
  {
    "service_request": "2025-1165132",
    "request_type": "Trash/Recycling",
    "request_reason": "Request a Large Item Pick Up",
    "date_created": "2025-01-29T15:43:36.000",
    "date_modified": "2025-01-29T15:43:38.000",
    "request_status": "Pending",
    "responsible_agency": "Department of Sanitation",
    "final_address": "8621 Nelson St",
    "address_councildis": "A",
    "status": "Assigned to Contractor",
    "contractor": "IV Waste",
    "rowid": "1165132",
    "final_x": "3663691.37722",
    "final_y": "533193.576836",
    "longitude": "-90.12424803774357",
    "latitude": "29.960626171317667",
    "geocoded_column": {
      "latitude": "29.960626171317667",
      "longitude": "-90.12424803774357"
    }
  },
  {
    "service_request": "2025-1165131",
    "request_type": "Trash/Recycling",
    "request_reason": "Missed Trash Pick-Up",
    "date_created": "2025-01-29T15:42:51.000",
    "date_modified": "2025-01-29T15:50:45.000",
    "case_close_date": "2025-01-29T09:50:33.000",
    "request_status": "Closed",
    "responsible_agency": "Department of Sanitation",
    "final_address": "4438 Elba St",
    "address_councildis": "B",
    "status": "Invalid Request",
    "contractor": "IV Waste",
    "contractor_action": "Invalid",
    "rowid": "1165131",
    "final_x": "3669550.25198",
    "final_y": "530490.593922",
    "longitude": "-90.10583825371941",
    "latitude": "29.95302256762158",
    "geocoded_column": {
      "latitude": "29.95302256762158",
      "longitude": "-90.10583825371941"
    }
  },
  {
    "service_request": "2025-1165130",
    "request_type": "Alley Ways",
    "request_reason": "Alley Way Regrading",
    "date_created": "2025-01-29T15:41:44.000",
    "date_modified": "2025-01-29T15:41:46.000",
    "request_status": "Pending",
    "responsible_agency": "Department of Public Works",
    "final_address": "6749 West End Blvd",
    "address_councildis": "A",
    "status": "Pending",
    "rowid": "1165130",
    "final_x": "3666834.00877",
    "final_y": "552627.589398",
    "longitude": "-90.11367096688707",
    "latitude": "30.013971548172943",
    "geocoded_column": {
      "latitude": "30.013971548172943",
      "longitude": "-90.11367096688707"
    }
  },
  {
    "service_request": "2025-1165129",
    "request_type": "Abandoned Vehicles",
    "request_reason": "Abandoned/Junk Vehicles",
    "date_created": "2025-01-29T15:40:48.000",
    "date_modified": "2025-01-29T15:40:50.000",
    "request_status": "Pending",
    "responsible_agency": "Department of Public Works",
    "final_address": "6215 S Miro St",
    "address_councildis": "A",
    "status": "Pending",
    "rowid": "1165129",
    "final_x": "3667336.54343",
    "final_y": "528186.524032",
    "longitude": "-90.11290568797953",
    "latitude": "29.946752146601156",
    "geocoded_column": {
      "latitude": "29.946752146601156",
      "longitude": "-90.11290568797953"
    }
  },
  {
    "service_request": "2025-1165128",
    "request_type": "Trash/Recycling",
    "request_reason": "Request a Large Item Pick Up",
    "date_created": "2025-01-29T15:39:24.000",
    "date_modified": "2025-01-29T15:39:29.000",
    "request_status": "Pending",
    "responsible_agency": "Department of Sanitation",
    "final_address": "11214 Will Stutley Dr",
    "address_councildis": "E",
    "status": "Assigned to Contractor",
    "contractor": "Waste Pro",
    "rowid": "1165128",
    "final_x": "3716686.1356",
    "final_y": "558190.135131",
    "longitude": "-89.95595417439367",
    "latitude": "30.027713068980624",
    "geocoded_column": {
      "latitude": "30.027713068980624",
      "longitude": "-89.95595417439367"
    }
  },
  {
    "service_request": "2025-1165127",
    "request_type": "Trash/Recycling",
    "request_reason": "Repair Trash Cart",
    "date_created": "2025-01-29T15:36:00.000",
    "date_modified": "2025-01-29T15:36:02.000",
    "request_status": "Pending",
    "responsible_agency": "Department of Sanitation",
    "final_address": "3 Yosemite Dr",
    "address_councildis": "C",
    "status": "Assigned to Contractor",
    "contractor": "Richards Disposal",
    "rowid": "1165127",
    "final_x": "3699365.51728",
    "final_y": "517731.496118",
    "longitude": "-90.01215981156754",
    "latitude": "29.917027551099235",
    "geocoded_column": {
      "latitude": "29.917027551099235",
      "longitude": "-90.01215981156754"
    }
  },
  {
    "service_request": "2025-1165126",
    "request_type": "Trash/Recycling",
    "request_reason": "Missed Trash Pick-Up",
    "date_created": "2025-01-29T15:30:40.000",
    "date_modified": "2025-01-29T15:49:35.000",
    "case_close_date": "2025-01-29T09:49:34.000",
    "request_status": "Closed",
    "responsible_agency": "Department of Sanitation",
    "final_address": "729 Henry Clay Ave, New Orleans, LA ",
    "address_councildis": "A",
    "status": "Invalid Request",
    "contractor": "IV Waste",
    "contractor_action": "Invalid",
    "rowid": "1165126",
    "final_x": "3663798.57824",
    "final_y": "519451.077431",
    "longitude": "-90.12436738555596",
    "latitude": "29.922835577253675",
    "geocoded_column": {
      "latitude": "29.922835577253675",
      "longitude": "-90.12436738555596"
    }
  },
  {
    "service_request": "2025-1165125",
    "request_type": "Trash/Recycling",
    "request_reason": "Missed Trash Pick-Up",
    "date_created": "2025-01-29T15:27:14.000",
    "date_modified": "2025-01-29T15:49:58.000",
    "case_close_date": "2025-01-29T09:49:57.000",
    "request_status": "Closed",
    "responsible_agency": "Department of Sanitation",
    "final_address": "727 Henry Clay Ave",
    "address_councildis": "A",
    "status": "Invalid Request",
    "contractor": "IV Waste",
    "contractor_action": "Invalid",
    "rowid": "1165125",
    "final_x": "3663786.89786",
    "final_y": "519427.986359",
    "longitude": "-90.12440502511899",
    "latitude": "29.922772422883565",
    "geocoded_column": {
      "latitude": "29.922772422883565",
      "longitude": "-90.12440502511899"
    }
  },
  {
    "service_request": "2025-1165124",
    "request_type": "Trash/Recycling",
    "request_reason": "Replace Trash Cart",
    "date_created": "2025-01-29T15:24:32.000",
    "date_modified": "2025-01-29T15:24:34.000",
    "request_status": "Pending",
    "responsible_agency": "Department of Sanitation",
    "final_address": "1734 Third St",
    "address_councildis": "B",
    "status": "Assigned to Contractor",
    "contractor": "IV Waste",
    "rowid": "1165124",
    "final_x": "3676037.15182",
    "final_y": "523426.596731",
    "longitude": "-90.08559833241365",
    "latitude": "29.93340623248411",
    "geocoded_column": {
      "latitude": "29.93340623248411",
      "longitude": "-90.08559833241365"
    }
  },
  {
    "service_request": "2025-1165123",
    "request_type": "Street and Traffic Signs",
    "request_reason": "New Disabled Parking Sign Request ",
    "date_created": "2025-01-29T15:21:39.000",
    "date_modified": "2025-01-29T15:21:41.000",
    "request_status": "Pending",
    "responsible_agency": "Department of Public Works",
    "final_address": "1741 N Tonti St",
    "address_councildis": "D",
    "status": "Pending",
    "rowid": "1165123",
    "final_x": "3680830.40047",
    "final_y": "540172.478539",
    "longitude": "-90.06988341778552",
    "latitude": "29.979307343188058",
    "geocoded_column": {
      "latitude": "29.979307343188058",
      "longitude": "-90.06988341778552"
    }
  },
  {
    "service_request": "2025-1165122",
    "request_type": "Trash/Recycling",
    "request_reason": "Repair Trash Cart",
    "date_created": "2025-01-29T15:21:21.000",
    "date_modified": "2025-01-29T15:21:23.000",
    "request_status": "Pending",
    "responsible_agency": "Department of Sanitation",
    "final_address": "9114 Palmetto St",
    "address_councildis": "A",
    "status": "Assigned to Contractor",
    "contractor": "IV Waste",
    "rowid": "1165122",
    "final_x": "3665366.6738",
    "final_y": "537564.697864",
    "longitude": "-90.1188114556186",
    "latitude": "29.972596597037573",
    "geocoded_column": {
      "latitude": "29.972596597037573",
      "longitude": "-90.1188114556186"
    }
  },
  {
    "service_request": "2025-1165121",
    "request_type": "Trash/Recycling",
    "request_reason": "Missed Trash Pick-Up",
    "date_created": "2025-01-29T15:20:55.000",
    "date_modified": "2025-01-29T15:57:05.000",
    "case_close_date": "2025-01-29T09:57:02.000",
    "request_status": "Closed",
    "responsible_agency": "Department of Sanitation",
    "final_address": "11200 Chef Menteur Hwy",
    "address_councildis": "E",
    "status": "Invalid Request",
    "contractor": "Waste Pro",
    "contractor_action": "Invalid Request",
    "rowid": "1165121",
    "final_x": "3716501.04197",
    "final_y": "555743.655193",
    "longitude": "-89.95663193198165",
    "latitude": "30.020992339521815",
    "geocoded_column": {
      "latitude": "30.020992339521815",
      "longitude": "-89.95663193198165"
    }
  },
  {
    "service_request": "2025-1165120",
    "request_type": "Trash/Recycling",
    "request_reason": "Request a Large Item Pick Up",
    "date_created": "2025-01-29T15:07:38.000",
    "date_modified": "2025-01-29T15:07:41.000",
    "request_status": "Pending",
    "responsible_agency": "Department of Sanitation",
    "final_address": "5209 Chestnut St",
    "address_councildis": "B",
    "status": "Assigned to Contractor",
    "contractor": "IV Waste",
    "rowid": "1165120",
    "final_x": "3667976.81607",
    "final_y": "519396.940535",
    "longitude": "-90.11118010996573",
    "latitude": "29.922564839277474",
    "geocoded_column": {
      "latitude": "29.922564839277474",
      "longitude": "-90.11118010996573"
    }
  },
  {
    "service_request": "2025-1165119",
    "request_type": "Trash/Recycling",
    "request_reason": "Request a Large Item Pick Up",
    "date_created": "2025-01-29T15:07:01.000",
    "date_modified": "2025-01-29T15:07:03.000",
    "request_status": "Pending",
    "responsible_agency": "Department of Sanitation",
    "final_address": "5010 Constance St",
    "address_councildis": "B",
    "status": "Assigned to Contractor",
    "contractor": "IV Waste",
    "rowid": "1165119",
    "final_x": "3668528.86842",
    "final_y": "518180.822262",
    "longitude": "-90.10947849856062",
    "latitude": "29.919204695724737",
    "geocoded_column": {
      "latitude": "29.919204695724737",
      "longitude": "-90.10947849856062"
    }
  },
  {
    "service_request": "2025-1165118",
    "request_type": "Traffic Signals",
    "request_reason": "Traffic Signal Malfunctioning or Damaged",
    "date_created": "2025-01-29T15:03:49.000",
    "date_modified": "2025-01-29T15:03:51.000",
    "request_status": "Pending",
    "responsible_agency": "Department of Public Works",
    "final_address": "CANAL BLVD & HARRISON AVE",
    "address_councildis": "A",
    "status": "Pending",
    "rowid": "1165118",
    "final_x": "3668718.2",
    "final_y": "549226.68",
    "longitude": "-90.1078327841811",
    "latitude": "30.004564957958806",
    "geocoded_column": {
      "latitude": "30.004564957958806",
      "longitude": "-90.1078327841811"
    }
  },
  {
    "service_request": "2025-1165117",
    "request_type": "Alley Ways",
    "request_reason": "Alley Way Regrading",
    "date_created": "2025-01-29T15:02:35.000",
    "date_modified": "2025-01-29T15:03:16.000",
    "request_status": "Pending",
    "responsible_agency": "Department of Public Works",
    "final_address": "5950 Canal Blvd",
    "address_councildis": "A",
    "status": "Pending",
    "rowid": "1165117",
    "final_x": "3668293.45466",
    "final_y": "547063.742289",
    "longitude": "-90.10924763875028",
    "latitude": "29.998630113384607",
    "geocoded_column": {
      "latitude": "29.998630113384607",
      "longitude": "-90.10924763875028"
    }
  },
  {
    "service_request": "2025-1165116",
    "request_type": "Trash/Recycling",
    "request_reason": "Request a Large Item Pick Up",
    "date_created": "2025-01-29T15:02:33.000",
    "date_modified": "2025-01-29T15:02:36.000",
    "request_status": "Pending",
    "responsible_agency": "Department of Sanitation",
    "final_address": "5432 N Miro St",
    "address_councildis": "E",
    "status": "Assigned to Contractor",
    "contractor": "Waste Pro",
    "rowid": "1165116",
    "final_x": "3698566.40714",
    "final_y": "537986.708681",
    "longitude": "-90.01394595402013",
    "latitude": "29.972747612157622",
    "geocoded_column": {
      "latitude": "29.972747612157622",
      "longitude": "-90.01394595402013"
    }
  },
  {
    "service_request": "2025-1165115",
    "request_type": "Trash/Recycling",
    "request_reason": "Replace Trash Cart",
    "date_created": "2025-01-29T15:00:05.000",
    "date_modified": "2025-01-29T15:00:07.000",
    "request_status": "Pending",
    "responsible_agency": "Department of Sanitation",
    "final_address": "427 Elmira Ave",
    "address_councildis": "C",
    "status": "Assigned to Contractor",
    "contractor": "Richards Disposal",
    "rowid": "1165115",
    "final_x": "3688168.16431",
    "final_y": "530102.329729",
    "longitude": "-90.04706496838729",
    "latitude": "29.951393431099245",
    "geocoded_column": {
      "latitude": "29.951393431099245",
      "longitude": "-90.04706496838729"
    }
  },
  {
    "service_request": "2025-1165114",
    "request_type": "Trash/Recycling",
    "request_reason": "Order Recycling Cart",
    "date_created": "2025-01-29T14:58:38.000",
    "date_modified": "2025-01-29T14:58:40.000",
    "request_status": "Pending",
    "responsible_agency": "Department of Sanitation",
    "final_address": "1331 St Anthony St",
    "address_councildis": "C",
    "status": "Pending",
    "rowid": "1165114",
    "final_x": "3683551.27433",
    "final_y": "536822.662024",
    "longitude": "-90.06140728106955",
    "latitude": "29.970013740352083",
    "geocoded_column": {
      "latitude": "29.970013740352083",
      "longitude": "-90.06140728106955"
    }
  },
  {
    "service_request": "2025-1165113",
    "request_type": "Trash/Recycling",
    "request_reason": "Repair Trash Cart",
    "date_created": "2025-01-29T14:58:08.000",
    "date_modified": "2025-01-29T14:58:10.000",
    "request_status": "Pending",
    "responsible_agency": "Department of Sanitation",
    "final_address": "1331 St Anthony St",
    "address_councildis": "C",
    "status": "Assigned to Contractor",
    "contractor": "IV Waste",
    "rowid": "1165113",
    "final_x": "3683551.27433",
    "final_y": "536822.662024",
    "longitude": "-90.06140728106955",
    "latitude": "29.970013740352083",
    "geocoded_column": {
      "latitude": "29.970013740352083",
      "longitude": "-90.06140728106955"
    }
  },
  {
    "service_request": "2025-1165112",
    "request_type": "Roads and Streets",
    "request_reason": "Street Subsidence (Sinking)",
    "date_created": "2025-01-29T14:57:45.000",
    "date_modified": "2025-01-29T14:57:46.000",
    "request_status": "Pending",
    "responsible_agency": "Department of Public Works",
    "final_address": "5454 Pontchartrain Blvd",
    "address_councildis": "A",
    "status": "Pending",
    "rowid": "1165112",
    "final_x": "3665421.84992",
    "final_y": "543722.775758",
    "longitude": "-90.11843099333836",
    "latitude": "29.98952763408522",
    "geocoded_column": {
      "latitude": "29.98952763408522",
      "longitude": "-90.11843099333836"
    }
  },
  {
    "service_request": "2025-1165111",
    "request_type": "Trash/Recycling",
    "request_reason": "Repair Trash Cart",
    "date_created": "2025-01-29T14:57:22.000",
    "date_modified": "2025-01-29T14:57:25.000",
    "request_status": "Pending",
    "responsible_agency": "Department of Sanitation",
    "final_address": "5118 Elysian Fields Ave",
    "address_councildis": "D",
    "status": "Assigned to Contractor",
    "contractor": "IV Waste",
    "rowid": "1165111",
    "final_x": "3683663.5133",
    "final_y": "551696.309461",
    "longitude": "-90.06053104884565",
    "latitude": "30.010907566328843",
    "geocoded_column": {
      "latitude": "30.010907566328843",
      "longitude": "-90.06053104884565"
    }
  },
  {
    "service_request": "2025-1165110",
    "request_type": "Trash/Recycling",
    "request_reason": "Repair Recycling Cart",
    "date_created": "2025-01-29T14:54:32.000",
    "date_modified": "2025-01-29T14:57:22.000",
    "request_status": "Pending",
    "responsible_agency": "Department of Sanitation",
    "final_address": "4751 Elysian Fields Ave",
    "address_councildis": "D",
    "rowid": "1165110",
    "final_x": "3683978.56501",
    "final_y": "550513.263508",
    "longitude": "-90.0595772274006",
    "latitude": "30.00764499298776",
    "geocoded_column": {
      "latitude": "30.00764499298776",
      "longitude": "-90.0595772274006"
    }
  },
  {
    "service_request": "2025-1165109",
    "request_type": "Trash/Recycling",
    "request_reason": "Request a Large Item Pick Up",
    "date_created": "2025-01-29T14:52:47.000",
    "date_modified": "2025-01-29T14:52:51.000",
    "request_status": "Pending",
    "responsible_agency": "Department of Sanitation",
    "final_address": "7230 Salem Dr",
    "address_councildis": "E",
    "status": "Assigned to Contractor",
    "contractor": "Waste Pro",
    "rowid": "1165109",
    "final_x": "3706267.00651",
    "final_y": "561589.842527",
    "longitude": "-89.98875151758051",
    "latitude": "30.03740119073727",
    "geocoded_column": {
      "latitude": "30.03740119073727",
      "longitude": "-89.98875151758051"
    }
  },
  {
    "service_request": "2025-1165108",
    "request_type": "Trash/Recycling",
    "request_reason": "Request a Large Item Pick Up",
    "date_created": "2025-01-29T14:49:20.000",
    "date_modified": "2025-01-29T14:49:22.000",
    "request_status": "Pending",
    "responsible_agency": "Department of Sanitation",
    "final_address": "9014 Palm St",
    "address_councildis": "A",
    "status": "Assigned to Contractor",
    "contractor": "IV Waste",
    "rowid": "1165108",
    "final_x": "3665243.29383",
    "final_y": "536899.421256",
    "longitude": "-90.11922337601574",
    "latitude": "29.970770902580796",
    "geocoded_column": {
      "latitude": "29.970770902580796",
      "longitude": "-90.11922337601574"
    }
  },
  {
    "service_request": "2025-1165107",
    "request_type": "Roads and Streets",
    "request_reason": "Pothole",
    "date_created": "2025-01-29T14:49:12.000",
    "date_modified": "2025-01-29T14:49:14.000",
    "request_status": "Pending",
    "responsible_agency": "Department of Public Works",
    "final_address": "633 Red Allen Way",
    "address_councildis": "C",
    "status": "Pending",
    "rowid": "1165107",
    "final_x": "3687413.58082",
    "final_y": "528696.778944",
    "longitude": "-90.04949729259357",
    "latitude": "29.947551916571072",
    "geocoded_column": {
      "latitude": "29.947551916571072",
      "longitude": "-90.04949729259357"
    }
  },
  {
    "service_request": "2025-1165106",
    "request_type": "Streetlights",
    "request_reason": "Streetlight Outage/Malfunction",
    "date_created": "2025-01-29T14:48:23.000",
    "date_modified": "2025-01-29T14:48:24.000",
    "request_status": "Pending",
    "responsible_agency": "Department of Public Works",
    "final_address": "945 Magazine St",
    "address_councildis": "B",
    "status": "Pending",
    "contractor": "Legacy Professional Services",
    "rowid": "1165106",
    "final_x": "3680902.34427",
    "final_y": "526950.931454",
    "longitude": "-90.0701165559387",
    "latitude": "29.942950413158627",
    "geocoded_column": {
      "latitude": "29.942950413158627",
      "longitude": "-90.0701165559387"
    }
  },
  {
    "service_request": "2025-1165105",
    "request_type": "Trash/Recycling",
    "request_reason": "Request a Large Item Pick Up",
    "date_created": "2025-01-29T14:47:58.000",
    "date_modified": "2025-01-29T14:48:00.000",
    "request_status": "Pending",
    "responsible_agency": "Department of Sanitation",
    "final_address": "6000 Eastover Dr",
    "address_councildis": "E",
    "status": "Assigned to Contractor",
    "contractor": "Waste Pro",
    "rowid": "1165105",
    "final_x": "3719006.6974",
    "final_y": "565431.132386",
    "longitude": "-89.94834489854064",
    "latitude": "30.04754596522158",
    "geocoded_column": {
      "latitude": "30.04754596522158",
      "longitude": "-89.94834489854064"
    }
  },
  {
    "service_request": "2025-1165104",
    "request_type": "Roads and Streets",
    "request_reason": "Sidewalk Damaged or Missing",
    "date_created": "2025-01-29T14:47:27.000",
    "date_modified": "2025-01-29T14:47:29.000",
    "request_status": "Pending",
    "responsible_agency": "Department of Public Works",
    "final_address": "5650 Pratt Dr",
    "address_councildis": "D",
    "status": "Pending",
    "rowid": "1165104",
    "final_x": "3680207.77096",
    "final_y": "553451.090455",
    "longitude": "-90.07138803962876",
    "latitude": "30.01583767576233",
    "geocoded_column": {
      "latitude": "30.01583767576233",
      "longitude": "-90.07138803962876"
    }
  },
  {
    "service_request": "2025-1165103",
    "request_type": "Trash/Recycling",
    "request_reason": "Request a Large Item Pick Up",
    "date_created": "2025-01-29T14:43:43.000",
    "date_modified": "2025-01-29T15:54:21.000",
    "request_status": "Pending",
    "responsible_agency": "Department of Sanitation",
    "final_address": "1732 S Salcedo St",
    "address_councildis": "B",
    "status": "Assigned to Contractor",
    "contractor": "IV Waste",
    "rowid": "1165103",
    "final_x": "3670112.06004",
    "final_y": "530284.611905",
    "longitude": "-90.10407128284005",
    "latitude": "29.952439624120608",
    "geocoded_column": {
      "latitude": "29.952439624120608",
      "longitude": "-90.10407128284005"
    }
  },
  {
    "service_request": "2025-1165102",
    "request_type": "Streetlights",
    "request_reason": "Streetlight Outage/Malfunction",
    "date_created": "2025-01-29T14:43:36.000",
    "date_modified": "2025-01-29T14:43:37.000",
    "request_status": "Pending",
    "responsible_agency": "Department of Public Works",
    "final_address": "945 Magazine St",
    "address_councildis": "B",
    "status": "Pending",
    "contractor": "Legacy Professional Services",
    "rowid": "1165102",
    "final_x": "3680902.34427",
    "final_y": "526950.931454",
    "longitude": "-90.0701165559387",
    "latitude": "29.942950413158627",
    "geocoded_column": {
      "latitude": "29.942950413158627",
      "longitude": "-90.0701165559387"
    }
  },
  {
    "service_request": "2025-1165101",
    "request_type": "Trash/Recycling",
    "request_reason": "Repair Trash Cart",
    "date_created": "2025-01-29T14:42:17.000",
    "date_modified": "2025-01-29T14:42:19.000",
    "request_status": "Pending",
    "responsible_agency": "Department of Sanitation",
    "final_address": "5005 St Claude Ave",
    "address_councildis": "E",
    "status": "Assigned to Contractor",
    "contractor": "Waste Pro",
    "rowid": "1165101",
    "final_x": "3696067.12944",
    "final_y": "534362.249477",
    "longitude": "-90.0219700988246",
    "latitude": "29.96286053386377",
    "geocoded_column": {
      "latitude": "29.96286053386377",
      "longitude": "-90.0219700988246"
    }
  },
  {
    "service_request": "2025-1165100",
    "request_type": "Property Maintenance",
    "request_reason": "Property Maintenance",
    "date_created": "2025-01-29T14:41:55.000",
    "date_modified": "2025-01-29T16:09:20.000",
    "case_close_date": "2025-01-29T10:09:19.000",
    "request_status": "Closed",
    "responsible_agency": "Department of Code Enforcement",
    "final_address": "4404 Rhodes Dr",
    "address_councildis": "E",
    "status": "Referred to Code Enforcement",
    "rowid": "1165100",
    "final_x": "3702608.19818",
    "final_y": "552862.174359",
    "longitude": "-90.00063491510917",
    "latitude": "30.01352101854222",
    "geocoded_column": {
      "latitude": "30.01352101854222",
      "longitude": "-90.00063491510917"
    }
  },
  {
    "service_request": "2025-1165099",
    "request_type": "Abandoned Vehicles",
    "request_reason": "Vehicle Blocking Your Driveway",
    "date_created": "2025-01-29T14:39:52.000",
    "date_modified": "2025-01-29T14:39:53.000",
    "request_status": "Pending",
    "responsible_agency": "Department of Public Works",
    "final_address": "96 Morrison Ct",
    "address_councildis": "E",
    "status": "Pending",
    "rowid": "1165099",
    "final_x": "3703947.40932",
    "final_y": "561468.443231",
    "longitude": "-89.99608640731016",
    "latitude": "30.037142028864295",
    "geocoded_column": {
      "latitude": "30.037142028864295",
      "longitude": "-89.99608640731016"
    }
  },
  {
    "service_request": "2025-1165098",
    "request_type": "Trash/Recycling",
    "request_reason": "Order Recycling Cart",
    "date_created": "2025-01-29T14:39:35.000",
    "date_modified": "2025-01-29T14:39:37.000",
    "request_status": "Pending",
    "responsible_agency": "Department of Sanitation",
    "final_address": "1602 Ursulines Ave",
    "address_councildis": "D",
    "status": "Pending",
    "rowid": "1165098",
    "final_x": "3680913.62543",
    "final_y": "535548.700998",
    "longitude": "-90.06978160008182",
    "latitude": "29.96659102852155",
    "geocoded_column": {
      "latitude": "29.96659102852155",
      "longitude": "-90.06978160008182"
    }
  },
  {
    "service_request": "2025-1165097",
    "request_type": "Trash/Recycling",
    "request_reason": "Missed Trash Pick-Up",
    "date_created": "2025-01-29T14:37:15.000",
    "date_modified": "2025-01-29T14:37:16.000",
    "request_status": "Pending",
    "responsible_agency": "Department of Sanitation",
    "final_address": "7825 Woodbine Dr",
    "address_councildis": "E",
    "status": "Assigned to Contractor",
    "contractor": "Waste Pro",
    "rowid": "1165097",
    "final_x": "3701807.20324",
    "final_y": "561999.355423",
    "longitude": "-90.00283041139325",
    "latitude": "30.038670333882962",
    "geocoded_column": {
      "latitude": "30.038670333882962",
      "longitude": "-90.00283041139325"
    }
  },
  {
    "service_request": "2025-1165096",
    "request_type": "Property Maintenance",
    "request_reason": "Property Maintenance",
    "date_created": "2025-01-29T14:37:12.000",
    "date_modified": "2025-01-29T14:37:14.000",
    "request_status": "Pending",
    "responsible_agency": "Department of Code Enforcement",
    "final_address": "732 S Salcedo St",
    "address_councildis": "B",
    "status": "Pending",
    "rowid": "1165096",
    "final_x": "3672421.86715",
    "final_y": "533833.653125",
    "longitude": "-90.09665700604283",
    "latitude": "29.96212997028435",
    "geocoded_column": {
      "latitude": "29.96212997028435",
      "longitude": "-90.09665700604283"
    }
  },
  {
    "service_request": "2025-1165095",
    "request_type": "Roads and Streets",
    "request_reason": "Curb Damage",
    "date_created": "2025-01-29T14:36:41.000",
    "date_modified": "2025-01-29T14:36:43.000",
    "request_status": "Pending",
    "responsible_agency": "Department of Public Works",
    "final_address": "2601 Gentilly Blvd",
    "address_councildis": "D",
    "status": "Pending",
    "rowid": "1165095",
    "final_x": "3682825.37519",
    "final_y": "546225.325328",
    "longitude": "-90.0633706283652",
    "latitude": "29.995889899621528",
    "geocoded_column": {
      "latitude": "29.995889899621528",
      "longitude": "-90.0633706283652"
    }
  },
  {
    "service_request": "2025-1165093",
    "request_type": "Trash/Recycling",
    "request_reason": "Return Trash Cart",
    "date_created": "2025-01-29T14:33:53.000",
    "date_modified": "2025-01-29T14:33:57.000",
    "request_status": "Pending",
    "responsible_agency": "Department of Sanitation",
    "final_address": "6020 Franklin Ave",
    "address_councildis": "D",
    "status": "Assigned to Contractor",
    "contractor": "IV Waste",
    "rowid": "1165093",
    "final_x": "3686323.70678",
    "final_y": "555396.444761",
    "longitude": "-90.05199574187453",
    "latitude": "30.021000058655574",
    "geocoded_column": {
      "latitude": "30.021000058655574",
      "longitude": "-90.05199574187453"
    }
  },
  {
    "service_request": "2025-1165092",
    "request_type": "Safety & Permits",
    "request_reason": "Zoning Enforcement",
    "date_created": "2025-01-29T14:33:11.000",
    "date_modified": "2025-01-29T14:33:13.000",
    "request_status": "Pending",
    "responsible_agency": "Safety and Permits",
    "final_address": "1908 Iberville St",
    "address_councildis": "B",
    "status": "Pending",
    "rowid": "1165092",
    "final_x": "3677970.50325",
    "final_y": "533594.270917",
    "longitude": "-90.07914351397974",
    "latitude": "29.96130592022846",
    "geocoded_column": {
      "latitude": "29.96130592022846",
      "longitude": "-90.07914351397974"
    }
  },
  {
    "service_request": "2025-1165091",
    "request_type": "Parks & Parkways",
    "request_reason": "Request Tree Service (Right of Way/Public Property)",
    "date_created": "2025-01-29T14:30:36.000",
    "date_modified": "2025-01-29T14:30:37.000",
    "request_status": "Pending",
    "responsible_agency": "Department of Parks & Parkway",
    "final_address": "53 S Wren St",
    "address_councildis": "D",
    "status": "Pending",
    "rowid": "1165091",
    "final_x": "3672750.90721",
    "final_y": "555923.951577",
    "longitude": "-90.09486397435876",
    "latitude": "30.02286086309237",
    "geocoded_column": {
      "latitude": "30.02286086309237",
      "longitude": "-90.09486397435876"
    }
  },
  {
    "service_request": "2025-1165090",
    "request_type": "Trash/Recycling",
    "request_reason": "Request a Large Item Pick Up",
    "date_created": "2025-01-29T14:30:01.000",
    "date_modified": "2025-01-29T14:30:04.000",
    "request_status": "Pending",
    "responsible_agency": "Department of Sanitation",
    "final_address": "3312 Constance St",
    "address_councildis": "B",
    "status": "Assigned to Contractor",
    "contractor": "IV Waste",
    "rowid": "1165090",
    "final_x": "3675446.31304",
    "final_y": "519366.060983",
    "longitude": "-90.0876029415584",
    "latitude": "29.92225875151794",
    "geocoded_column": {
      "latitude": "29.92225875151794",
      "longitude": "-90.0876029415584"
    }
  },
  {
    "service_request": "2025-1165089",
    "request_type": "Trash/Recycling",
    "request_reason": "Order Recycling Cart",
    "date_created": "2025-01-29T14:28:39.000",
    "date_modified": "2025-01-29T14:28:40.000",
    "request_status": "Pending",
    "responsible_agency": "Department of Sanitation",
    "final_address": "3515 Danneel St",
    "address_councildis": "B",
    "status": "Pending",
    "rowid": "1165089",
    "final_x": "3673122.57902",
    "final_y": "522696.471034",
    "longitude": "-90.09482439773251",
    "latitude": "29.931485569087414",
    "geocoded_column": {
      "latitude": "29.931485569087414",
      "longitude": "-90.09482439773251"
    }
  },
  {
    "service_request": "2025-1165088",
    "request_type": "Drainage",
    "request_reason": "Drainage Manhole Cover Missing or Damaged",
    "date_created": "2025-01-29T14:28:28.000",
    "date_modified": "2025-01-29T14:28:30.000",
    "request_status": "Pending",
    "responsible_agency": "Department of Public Works",
    "final_address": "8555 Pontchartrain Blvd",
    "address_councildis": "A",
    "status": "Pending",
    "rowid": "1165088",
    "final_x": "3666598.57185",
    "final_y": "555319.448601",
    "longitude": "-90.11432435051701",
    "latitude": "30.02138010131274",
    "geocoded_column": {
      "latitude": "30.02138010131274",
      "longitude": "-90.11432435051701"
    }
  },
  {
    "service_request": "2025-1165087",
    "request_type": "Trash/Recycling",
    "request_reason": "Order Trash Cart",
    "date_created": "2025-01-29T14:28:02.000",
    "date_modified": "2025-01-29T14:28:05.000",
    "request_status": "Pending",
    "responsible_agency": "Department of Sanitation",
    "final_address": "3515 Danneel St",
    "address_councildis": "B",
    "status": "Assigned to Contractor",
    "contractor": "IV Waste",
    "rowid": "1165087",
    "final_x": "3673122.57902",
    "final_y": "522696.471034",
    "longitude": "-90.09482439773251",
    "latitude": "29.931485569087414",
    "geocoded_column": {
      "latitude": "29.931485569087414",
      "longitude": "-90.09482439773251"
    }
  },
  {
    "service_request": "2025-1165086",
    "request_type": "Trash/Recycling",
    "request_reason": "Request a Large Item Pick Up",
    "date_created": "2025-01-29T14:24:47.000",
    "date_modified": "2025-01-29T14:24:49.000",
    "request_status": "Pending",
    "responsible_agency": "Department of Sanitation",
    "final_address": "2719 Milan St",
    "address_councildis": "B",
    "status": "Assigned to Contractor",
    "contractor": "IV Waste",
    "rowid": "1165086",
    "final_x": "3671241.74747",
    "final_y": "524981.522621",
    "longitude": "-90.10068437063326",
    "latitude": "29.93782448855903",
    "geocoded_column": {
      "latitude": "29.93782448855903",
      "longitude": "-90.10068437063326"
    }
  },
  {
    "service_request": "2025-1165085",
    "request_type": "Trash/Recycling",
    "request_reason": "Missed Trash Pick-Up",
    "date_created": "2025-01-29T14:21:24.000",
    "date_modified": "2025-01-29T14:24:09.000",
    "request_status": "Pending",
    "responsible_agency": "Department of Sanitation",
    "final_address": "7555 Berg Rd",
    "address_councildis": "E",
    "status": "Assigned to Contractor",
    "contractor": "Waste Pro",
    "rowid": "1165085",
    "final_x": "3712270.40299",
    "final_y": "566322.394851",
    "longitude": "-89.96960158126966",
    "latitude": "30.05021873464588",
    "geocoded_column": {
      "latitude": "30.05021873464588",
      "longitude": "-89.96960158126966"
    }
  },
  {
    "service_request": "2025-1165084",
    "request_type": "Trash/Recycling",
    "request_reason": "Request a Large Item Pick Up",
    "date_created": "2025-01-29T14:20:35.000",
    "date_modified": "2025-01-29T14:20:36.000",
    "request_status": "Pending",
    "responsible_agency": "Department of Sanitation",
    "final_address": "2301 Jay St",
    "address_councildis": "D",
    "status": "Assigned to Contractor",
    "contractor": "IV Waste",
    "rowid": "1165084",
    "final_x": "3684145.95573",
    "final_y": "557352.050523",
    "longitude": "-90.05880807066058",
    "latitude": "30.02644403335014",
    "geocoded_column": {
      "latitude": "30.02644403335014",
      "longitude": "-90.05880807066058"
    }
  },
  {
    "service_request": "2025-1165083",
    "request_type": "Trash/Recycling",
    "request_reason": "Request a Large Item Pick Up",
    "date_created": "2025-01-29T14:18:05.000",
    "date_modified": "2025-01-29T14:18:08.000",
    "request_status": "Pending",
    "responsible_agency": "Department of Sanitation",
    "final_address": "5208 Dauphine St",
    "address_councildis": "E",
    "status": "Assigned to Contractor",
    "contractor": "Waste Pro",
    "rowid": "1165083",
    "final_x": "3696293.98999",
    "final_y": "532950.308804",
    "longitude": "-90.0213047597758",
    "latitude": "29.95897105559996",
    "geocoded_column": {
      "latitude": "29.95897105559996",
      "longitude": "-90.0213047597758"
    }
  },
  {
    "service_request": "2025-1165082",
    "request_type": "Trash/Recycling",
    "request_reason": "Illegal Dumping",
    "date_created": "2025-01-29T14:17:47.000",
    "date_modified": "2025-01-29T14:17:48.000",
    "request_status": "Pending",
    "responsible_agency": "Department of Sanitation",
    "final_address": "WRIGHT RD & ROGER DR",
    "address_councildis": "E",
    "status": "Pending",
    "rowid": "1165082",
    "final_x": "3712421.4",
    "final_y": "563647.28",
    "longitude": "-89.96922499532756",
    "latitude": "30.042858308373265",
    "geocoded_column": {
      "latitude": "30.042858308373265",
      "longitude": "-89.96922499532756"
    }
  },
  {
    "service_request": "2025-1165081",
    "request_type": "Trash/Recycling",
    "request_reason": "Replace Recycling Cart",
    "date_created": "2025-01-29T14:16:49.000",
    "date_modified": "2025-01-29T14:16:50.000",
    "request_status": "Pending",
    "responsible_agency": "Department of Sanitation",
    "final_address": "4940 Bienville Ave",
    "address_councildis": "A",
    "status": "Pending",
    "rowid": "1165081",
    "final_x": "3668710.48103",
    "final_y": "541075.97678",
    "longitude": "-90.10813250082755",
    "latitude": "29.98215355228671",
    "geocoded_column": {
      "latitude": "29.98215355228671",
      "longitude": "-90.10813250082755"
    }
  },
  {
    "service_request": "2025-1165080",
    "request_type": "Trash/Recycling",
    "request_reason": "Request a Large Item Pick Up",
    "date_created": "2025-01-29T14:16:28.000",
    "date_modified": "2025-01-29T14:16:30.000",
    "request_status": "Pending",
    "responsible_agency": "Department of Sanitation",
    "final_address": "1036 Fats Domino Ave",
    "address_councildis": "E",
    "status": "Assigned to Contractor",
    "contractor": "Waste Pro",
    "rowid": "1165080",
    "final_x": "3697916.684",
    "final_y": "533619.068101",
    "longitude": "-90.0161564522665",
    "latitude": "29.960758716844712",
    "geocoded_column": {
      "latitude": "29.960758716844712",
      "longitude": "-90.0161564522665"
    }
  },
  {
    "service_request": "2025-1165079",
    "request_type": "Trash/Recycling",
    "request_reason": "Order Recycling Cart",
    "date_created": "2025-01-29T14:15:54.000",
    "date_modified": "2025-01-29T14:15:56.000",
    "request_status": "Pending",
    "responsible_agency": "Department of Sanitation",
    "final_address": "301 S Cortez St",
    "address_councildis": "A",
    "status": "Pending",
    "contractor": "IV Waste",
    "rowid": "1165079",
    "final_x": "3671543.12769",
    "final_y": "536957.904456",
    "longitude": "-90.09932568902575",
    "latitude": "29.970746663066066",
    "geocoded_column": {
      "latitude": "29.970746663066066",
      "longitude": "-90.09932568902575"
    }
  },
  {
    "service_request": "2025-1165078",
    "request_type": "Roads and Streets",
    "request_reason": "Pothole",
    "date_created": "2025-01-29T14:15:38.000",
    "date_modified": "2025-01-29T14:15:40.000",
    "request_status": "Pending",
    "responsible_agency": "Department of Public Works",
    "final_address": "1710 Robert St",
    "address_councildis": "B",
    "status": "Pending",
    "rowid": "1165078",
    "final_x": "3668665.82145",
    "final_y": "521915.428474",
    "longitude": "-90.1089202399355",
    "latitude": "29.929469656101226",
    "geocoded_column": {
      "latitude": "29.929469656101226",
      "longitude": "-90.1089202399355"
    }
  },
  {
    "service_request": "2025-1165077",
    "request_type": "Trash/Recycling",
    "request_reason": "Repair Trash Cart",
    "date_created": "2025-01-29T14:15:06.000",
    "date_modified": "2025-01-29T14:15:08.000",
    "request_status": "Pending",
    "responsible_agency": "Department of Sanitation",
    "final_address": "301 S Cortez St",
    "address_councildis": "A",
    "status": "Assigned to Contractor",
    "contractor": "IV Waste",
    "rowid": "1165077",
    "final_x": "3671543.12769",
    "final_y": "536957.904456",
    "longitude": "-90.09932568902575",
    "latitude": "29.970746663066066",
    "geocoded_column": {
      "latitude": "29.970746663066066",
      "longitude": "-90.09932568902575"
    }
  },
  {
    "service_request": "2025-1165076",
    "request_type": "Trash/Recycling",
    "request_reason": "Dead Animal Pick Up",
    "date_created": "2025-01-29T14:14:36.000",
    "date_modified": "2025-01-29T14:16:11.000",
    "request_status": "Pending",
    "responsible_agency": "Department of Sanitation",
    "final_address": "WRIGHT RD & ROGER DR",
    "address_councildis": "E",
    "status": "Assigned to Contractor",
    "contractor": "Waste Pro",
    "rowid": "1165076",
    "final_x": "3712421.4",
    "final_y": "563647.28",
    "longitude": "-89.96922499532756",
    "latitude": "30.042858308373265",
    "geocoded_column": {
      "latitude": "30.042858308373265",
      "longitude": "-89.96922499532756"
    }
  },
  {
    "service_request": "2025-1165075",
    "request_type": "Roads and Streets",
    "request_reason": "Abandoned Service Cut",
    "date_created": "2025-01-29T14:14:17.000",
    "date_modified": "2025-01-29T14:14:19.000",
    "request_status": "Pending",
    "responsible_agency": "Department of Public Works",
    "final_address": "1804 Willow St",
    "address_councildis": "B",
    "status": "Pending",
    "rowid": "1165075",
    "final_x": "3675273.28974",
    "final_y": "527687.577343",
    "longitude": "-90.08786359010237",
    "latitude": "29.945145381713132",
    "geocoded_column": {
      "latitude": "29.945145381713132",
      "longitude": "-90.08786359010237"
    }
  },
  {
    "service_request": "2025-1165074",
    "request_type": "Trash/Recycling",
    "request_reason": "Request a Large Item Pick Up",
    "date_created": "2025-01-29T14:12:30.000",
    "date_modified": "2025-01-29T14:12:32.000",
    "request_status": "Pending",
    "responsible_agency": "Department of Sanitation",
    "final_address": "1031 Ursulines Ave",
    "address_councildis": "C",
    "status": "Assigned to Contractor",
    "contractor": "IV Waste",
    "rowid": "1165074",
    "final_x": "3682417.02344",
    "final_y": "534461.645189",
    "longitude": "-90.06507188411464",
    "latitude": "29.963556327911903",
    "geocoded_column": {
      "latitude": "29.963556327911903",
      "longitude": "-90.06507188411464"
    }
  },
  {
    "service_request": "2025-1165073",
    "request_type": "Trash/Recycling",
    "request_reason": "Illegal Dumping",
    "date_created": "2025-01-29T14:11:59.000",
    "date_modified": "2025-01-29T14:12:00.000",
    "request_status": "Pending",
    "responsible_agency": "Department of Sanitation",
    "final_address": "940 Royal St",
    "address_councildis": "C",
    "status": "Pending",
    "rowid": "1165073",
    "final_x": "3683225.25109",
    "final_y": "533299.278404",
    "longitude": "-90.06256029764143",
    "latitude": "29.960335595360508",
    "geocoded_column": {
      "latitude": "29.960335595360508",
      "longitude": "-90.06256029764143"
    }
  },
  {
    "service_request": "2025-1165072",
    "request_type": "Streetlights",
    "request_reason": "Streetlight Outage/Malfunction",
    "date_created": "2025-01-29T14:10:19.000",
    "date_modified": "2025-01-29T14:10:20.000",
    "request_status": "Pending",
    "responsible_agency": "Department of Public Works",
    "final_address": "1000 BLK Magazine St",
    "address_councildis": "B",
    "status": "Pending",
    "contractor": "Legacy Professional Services",
    "rowid": "1165072",
    "final_x": "3680852.6796",
    "final_y": "526497.958931",
    "longitude": "-90.07028912357428",
    "latitude": "29.941706395225964",
    "geocoded_column": {
      "latitude": "29.941706395225964",
      "longitude": "-90.07028912357428"
    }
  },
  {
    "service_request": "2025-1165071",
    "request_type": "Healthy Homes",
    "request_reason": "Healthy Homes",
    "date_created": "2025-01-29T14:10:11.000",
    "date_modified": "2025-01-29T14:10:13.000",
    "request_status": "Pending",
    "responsible_agency": "Department of Code Enforcement",
    "final_address": "2425 Louisiana Ave Apt 404",
    "address_councildis": "B",
    "status": "Pending",
    "rowid": "1165071",
    "final_x": "3673115.78241",
    "final_y": "524413.474172",
    "longitude": "-90.09478726466853",
    "latitude": "29.93620697333083",
    "geocoded_column": {
      "latitude": "29.93620697333083",
      "longitude": "-90.09478726466853"
    }
  },
  {
    "service_request": "2025-1165069",
    "request_type": "Trash/Recycling",
    "request_reason": "Replace Trash Cart",
    "date_created": "2025-01-29T14:09:56.000",
    "date_modified": "2025-01-29T14:09:58.000",
    "request_status": "Pending",
    "responsible_agency": "Department of Sanitation",
    "final_address": "1625 Palmer Ave",
    "address_councildis": "A",
    "status": "Assigned to Contractor",
    "contractor": "IV Waste",
    "rowid": "1165069",
    "final_x": "3665405.8505",
    "final_y": "523077.500027",
    "longitude": "-90.1191725407873",
    "latitude": "29.932760367508546",
    "geocoded_column": {
      "latitude": "29.932760367508546",
      "longitude": "-90.1191725407873"
    }
  },
  {
    "service_request": "2025-1165070",
    "request_type": "Trash/Recycling",
    "request_reason": "Illegal Dumping",
    "date_created": "2025-01-29T14:09:56.000",
    "date_modified": "2025-01-29T15:00:05.000",
    "case_close_date": "2025-01-29T09:00:03.000",
    "request_status": "Closed",
    "responsible_agency": "Department of Sanitation",
    "final_address": "WRIGHT RD & ROGER DR",
    "address_councildis": "E",
    "status": "Invalid Request",
    "contractor": "Waste Pro",
    "contractor_action": "Invalid Request",
    "rowid": "1165070",
    "final_x": "3712421.4",
    "final_y": "563647.28",
    "longitude": "-89.96922499532756",
    "latitude": "30.042858308373265",
    "geocoded_column": {
      "latitude": "30.042858308373265",
      "longitude": "-89.96922499532756"
    }
  },
  {
    "service_request": "2025-1165068",
    "request_type": "Roads and Streets",
    "request_reason": "Curb Damage",
    "date_created": "2025-01-29T14:08:44.000",
    "date_modified": "2025-01-29T14:09:40.000",
    "request_status": "Pending",
    "responsible_agency": "Department of Public Works",
    "final_address": "FONTAINEBLEAU DR & CALHOUN ST",
    "address_councildis": "A",
    "rowid": "1165068",
    "final_x": "3667965.1",
    "final_y": "529993.78",
    "longitude": "-90.11086022198238",
    "latitude": "29.951703088916666",
    "geocoded_column": {
      "latitude": "29.951703088916666",
      "longitude": "-90.11086022198238"
    }
  },
  {
    "service_request": "2025-1165067",
    "request_type": "Trash/Recycling",
    "request_reason": "Order Trash Cart",
    "date_created": "2025-01-29T14:07:50.000",
    "date_modified": "2025-01-29T16:37:28.000",
    "case_close_date": "2025-01-29T10:37:27.000",
    "request_status": "Closed",
    "responsible_agency": "Department of Sanitation",
    "final_address": "4524 Virgilian St",
    "address_councildis": "D",
    "status": "Duplicate Request",
    "contractor": "Waste Pro",
    "contractor_action": "Duplicate",
    "rowid": "1165067",
    "final_x": "3697505.18755",
    "final_y": "552630.221846",
    "longitude": "-90.01676608866391",
    "latitude": "30.01304544507038",
    "geocoded_column": {
      "latitude": "30.01304544507038",
      "longitude": "-90.01676608866391"
    }
  },
  {
    "service_request": "2025-1165066",
    "request_type": "Traffic Safety",
    "request_reason": "Request for Traffic Calming due to Speeding",
    "date_created": "2025-01-29T14:06:09.000",
    "date_modified": "2025-01-29T14:06:11.000",
    "request_status": "Pending",
    "responsible_agency": "Department of Public Works",
    "final_address": "AUBRY ST & GENTILLY BLVD",
    "address_councildis": "D",
    "status": "Pending",
    "rowid": "1165066",
    "final_x": "3678673.6",
    "final_y": "541883.68",
    "longitude": "-90.07663616813473",
    "latitude": "29.984077768597178",
    "geocoded_column": {
      "latitude": "29.984077768597178",
      "longitude": "-90.07663616813473"
    }
  },
  {
    "service_request": "2025-1165065",
    "request_type": "Drainage",
    "request_reason": "Catch Basin Clogged",
    "date_created": "2025-01-29T14:04:14.000",
    "date_modified": "2025-01-29T14:04:16.000",
    "request_status": "Pending",
    "responsible_agency": "Department of Public Works",
    "final_address": "2901 Bienville Ave",
    "address_councildis": "B",
    "status": "Pending",
    "rowid": "1165065",
    "final_x": "3675090.18843",
    "final_y": "536355.072391",
    "longitude": "-90.08814431151693",
    "latitude": "29.96898356599223",
    "geocoded_column": {
      "latitude": "29.96898356599223",
      "longitude": "-90.08814431151693"
    }
  },
  {
    "service_request": "2025-1165064",
    "request_type": "Trash/Recycling",
    "request_reason": "Illegal Dumping",
    "date_created": "2025-01-29T14:03:54.000",
    "date_modified": "2025-01-29T14:05:56.000",
    "request_status": "Pending",
    "responsible_agency": "Department of Sanitation",
    "final_address": "10722 Lincoln Beach Blvd",
    "address_councildis": "E",
    "rowid": "1165064",
    "final_x": "3709078.41739",
    "final_y": "566656.751779",
    "longitude": "-89.97967771915506",
    "latitude": "30.0512421519337",
    "geocoded_column": {
      "latitude": "30.0512421519337",
      "longitude": "-89.97967771915506"
    }
  },
  {
    "service_request": "2025-1165063",
    "request_type": "Roads and Streets",
    "request_reason": "Pothole",
    "date_created": "2025-01-29T14:03:48.000",
    "date_modified": "2025-01-29T14:03:50.000",
    "request_status": "Pending",
    "responsible_agency": "Department of Public Works",
    "final_address": "1661 Canal St",
    "address_councildis": "B",
    "status": "Pending",
    "rowid": "1165063",
    "final_x": "3678577.27061",
    "final_y": "532797.578244",
    "longitude": "-90.0772550277696",
    "latitude": "29.959097009403244",
    "geocoded_column": {
      "latitude": "29.959097009403244",
      "longitude": "-90.0772550277696"
    }
  },