[
  {
    "service_request": "2026-1261465",
    "request_type": "Healthy Homes",
    "request_reason": "Healthy Homes",
    "date_created": "2026-02-27T23:33:10.000",
    "date_modified": "2026-02-27T23:33:12.000",
    "request_status": "Pending",
    "responsible_agency": "Department of Code Enforcement",
    "final_address": "735 Exposition Blvd",
    "address_councildis": "A",
    "status": "Pending",
    "rowid": "1261465",
    "final_x": "3663151.76474",
    "final_y": "519806.541944",
    "longitude": "-90.12639731227071",
    "latitude": "29.923831742947172",
    "geocoded_column": {
      "latitude": "29.923831742947172",
      "longitude": "-90.12639731227071"
    }
  },
  {
    "service_request": "2026-1261464",
    "request_type": "Roads and Streets",
    "request_reason": "Pothole",
    "date_created": "2026-02-27T23:21:18.000",
    "date_modified": "2026-02-27T23:21:22.000",
    "request_status": "Pending",
    "responsible_agency": "Department of Public Works",
    "final_address": "1734 Marigny St",
    "address_councildis": "D",
    "status": "Pending",
    "rowid": "1261464",
    "final_x": "3685186.71637",
    "final_y": "538834.182857",
    "longitude": "-90.05617159581877",
    "latitude": "29.975494702137535",
    "geocoded_column": {
      "latitude": "29.975494702137535",
      "longitude": "-90.05617159581877"
    }
  },
  {
    "service_request": "2026-1261463",
    "request_type": "Trash/Recycling",
    "request_reason": "Order Recycling Cart",
    "date_created": "2026-02-27T22:57:55.000",
    "date_modified": "2026-02-27T22:57:57.000",
    "request_status": "Pending",
    "responsible_agency": "Department of Sanitation",
    "final_address": "1470 Urania St",
    "address_councildis": "B",
    "status": "Pending",
    "rowid": "1261463",
    "final_x": "3679020.6605",
    "final_y": "524112.813372",
    "longitude": "-90.07615580224486",
    "latitude": "29.935203433418685",
    "geocoded_column": {
      "latitude": "29.935203433418685",
      "longitude": "-90.07615580224486"
    }
  },
  {
    "service_request": "2026-1261462",
    "request_type": "Health Related Request",
    "request_reason": "Noise Ordinance Complaint",
    "date_created": "2026-02-27T22:23:52.000",
    "date_modified": "2026-02-27T22:23:54.000",
    "request_status": "Pending",
    "responsible_agency": "Health Department",
    "final_address": "801 Bourbon St",
    "address_councildis": "C",
    "status": "Pending",
    "rowid": "1261462",
    "final_x": "3682490.98735",
    "final_y": "533018.672772",
    "longitude": "-90.06488875731978",
    "latitude": "29.959586396383013",
    "geocoded_column": {
      "latitude": "29.959586396383013",
      "longitude": "-90.06488875731978"
    }
  },
  {
    "service_request": "2026-1261461",
    "request_type": "Health Related Request",
    "request_reason": "Noise Ordinance Complaint",
    "date_created": "2026-02-27T22:21:45.000",
    "date_modified": "2026-02-27T22:21:47.000",
    "request_status": "Pending",
    "responsible_agency": "Health Department",
    "final_address": "801 Bourbon St",
    "address_councildis": "C",
    "status": "Pending",
    "rowid": "1261461",
    "final_x": "3682490.98735",
    "final_y": "533018.672772",
    "longitude": "-90.06488875731978",
    "latitude": "29.959586396383013",
    "geocoded_column": {
      "latitude": "29.959586396383013",
      "longitude": "-90.06488875731978"
    }
  },
  {
    "service_request": "2026-1261460",
    "request_type": "Health Related Request",
    "request_reason": "Noise Ordinance Complaint",
    "date_created": "2026-02-27T22:21:00.000",
    "date_modified": "2026-02-27T22:21:01.000",
    "request_status": "Pending",
    "responsible_agency": "Health Department",
    "final_address": "800 Bourbon St",
    "address_councildis": "C",
    "status": "Pending",
    "rowid": "1261460",
    "final_x": "3682553.51528",
    "final_y": "533013.631428",
    "longitude": "-90.06469148499534",
    "latitude": "29.95957063099051",
    "geocoded_column": {
      "latitude": "29.95957063099051",
      "longitude": "-90.06469148499534"
    }
  },
  {
    "service_request": "2026-1261459",
    "request_type": "Health Related Request",
    "request_reason": "Noise Ordinance Complaint",
    "date_created": "2026-02-27T22:20:13.000",
    "date_modified": "2026-02-27T22:20:15.000",
    "request_status": "Pending",
    "responsible_agency": "Health Department",
    "final_address": "800 Bourbon St",
    "address_councildis": "C",
    "status": "Pending",
    "rowid": "1261459",
    "final_x": "3682553.51528",
    "final_y": "533013.631428",
    "longitude": "-90.06469148499534",
    "latitude": "29.95957063099051",
    "geocoded_column": {
      "latitude": "29.95957063099051",
      "longitude": "-90.06469148499534"
    }
  },
  {
    "service_request": "2026-1261458",
    "request_type": "Alley Ways",
    "request_reason": "Alley Way Issues",
    "date_created": "2026-02-27T22:20:03.000",
    "date_modified": "2026-02-27T22:20:04.000",
    "request_status": "Pending",
    "responsible_agency": "Department of Public Works",
    "final_address": "3109 Industrial Ct",
    "address_councildis": "D",
    "status": "Pending",
    "rowid": "1261458",
    "final_x": "3689741.85871",
    "final_y": "538432.750665",
    "longitude": "-90.04179955035845",
    "latitude": "29.974250514096937",
    "geocoded_column": {
      "latitude": "29.974250514096937",
      "longitude": "-90.04179955035845"
    }
  },
  {
    "service_request": "2026-1261457",
    "request_type": "Health Related Request",
    "request_reason": "Noise Ordinance Complaint",
    "date_created": "2026-02-27T22:19:19.000",
    "date_modified": "2026-02-27T22:19:20.000",
    "request_status": "Pending",
    "responsible_agency": "Health Department",
    "final_address": "801 Bourbon St",
    "address_councildis": "C",
    "status": "Pending",
    "rowid": "1261457",
    "final_x": "3682490.98735",
    "final_y": "533018.672772",
    "longitude": "-90.06488875731978",
    "latitude": "29.959586396383013",
    "geocoded_column": {
      "latitude": "29.959586396383013",
      "longitude": "-90.06488875731978"
    }
  },
  {
    "service_request": "2026-1261456",
    "request_type": "Trash/Recycling",
    "request_reason": "Illegal Dumping",
    "date_created": "2026-02-27T22:18:32.000",
    "date_modified": "2026-02-27T22:18:34.000",
    "request_status": "Pending",
    "responsible_agency": "Department of Sanitation",
    "final_address": "404 Notre Dame St",
    "address_councildis": "B",
    "status": "Pending",
    "rowid": "1261456",
    "final_x": "3681650.56789",
    "final_y": "527968.232959",
    "longitude": "-90.06771875788849",
    "latitude": "29.945724949155576",
    "geocoded_column": {
      "latitude": "29.945724949155576",
      "longitude": "-90.06771875788849"
    }
  },
  {
    "service_request": "2026-1261455",
    "request_type": "Abandoned Vehicles",
    "request_reason": "Abandoned/Junk Vehicles",
    "date_created": "2026-02-27T22:14:17.000",
    "date_modified": "2026-02-27T22:14:19.000",
    "request_status": "Pending",
    "responsible_agency": "Department of Public Works",
    "final_address": "3109 Industrial Ct",
    "address_councildis": "D",
    "status": "Pending",
    "rowid": "1261455",
    "final_x": "3689741.85871",
    "final_y": "538432.750665",
    "longitude": "-90.04179955035845",
    "latitude": "29.974250514096937",
    "geocoded_column": {
      "latitude": "29.974250514096937",
      "longitude": "-90.04179955035845"
    }
  },
  {
    "service_request": "2026-1261454",
    "request_type": "Trash/Recycling",
    "request_reason": "Request a Large Item Pick Up",
    "date_created": "2026-02-27T22:11:14.000",
    "date_modified": "2026-02-27T22:11:16.000",
    "request_status": "Pending",
    "responsible_agency": "Department of Sanitation",
    "final_address": "7162 Bundy Rd",
    "address_councildis": "E",
    "status": "Assigned to Contractor",
    "contractor": "Waste Pro",
    "rowid": "1261454",
    "final_x": "3706536.83819",
    "final_y": "561542.269343",
    "longitude": "-89.98790055903552",
    "latitude": "30.03726167430306",
    "geocoded_column": {
      "latitude": "30.03726167430306",
      "longitude": "-89.98790055903552"
    }
  },
  {
    "service_request": "2026-1261453",
    "request_type": "Trash/Recycling",
    "request_reason": "Request a Large Item Pick Up",
    "date_created": "2026-02-27T22:09:43.000",
    "date_modified": "2026-02-27T22:09:45.000",
    "request_status": "Pending",
    "responsible_agency": "Department of Sanitation",
    "final_address": "7212 Bundy Rd",
    "address_councildis": "E",
    "status": "Assigned to Contractor",
    "contractor": "Waste Pro",
    "rowid": "1261453",
    "final_x": "3706502.96567",
    "final_y": "561665.542879",
    "longitude": "-89.98800302909038",
    "latitude": "30.037601721399795",
    "geocoded_column": {
      "latitude": "30.037601721399795",
      "longitude": "-89.98800302909038"
    }
  },
  {
    "service_request": "2026-1261452",
    "request_type": "Trash/Recycling",
    "request_reason": "Request a Large Item Pick Up",
    "date_created": "2026-02-27T22:07:55.000",
    "date_modified": "2026-02-27T22:07:57.000",
    "request_status": "Pending",
    "responsible_agency": "Department of Sanitation",
    "final_address": "7202 Bundy Rd",
    "address_councildis": "E",
    "status": "Assigned to Contractor",
    "contractor": "Waste Pro",
    "rowid": "1261452",
    "final_x": "3706515.92164",
    "final_y": "561600.522143",
    "longitude": "-89.98796449808101",
    "latitude": "30.037422521789267",
    "geocoded_column": {
      "latitude": "30.037422521789267",
      "longitude": "-89.98796449808101"
    }
  },
  {
    "service_request": "2026-1261451",
    "request_type": "Trash/Recycling",
    "request_reason": "Request a Large Item Pick Up",
    "date_created": "2026-02-27T22:06:01.000",
    "date_modified": "2026-02-27T22:06:03.000",
    "request_status": "Pending",
    "responsible_agency": "Department of Sanitation",
    "final_address": "7230 Bundy Rd",
    "address_councildis": "E",
    "status": "Assigned to Contractor",
    "contractor": "Waste Pro",
    "rowid": "1261451",
    "final_x": "3706485.15102",
    "final_y": "561764.280671",
    "longitude": "-89.98805566373007",
    "latitude": "30.037873786425543",
    "geocoded_column": {
      "latitude": "30.037873786425543",
      "longitude": "-89.98805566373007"
    }
  },
  {
    "service_request": "2026-1261450",
    "request_type": "Trash/Recycling",
    "request_reason": "Request a Large Item Pick Up",
    "date_created": "2026-02-27T22:04:13.000",
    "date_modified": "2026-02-27T22:04:14.000",
    "request_status": "Pending",
    "responsible_agency": "Department of Sanitation",
    "final_address": "7240 Bundy Rd",
    "address_councildis": "E",
    "status": "Assigned to Contractor",
    "contractor": "Waste Pro",
    "rowid": "1261450",
    "final_x": "3706466.58379",
    "final_y": "561824.003743",
    "longitude": "-89.98811212448541",
    "latitude": "30.038038600649994",
    "geocoded_column": {
      "latitude": "30.038038600649994",
      "longitude": "-89.98811212448541"
    }
  },
  {
    "service_request": "2026-1261449",
    "request_type": "Trash/Recycling",
    "request_reason": "Request a Large Item Pick Up",
    "date_created": "2026-02-27T22:02:37.000",
    "date_modified": "2026-02-27T22:02:39.000",
    "request_status": "Pending",
    "responsible_agency": "Department of Sanitation",
    "final_address": "7132 Bundy Rd",
    "address_councildis": "E",
    "status": "Assigned to Contractor",
    "contractor": "Waste Pro",
    "rowid": "1261449",
    "final_x": "3706618.17655",
    "final_y": "561377.080542",
    "longitude": "-89.9876496441787",
    "latitude": "30.036804844003793",
    "geocoded_column": {
      "latitude": "30.036804844003793",
      "longitude": "-89.9876496441787"
    }
  },
  {
    "service_request": "2026-1261448",
    "request_type": "Trash/Recycling",
    "request_reason": "Request a Large Item Pick Up",
    "date_created": "2026-02-27T22:00:46.000",
    "date_modified": "2026-02-27T22:00:47.000",
    "request_status": "Pending",
    "responsible_agency": "Department of Sanitation",
    "final_address": "7032 Bundy Rd",
    "address_councildis": "E",
    "status": "Assigned to Contractor",
    "contractor": "Waste Pro",
    "rowid": "1261448",
    "final_x": "3706876.73233",
    "final_y": "560896.550174",
    "longitude": "-89.98685040433384",
    "latitude": "30.035475223384907",
    "geocoded_column": {
      "latitude": "30.035475223384907",
      "longitude": "-89.98685040433384"
    }
  },
  {
    "service_request": "2026-1261447",
    "request_type": "Trash/Recycling",
    "request_reason": "Request a Large Item Pick Up",
    "date_created": "2026-02-27T21:06:06.000",
    "date_modified": "2026-02-27T21:06:08.000",
    "request_status": "Pending",
    "responsible_agency": "Department of Sanitation",
    "final_address": "1028 Tricou St",
    "address_councildis": "E",
    "status": "Assigned to Contractor",
    "contractor": "Waste Pro",
    "rowid": "1261447",
    "final_x": "3700009.99684",
    "final_y": "532851.333828",
    "longitude": "-90.00957422606744",
    "latitude": "29.95858138967396",
    "geocoded_column": {
      "latitude": "29.95858138967396",
      "longitude": "-90.00957422606744"
    }
  },
  {
    "service_request": "2026-1261446",
    "request_type": "Trash/Recycling",
    "request_reason": "Illegal Dumping",
    "date_created": "2026-02-27T21:06:05.000",
    "date_modified": "2026-02-27T21:06:06.000",
    "request_status": "Pending",
    "responsible_agency": "Department of Sanitation",
    "final_address": "4350 Stemway Dr",
    "address_councildis": "D",
    "status": "Pending",
    "rowid": "1261446",
    "final_x": "3697127.85027",
    "final_y": "552177.451286",
    "longitude": "-90.01797468622043",
    "latitude": "30.01181241199822",
    "geocoded_column": {
      "latitude": "30.01181241199822",
      "longitude": "-90.01797468622043"
    }
  },
  {
    "service_request": "2026-1261445",
    "request_type": "Streetlights",
    "request_reason": "Streetlight Outage/Malfunction",
    "date_created": "2026-02-27T20:44:43.000",
    "date_modified": "2026-02-27T20:44:44.000",
    "request_status": "Pending",
    "responsible_agency": "Department of Public Works",
    "final_address": "1232 Harmony St",
    "address_councildis": "B",
    "status": "Pending",
    "rowid": "1261445",
    "final_x": "3675472.26043",
    "final_y": "520550.641208",
    "longitude": "-90.08748038017566",
    "latitude": "29.92551518955323",
    "geocoded_column": {
      "latitude": "29.92551518955323",
      "longitude": "-90.08748038017566"
    }
  },
  {
    "service_request": "2026-1261444",
    "request_type": "Streetlights",
    "request_reason": "Streetlight Outage/Malfunction",
    "date_created": "2026-02-27T20:43:02.000",
    "date_modified": "2026-02-27T20:43:04.000",
    "request_status": "Pending",
    "responsible_agency": "Department of Public Works",
    "final_address": "1232 Harmony St",
    "address_councildis": "B",
    "status": "Pending",
    "rowid": "1261444",
    "final_x": "3675472.26043",
    "final_y": "520550.641208",
    "longitude": "-90.08748038017566",
    "latitude": "29.92551518955323",
    "geocoded_column": {
      "latitude": "29.92551518955323",
      "longitude": "-90.08748038017566"
    }
  },
  {
    "service_request": "2026-1261443",
    "request_type": "Trash/Recycling",
    "request_reason": "Replace Trash Cart",
    "date_created": "2026-02-27T20:29:08.000",
    "date_modified": "2026-02-27T20:29:10.000",
    "request_status": "Pending",
    "responsible_agency": "Department of Sanitation",
    "final_address": "4320 General Pershing St",
    "address_councildis": "B",
    "status": "Assigned to Contractor",
    "contractor": "IV Waste",
    "rowid": "1261443",
    "final_x": "3669458.25946",
    "final_y": "529713.152897",
    "longitude": "-90.10615501738499",
    "latitude": "29.950887569075395",
    "geocoded_column": {
      "latitude": "29.950887569075395",
      "longitude": "-90.10615501738499"
    }
  },
  {
    "service_request": "2026-1261442",
    "request_type": "Streetlights",
    "request_reason": "Streetlight Outage/Malfunction",
    "date_created": "2026-02-27T20:25:48.000",
    "date_modified": "2026-02-27T20:25:52.000",
    "request_status": "Pending",
    "responsible_agency": "Department of Public Works",
    "final_address": "5501 Canal Blvd",
    "address_councildis": "A",
    "status": "Pending",
    "rowid": "1261442",
    "final_x": "3668310.57402",
    "final_y": "543921.843214",
    "longitude": "-90.10929958440802",
    "latitude": "29.98999046801561",
    "geocoded_column": {
      "latitude": "29.98999046801561",
      "longitude": "-90.10929958440802"
    }
  },
  {
    "service_request": "2026-1261441",
    "request_type": "Trash/Recycling",
    "request_reason": "Request a Large Item Pick Up",
    "date_created": "2026-02-27T19:43:31.000",
    "date_modified": "2026-02-27T19:43:33.000",
    "request_status": "Pending",
    "responsible_agency": "Department of Sanitation",
    "final_address": "4410 Dreux Ave",
    "address_councildis": "D",
    "status": "Assigned to Contractor",
    "contractor": "IV Waste",
    "rowid": "1261441",
    "final_x": "3690085.17942",
    "final_y": "552750.227798",
    "longitude": "-90.04020496455405",
    "latitude": "30.013607751951806",
    "geocoded_column": {
      "latitude": "30.013607751951806",
      "longitude": "-90.04020496455405"
    }
  },
  {
    "service_request": "2026-1261440",
    "request_type": "Roads and Streets",
    "request_reason": "Street Subsidence (Sinking)",
    "date_created": "2026-02-27T19:02:28.000",
    "date_modified": "2026-02-27T19:02:32.000",
    "request_status": "Pending",
    "responsible_agency": "Sewerage & Water Board",
    "final_address": "302 S Olympia St",
    "address_councildis": "A",
    "status": "Pending",
    "rowid": "1261440",
    "final_x": "3668929.45729",
    "final_y": "538933.413642",
    "longitude": "-90.10751326188873",
    "latitude": "29.976255788013585",
    "geocoded_column": {
      "latitude": "29.976255788013585",
      "longitude": "-90.10751326188873"
    }
  },
  {
    "service_request": "2026-1261439",
    "request_type": "General Services",
    "request_reason": "General Service Request",
    "date_created": "2026-02-27T18:57:00.000",
    "date_modified": "2026-02-27T18:57:03.000",
    "request_status": "Pending",
    "responsible_agency": "Orleans Parish Communication District",
    "final_address": "2500 BLK Dryades St",
    "address_councildis": "B",
    "status": "Pending",
    "rowid": "1261439",
    "final_x": "3675969.34422",
    "final_y": "523866.754548",
    "longitude": "-90.08579726844007",
    "latitude": "29.934618552904876",
    "geocoded_column": {
      "latitude": "29.934618552904876",
      "longitude": "-90.08579726844007"
    }
  },
  {
    "service_request": "2026-1261437",
    "request_type": "Trash/Recycling",
    "request_reason": "Stop Trash Service",
    "date_created": "2026-02-27T18:15:44.000",
    "date_modified": "2026-02-27T18:15:47.000",
    "request_status": "Pending",
    "responsible_agency": "Department of Sanitation",
    "final_address": "7331 Camberley Dr",
    "address_councildis": "E",
    "status": "Assigned to Contractor",
    "contractor": "Waste Pro",
    "rowid": "1261437",
    "final_x": "3712922.87064",
    "final_y": "565406.238306",
    "longitude": "-89.96757390177451",
    "latitude": "30.04767830806638",
    "geocoded_column": {
      "latitude": "30.04767830806638",
      "longitude": "-89.96757390177451"
    }
  },
  {
    "service_request": "2026-1261436",
    "request_type": "General Services",
    "request_reason": "General Service Request",
    "date_created": "2026-02-27T18:08:47.000",
    "date_modified": "2026-02-27T18:08:50.000",
    "request_status": "Pending",
    "responsible_agency": "Orleans Parish Communication District",
    "final_address": "5725 General Diaz St",
    "address_councildis": "A",
    "status": "Pending",
    "rowid": "1261436",
    "final_x": "3669398.32666",
    "final_y": "545538.721616",
    "longitude": "-90.10580894181041",
    "latitude": "29.99440433255263",
    "geocoded_column": {
      "latitude": "29.99440433255263",
      "longitude": "-90.10580894181041"
    }
  },
  {
    "service_request": "2026-1261435",
    "request_type": "Abandoned Vehicles",
    "request_reason": "Abandoned/Junk Vehicles",
    "date_created": "2026-02-27T18:02:10.000",
    "date_modified": "2026-02-27T18:02:22.000",
    "request_status": "Pending",
    "responsible_agency": "Department of Public Works",
    "final_address": "6433 Arts St",
    "address_councildis": "D",
    "status": "Pending",
    "rowid": "1261435",
    "final_x": "3685596.38518",
    "final_y": "556966.960218",
    "longitude": "-90.05423847083615",
    "latitude": "30.025340737941978",
    "geocoded_column": {
      "latitude": "30.025340737941978",
      "longitude": "-90.05423847083615"
    }
  },
  {
    "service_request": "2026-1261434",
    "request_type": "Trash/Recycling",
    "request_reason": "Request a Large Item Pick Up",
    "date_created": "2026-02-27T17:44:35.000",
    "date_modified": "2026-02-27T17:44:37.000",
    "request_status": "Pending",
    "responsible_agency": "Department of Sanitation",
    "final_address": "7117 Warfield St",
    "address_councildis": "E",
    "status": "Assigned to Contractor",
    "contractor": "Waste Pro",
    "rowid": "1261434",
    "final_x": "3701535.26026",
    "final_y": "553096.898199",
    "longitude": "-90.00401621066085",
    "latitude": "30.01420068911289",
    "geocoded_column": {
      "latitude": "30.01420068911289",
      "longitude": "-90.00401621066085"
    }
  },
  {
    "service_request": "2026-1261433",
    "request_type": "Trash/Recycling",
    "request_reason": "Request a Large Item Pick Up",
    "date_created": "2026-02-27T17:44:35.000",
    "date_modified": "2026-02-27T17:44:41.000",
    "request_status": "Pending",
    "responsible_agency": "Department of Sanitation",
    "final_address": "7117 Warfield St",
    "address_councildis": "E",
    "status": "Assigned to Contractor",
    "contractor": "Waste Pro",
    "rowid": "1261433",
    "final_x": "3701535.26026",
    "final_y": "553096.898199",
    "longitude": "-90.00401621066085",
    "latitude": "30.01420068911289",
    "geocoded_column": {
      "latitude": "30.01420068911289",
      "longitude": "-90.00401621066085"
    }
  },
  {
    "service_request": "2026-1261432",
    "request_type": "Health Related Request",
    "request_reason": "Noise Ordinance Complaint",
    "date_created": "2026-02-27T17:37:30.000",
    "date_modified": "2026-02-27T17:37:32.000",
    "request_status": "Pending",
    "responsible_agency": "Health Department",
    "final_address": "Bourbon Street",
    "address_councildis": "C",
    "status": "Pending",
    "rowid": "1261432",
    "final_x": "3681146.39893",
    "final_y": "531272.414338",
    "longitude": "-90.06919549071922",
    "latitude": "29.95482563751313",
    "geocoded_column": {
      "latitude": "29.95482563751313",
      "longitude": "-90.06919549071922"
    }
  },
  {
    "service_request": "2026-1261431",
    "request_type": "Abandoned Vehicles",
    "request_reason": "Abandoned/Junk Vehicles",
    "date_created": "2026-02-27T17:33:51.000",
    "date_modified": "2026-02-27T17:33:53.000",
    "request_status": "Pending",
    "responsible_agency": "Department of Public Works",
    "final_address": "2458 New York St",
    "address_councildis": "D",
    "status": "Pending",
    "rowid": "1261431",
    "final_x": "3685388.65353",
    "final_y": "556639.723802",
    "longitude": "-90.05490640740209",
    "latitude": "30.024447333671716",
    "geocoded_column": {
      "latitude": "30.024447333671716",
      "longitude": "-90.05490640740209"
    }
  },
  {
    "service_request": "2026-1261430",
    "request_type": "Health Related Request",
    "request_reason": "Noise Ordinance Complaint",
    "date_created": "2026-02-27T17:31:55.000",
    "date_modified": "2026-02-27T17:31:56.000",
    "request_status": "Pending",
    "responsible_agency": "Health Department",
    "final_address": "801 Bourbon St",
    "address_councildis": "C",
    "status": "Pending",
    "rowid": "1261430",
    "final_x": "3682490.98735",
    "final_y": "533018.672772",
    "longitude": "-90.06488875731978",
    "latitude": "29.959586396383013",
    "geocoded_column": {
      "latitude": "29.959586396383013",
      "longitude": "-90.06488875731978"
    }
  },
  {
    "service_request": "2026-1261429",
    "request_type": "Health Related Request",
    "request_reason": "Noise Ordinance Complaint",
    "date_created": "2026-02-27T17:31:06.000",
    "date_modified": "2026-02-27T17:31:08.000",
    "request_status": "Pending",
    "responsible_agency": "Health Department",
    "final_address": "800 Bourbon St",
    "address_councildis": "C",
    "status": "Pending",
    "rowid": "1261429",
    "final_x": "3682553.51528",
    "final_y": "533013.631428",
    "longitude": "-90.06469148499534",
    "latitude": "29.95957063099051",
    "geocoded_column": {
      "latitude": "29.95957063099051",
      "longitude": "-90.06469148499534"
    }
  },
  {
    "service_request": "2026-1261428",
    "request_type": "Health Related Request",
    "request_reason": "Noise Ordinance Complaint",
    "date_created": "2026-02-27T17:26:33.000",
    "date_modified": "2026-02-27T17:26:35.000",
    "request_status": "Pending",
    "responsible_agency": "Health Department",
    "final_address": "801 Bourbon St",
    "address_councildis": "C",
    "status": "Pending",
    "rowid": "1261428",
    "final_x": "3682490.98735",
    "final_y": "533018.672772",
    "longitude": "-90.06488875731978",
    "latitude": "29.959586396383013",
    "geocoded_column": {
      "latitude": "29.959586396383013",
      "longitude": "-90.06488875731978"
    }
  },
  {
    "service_request": "2026-1261427",
    "request_type": "Health Related Request",
    "request_reason": "Noise Ordinance Complaint",
    "date_created": "2026-02-27T17:24:51.000",
    "date_modified": "2026-02-27T17:24:52.000",
    "request_status": "Pending",
    "responsible_agency": "Health Department",
    "final_address": "800 Bourbon St",
    "address_councildis": "C",
    "status": "Pending",
    "rowid": "1261427",
    "final_x": "3682553.51528",
    "final_y": "533013.631428",
    "longitude": "-90.06469148499534",
    "latitude": "29.95957063099051",
    "geocoded_column": {
      "latitude": "29.95957063099051",
      "longitude": "-90.06469148499534"
    }
  },
  {
    "service_request": "2026-1261426",
    "request_type": "Streetlights",
    "request_reason": "Streetlight Outage/Malfunction",
    "date_created": "2026-02-27T17:22:15.000",
    "date_modified": "2026-02-27T17:22:16.000",
    "request_status": "Pending",
    "responsible_agency": "Department of Public Works",
    "final_address": "2318 George Nick Connor Dr",
    "address_councildis": "D",
    "status": "Pending",
    "rowid": "1261426",
    "final_x": "3681192.43336",
    "final_y": "540611.855755",
    "longitude": "-90.06872466048752",
    "latitude": "29.980504496077348",
    "geocoded_column": {
      "latitude": "29.980504496077348",
      "longitude": "-90.06872466048752"
    }
  },
  {
    "service_request": "2026-1261425",
    "request_type": "Roads and Streets",
    "request_reason": "Street Subsidence (Sinking)",
    "date_created": "2026-02-27T16:52:17.000",
    "date_modified": "2026-02-27T16:52:19.000",
    "request_status": "Pending",
    "responsible_agency": "Sewerage & Water Board",
    "final_address": "100 BLK W Robert E Lee Blvd",
    "address_councildis": "A",
    "status": "Pending",
    "rowid": "1261425",
    "final_x": "3666384.63734",
    "final_y": "554864.157776",
    "longitude": "-90.11501562343219",
    "latitude": "30.020134468790527",
    "geocoded_column": {
      "latitude": "30.020134468790527",
      "longitude": "-90.11501562343219"
    }
  },
  {
    "service_request": "2026-1261424",
    "request_type": "Trash/Recycling",
    "request_reason": "Order Trash Cart",
    "date_created": "2026-02-27T16:46:35.000",
    "date_modified": "2026-02-27T16:46:37.000",
    "request_status": "Pending",
    "responsible_agency": "Department of Sanitation",
    "final_address": "2611 S Robertson St",
    "address_councildis": "B",
    "status": "Assigned to Contractor",
    "contractor": "IV Waste",
    "rowid": "1261424",
    "final_x": "3674334.92225",
    "final_y": "525862.198141",
    "longitude": "-90.0908888057068",
    "latitude": "29.940154200248227",
    "geocoded_column": {
      "latitude": "29.940154200248227",
      "longitude": "-90.0908888057068"
    }
  },
  {
    "service_request": "2026-1261423",
    "request_type": "Trash/Recycling",
    "request_reason": "Order Trash Cart",
    "date_created": "2026-02-27T16:45:53.000",
    "date_modified": "2026-02-27T16:46:03.000",
    "request_status": "Pending",
    "responsible_agency": "Department of Sanitation",
    "final_address": "2609 S Robertson St",
    "address_councildis": "B",
    "status": "Assigned to Contractor",
    "contractor": "IV Waste",
    "rowid": "1261423",
    "final_x": "3674346.3506",
    "final_y": "525868.196157",
    "longitude": "-90.09085251924888",
    "latitude": "29.940170352088554",
    "geocoded_column": {
      "latitude": "29.940170352088554",
      "longitude": "-90.09085251924888"
    }
  },
  {
    "service_request": "2026-1261422",
    "request_type": "Trash/Recycling",
    "request_reason": "Return Trash Cart",
    "date_created": "2026-02-27T16:45:31.000",
    "date_modified": "2026-02-27T16:45:33.000",
    "request_status": "Pending",
    "responsible_agency": "Department of Sanitation",
    "final_address": "4917 Magazine St",
    "address_councildis": "B",
    "status": "Assigned to Contractor",
    "contractor": "IV Waste",
    "rowid": "1261422",
    "final_x": "3668835.84775",
    "final_y": "518651.935991",
    "longitude": "-90.10849362182188",
    "latitude": "29.92049109061308",
    "geocoded_column": {
      "latitude": "29.92049109061308",
      "longitude": "-90.10849362182188"
    }
  },
  {
    "service_request": "2026-1261421",
    "request_type": "Trash/Recycling",
    "request_reason": "Request a Large Item Pick Up",
    "date_created": "2026-02-27T16:43:40.000",
    "date_modified": "2026-02-27T16:43:43.000",
    "request_status": "Pending",
    "responsible_agency": "Department of Sanitation",
    "final_address": "7509 Mayo Rd",
    "address_councildis": "E",
    "status": "Assigned to Contractor",
    "contractor": "Waste Pro",
    "rowid": "1261421",
    "final_x": "3701009.26231",
    "final_y": "560500.667102",
    "longitude": "-90.00540699509179",
    "latitude": "30.034574977137613",
    "geocoded_column": {
      "latitude": "30.034574977137613",
      "longitude": "-90.00540699509179"
    }
  },
  {
    "service_request": "2026-1261420",
    "request_type": "Trash/Recycling",
    "request_reason": "Replace Trash Cart",
    "date_created": "2026-02-27T16:39:47.000",
    "date_modified": "2026-02-27T16:39:49.000",
    "request_status": "Pending",
    "responsible_agency": "Department of Sanitation",
    "final_address": "13200 Lemans St",
    "address_councildis": "E",
    "status": "Assigned to Contractor",
    "contractor": "Waste Pro",
    "rowid": "1261420",
    "final_x": "3724539.62988",
    "final_y": "562840.285664",
    "longitude": "-89.93095823122822",
    "latitude": "30.040237163016783",
    "geocoded_column": {
      "latitude": "30.040237163016783",
      "longitude": "-89.93095823122822"
    }
  },
  {
    "service_request": "2026-1261419",
    "request_type": "Trash/Recycling",
    "request_reason": "Request a Large Item Pick Up",
    "date_created": "2026-02-27T16:38:45.000",
    "date_modified": "2026-02-27T16:38:50.000",
    "request_status": "Pending",
    "responsible_agency": "Department of Sanitation",
    "final_address": "620 River Oaks Dr",
    "address_councildis": "C",
    "status": "Assigned to Contractor",
    "contractor": "Richards Disposal",
    "rowid": "1261419",
    "final_x": "3701534.51268",
    "final_y": "520265.086456",
    "longitude": "-90.00522089995",
    "latitude": "29.923925110278923",
    "geocoded_column": {
      "latitude": "29.923925110278923",
      "longitude": "-90.00522089995"
    }
  },
  {
    "service_request": "2026-1261418",
    "request_type": "Abandoned Vehicles",
    "request_reason": "Abandoned/Junk Vehicles",
    "date_created": "2026-02-27T16:29:43.000",
    "date_modified": "2026-02-27T16:29:46.000",
    "request_status": "Pending",
    "responsible_agency": "Department of Public Works",
    "final_address": "17450 Paris Rd",
    "address_councildis": "E",
    "status": "Pending",
    "rowid": "1261418",
    "final_x": "3721461.3271",
    "final_y": "571849.223656",
    "longitude": "-89.94034041131485",
    "latitude": "30.06511123108528",
    "geocoded_column": {
      "latitude": "30.06511123108528",
      "longitude": "-89.94034041131485"
    }
  },
  {
    "service_request": "2026-1261417",
    "request_type": "Trash/Recycling",
    "request_reason": "Replace Trash Cart",
    "date_created": "2026-02-27T16:15:14.000",
    "date_modified": "2026-02-27T16:15:16.000",
    "request_status": "Pending",
    "responsible_agency": "Department of Sanitation",
    "final_address": "1238 Dante St",
    "address_councildis": "A",
    "status": "Assigned to Contractor",
    "contractor": "IV Waste",
    "rowid": "1261417",
    "final_x": "3661599.54618",
    "final_y": "529123.487808",
    "longitude": "-90.13098852450912",
    "latitude": "29.949495267170445",
    "geocoded_column": {
      "latitude": "29.949495267170445",
      "longitude": "-90.13098852450912"
    }
  },
  {
    "service_request": "2026-1261416",
    "request_type": "Trash/Recycling",
    "request_reason": "Request a Large Item Pick Up",
    "date_created": "2026-02-27T16:12:06.000",
    "date_modified": "2026-02-27T16:12:08.000",
    "request_status": "Pending",
    "responsible_agency": "Department of Sanitation",
    "final_address": "6966 General Haig St",
    "address_councildis": "A",
    "status": "Assigned to Contractor",
    "contractor": "IV Waste",
    "rowid": "1261416",
    "final_x": "3671018.92699",
    "final_y": "553589.713495",
    "longitude": "-90.10041601367259",
    "latitude": "30.016493900393126",
    "geocoded_column": {
      "latitude": "30.016493900393126",
      "longitude": "-90.10041601367259"
    }
  },
  {
    "service_request": "2026-1261415",
    "request_type": "Trash/Recycling",
    "request_reason": "Repair Trash Cart",
    "date_created": "2026-02-27T16:07:20.000",
    "date_modified": "2026-02-27T16:07:22.000",
    "request_status": "Pending",
    "responsible_agency": "Department of Sanitation",
    "final_address": "3800 Havana Pl",
    "address_councildis": "D",
    "status": "Assigned to Contractor",
    "contractor": "IV Waste",
    "rowid": "1261415",
    "final_x": "3680678.4541",
    "final_y": "546013.315792",
    "longitude": "-90.07015995717376",
    "latitude": "29.99537220125087",
    "geocoded_column": {
      "latitude": "29.99537220125087",
      "longitude": "-90.07015995717376"
    }
  },
  {
    "service_request": "2026-1261414",
    "request_type": "Trash/Recycling",
    "request_reason": "Missed Trash Pick-Up",
    "date_created": "2026-02-27T16:04:08.000",
    "date_modified": "2026-02-27T16:09:46.000",
    "case_close_date": "2026-02-27T10:09:45.000",
    "request_status": "Closed",
    "responsible_agency": "Department of Sanitation",
    "final_address": "2225 St Andrew St",
    "address_councildis": "B",
    "status": "Invalid Request",
    "contractor": "IV Waste",
    "contractor_action": "Invalid Request",
    "rowid": "1261414",
    "final_x": "3676663.98747",
    "final_y": "526127.85203",
    "longitude": "-90.08352643310593",
    "latitude": "29.940815014603846",
    "geocoded_column": {
      "latitude": "29.940815014603846",
      "longitude": "-90.08352643310593"
    }
  },
  {
    "service_request": "2026-1261413",
    "request_type": "Trash/Recycling",
    "request_reason": "Missed Trash Pick-Up",
    "date_created": "2026-02-27T16:03:02.000",
    "date_modified": "2026-02-27T16:03:04.000",
    "request_status": "Pending",
    "responsible_agency": "Department of Sanitation",
    "final_address": "6022 Wales St",
    "address_councildis": "E",
    "status": "Assigned to Contractor",
    "contractor": "Waste Pro",
    "rowid": "1261413",
    "final_x": "3695159.28144",
    "final_y": "559409.826589",
    "longitude": "-90.0239330790452",
    "latitude": "30.03176069966224",
    "geocoded_column": {
      "latitude": "30.03176069966224",
      "longitude": "-90.0239330790452"
    }
  },
  {
    "service_request": "2026-1261412",
    "request_type": "Roads and Streets",
    "request_reason": "Curb Damage",
    "date_created": "2026-02-27T16:02:27.000",
    "date_modified": "2026-02-27T16:02:29.000",
    "request_status": "Pending",
    "responsible_agency": "Department of Public Works",
    "final_address": "5329 Forest Park Ln",
    "address_councildis": "C",
    "status": "Pending",
    "rowid": "1261412",
    "final_x": "3704219.46423",
    "final_y": "510415.955119",
    "longitude": "-89.99710809486213",
    "latitude": "29.896757525071155",
    "geocoded_column": {
      "latitude": "29.896757525071155",
      "longitude": "-89.99710809486213"
    }
  },
  {
    "service_request": "2026-1261411",
    "request_type": "Trash/Recycling",
    "request_reason": "Request a Large Item Pick Up",
    "date_created": "2026-02-27T15:59:09.000",
    "date_modified": "2026-02-27T15:59:11.000",
    "request_status": "Pending",
    "responsible_agency": "Department of Sanitation",
    "final_address": "2744 Sage St",
    "address_councildis": "D",
    "status": "Assigned to Contractor",
    "contractor": "IV Waste",
    "rowid": "1261411",
    "final_x": "3688275.27491",
    "final_y": "545534.534224",
    "longitude": "-90.04617939950664",
    "latitude": "29.993823261793587",
    "geocoded_column": {
      "latitude": "29.993823261793587",
      "longitude": "-90.04617939950664"
    }
  },
  {
    "service_request": "2026-1261410",
    "request_type": "Trash/Recycling",
    "request_reason": "Request a Large Item Pick Up",
    "date_created": "2026-02-27T15:58:50.000",
    "date_modified": "2026-02-27T15:59:42.000",
    "request_status": "Pending",
    "responsible_agency": "Department of Sanitation",
    "final_address": "4626 Croftway Ct",
    "address_councildis": "D",
    "status": "Pending",
    "contractor": "IV Waste",
    "rowid": "1261410",
    "final_x": "3676631.35835",
    "final_y": "549258.622675",
    "longitude": "-90.08283246658806",
    "latitude": "30.004417705008724",
    "geocoded_column": {
      "latitude": "30.004417705008724",
      "longitude": "-90.08283246658806"
    }
  },
  {
    "service_request": "2026-1261409",
    "request_type": "Trash/Recycling",
    "request_reason": "Request a Large Item Pick Up",
    "date_created": "2026-02-27T15:53:13.000",
    "date_modified": "2026-02-27T15:53:15.000",
    "request_status": "Pending",
    "responsible_agency": "Department of Sanitation",
    "final_address": "2508 Cambronne St",
    "address_councildis": "A",
    "status": "Assigned to Contractor",
    "contractor": "IV Waste",
    "rowid": "1261409",
    "final_x": "3664358.27303",
    "final_y": "532662.895492",
    "longitude": "-90.12215981675588",
    "latitude": "29.959147604624253",
    "geocoded_column": {
      "latitude": "29.959147604624253",
      "longitude": "-90.12215981675588"
    }
  },
  {
    "service_request": "2026-1261408",
    "request_type": "Street and Traffic Signs",
    "request_reason": "Additional Signage Request",
    "date_created": "2026-02-27T15:51:28.000",
    "date_modified": "2026-02-27T15:51:30.000",
    "request_status": "Pending",
    "responsible_agency": "Department of Public Works",
    "final_address": "1500 BLK Saint Charles Ave",
    "address_councildis": "B",
    "status": "Pending",
    "rowid": "1261408",
    "final_x": "3679100.12798",
    "final_y": "525409.338405",
    "longitude": "-90.07586000459123",
    "latitude": "29.938766051587262",
    "geocoded_column": {
      "latitude": "29.938766051587262",
      "longitude": "-90.07586000459123"
    }
  },
  {
    "service_request": "2026-1261407",
    "request_type": "Trash/Recycling",
    "request_reason": "Order Recycling Cart",
    "date_created": "2026-02-27T15:48:00.000",
    "date_modified": "2026-02-27T15:52:29.000",
    "request_status": "Pending",
    "responsible_agency": "Department of Sanitation",
    "final_address": "2035 Mandeville St",
    "address_councildis": "D",
    "status": "Pending",
    "rowid": "1261407",
    "final_x": "3685529.49615",
    "final_y": "539983.837323",
    "longitude": "-90.0550484997728",
    "latitude": "29.97864533855865",
    "geocoded_column": {
      "latitude": "29.97864533855865",
      "longitude": "-90.0550484997728"
    }
  },
  {
    "service_request": "2026-1261406",
    "request_type": "Trash/Recycling",
    "request_reason": "Replace Trash Cart",
    "date_created": "2026-02-27T15:44:36.000",
    "date_modified": "2026-02-27T15:44:38.000",
    "request_status": "Pending",
    "responsible_agency": "Department of Sanitation",
    "final_address": "1943 Mazant St",
    "address_councildis": "D",
    "status": "Assigned to Contractor",
    "contractor": "IV Waste",
    "rowid": "1261406",
    "final_x": "3692984.46966",
    "final_y": "538555.552265",
    "longitude": "-90.03155426530806",
    "latitude": "29.97448727906426",
    "geocoded_column": {
      "latitude": "29.97448727906426",
      "longitude": "-90.03155426530806"
    }
  },
  {
    "service_request": "2026-1261405",
    "request_type": "Trash/Recycling",
    "request_reason": "Request a Large Item Pick Up",
    "date_created": "2026-02-27T15:41:41.000",
    "date_modified": "2026-02-27T15:41:43.000",
    "request_status": "Pending",
    "responsible_agency": "Department of Sanitation",
    "final_address": "818 Moss St",
    "address_councildis": "A",
    "status": "Assigned to Contractor",
    "contractor": "IV Waste",
    "rowid": "1261405",
    "final_x": "3674653.47483",
    "final_y": "539195.949194",
    "longitude": "-90.08942608884169",
    "latitude": "29.976808052790876",
    "geocoded_column": {
      "latitude": "29.976808052790876",
      "longitude": "-90.08942608884169"
    }
  },
  {
    "service_request": "2026-1261404",
    "request_type": "Trash/Recycling",
    "request_reason": "Request a Large Item Pick Up",
    "date_created": "2026-02-27T15:39:08.000",
    "date_modified": "2026-02-27T15:39:11.000",
    "request_status": "Pending",
    "responsible_agency": "Department of Sanitation",
    "final_address": "11433 S Easterlyn Cir",
    "address_councildis": "E",
    "status": "Assigned to Contractor",
    "contractor": "Waste Pro",
    "rowid": "1261404",
    "final_x": "3718943.17247",
    "final_y": "560632.86947",
    "longitude": "-89.94872892139956",
    "latitude": "30.03435480984266",
    "geocoded_column": {
      "latitude": "30.03435480984266",
      "longitude": "-89.94872892139956"
    }
  },
  {
    "service_request": "2026-1261403",
    "request_type": "Abandoned Vehicles",
    "request_reason": "Abandoned/Junk Vehicles",
    "date_created": "2026-02-27T15:39:04.000",
    "date_modified": "2026-02-27T15:39:05.000",
    "request_status": "Pending",
    "responsible_agency": "Department of Public Works",
    "final_address": "2812 Holiday Dr",
    "address_councildis": "C",
    "status": "Pending",
    "rowid": "1261403",
    "final_x": "3698868.78596",
    "final_y": "520886.908985",
    "longitude": "-90.01361298441167",
    "latitude": "29.925719598532545",
    "geocoded_column": {
      "latitude": "29.925719598532545",
      "longitude": "-90.01361298441167"
    }
  },
  {
    "service_request": "2026-1261402",
    "request_type": "Trash/Recycling",
    "request_reason": "Order Trash Cart",
    "date_created": "2026-02-27T15:34:35.000",
    "date_modified": "2026-02-27T15:34:36.000",
    "request_status": "Pending",
    "responsible_agency": "Department of Sanitation",
    "final_address": "3625 Simms St",
    "address_councildis": "C",
    "status": "Assigned to Contractor",
    "contractor": "Richards Disposal",
    "rowid": "1261402",
    "final_x": "3714001.61701",
    "final_y": "517681.918646",
    "longitude": "-89.96596446020855",
    "latitude": "29.916419092685622",
    "geocoded_column": {
      "latitude": "29.916419092685622",
      "longitude": "-89.96596446020855"
    }
  },
  {
    "service_request": "2026-1261401",
    "request_type": "Trash/Recycling",
    "request_reason": "MIssed Recycling Pick-Up",
    "date_created": "2026-02-27T15:28:56.000",
    "date_modified": "2026-02-27T16:08:22.000",
    "case_close_date": "2026-02-27T10:08:20.000",
    "request_status": "Closed",
    "responsible_agency": "Department of Sanitation",
    "final_address": "4510 Coliseum St",
    "address_councildis": "B",
    "status": "Invalid Request",
    "contractor": "IV Waste",
    "contractor_action": "Invalid Request",
    "rowid": "1261401",
    "final_x": "3670461.76967",
    "final_y": "519739.218616",
    "longitude": "-90.10332449120754",
    "latitude": "29.923432882435627",
    "geocoded_column": {
      "latitude": "29.923432882435627",
      "longitude": "-90.10332449120754"
    }
  },
  {
    "service_request": "2026-1261400",
    "request_type": "Abandoned Vehicles",
    "request_reason": "Abandoned/Junk Vehicles",
    "date_created": "2026-02-27T15:26:33.000",
    "date_modified": "2026-02-27T15:26:34.000",
    "request_status": "Pending",
    "responsible_agency": "Department of Public Works",
    "final_address": "5 Christopher Ct",
    "address_councildis": "E",
    "status": "Pending",
    "rowid": "1261400",
    "final_x": "3716407.99058",
    "final_y": "570278.000295",
    "longitude": "-89.95637407214724",
    "latitude": "30.060958968495438",
    "geocoded_column": {
      "latitude": "30.060958968495438",
      "longitude": "-89.95637407214724"
    }
  },
  {
    "service_request": "2026-1261399",
    "request_type": "Trash/Recycling",
    "request_reason": "Repair Trash Cart",
    "date_created": "2026-02-27T15:26:16.000",
    "date_modified": "2026-02-27T15:26:17.000",
    "request_status": "Pending",
    "responsible_agency": "Department of Sanitation",
    "final_address": "5340 Lacour Monique St",
    "address_councildis": "C",
    "status": "Assigned to Contractor",
    "contractor": "Richards Disposal",
    "rowid": "1261399",
    "final_x": "3703657.1409",
    "final_y": "517951.705654",
    "longitude": "-89.99860563788249",
    "latitude": "29.917496291672762",
    "geocoded_column": {
      "latitude": "29.917496291672762",
      "longitude": "-89.99860563788249"
    }
  },
  {
    "service_request": "2026-1261398",
    "request_type": "Trash/Recycling",
    "request_reason": "Repair Recycling Cart",
    "date_created": "2026-02-27T15:26:14.000",
    "date_modified": "2026-02-27T15:26:16.000",
    "request_status": "Pending",
    "responsible_agency": "Department of Sanitation",
    "final_address": "5340 Lacour Monique St",
    "address_councildis": "C",
    "status": "Pending",
    "rowid": "1261398",
    "final_x": "3703657.1409",
    "final_y": "517951.705654",
    "longitude": "-89.99860563788249",
    "latitude": "29.917496291672762",
    "geocoded_column": {
      "latitude": "29.917496291672762",
      "longitude": "-89.99860563788249"
    }
  },
  {
    "service_request": "2026-1261397",
    "request_type": "Abandoned Vehicles",
    "request_reason": "Abandoned/Junk Vehicles",
    "date_created": "2026-02-27T15:24:59.000",
    "date_modified": "2026-02-27T15:25:01.000",
    "request_status": "Pending",
    "responsible_agency": "Department of Public Works",
    "final_address": "27 Christopher Ct",
    "address_councildis": "E",
    "status": "Pending",
    "rowid": "1261397",
    "final_x": "3716452.68127",
    "final_y": "570139.390823",
    "longitude": "-89.95623807308125",
    "latitude": "30.060576373175895",
    "geocoded_column": {
      "latitude": "30.060576373175895",
      "longitude": "-89.95623807308125"
    }
  },
  {
    "service_request": "2026-1261396",
    "request_type": "Trash/Recycling",
    "request_reason": "Request a Large Item Pick Up",
    "date_created": "2026-02-27T15:21:32.000",
    "date_modified": "2026-02-27T15:21:34.000",
    "request_status": "Pending",
    "responsible_agency": "Department of Sanitation",
    "final_address": "4733 Raymond Joseph Dr",
    "address_councildis": "E",
    "status": "Assigned to Contractor",
    "contractor": "Waste Pro",
    "rowid": "1261396",
    "final_x": "3703745.67908",
    "final_y": "555331.936857",
    "longitude": "-89.99695009069637",
    "latitude": "30.020275492617014",
    "geocoded_column": {
      "latitude": "30.020275492617014",
      "longitude": "-89.99695009069637"
    }
  },
  {
    "service_request": "2026-1261395",
    "request_type": "Trash/Recycling",
    "request_reason": "Illegal Dumping",
    "date_created": "2026-02-27T15:20:13.000",
    "date_modified": "2026-02-27T15:20:18.000",
    "request_status": "Pending",
    "responsible_agency": "Department of Sanitation",
    "final_address": "9300 BLK Pritchard Pl",
    "address_councildis": "A",
    "status": "Pending",
    "rowid": "1261395",
    "final_x": "3662807.86989",
    "final_y": "535843.567536",
    "longitude": "-90.12694988960831",
    "latitude": "29.967938383442338",
    "geocoded_column": {
      "latitude": "29.967938383442338",
      "longitude": "-90.12694988960831"
    }
  },
  {
    "service_request": "2026-1261394",
    "request_type": "Healthy Homes",
    "request_reason": "Healthy Homes",
    "date_created": "2026-02-27T15:19:34.000",
    "date_modified": "2026-02-27T15:19:37.000",
    "request_status": "Pending",
    "responsible_agency": "Department of Code Enforcement",
    "final_address": "4118 N Roman St",
    "address_councildis": "D",
    "status": "Pending",
    "rowid": "1261394",
    "final_x": "3692951.8223",
    "final_y": "537764.63604",
    "longitude": "-90.03168574865765",
    "latitude": "29.972313560670244",
    "geocoded_column": {
      "latitude": "29.972313560670244",
      "longitude": "-90.03168574865765"
    }
  },
  {
    "service_request": "2026-1261393",
    "request_type": "Trash/Recycling",
    "request_reason": "Request a Large Item Pick Up",
    "date_created": "2026-02-27T15:18:32.000",
    "date_modified": "2026-02-27T15:18:34.000",
    "request_status": "Pending",
    "responsible_agency": "Department of Sanitation",
    "final_address": "26 Christopher Ct",
    "address_councildis": "E",
    "status": "Assigned to Contractor",
    "contractor": "Waste Pro",
    "rowid": "1261393",
    "final_x": "3716491.02802",
    "final_y": "570171.494631",
    "longitude": "-89.95611564195335",
    "latitude": "30.060663378098297",
    "geocoded_column": {
      "latitude": "30.060663378098297",
      "longitude": "-89.95611564195335"
    }
  },
  {
    "service_request": "2026-1261392",
    "request_type": "Trash/Recycling",
    "request_reason": "Missed Trash Pick-Up",
    "date_created": "2026-02-27T15:16:43.000",
    "date_modified": "2026-02-27T16:02:23.000",
    "case_close_date": "2026-02-27T10:02:22.000",
    "request_status": "Closed",
    "responsible_agency": "Department of Sanitation",
    "final_address": "4026 Chestnut St",
    "address_councildis": "B",
    "status": "Invalid Request",
    "contractor": "IV Waste",
    "contractor_action": "Invalid Request",
    "rowid": "1261392",
    "final_x": "3672191.17774",
    "final_y": "519603.983352",
    "longitude": "-90.09786998848861",
    "latitude": "29.923009869207018",
    "geocoded_column": {
      "latitude": "29.923009869207018",
      "longitude": "-90.09786998848861"
    }
  },
  {
    "service_request": "2026-1261391",
    "request_type": "Trash/Recycling",
    "request_reason": "Repair Trash Cart",
    "date_created": "2026-02-27T15:12:15.000",
    "date_modified": "2026-02-27T15:12:17.000",
    "request_status": "Pending",
    "responsible_agency": "Department of Sanitation",
    "final_address": "5273 Basinview Dr",
    "address_councildis": "E",
    "status": "Assigned to Contractor",
    "contractor": "Waste Pro",
    "rowid": "1261391",
    "final_x": "3699126.5224",
    "final_y": "556879.53001",
    "longitude": "-90.01148869781589",
    "latitude": "30.024678104353427",
    "geocoded_column": {
      "latitude": "30.024678104353427",
      "longitude": "-90.01148869781589"
    }
  },
  {
    "service_request": "2026-1261390",
    "request_type": "Trash/Recycling",
    "request_reason": "Order Recycling Cart",
    "date_created": "2026-02-27T15:09:46.000",
    "date_modified": "2026-02-27T15:10:30.000",
    "request_status": "Pending",
    "responsible_agency": "Department of Sanitation",
    "final_address": "4718 Cardenas Dr",
    "address_councildis": "E",
    "status": "Pending",
    "rowid": "1261390",
    "final_x": "3713630.89842",
    "final_y": "556178.146202",
    "longitude": "-89.96568427890656",
    "latitude": "30.022281524617306",
    "geocoded_column": {
      "latitude": "30.022281524617306",
      "longitude": "-89.96568427890656"
    }
  },
  {
    "service_request": "2026-1261389",
    "request_type": "Trash/Recycling",
    "request_reason": "Repair Recycling Cart",
    "date_created": "2026-02-27T15:09:45.000",
    "date_modified": "2026-02-27T15:09:47.000",
    "request_status": "Pending",
    "responsible_agency": "Department of Sanitation",
    "final_address": "3600 Palmyra St",
    "address_councildis": "B",
    "status": "Pending",
    "rowid": "1261389",
    "final_x": "3672052.04295",
    "final_y": "536558.964615",
    "longitude": "-90.09773205480246",
    "latitude": "29.969634632961814",
    "geocoded_column": {
      "latitude": "29.969634632961814",
      "longitude": "-90.09773205480246"
    }
  },
  {
    "service_request": "2026-1261388",
    "request_type": "Trash/Recycling",
    "request_reason": "Repair Trash Cart",
    "date_created": "2026-02-27T15:08:08.000",
    "date_modified": "2026-02-27T15:08:10.000",
    "request_status": "Pending",
    "responsible_agency": "Department of Sanitation",
    "final_address": "2820 Cambronne St",
    "address_councildis": "A",
    "status": "Assigned to Contractor",
    "contractor": "IV Waste",
    "rowid": "1261388",
    "final_x": "3665130.22196",
    "final_y": "533518.585668",
    "longitude": "-90.11969356116725",
    "latitude": "29.961478013511833",
    "geocoded_column": {
      "latitude": "29.961478013511833",
      "longitude": "-90.11969356116725"
    }
  },
  {
    "service_request": "2026-1261387",
    "request_type": "Trash/Recycling",
    "request_reason": "Request a Large Item Pick Up",
    "date_created": "2026-02-27T15:06:03.000",
    "date_modified": "2026-02-27T15:06:05.000",
    "request_status": "Pending",
    "responsible_agency": "Department of Sanitation",
    "final_address": "7097 E Tamaron Blvd",
    "address_councildis": "E",
    "status": "Assigned to Contractor",
    "contractor": "Waste Pro",
    "rowid": "1261387",
    "final_x": "3718738.03756",
    "final_y": "568887.192741",
    "longitude": "-89.94906204281143",
    "latitude": "30.057057630657194",
    "geocoded_column": {
      "latitude": "30.057057630657194",
      "longitude": "-89.94906204281143"
    }
  },
  {
    "service_request": "2026-1261386",
    "request_type": "Parks & Parkways",
    "request_reason": "Request Tree Service (Right of Way/Public Property)",
    "date_created": "2026-02-27T15:04:34.000",
    "date_modified": "2026-02-27T15:04:36.000",
    "request_status": "Pending",
    "responsible_agency": "Department of Parks & Parkway",
    "final_address": "200 BLK Woodland Dr",
    "address_councildis": "C",
    "status": "Pending",
    "rowid": "1261386",
    "final_x": "3705598.7095",
    "final_y": "521136.880414",
    "longitude": "-89.99235958845453",
    "latitude": "29.926192085627264",
    "geocoded_column": {
      "latitude": "29.926192085627264",
      "longitude": "-89.99235958845453"
    }
  },
  {
    "service_request": "2026-1261385",
    "request_type": "Trash/Recycling",
    "request_reason": "Repair Recycling Cart",
    "date_created": "2026-02-27T15:04:30.000",
    "date_modified": "2026-02-27T15:04:31.000",
    "request_status": "Pending",
    "responsible_agency": "Department of Sanitation",
    "final_address": "2704 Constance St",
    "address_councildis": "B",
    "status": "Pending",
    "rowid": "1261385",
    "final_x": "3677493.55688",
    "final_y": "520618.253496",
    "longitude": "-90.0810974349197",
    "latitude": "29.925640516460348",
    "geocoded_column": {
      "latitude": "29.925640516460348",
      "longitude": "-90.0810974349197"
    }
  },
  {
    "service_request": "2026-1261384",
    "request_type": "Trash/Recycling",
    "request_reason": "Request a Large Item Pick Up",
    "date_created": "2026-02-27T15:04:26.000",
    "date_modified": "2026-02-27T15:04:32.000",
    "request_status": "Pending",
    "responsible_agency": "Department of Sanitation",
    "final_address": "5711 Kensington Blvd",
    "address_councildis": "E",
    "status": "Assigned to Contractor",
    "contractor": "Waste Pro",
    "rowid": "1261384",
    "final_x": "3713794.31179",
    "final_y": "560514.25795",
    "longitude": "-89.96500432512264",
    "latitude": "30.034198744936756",
    "geocoded_column": {
      "latitude": "30.034198744936756",
      "longitude": "-89.96500432512264"
    }
  },
  {
    "service_request": "2026-1261383",
    "request_type": "Property Maintenance",
    "request_reason": "Property Maintenance",
    "date_created": "2026-02-27T14:59:30.000",
    "date_modified": "2026-02-27T15:00:34.000",
    "request_status": "Pending",
    "responsible_agency": "Department of Code Enforcement",
    "final_address": "1212 Esplanade Ave",
    "address_councildis": "C",
    "status": "Pending",
    "rowid": "1261383",
    "final_x": "3682424.85749",
    "final_y": "535596.30887",
    "longitude": "-90.06500748332661",
    "latitude": "29.966676024757874",
    "geocoded_column": {
      "latitude": "29.966676024757874",
      "longitude": "-90.06500748332661"
    }
  },
  {
    "service_request": "2026-1261382",
    "request_type": "Trash/Recycling",
    "request_reason": "Repair Trash Cart",
    "date_created": "2026-02-27T14:58:44.000",
    "date_modified": "2026-02-27T14:59:30.000",
    "request_status": "Pending",
    "responsible_agency": "Department of Sanitation",
    "final_address": "7527 Lady Gray St",
    "address_councildis": "E",
    "status": "Assigned to Contractor",
    "contractor": "Waste Pro",
    "rowid": "1261382",
    "final_x": "3710349.10885",
    "final_y": "564779.36957",
    "longitude": "-89.97573182297815",
    "latitude": "30.04603877127728",
    "geocoded_column": {
      "latitude": "30.04603877127728",
      "longitude": "-89.97573182297815"
    }
  },
  {
    "service_request": "2026-1261381",
    "request_type": "Trash/Recycling",
    "request_reason": "Repair Trash Cart",
    "date_created": "2026-02-27T14:58:41.000",
    "date_modified": "2026-02-27T15:05:13.000",
    "request_status": "Pending",
    "responsible_agency": "Department of Sanitation",
    "final_address": "4219 Baronne St",
    "address_councildis": "B",
    "status": "Assigned to Contractor",
    "contractor": "IV Waste",
    "rowid": "1261381",
    "final_x": "3671342.18395",
    "final_y": "521697.394681",
    "longitude": "-90.10047884001018",
    "latitude": "29.92879122424502",
    "geocoded_column": {
      "latitude": "29.92879122424502",
      "longitude": "-90.10047884001018"
    }
  },
  {
    "service_request": "2026-1261380",
    "request_type": "Streetlights",
    "request_reason": "Streetlight Outage/Malfunction",
    "date_created": "2026-02-27T14:56:59.000",
    "date_modified": "2026-02-27T14:57:57.000",
    "request_status": "Pending",
    "responsible_agency": "Department of Public Works",
    "final_address": "932 Esplanade Ave",
    "address_councildis": "C",
    "status": "Pending",
    "rowid": "1261380",
    "final_x": "3683221.22671",
    "final_y": "534954.574854",
    "longitude": "-90.06251503374615",
    "latitude": "29.964887215099008",
    "geocoded_column": {
      "latitude": "29.964887215099008",
      "longitude": "-90.06251503374615"
    }
  },
  {
    "service_request": "2026-1261379",
    "request_type": "Trash/Recycling",
    "request_reason": "Request a Large Item Pick Up",
    "date_created": "2026-02-27T14:54:13.000",
    "date_modified": "2026-02-27T14:54:15.000",
    "request_status": "Pending",
    "responsible_agency": "Department of Sanitation",
    "final_address": "4657 Shalimar Dr",
    "address_councildis": "D",
    "status": "Assigned to Contractor",
    "contractor": "Waste Pro",
    "rowid": "1261379",
    "final_x": "3697248.01034",
    "final_y": "553868.660951",
    "longitude": "-90.01753369404113",
    "latitude": "30.016458808608338",
    "geocoded_column": {
      "latitude": "30.016458808608338",
      "longitude": "-90.01753369404113"
    }
  },
  {
    "service_request": "2026-1261378",
    "request_type": "Trash/Recycling",
    "request_reason": "Repair Trash Cart",
    "date_created": "2026-02-27T14:54:08.000",
    "date_modified": "2026-02-27T14:57:01.000",
    "request_status": "Pending",
    "responsible_agency": "Department of Sanitation",
    "final_address": "5842 Oxford Pl",
    "address_councildis": "C",
    "status": "Pending",
    "contractor": "Richards Disposal",
    "rowid": "1261378",
    "final_x": "3705180.2522",
    "final_y": "519844.586552",
    "longitude": "-89.99372821958826",
    "latitude": "29.92265218620102",
    "geocoded_column": {
      "latitude": "29.92265218620102",
      "longitude": "-89.99372821958826"
    }
  },
  {
    "service_request": "2026-1261377",
    "request_type": "General Services",
    "request_reason": "General Service Request",
    "date_created": "2026-02-27T14:53:11.000",
    "date_modified": "2026-02-27T14:56:01.000",
    "case_close_date": "2026-02-27T08:56:00.000",
    "request_status": "Closed",
    "responsible_agency": "Orleans Parish Communication District",
    "final_address": "4654 Baccich St",
    "address_councildis": "D",
    "status": "Referred to External Agency",
    "rowid": "1261377",
    "final_x": "3687712.08271",
    "final_y": "550161.348628",
    "longitude": "-90.04779446332665",
    "latitude": "30.006562708676025",
    "geocoded_column": {
      "latitude": "30.006562708676025",
      "longitude": "-90.04779446332665"
    }
  },
  {
    "service_request": "2026-1261376",
    "request_type": "Trash/Recycling",
    "request_reason": "Replace Trash Cart",
    "date_created": "2026-02-27T14:47:57.000",
    "date_modified": "2026-02-27T14:47:59.000",
    "request_status": "Pending",
    "responsible_agency": "Department of Sanitation",
    "final_address": "2421 Peniston St",
    "address_councildis": "B",
    "status": "Assigned to Contractor",
    "contractor": "IV Waste",
    "rowid": "1261376",
    "final_x": "3672211.75905",
    "final_y": "524068.402876",
    "longitude": "-90.09765304741374",
    "latitude": "29.935284976928894",
    "geocoded_column": {
      "latitude": "29.935284976928894",
      "longitude": "-90.09765304741374"
    }
  },
  {
    "service_request": "2026-1261375",
    "request_type": "Trash/Recycling",
    "request_reason": "Request a Large Item Pick Up",
    "date_created": "2026-02-27T14:45:36.000",
    "date_modified": "2026-02-27T14:45:38.000",
    "request_status": "Pending",
    "responsible_agency": "Department of Sanitation",
    "final_address": "13190 Wales St",
    "address_councildis": "E",
    "status": "Assigned to Contractor",
    "contractor": "Waste Pro",
    "rowid": "1261375",
    "final_x": "3716399.82744",
    "final_y": "571009.647847",
    "longitude": "-89.95637208337995",
    "latitude": "30.06297096521088",
    "geocoded_column": {
      "latitude": "30.06297096521088",
      "longitude": "-89.95637208337995"
    }
  },
  {
    "service_request": "2026-1261374",
    "request_type": "Parks & Parkways",
    "request_reason": "Tree Stump (removal, grind)",
    "date_created": "2026-02-27T14:40:46.000",
    "date_modified": "2026-02-27T14:40:48.000",
    "request_status": "Pending",
    "responsible_agency": "Department of Parks & Parkway",
    "final_address": "PERRIER ST & JENA ST",
    "address_councildis": "B",
    "status": "Pending",
    "rowid": "1261374",
    "final_x": "3670524.7",
    "final_y": "520024.28",
    "longitude": "-90.10311618225153",
    "latitude": "29.924214852866037",
    "geocoded_column": {
      "latitude": "29.924214852866037",
      "longitude": "-90.10311618225153"
    }
  },
  {
    "service_request": "2026-1261373",
    "request_type": "Graffiti Removal",
    "request_reason": "Graffiti Removal",
    "date_created": "2026-02-27T14:38:42.000",
    "date_modified": "2026-02-27T14:38:43.000",
    "request_status": "Pending",
    "responsible_agency": "Department of Code Enforcement",
    "final_address": "3010 Robert St",
    "address_councildis": "B",
    "status": "Pending",
    "rowid": "1261373",
    "final_x": "3668849.63386",
    "final_y": "526366.811454",
    "longitude": "-90.10818972846137",
    "latitude": "29.941704127371395",
    "geocoded_column": {
      "latitude": "29.941704127371395",
      "longitude": "-90.10818972846137"
    }
  },
  {
    "service_request": "2026-1261372",
    "request_type": "Trash/Recycling",
    "request_reason": "Request a Large Item Pick Up",
    "date_created": "2026-02-27T14:38:41.000",
    "date_modified": "2026-02-27T14:38:42.000",
    "request_status": "Pending",
    "responsible_agency": "Department of Sanitation",
    "final_address": "3338 Newton St",
    "address_councildis": "C",
    "status": "Assigned to Contractor",
    "contractor": "Richards Disposal",
    "rowid": "1261372",
    "final_x": "3696732.70141",
    "final_y": "527814.323775",
    "longitude": "-90.02010529948966",
    "latitude": "29.94483507804349",
    "geocoded_column": {
      "latitude": "29.94483507804349",
      "longitude": "-90.02010529948966"
    }
  },
  {
    "service_request": "2026-1261371",
    "request_type": "Trash/Recycling",
    "request_reason": "Repair Recycling Cart",
    "date_created": "2026-02-27T14:38:36.000",
    "date_modified": "2026-02-27T14:38:37.000",
    "request_status": "Pending",
    "responsible_agency": "Department of Sanitation",
    "final_address": "65 Thrasher St",
    "address_councildis": "D",
    "status": "Pending",
    "rowid": "1261371",
    "final_x": "3672671.50568",
    "final_y": "556388.854042",
    "longitude": "-90.09509899127293",
    "latitude": "30.024141537118428",
    "geocoded_column": {
      "latitude": "30.024141537118428",
      "longitude": "-90.09509899127293"
    }
  },
  {
    "service_request": "2026-1261370",
    "request_type": "Trash/Recycling",
    "request_reason": "Repair Trash Cart",
    "date_created": "2026-02-27T14:38:14.000",
    "date_modified": "2026-02-27T15:04:40.000",
    "request_status": "Pending",
    "responsible_agency": "Department of Sanitation",
    "final_address": "65 Thrasher St",
    "address_councildis": "D",
    "status": "Assigned to Contractor",
    "contractor": "IV Waste",
    "rowid": "1261370",
    "final_x": "3672671.50568",
    "final_y": "556388.854042",
    "longitude": "-90.09509899127293",
    "latitude": "30.024141537118428",
    "geocoded_column": {
      "latitude": "30.024141537118428",
      "longitude": "-90.09509899127293"
    }
  },
  {
    "service_request": "2026-1261369",
    "request_type": "Trash/Recycling",
    "request_reason": "Repair Trash Cart",
    "date_created": "2026-02-27T14:34:50.000",
    "date_modified": "2026-02-27T14:34:52.000",
    "request_status": "Pending",
    "responsible_agency": "Department of Sanitation",
    "final_address": "655 Seguin St",
    "address_councildis": "C",
    "status": "Assigned to Contractor",
    "contractor": "Richards Disposal",
    "rowid": "1261369",
    "final_x": "3686921.75522",
    "final_y": "529202.766656",
    "longitude": "-90.05103229485988",
    "latitude": "29.948958353339165",
    "geocoded_column": {
      "latitude": "29.948958353339165",
      "longitude": "-90.05103229485988"
    }
  },
  {
    "service_request": "2026-1261368",
    "request_type": "Abandoned Vehicles",
    "request_reason": "Abandoned/Junk Vehicles",
    "date_created": "2026-02-27T14:34:04.000",
    "date_modified": "2026-02-27T14:34:16.000",
    "request_status": "Pending",
    "responsible_agency": "Department of Public Works",
    "final_address": "3413 N Rampart St",
    "address_councildis": "C",
    "status": "Pending",
    "rowid": "1261368",
    "final_x": "3690194.5702",
    "final_y": "535269.457222",
    "longitude": "-90.04048250828795",
    "latitude": "29.965538532226308",
    "geocoded_column": {
      "latitude": "29.965538532226308",
      "longitude": "-90.04048250828795"
    }
  },
  {
    "service_request": "2026-1261367",
    "request_type": "Trash/Recycling",
    "request_reason": "Request a Large Item Pick Up",
    "date_created": "2026-02-27T14:30:49.000",
    "date_modified": "2026-02-27T14:30:50.000",
    "request_status": "Pending",
    "responsible_agency": "Department of Sanitation",
    "final_address": "4860 Metropolitan Dr",
    "address_councildis": "D",
    "status": "Assigned to Contractor",
    "contractor": "IV Waste",
    "rowid": "1261367",
    "final_x": "3690503.99587",
    "final_y": "551305.769109",
    "longitude": "-90.03893328132679",
    "latitude": "30.009623021490295",
    "geocoded_column": {
      "latitude": "30.009623021490295",
      "longitude": "-90.03893328132679"
    }
  },
  {
    "service_request": "2026-1261366",
    "request_type": "Trash/Recycling",
    "request_reason": "Replace Trash Cart",
    "date_created": "2026-02-27T14:30:46.000",
    "date_modified": "2026-02-27T14:30:47.000",
    "request_status": "Pending",
    "responsible_agency": "Department of Sanitation",
    "final_address": "438 Opelousas Ave",
    "address_councildis": "C",
    "status": "Assigned to Contractor",
    "contractor": "Richards Disposal",
    "rowid": "1261366",
    "final_x": "3686925.8669",
    "final_y": "529176.818944",
    "longitude": "-90.05102022939563",
    "latitude": "29.948886879461018",
    "geocoded_column": {
      "latitude": "29.948886879461018",
      "longitude": "-90.05102022939563"
    }
  },
  {
    "service_request": "2026-1261365",
    "request_type": "Graffiti Removal",
    "request_reason": "Graffiti Removal",
    "date_created": "2026-02-27T14:29:52.000",
    "date_modified": "2026-02-27T14:29:54.000",
    "request_status": "Pending",
    "responsible_agency": "Department of Code Enforcement",
    "final_address": "3232 Upperline St",
    "address_councildis": "B",
    "status": "Pending",
    "rowid": "1261365",
    "final_x": "3669170.69287",
    "final_y": "526936.971518",
    "longitude": "-90.10715681355927",
    "latitude": "29.94326243985334",
    "geocoded_column": {
      "latitude": "29.94326243985334",
      "longitude": "-90.10715681355927"
    }
  },
  {
    "service_request": "2026-1261364",
    "request_type": "Property Maintenance",
    "request_reason": "Property Maintenance",
    "date_created": "2026-02-27T14:25:33.000",
    "date_modified": "2026-02-27T14:25:35.000",
    "request_status": "Pending",
    "responsible_agency": "Department of Code Enforcement",
    "final_address": "809 St Ferdinand St",
    "address_councildis": "C",
    "status": "Pending",
    "rowid": "1261364",
    "final_x": "3687473.3407",
    "final_y": "535257.661062",
    "longitude": "-90.04907643174062",
    "latitude": "29.965590240680687",
    "geocoded_column": {
      "latitude": "29.965590240680687",
      "longitude": "-90.04907643174062"
    }
  },
  {
    "service_request": "2026-1261363",
    "request_type": "Trash/Recycling",
    "request_reason": "Request a Large Item Pick Up",
    "date_created": "2026-02-27T14:25:23.000",
    "date_modified": "2026-02-27T14:25:25.000",
    "request_status": "Pending",
    "responsible_agency": "Department of Sanitation",
    "final_address": "918 Pleasant St",
    "address_councildis": "B",
    "status": "Assigned to Contractor",
    "contractor": "IV Waste",
    "rowid": "1261363",
    "final_x": "3675772.81429",
    "final_y": "519352.617399",
    "longitude": "-90.08657277210384",
    "latitude": "29.92221202158392",
    "geocoded_column": {
      "latitude": "29.92221202158392",
      "longitude": "-90.08657277210384"
    }
  },
  {
    "service_request": "2026-1261362",
    "request_type": "Trash/Recycling",
    "request_reason": "Illegal Dumping",
    "date_created": "2026-02-27T14:23:07.000",
    "date_modified": "2026-02-27T15:22:27.000",
    "request_status": "Pending",
    "responsible_agency": "Department of Sanitation",
    "final_address": "7912 Alabama St",
    "address_councildis": "D",
    "status": "Pending",
    "rowid": "1261362",
    "final_x": "3694549.03286",
    "final_y": "559410.987933",
    "longitude": "-90.02586144702742",
    "latitude": "30.03178305350519",
    "geocoded_column": {
      "latitude": "30.03178305350519",
      "longitude": "-90.02586144702742"
    }
  },
  {
    "service_request": "2026-1261361",
    "request_type": "Trash/Recycling",
    "request_reason": "Request a Large Item Pick Up",
    "date_created": "2026-02-27T14:21:01.000",
    "date_modified": "2026-02-27T14:21:03.000",
    "request_status": "Pending",
    "responsible_agency": "Department of Sanitation",
    "final_address": "2233 Feliciana St",
    "address_councildis": "D",
    "status": "Assigned to Contractor",
    "contractor": "IV Waste",
    "rowid": "1261361",
    "final_x": "3689895.53372",
    "final_y": "540406.379467",
    "longitude": "-90.0412439229718",
    "latitude": "29.97967252974775",
    "geocoded_column": {
      "latitude": "29.97967252974775",
      "longitude": "-90.0412439229718"
    }
  },
  {
    "service_request": "2026-1261359",
    "request_type": "Trash/Recycling",
    "request_reason": "Damaged Caused By Contractor",
    "date_created": "2026-02-27T14:12:46.000",
    "date_modified": "2026-02-27T14:12:48.000",
    "request_status": "Pending",
    "responsible_agency": "Department of Sanitation",
    "final_address": "1552 Athis St",
    "address_councildis": "D",
    "status": "Assigned to Contractor",
    "contractor": "IV Waste",
    "rowid": "1261359",
    "final_x": "3678775.34229",
    "final_y": "553689.064919",
    "longitude": "-90.07590561957352",
    "latitude": "30.016535319237647",
    "geocoded_column": {
      "latitude": "30.016535319237647",
      "longitude": "-90.07590561957352"
    }
  },
  {
    "service_request": "2026-1261358",
    "request_type": "Health Related Request",
    "request_reason": "Homeless Encampment Complaint",
    "date_created": "2026-02-27T14:12:41.000",
    "date_modified": "2026-02-27T14:12:43.000",
    "request_status": "Pending",
    "responsible_agency": "Office Of Homeless Services And Strategy",
    "final_address": "516 Governor Nicholls St HM",
    "address_councildis": "C",
    "status": "Pending",
    "rowid": "1261358",
    "final_x": "3684124.88066",
    "final_y": "533514.648836",
    "longitude": "-90.0597118985234",
    "latitude": "29.960900325623065",
    "geocoded_column": {
      "latitude": "29.960900325623065",
      "longitude": "-90.0597118985234"
    }
  },
  {
    "service_request": "2026-1261357",
    "request_type": "Trash/Recycling",
    "request_reason": "Replace Trash Cart",
    "date_created": "2026-02-27T14:12:38.000",
    "date_modified": "2026-02-27T14:12:40.000",
    "request_status": "Pending",
    "responsible_agency": "Department of Sanitation",
    "final_address": "700 River Oaks Dr",
    "address_councildis": "C",
    "status": "Assigned to Contractor",
    "contractor": "Richards Disposal",
    "rowid": "1261357",
    "final_x": "3701524.74602",
    "final_y": "520109.764024",
    "longitude": "-90.00525741230996",
    "latitude": "29.92349833836411",
    "geocoded_column": {
      "latitude": "29.92349833836411",
      "longitude": "-90.00525741230996"
    }
  },
  {
    "service_request": "2026-1261356",
    "request_type": "Trash/Recycling",
    "request_reason": "Request a Large Item Pick Up",
    "date_created": "2026-02-27T14:05:10.000",
    "date_modified": "2026-02-27T14:06:17.000",
    "request_status": "Pending",
    "responsible_agency": "Department of Sanitation",
    "final_address": "10 Bear Creek Dr",
    "address_councildis": "C",
    "status": "Pending",
    "contractor": "Richards Disposal",
    "rowid": "1261356",
    "final_x": "3718405.81695",
    "final_y": "515134.765491",
    "longitude": "-89.95216010903188",
    "latitude": "29.90927007952927",
    "geocoded_column": {
      "latitude": "29.90927007952927",
      "longitude": "-89.95216010903188"
    }
  },
  {
    "service_request": "2026-1261355",
    "request_type": "Trash/Recycling",
    "request_reason": "Request a Large Item Pick Up",
    "date_created": "2026-02-27T14:04:58.000",
    "date_modified": "2026-02-27T14:05:00.000",
    "request_status": "Pending",
    "responsible_agency": "Department of Sanitation",
    "final_address": "7736 Mackenzie St",
    "address_councildis": "E",
    "status": "Assigned to Contractor",
    "contractor": "Waste Pro",
    "rowid": "1261355",
    "final_x": "3710625.5539",
    "final_y": "566611.191971",
    "longitude": "-89.97478948326682",
    "latitude": "30.051066534550348",
    "geocoded_column": {
      "latitude": "30.051066534550348",
      "longitude": "-89.97478948326682"
    }
  },
  {
    "service_request": "2026-1261354",
    "request_type": "Trash/Recycling",
    "request_reason": "Order Recycling Cart",
    "date_created": "2026-02-27T14:03:01.000",
    "date_modified": "2026-02-27T14:03:09.000",
    "request_status": "Pending",
    "responsible_agency": "Department of Sanitation",
    "final_address": "5651 West End Blvd",
    "address_councildis": "A",
    "status": "Pending",
    "rowid": "1261354",
    "final_x": "3666445.13665",
    "final_y": "544983.785999",
    "longitude": "-90.115156361426",
    "latitude": "29.99296510993554",
    "geocoded_column": {
      "latitude": "29.99296510993554",
      "longitude": "-90.115156361426"
    }
  },
  {
    "service_request": "2026-1261353",
    "request_type": "Trash/Recycling",
    "request_reason": "Request a Large Item Pick Up",
    "date_created": "2026-02-27T14:01:21.000",
    "date_modified": "2026-02-27T14:01:23.000",
    "request_status": "Pending",
    "responsible_agency": "Department of Sanitation",
    "final_address": "5011 Chartres St",
    "address_councildis": "E",
    "status": "Assigned to Contractor",
    "contractor": "Waste Pro",
    "rowid": "1261353",
    "final_x": "3695555.17053",
    "final_y": "532463.285892",
    "longitude": "-90.02365533294518",
    "latitude": "29.95765515481474",
    "geocoded_column": {
      "latitude": "29.95765515481474",
      "longitude": "-90.02365533294518"
    }
  },
  {
    "service_request": "2026-1261352",
    "request_type": "Parks & Parkways",
    "request_reason": "Request Tree Service (Right of Way/Public Property)",
    "date_created": "2026-02-27T14:00:53.000",
    "date_modified": "2026-02-27T14:00:54.000",
    "request_status": "Pending",
    "responsible_agency": "Department of Parks & Parkway",
    "final_address": "848 Harrison Ave",
    "address_councildis": "A",
    "status": "Pending",
    "rowid": "1261352",
    "final_x": "3669766.08046",
    "final_y": "549034.592147",
    "longitude": "-90.10452882573644",
    "latitude": "30.00400592568403",
    "geocoded_column": {
      "latitude": "30.00400592568403",
      "longitude": "-90.10452882573644"
    }
  },
  {
    "service_request": "2026-1261351",
    "request_type": "Roads and Streets",
    "request_reason": "Sidewalk Damaged or Missing",
    "date_created": "2026-02-27T13:58:35.000",
    "date_modified": "2026-02-27T13:58:36.000",
    "request_status": "Pending",
    "responsible_agency": "Department of Public Works",
    "final_address": "848 Harrison Ave",
    "address_councildis": "A",
    "status": "Pending",
    "rowid": "1261351",
    "final_x": "3669766.08046",
    "final_y": "549034.592147",
    "longitude": "-90.10452882573644",
    "latitude": "30.00400592568403",
    "geocoded_column": {
      "latitude": "30.00400592568403",
      "longitude": "-90.10452882573644"
    }
  },
  {
    "service_request": "2026-1261350",
    "request_type": "Trash/Recycling",
    "request_reason": "Replace Trash Cart",
    "date_created": "2026-02-27T13:57:20.000",
    "date_modified": "2026-02-27T13:57:22.000",
    "request_status": "Pending",
    "responsible_agency": "Department of Sanitation",
    "final_address": "8455 Huntington Park Dr",
    "address_councildis": "E",
    "status": "Assigned to Contractor",
    "contractor": "Waste Pro",
    "rowid": "1261350",
    "final_x": "3704903.38391",
    "final_y": "560068.180253",
    "longitude": "-89.99311709436036",
    "latitude": "30.033261144035663",
    "geocoded_column": {
      "latitude": "30.033261144035663",
      "longitude": "-89.99311709436036"
    }
  },
  {
    "service_request": "2026-1261349",
    "request_type": "General Services",
    "request_reason": "General Service Request",
    "date_created": "2026-02-27T13:56:38.000",
    "date_modified": "2026-02-27T14:18:46.000",
    "case_close_date": "2026-02-27T08:18:45.000",
    "request_status": "Closed",
    "responsible_agency": "Orleans Parish Communication District",
    "final_address": "1330 Toledano St",
    "address_councildis": "B",
    "status": "Referred to External Agency",
    "rowid": "1261349",
    "final_x": "3674960.21909",
    "final_y": "520678.930361",
    "longitude": "-90.08909234135399",
    "latitude": "29.92588324177793",
    "geocoded_column": {
      "latitude": "29.92588324177793",
      "longitude": "-90.08909234135399"
    }
  },
  {
    "service_request": "2026-1261348",
    "request_type": "Trash/Recycling",
    "request_reason": "Order Recycling Cart",
    "date_created": "2026-02-27T13:51:06.000",
    "date_modified": "2026-02-27T13:51:08.000",
    "request_status": "Pending",
    "responsible_agency": "Department of Sanitation",
    "final_address": "3029 Hudson Pl",
    "address_councildis": "C",
    "status": "Pending",
    "rowid": "1261348",
    "final_x": "3703047.72446",
    "final_y": "519653.02572",
    "longitude": "-90.0004667426613",
    "latitude": "29.922193841006905",
    "geocoded_column": {
      "latitude": "29.922193841006905",
      "longitude": "-90.0004667426613"
    }
  },
  {
    "service_request": "2026-1261347",
    "request_type": "Trash/Recycling",
    "request_reason": "Request a Large Item Pick Up",
    "date_created": "2026-02-27T13:49:14.000",
    "date_modified": "2026-02-27T13:49:16.000",
    "request_status": "Pending",
    "responsible_agency": "Department of Sanitation",
    "final_address": "5541 Red Maple Dr",
    "address_councildis": "E",
    "status": "Assigned to Contractor",
    "contractor": "Waste Pro",
    "rowid": "1261347",
    "final_x": "3723518.21254",
    "final_y": "563803.731361",
    "longitude": "-89.93414901484257",
    "latitude": "30.042920574739227",
    "geocoded_column": {
      "latitude": "30.042920574739227",
      "longitude": "-89.93414901484257"
    }
  },
  {
    "service_request": "2026-1261346",
    "request_type": "Trash/Recycling",
    "request_reason": "Request a Large Item Pick Up",
    "date_created": "2026-02-27T13:49:04.000",
    "date_modified": "2026-02-27T13:49:07.000",
    "request_status": "Pending",
    "responsible_agency": "Department of Sanitation",
    "final_address": "860 Taft Pl",
    "address_councildis": "A",
    "status": "Assigned to Contractor",
    "contractor": "IV Waste",
    "rowid": "1261346",
    "final_x": "3673862.46452",
    "final_y": "539858.93569",
    "longitude": "-90.09190166604417",
    "latitude": "29.978654627086406",
    "geocoded_column": {
      "latitude": "29.978654627086406",
      "longitude": "-90.09190166604417"
    }
  },
  {
    "service_request": "2026-1261345",
    "request_type": "Utility Poles",
    "request_reason": "Wires Sagging/Hanging Low",
    "date_created": "2026-02-27T13:47:47.000",
    "date_modified": "2026-02-27T13:47:50.000",
    "request_status": "Pending",
    "responsible_agency": "Utility Company Collective",
    "final_address": "1431 Eighth St",
    "address_councildis": "B",
    "status": "Pending",
    "rowid": "1261345",
    "final_x": "3675425.72341",
    "final_y": "521313.629753",
    "longitude": "-90.08760109846435",
    "latitude": "29.927614552597586",
    "geocoded_column": {
      "latitude": "29.927614552597586",
      "longitude": "-90.08760109846435"
    }
  },
  {
    "service_request": "2026-1261344",
    "request_type": "Trash/Recycling",
    "request_reason": "Order Recycling Cart",
    "date_created": "2026-02-27T13:46:27.000",
    "date_modified": "2026-02-27T13:46:29.000",
    "request_status": "Pending",
    "responsible_agency": "Department of Sanitation",
    "final_address": "6809 West End Blvd",
    "address_councildis": "A",
    "status": "Pending",
    "rowid": "1261344",
    "final_x": "3666843.00641",
    "final_y": "552861.375063",
    "longitude": "-90.1136346762575",
    "latitude": "30.014614113344184",
    "geocoded_column": {
      "latitude": "30.014614113344184",
      "longitude": "-90.1136346762575"
    }
  },
  {
    "service_request": "2026-1261343",
    "request_type": "Trash/Recycling",
    "request_reason": "Order Second Trash Cart",
    "date_created": "2026-02-27T13:45:54.000",
    "date_modified": "2026-02-27T13:45:56.000",
    "request_status": "Pending",
    "responsible_agency": "Department of Sanitation",
    "final_address": "1431 Eighth St",
    "address_councildis": "B",
    "status": "Assigned to Contractor",
    "contractor": "IV Waste",
    "rowid": "1261343",
    "final_x": "3675425.72341",
    "final_y": "521313.629753",
    "longitude": "-90.08760109846435",
    "latitude": "29.927614552597586",
    "geocoded_column": {
      "latitude": "29.927614552597586",
      "longitude": "-90.08760109846435"
    }
  },
  {
    "service_request": "2026-1261342",
    "request_type": "Trash/Recycling",
    "request_reason": "Request a Large Item Pick Up",
    "date_created": "2026-02-27T13:45:19.000",
    "date_modified": "2026-02-27T13:45:20.000",
    "request_status": "Pending",
    "responsible_agency": "Department of Sanitation",
    "final_address": "4602 Baccich St",
    "address_councildis": "D",
    "status": "Assigned to Contractor",
    "contractor": "IV Waste",
    "rowid": "1261342",
    "final_x": "3687735.04431",
    "final_y": "549773.681876",
    "longitude": "-90.04773566311015",
    "latitude": "30.005496058167797",
    "geocoded_column": {
      "latitude": "30.005496058167797",
      "longitude": "-90.04773566311015"
    }
  },
  {
    "service_request": "2026-1261341",
    "request_type": "Trash/Recycling",
    "request_reason": "Illegal Dumping",
    "date_created": "2026-02-27T13:45:17.000",
    "date_modified": "2026-02-27T13:45:19.000",
    "request_status": "Pending",
    "responsible_agency": "Department of Sanitation",
    "final_address": "1616 Philip St",
    "address_councildis": "B",
    "status": "Pending",
    "rowid": "1261341",
    "final_x": "3677014.04546",
    "final_y": "523484.195451",
    "longitude": "-90.08251234971773",
    "latitude": "29.93353532394311",
    "geocoded_column": {
      "latitude": "29.93353532394311",
      "longitude": "-90.08251234971773"
    }
  },
  {
    "service_request": "2026-1261340",
    "request_type": "Trash/Recycling",
    "request_reason": "Order Trash Cart",
    "date_created": "2026-02-27T13:44:40.000",
    "date_modified": "2026-02-27T13:44:42.000",
    "request_status": "Pending",
    "responsible_agency": "Department of Sanitation",
    "final_address": "1431 Eighth St",
    "address_councildis": "B",
    "status": "Assigned to Contractor",
    "contractor": "IV Waste",
    "rowid": "1261340",
    "final_x": "3675425.72341",
    "final_y": "521313.629753",
    "longitude": "-90.08760109846435",
    "latitude": "29.927614552597586",
    "geocoded_column": {
      "latitude": "29.927614552597586",
      "longitude": "-90.08760109846435"
    }
  },
  {
    "service_request": "2026-1261339",
    "request_type": "Trash/Recycling",
    "request_reason": "Request a Large Item Pick Up",
    "date_created": "2026-02-27T13:43:09.000",
    "date_modified": "2026-02-27T13:43:11.000",
    "request_status": "Pending",
    "responsible_agency": "Department of Sanitation",
    "final_address": "7801 Branch Dr",
    "address_councildis": "E",
    "status": "Assigned to Contractor",
    "contractor": "Waste Pro",
    "rowid": "1261339",
    "final_x": "3714364.85938",
    "final_y": "569256.51959",
    "longitude": "-89.96287091635176",
    "latitude": "30.0582176686775",
    "geocoded_column": {
      "latitude": "30.0582176686775",
      "longitude": "-89.96287091635176"
    }
  },
  {
    "service_request": "2026-1261338",
    "request_type": "Trash/Recycling",
    "request_reason": "Repair Trash Cart",
    "date_created": "2026-02-27T13:39:56.000",
    "date_modified": "2026-02-27T14:53:35.000",
    "request_status": "Pending",
    "responsible_agency": "Department of Sanitation",
    "final_address": "2122 N Robertson St",
    "address_councildis": "C",
    "status": "Assigned to Contractor",
    "contractor": "IV Waste",
    "rowid": "1261338",
    "final_x": "3684652.69397",
    "final_y": "537726.68628",
    "longitude": "-90.0578971152203",
    "latitude": "29.97246582884523",
    "geocoded_column": {
      "latitude": "29.97246582884523",
      "longitude": "-90.0578971152203"
    }
  },
  {
    "service_request": "2026-1261337",
    "request_type": "Trash/Recycling",
    "request_reason": "Request a Large Item Pick Up",
    "date_created": "2026-02-27T13:39:55.000",
    "date_modified": "2026-02-27T13:40:57.000",
    "request_status": "Pending",
    "responsible_agency": "Department of Sanitation",
    "final_address": "8600 Lake Forest Blvd",
    "address_councildis": "E",
    "status": "Assigned to Contractor",
    "contractor": "Waste Pro",
    "rowid": "1261337",
    "final_x": "3706233.01867",
    "final_y": "557882.382491",
    "longitude": "-89.98899638685525",
    "latitude": "30.027208226926486",
    "geocoded_column": {
      "latitude": "30.027208226926486",
      "longitude": "-89.98899638685525"
    }
  },
  {
    "service_request": "2026-1261336",
    "request_type": "Healthy Homes",
    "request_reason": "Healthy Homes",
    "date_created": "2026-02-27T13:36:39.000",
    "date_modified": "2026-02-27T13:36:41.000",
    "request_status": "Pending",
    "responsible_agency": "Department of Code Enforcement",
    "final_address": "2923 Josephine St",
    "address_councildis": "B",
    "status": "Pending",
    "rowid": "1261336",
    "final_x": "3675037.70459",
    "final_y": "527735.192511",
    "longitude": "-90.08860577385836",
    "latitude": "29.945283346663828",
    "geocoded_column": {
      "latitude": "29.945283346663828",
      "longitude": "-90.08860577385836"
    }
  },
  {
    "service_request": "2026-1261335",
    "request_type": "Trash/Recycling",
    "request_reason": "Request a Large Item Pick Up",
    "date_created": "2026-02-27T13:35:26.000",
    "date_modified": "2026-02-27T13:35:28.000",
    "request_status": "Pending",
    "responsible_agency": "Department of Sanitation",
    "final_address": "7431 Dartmoor Dr",
    "address_councildis": "E",
    "status": "Assigned to Contractor",
    "contractor": "Waste Pro",
    "rowid": "1261335",
    "final_x": "3704973.47313",
    "final_y": "562159.900127",
    "longitude": "-89.99281827648744",
    "latitude": "30.03901029740254",
    "geocoded_column": {
      "latitude": "30.03901029740254",
      "longitude": "-89.99281827648744"
    }
  },
  {
    "service_request": "2026-1261334",
    "request_type": "Abandoned Vehicles",
    "request_reason": "Abandoned/Junk Vehicles",
    "date_created": "2026-02-27T13:33:04.000",
    "date_modified": "2026-02-27T13:33:05.000",
    "request_status": "Pending",
    "responsible_agency": "Department of Public Works",
    "final_address": "2109 N Miro St",
    "address_councildis": "D",
    "status": "Pending",
    "rowid": "1261334",
    "final_x": "3684008.27695",
    "final_y": "540331.751883",
    "longitude": "-90.05984085711358",
    "latitude": "29.97964855700347",
    "geocoded_column": {
      "latitude": "29.97964855700347",
      "longitude": "-90.05984085711358"
    }
  },
  {
    "service_request": "2026-1261333",
    "request_type": "Abandoned Vehicles",
    "request_reason": "Abandoned/Junk Vehicles",
    "date_created": "2026-02-27T13:32:55.000",
    "date_modified": "2026-02-27T13:32:56.000",
    "request_status": "Pending",
    "responsible_agency": "Department of Public Works",
    "final_address": "1526 Bodenger Blvd",
    "address_councildis": "C",
    "status": "Pending",
    "rowid": "1261333",
    "final_x": "3688561.02198",
    "final_y": "525894.725821",
    "longitude": "-90.04597378379307",
    "latitude": "29.93981182440794",
    "geocoded_column": {
      "latitude": "29.93981182440794",
      "longitude": "-90.04597378379307"
    }
  },
  {
    "service_request": "2026-1261332",
    "request_type": "Trash/Recycling",
    "request_reason": "Request a Large Item Pick Up",
    "date_created": "2026-02-27T13:32:15.000",
    "date_modified": "2026-02-27T13:32:16.000",
    "request_status": "Pending",
    "responsible_agency": "Department of Sanitation",
    "final_address": "5817 St Claude Ave",
    "address_councildis": "E",
    "status": "Assigned to Contractor",
    "contractor": "Waste Pro",
    "rowid": "1261332",
    "final_x": "3698804.8593",
    "final_y": "533684.134661",
    "longitude": "-90.0133494166915",
    "latitude": "29.960909523315223",
    "geocoded_column": {
      "latitude": "29.960909523315223",
      "longitude": "-90.0133494166915"
    }
  },
  {
    "service_request": "2026-1261331",
    "request_type": "Trash/Recycling",
    "request_reason": "Request a Large Item Pick Up",
    "date_created": "2026-02-27T13:32:10.000",
    "date_modified": "2026-02-27T13:51:18.000",
    "case_close_date": "2026-02-27T07:51:17.000",
    "request_status": "Closed",
    "responsible_agency": "Department of Sanitation",
    "final_address": "2505 Athis St",
    "address_councildis": "D",
    "status": "Invalid Request",
    "contractor": "IV Waste",
    "rowid": "1261331",
    "final_x": "3685819.59689",
    "final_y": "554438.13596",
    "longitude": "-90.05362239912705",
    "latitude": "30.018380553771816",
    "geocoded_column": {
      "latitude": "30.018380553771816",
      "longitude": "-90.05362239912705"
    }
  },
  {
    "service_request": "2026-1261330",
    "request_type": "Trash/Recycling",
    "request_reason": "Repair Trash Cart",
    "date_created": "2026-02-27T13:26:39.000",
    "date_modified": "2026-02-27T15:02:15.000",
    "request_status": "Pending",
    "responsible_agency": "Department of Sanitation",
    "final_address": "2113 Second St",
    "address_councildis": "B",
    "status": "Assigned to Contractor",
    "contractor": "IV Waste",
    "rowid": "1261330",
    "final_x": "3675666.53985",
    "final_y": "524661.793148",
    "longitude": "-90.08672591015727",
    "latitude": "29.936813710829952",
    "geocoded_column": {
      "latitude": "29.936813710829952",
      "longitude": "-90.08672591015727"
    }
  },
  {
    "service_request": "2026-1261329",
    "request_type": "Trash/Recycling",
    "request_reason": "Request a Large Item Pick Up",
    "date_created": "2026-02-27T13:24:28.000",
    "date_modified": "2026-02-27T13:24:30.000",
    "request_status": "Pending",
    "responsible_agency": "Department of Sanitation",
    "final_address": "7621 Burke Ave",
    "address_councildis": "E",
    "status": "Assigned to Contractor",
    "contractor": "Waste Pro",
    "rowid": "1261329",
    "final_x": "3705538.46564",
    "final_y": "562851.991584",
    "longitude": "-89.99100713151553",
    "latitude": "30.040895088768547",
    "geocoded_column": {
      "latitude": "30.040895088768547",
      "longitude": "-89.99100713151553"
    }
  },
  {
    "service_request": "2026-1261328",
    "request_type": "Trash/Recycling",
    "request_reason": "Order Second Trash Cart",
    "date_created": "2026-02-27T13:24:22.000",
    "date_modified": "2026-02-27T13:24:24.000",
    "request_status": "Pending",
    "responsible_agency": "Department of Sanitation",
    "final_address": "4700 Lonely Oak Dr",
    "address_councildis": "E",
    "status": "Assigned to Contractor",
    "contractor": "Waste Pro",
    "rowid": "1261328",
    "final_x": "3702314.44925",
    "final_y": "554041.050264",
    "longitude": "-90.00151971000429",
    "latitude": "30.01677186864229",
    "geocoded_column": {
      "latitude": "30.01677186864229",
      "longitude": "-90.00151971000429"
    }
  },
  {
    "service_request": "2026-1261327",
    "request_type": "Trash/Recycling",
    "request_reason": "Request a Large Item Pick Up",
    "date_created": "2026-02-27T13:22:50.000",
    "date_modified": "2026-02-27T13:22:54.000",
    "request_status": "Pending",
    "responsible_agency": "Department of Sanitation",
    "final_address": "10806 Curran Rd",
    "address_councildis": "E",
    "status": "Assigned to Contractor",
    "contractor": "Waste Pro",
    "rowid": "1261327",
    "final_x": "3709873.36248",
    "final_y": "565633.894562",
    "longitude": "-89.977203444661",
    "latitude": "30.04840386127021",
    "geocoded_column": {
      "latitude": "30.04840386127021",
      "longitude": "-89.977203444661"
    }
  },
  {
    "service_request": "2026-1261326",
    "request_type": "Trash/Recycling",
    "request_reason": "Request a Large Item Pick Up",
    "date_created": "2026-02-27T13:21:48.000",
    "date_modified": "2026-02-27T13:21:50.000",
    "request_status": "Pending",
    "responsible_agency": "Department of Sanitation",
    "final_address": "7730 Sandpiper Dr",
    "address_councildis": "E",
    "status": "Assigned to Contractor",
    "contractor": "Waste Pro",
    "rowid": "1261326",
    "final_x": "3715582.68792",
    "final_y": "570022.062886",
    "longitude": "-89.95899251102743",
    "latitude": "30.060282490431756",
    "geocoded_column": {
      "latitude": "30.060282490431756",
      "longitude": "-89.95899251102743"
    }
  },