[
  {
    "service_request": "2025-1173105",
    "request_type": "Traffic Signals",
    "request_reason": "Traffic Signal Malfunctioning or Damaged",
    "date_created": "2025-03-05T23:30:59.000",
    "date_modified": "2025-03-05T23:31:02.000",
    "request_status": "Pending",
    "responsible_agency": "Department of Public Works",
    "final_address": "2900 S Claiborne Ave",
    "address_councildis": "B",
    "status": "Pending",
    "rowid": "1173105",
    "final_x": "3672768.75572",
    "final_y": "526286.092734",
    "longitude": "-90.09581899130944",
    "latitude": "29.941366374248226",
    "geocoded_column": {
      "latitude": "29.941366374248226",
      "longitude": "-90.09581899130944"
    }
  },
  {
    "service_request": "2025-1173104",
    "request_type": "Property Maintenance",
    "request_reason": "Property Maintenance",
    "date_created": "2025-03-05T23:16:57.000",
    "date_modified": "2025-03-05T23:16:59.000",
    "request_status": "Pending",
    "responsible_agency": "Department of Code Enforcement",
    "final_address": "3434 Robert St",
    "address_councildis": "B",
    "status": "Pending",
    "rowid": "1173104",
    "final_x": "3668892.3115",
    "final_y": "527584.359039",
    "longitude": "-90.10801387920444",
    "latitude": "29.94505073382072",
    "geocoded_column": {
      "latitude": "29.94505073382072",
      "longitude": "-90.10801387920444"
    }
  },
  {
    "service_request": "2025-1173103",
    "request_type": "Streetlights",
    "request_reason": "Streetlight Outage/Malfunction",
    "date_created": "2025-03-05T23:14:04.000",
    "date_modified": "2025-03-05T23:14:06.000",
    "request_status": "Pending",
    "responsible_agency": "Department of Public Works",
    "final_address": "4735 Perelli Dr",
    "address_councildis": "E",
    "status": "Pending",
    "contractor": "Legacy Professional Services",
    "rowid": "1173103",
    "final_x": "3711793.73963",
    "final_y": "556048.030809",
    "longitude": "-89.97149407633738",
    "latitude": "30.02198392398787",
    "geocoded_column": {
      "latitude": "30.02198392398787",
      "longitude": "-89.97149407633738"
    }
  },
  {
    "service_request": "2025-1173102",
    "request_type": "Streetlights",
    "request_reason": "Streetlight Outage/Malfunction",
    "date_created": "2025-03-05T23:11:48.000",
    "date_modified": "2025-03-05T23:11:49.000",
    "request_status": "Pending",
    "responsible_agency": "Department of Public Works",
    "final_address": "4735 Perelli Dr",
    "address_councildis": "E",
    "status": "Pending",
    "contractor": "Legacy Professional Services",
    "rowid": "1173102",
    "final_x": "3711793.73963",
    "final_y": "556048.030809",
    "longitude": "-89.97149407633738",
    "latitude": "30.02198392398787",
    "geocoded_column": {
      "latitude": "30.02198392398787",
      "longitude": "-89.97149407633738"
    }
  },
  {
    "service_request": "2025-1173101",
    "request_type": "Trash/Recycling",
    "request_reason": "MIssed Recycling Pick-Up",
    "date_created": "2025-03-05T23:08:49.000",
    "date_modified": "2025-03-05T23:08:55.000",
    "request_status": "Pending",
    "responsible_agency": "Department of Sanitation",
    "final_address": "11200 Chef Menteur Hwy",
    "address_councildis": "E",
    "status": "Assigned to Contractor",
    "contractor": "Waste Pro",
    "rowid": "1173101",
    "final_x": "3716501.04197",
    "final_y": "555743.655193",
    "longitude": "-89.95663193198165",
    "latitude": "30.020992339521815",
    "geocoded_column": {
      "latitude": "30.020992339521815",
      "longitude": "-89.95663193198165"
    }
  },
  {
    "service_request": "2025-1173100",
    "request_type": "Trash/Recycling",
    "request_reason": "Missed Trash Pick-Up",
    "date_created": "2025-03-05T23:07:33.000",
    "date_modified": "2025-03-05T23:07:36.000",
    "request_status": "Pending",
    "responsible_agency": "Department of Sanitation",
    "final_address": "11200 Chef Menteur Hwy",
    "address_councildis": "E",
    "status": "Assigned to Contractor",
    "contractor": "Waste Pro",
    "rowid": "1173100",
    "final_x": "3716501.04197",
    "final_y": "555743.655193",
    "longitude": "-89.95663193198165",
    "latitude": "30.020992339521815",
    "geocoded_column": {
      "latitude": "30.020992339521815",
      "longitude": "-89.95663193198165"
    }
  },
  {
    "service_request": "2025-1173099",
    "request_type": "Roads and Streets",
    "request_reason": "Sidewalk Damaged or Missing",
    "date_created": "2025-03-05T22:50:49.000",
    "date_modified": "2025-03-05T22:50:51.000",
    "request_status": "Pending",
    "responsible_agency": "Department of Public Works",
    "final_address": "3412 Robert St",
    "address_councildis": "B",
    "status": "Pending",
    "rowid": "1173099",
    "final_x": "3668898.84129",
    "final_y": "527410.585791",
    "longitude": "-90.10799912977353",
    "latitude": "29.94457272180244",
    "geocoded_column": {
      "latitude": "29.94457272180244",
      "longitude": "-90.10799912977353"
    }
  },
  {
    "service_request": "2025-1173098",
    "request_type": "Drainage",
    "request_reason": "Catch Basin Clogged",
    "date_created": "2025-03-05T22:34:54.000",
    "date_modified": "2025-03-05T22:34:56.000",
    "request_status": "Pending",
    "responsible_agency": "Sewerage & Water Board ",
    "final_address": "2200 Lake Oaks Prkwy",
    "address_councildis": "D",
    "status": "Pending",
    "rowid": "1173098",
    "final_x": "3683675.50517",
    "final_y": "558247.895196",
    "longitude": "-90.06026318811962",
    "latitude": "30.028921654070242",
    "geocoded_column": {
      "latitude": "30.028921654070242",
      "longitude": "-90.06026318811962"
    }
  },
  {
    "service_request": "2025-1173097",
    "request_type": "Trash/Recycling",
    "request_reason": "Repair Trash Cart",
    "date_created": "2025-03-05T21:40:04.000",
    "date_modified": "2025-03-05T21:40:06.000",
    "request_status": "Pending",
    "responsible_agency": "Department of Sanitation",
    "final_address": "PERDIDO ST & BARONNE ST",
    "address_councildis": "B",
    "status": "Assigned to Contractor",
    "contractor": "IV Waste",
    "rowid": "1173097",
    "final_x": "3680016.4",
    "final_y": "529889.68",
    "longitude": "-90.0728116269376",
    "latitude": "29.951057814479867",
    "geocoded_column": {
      "latitude": "29.951057814479867",
      "longitude": "-90.0728116269376"
    }
  },
  {
    "service_request": "2025-1173096",
    "request_type": "Healthy Homes",
    "request_reason": "Healthy Homes",
    "date_created": "2025-03-05T21:31:13.000",
    "date_modified": "2025-03-05T21:31:16.000",
    "request_status": "Pending",
    "responsible_agency": "Department of Code Enforcement",
    "final_address": "3011 Iberville St",
    "address_councildis": "B",
    "status": "Pending",
    "rowid": "1173096",
    "final_x": "3674538.10798",
    "final_y": "536311.754247",
    "longitude": "-90.0898893054128",
    "latitude": "29.96888094073041",
    "geocoded_column": {
      "latitude": "29.96888094073041",
      "longitude": "-90.0898893054128"
    }
  },
  {
    "service_request": "2025-1173095",
    "request_type": "Drainage",
    "request_reason": "Street Flooding",
    "date_created": "2025-03-05T21:26:12.000",
    "date_modified": "2025-03-05T21:26:14.000",
    "request_status": "Pending",
    "responsible_agency": "Sewerage & Water Board ",
    "final_address": "7701 Spruce St",
    "address_councildis": "A",
    "status": "Pending",
    "rowid": "1173095",
    "final_x": "3664950.65728",
    "final_y": "529500.839169",
    "longitude": "-90.1203949013737",
    "latitude": "29.95043574757613",
    "geocoded_column": {
      "latitude": "29.95043574757613",
      "longitude": "-90.1203949013737"
    }
  },
  {
    "service_request": "2025-1173094",
    "request_type": "Property Maintenance",
    "request_reason": "Property Maintenance",
    "date_created": "2025-03-05T21:05:04.000",
    "date_modified": "2025-03-05T21:05:06.000",
    "request_status": "Pending",
    "responsible_agency": "Department of Code Enforcement",
    "final_address": "4010 S Post Oak Ave",
    "address_councildis": "C",
    "status": "Pending",
    "rowid": "1173094",
    "final_x": "3704679.9009",
    "final_y": "513354.410482",
    "longitude": "-89.9955468035637",
    "latitude": "29.904822508141656",
    "geocoded_column": {
      "latitude": "29.904822508141656",
      "longitude": "-89.9955468035637"
    }
  },
  {
    "service_request": "2025-1173093",
    "request_type": "Traffic Safety",
    "request_reason": "Request for Traffic Calming due to Speeding",
    "date_created": "2025-03-05T20:15:12.000",
    "date_modified": "2025-03-05T20:15:14.000",
    "request_status": "Pending",
    "responsible_agency": "Department of Public Works",
    "final_address": "2109 Annunciation St",
    "address_councildis": "B",
    "status": "Pending",
    "rowid": "1173093",
    "final_x": "3679741.74901",
    "final_y": "521421.849657",
    "longitude": "-90.07397269778964",
    "latitude": "29.927782393779506",
    "geocoded_column": {
      "latitude": "29.927782393779506",
      "longitude": "-90.07397269778964"
    }
  },
  {
    "service_request": "2025-1173092",
    "request_type": "General Services",
    "request_reason": "General Service Request",
    "date_created": "2025-03-05T20:10:11.000",
    "date_modified": "2025-03-05T20:10:14.000",
    "request_status": "Pending",
    "responsible_agency": "Orleans Parish Communication District",
    "final_address": "3000 BLK Esplanade Ave",
    "address_councildis": "A",
    "status": "Pending",
    "rowid": "1173092",
    "final_x": "3676704.75384",
    "final_y": "540087.775583",
    "longitude": "-90.08291676260055",
    "latitude": "29.97919887882679",
    "geocoded_column": {
      "latitude": "29.97919887882679",
      "longitude": "-90.08291676260055"
    }
  },
  {
    "service_request": "2025-1173091",
    "request_type": "General Services",
    "request_reason": "General Service Request",
    "date_created": "2025-03-05T19:59:33.000",
    "date_modified": "2025-03-05T19:59:35.000",
    "request_status": "Pending",
    "responsible_agency": "Orleans Parish Communication District",
    "final_address": "3443 Esplanade Ave",
    "address_councildis": "A",
    "status": "Pending",
    "rowid": "1173091",
    "final_x": "3674984.858",
    "final_y": "541532.608716",
    "longitude": "-90.08829928752895",
    "latitude": "29.98322316835311",
    "geocoded_column": {
      "latitude": "29.98322316835311",
      "longitude": "-90.08829928752895"
    }
  },
  {
    "service_request": "2025-1173090",
    "request_type": "Healthy Homes",
    "request_reason": "Healthy Homes",
    "date_created": "2025-03-05T19:57:27.000",
    "date_modified": "2025-03-05T19:57:28.000",
    "request_status": "Pending",
    "responsible_agency": "Department of Code Enforcement",
    "final_address": "3443 Esplanade Ave",
    "address_councildis": "A",
    "status": "Pending",
    "rowid": "1173090",
    "final_x": "3674984.858",
    "final_y": "541532.608716",
    "longitude": "-90.08829928752895",
    "latitude": "29.98322316835311",
    "geocoded_column": {
      "latitude": "29.98322316835311",
      "longitude": "-90.08829928752895"
    }
  },
  {
    "service_request": "2025-1173089",
    "request_type": "Healthy Homes",
    "request_reason": "Healthy Homes",
    "date_created": "2025-03-05T19:47:42.000",
    "date_modified": "2025-03-05T19:47:44.000",
    "request_status": "Pending",
    "responsible_agency": "Department of Code Enforcement",
    "final_address": "3443 Esplanade Ave",
    "address_councildis": "A",
    "status": "Pending",
    "rowid": "1173089",
    "final_x": "3674984.858",
    "final_y": "541532.608716",
    "longitude": "-90.08829928752895",
    "latitude": "29.98322316835311",
    "geocoded_column": {
      "latitude": "29.98322316835311",
      "longitude": "-90.08829928752895"
    }
  },
  {
    "service_request": "2025-1173088",
    "request_type": "Healthy Homes",
    "request_reason": "Healthy Homes",
    "date_created": "2025-03-05T19:44:45.000",
    "date_modified": "2025-03-05T19:44:47.000",
    "request_status": "Pending",
    "responsible_agency": "Department of Code Enforcement",
    "final_address": "3443 Esplanade Ave",
    "address_councildis": "A",
    "status": "Pending",
    "rowid": "1173088",
    "final_x": "3674984.858",
    "final_y": "541532.608716",
    "longitude": "-90.08829928752895",
    "latitude": "29.98322316835311",
    "geocoded_column": {
      "latitude": "29.98322316835311",
      "longitude": "-90.08829928752895"
    }
  },
  {
    "service_request": "2025-1173087",
    "request_type": "Roads and Streets",
    "request_reason": "Pothole",
    "date_created": "2025-03-05T19:43:45.000",
    "date_modified": "2025-03-05T19:46:08.000",
    "request_status": "Pending",
    "responsible_agency": "Department of Public Works",
    "final_address": "17 Newcomb Blvd",
    "address_councildis": "A",
    "status": "Inspected",
    "rowid": "1173087",
    "final_x": "3663771.05024",
    "final_y": "524977.729213",
    "longitude": "-90.1242702004067",
    "latitude": "29.938032925982707",
    "geocoded_column": {
      "latitude": "29.938032925982707",
      "longitude": "-90.1242702004067"
    }
  },
  {
    "service_request": "2025-1173086",
    "request_type": "Streetlights",
    "request_reason": "Streetlight Outage/Malfunction",
    "date_created": "2025-03-05T19:37:03.000",
    "date_modified": "2025-03-05T19:37:04.000",
    "request_status": "Pending",
    "responsible_agency": "Department of Public Works",
    "final_address": "1034 Frenchmen St",
    "address_councildis": "C",
    "status": "Pending",
    "contractor": "Legacy Professional Services",
    "rowid": "1173086",
    "final_x": "3684567.95215",
    "final_y": "536189.899591",
    "longitude": "-90.05821875453336",
    "latitude": "29.968242792776206",
    "geocoded_column": {
      "latitude": "29.968242792776206",
      "longitude": "-90.05821875453336"
    }
  },
  {
    "service_request": "2025-1173085",
    "request_type": "Trash/Recycling",
    "request_reason": "Replace Trash Cart",
    "date_created": "2025-03-05T19:32:50.000",
    "date_modified": "2025-03-05T19:32:53.000",
    "request_status": "Pending",
    "responsible_agency": "Department of Sanitation",
    "final_address": "8423 Zimple St",
    "address_councildis": "A",
    "status": "Assigned to Contractor",
    "contractor": "IV Waste",
    "rowid": "1173085",
    "final_x": "3660789.9895",
    "final_y": "529010.961344",
    "longitude": "-90.13354839344622",
    "latitude": "29.94920918840055",
    "geocoded_column": {
      "latitude": "29.94920918840055",
      "longitude": "-90.13354839344622"
    }
  },
  {
    "service_request": "2025-1173084",
    "request_type": "Trash/Recycling",
    "request_reason": "Order Recycling Cart",
    "date_created": "2025-03-05T18:57:20.000",
    "date_modified": "2025-03-05T18:57:22.000",
    "request_status": "Pending",
    "responsible_agency": "Department of Sanitation",
    "final_address": "804 Constantinople St",
    "address_councildis": "B",
    "status": "Pending",
    "rowid": "1173084",
    "final_x": "3672512.76321",
    "final_y": "518618.499511",
    "longitude": "-90.09688843348691",
    "latitude": "29.92029056506542",
    "geocoded_column": {
      "latitude": "29.92029056506542",
      "longitude": "-90.09688843348691"
    }
  },
  {
    "service_request": "2025-1173083",
    "request_type": "Streetlights",
    "request_reason": "Streetlight Outage/Malfunction",
    "date_created": "2025-03-05T18:52:12.000",
    "date_modified": "2025-03-05T18:52:13.000",
    "request_status": "Pending",
    "responsible_agency": "Department of Public Works",
    "final_address": "2516 Freret St",
    "address_councildis": "B",
    "status": "Pending",
    "contractor": "Legacy Professional Services",
    "rowid": "1173083",
    "final_x": "3674778.08814",
    "final_y": "525678.152253",
    "longitude": "-90.08949596819745",
    "latitude": "29.939634913966724",
    "geocoded_column": {
      "latitude": "29.939634913966724",
      "longitude": "-90.08949596819745"
    }
  },
  {
    "service_request": "2025-1173082",
    "request_type": "General Services",
    "request_reason": "General Service Request",
    "date_created": "2025-03-05T18:36:22.000",
    "date_modified": "2025-03-05T18:36:23.000",
    "request_status": "Pending",
    "responsible_agency": "Orleans Parish Communication District",
    "final_address": "5433 Durham Dr",
    "address_councildis": "C",
    "status": "Pending",
    "rowid": "1173082",
    "final_x": "3704181.79204",
    "final_y": "518804.897463",
    "longitude": "-89.99691821255264",
    "latitude": "29.919825460071372",
    "geocoded_column": {
      "latitude": "29.919825460071372",
      "longitude": "-89.99691821255264"
    }
  },
  {
    "service_request": "2025-1173078",
    "request_type": "Trash/Recycling",
    "request_reason": "Replace Trash Cart",
    "date_created": "2025-03-05T18:08:56.000",
    "date_modified": "2025-03-05T18:08:58.000",
    "request_status": "Pending",
    "responsible_agency": "Department of Sanitation",
    "final_address": "4216 S Derbigny St",
    "address_councildis": "B",
    "status": "Assigned to Contractor",
    "contractor": "IV Waste",
    "rowid": "1173078",
    "final_x": "3670873.99041",
    "final_y": "526246.806782",
    "longitude": "-90.10180247890183",
    "latitude": "29.94131448272866",
    "geocoded_column": {
      "latitude": "29.94131448272866",
      "longitude": "-90.10180247890183"
    }
  },
  {
    "service_request": "2025-1173077",
    "request_type": "Drainage",
    "request_reason": "Drainage Manhole Cover Missing or Damaged",
    "date_created": "2025-03-05T17:56:02.000",
    "date_modified": "2025-03-05T17:56:04.000",
    "request_status": "Pending",
    "responsible_agency": "Sewerage & Water Board ",
    "final_address": "1518 Kerlerec St",
    "address_councildis": "C",
    "status": "Pending",
    "rowid": "1173077",
    "final_x": "3681653.97576",
    "final_y": "536727.351687",
    "longitude": "-90.06740245943207",
    "latitude": "29.96980944315269",
    "geocoded_column": {
      "latitude": "29.96980944315269",
      "longitude": "-90.06740245943207"
    }
  },
  {
    "service_request": "2025-1173076",
    "request_type": "Trash/Recycling",
    "request_reason": "Replace Trash Cart",
    "date_created": "2025-03-05T17:54:17.000",
    "date_modified": "2025-03-05T17:54:19.000",
    "request_status": "Pending",
    "responsible_agency": "Department of Sanitation",
    "final_address": "3309 Dumaine St",
    "address_councildis": "A",
    "status": "Assigned to Contractor",
    "contractor": "IV Waste",
    "rowid": "1173076",
    "final_x": "3675075.20251",
    "final_y": "539170.594122",
    "longitude": "-90.08809500884249",
    "latitude": "29.976725739768554",
    "geocoded_column": {
      "latitude": "29.976725739768554",
      "longitude": "-90.08809500884249"
    }
  },
  {
    "service_request": "2025-1173075",
    "request_type": "Roads and Streets",
    "request_reason": "Debris in Driving Lanes",
    "date_created": "2025-03-05T17:53:53.000",
    "date_modified": "2025-03-05T17:53:56.000",
    "request_status": "Pending",
    "responsible_agency": "Department of Public Works",
    "final_address": "1017 Orleans Ave",
    "address_councildis": "C",
    "status": "Pending",
    "rowid": "1173075",
    "final_x": "3681691.77596",
    "final_y": "533365.816068",
    "longitude": "-90.0674003697587",
    "latitude": "29.96056522483962",
    "geocoded_column": {
      "latitude": "29.96056522483962",
      "longitude": "-90.0674003697587"
    }
  },
  {
    "service_request": "2025-1173074",
    "request_type": "Trash/Recycling",
    "request_reason": "Request a Large Item Pick Up",
    "date_created": "2025-03-05T17:45:34.000",
    "date_modified": "2025-03-05T17:45:35.000",
    "request_status": "Pending",
    "responsible_agency": "Department of Sanitation",
    "final_address": "4700 Lurline St",
    "address_councildis": "E",
    "status": "Assigned to Contractor",
    "contractor": "Waste Pro",
    "rowid": "1173074",
    "final_x": "3711927.63659",
    "final_y": "555815.727321",
    "longitude": "-89.97107972694417",
    "latitude": "30.021340804266707",
    "geocoded_column": {
      "latitude": "30.021340804266707",
      "longitude": "-89.97107972694417"
    }
  },
  {
    "service_request": "2025-1173073",
    "request_type": "Trash/Recycling",
    "request_reason": "Replace Recycling Cart",
    "date_created": "2025-03-05T17:39:38.000",
    "date_modified": "2025-03-05T17:39:40.000",
    "request_status": "Pending",
    "responsible_agency": "Department of Sanitation",
    "final_address": "5001 Debore Cir",
    "address_councildis": "D",
    "status": "Pending",
    "rowid": "1173073",
    "final_x": "3692355.38243",
    "final_y": "552786.254998",
    "longitude": "-90.03303104153207",
    "latitude": "30.013636171810628",
    "geocoded_column": {
      "latitude": "30.013636171810628",
      "longitude": "-90.03303104153207"
    }
  },
  {
    "service_request": "2025-1173072",
    "request_type": "Roads and Streets",
    "request_reason": "Street Subsidence (Sinking)",
    "date_created": "2025-03-05T17:38:04.000",
    "date_modified": "2025-03-05T17:38:05.000",
    "request_status": "Pending",
    "responsible_agency": "Department of Public Works",
    "final_address": "5823 Perrier St",
    "address_councildis": "A",
    "status": "Pending",
    "rowid": "1173072",
    "final_x": "3665601.07367",
    "final_y": "520421.208184",
    "longitude": "-90.11864512991228",
    "latitude": "29.92545071542357",
    "geocoded_column": {
      "latitude": "29.92545071542357",
      "longitude": "-90.11864512991228"
    }
  },
  {
    "service_request": "2025-1173071",
    "request_type": "Streetlights",
    "request_reason": "Streetlight Outage/Malfunction",
    "date_created": "2025-03-05T17:37:38.000",
    "date_modified": "2025-03-05T17:37:39.000",
    "request_status": "Pending",
    "responsible_agency": "Department of Public Works",
    "final_address": "7263 Canal Blvd",
    "address_councildis": "D",
    "status": "Pending",
    "contractor": "Legacy Professional Services",
    "rowid": "1173071",
    "final_x": "3669371.82766",
    "final_y": "555282.053849",
    "longitude": "-90.10556286244523",
    "latitude": "30.021195863670865",
    "geocoded_column": {
      "latitude": "30.021195863670865",
      "longitude": "-90.10556286244523"
    }
  },
  {
    "service_request": "2025-1173070",
    "request_type": "Trash/Recycling",
    "request_reason": "Request a Large Item Pick Up",
    "date_created": "2025-03-05T17:34:40.000",
    "date_modified": "2025-03-05T17:34:42.000",
    "request_status": "Pending",
    "responsible_agency": "Department of Sanitation",
    "final_address": "1822 Mardi Gras Blvd",
    "address_councildis": "C",
    "status": "Assigned to Contractor",
    "contractor": "Richards Disposal",
    "rowid": "1173070",
    "final_x": "3690882.64464",
    "final_y": "525345.174717",
    "longitude": "-90.03866371726961",
    "latitude": "29.93822882083951",
    "geocoded_column": {
      "latitude": "29.93822882083951",
      "longitude": "-90.03866371726961"
    }
  },
  {
    "service_request": "2025-1173069",
    "request_type": "Roads and Streets",
    "request_reason": "Street Subsidence (Sinking)",
    "date_created": "2025-03-05T17:30:30.000",
    "date_modified": "2025-03-05T17:30:33.000",
    "request_status": "Pending",
    "responsible_agency": "Department of Public Works",
    "final_address": "5823 Perrier St",
    "address_councildis": "A",
    "status": "Pending",
    "rowid": "1173069",
    "final_x": "3665601.07367",
    "final_y": "520421.208184",
    "longitude": "-90.11864512991228",
    "latitude": "29.92545071542357",
    "geocoded_column": {
      "latitude": "29.92545071542357",
      "longitude": "-90.11864512991228"
    }
  },
  {
    "service_request": "2025-1173068",
    "request_type": "Abandoned Vehicles",
    "request_reason": "Abandoned/Junk Vehicles",
    "date_created": "2025-03-05T17:29:09.000",
    "date_modified": "2025-03-05T17:29:11.000",
    "request_status": "Pending",
    "responsible_agency": "Department of Public Works",
    "final_address": "1527 Conery St",
    "address_councildis": "B",
    "status": "Pending",
    "rowid": "1173068",
    "final_x": "3675895.22792",
    "final_y": "522161.585274",
    "longitude": "-90.08608984811066",
    "latitude": "29.929932111488586",
    "geocoded_column": {
      "latitude": "29.929932111488586",
      "longitude": "-90.08608984811066"
    }
  },
  {
    "service_request": "2025-1173067",
    "request_type": "Abandoned Vehicles",
    "request_reason": "Abandoned/Junk Vehicles",
    "date_created": "2025-03-05T17:28:59.000",
    "date_modified": "2025-03-05T17:29:00.000",
    "request_status": "Pending",
    "responsible_agency": "Department of Public Works",
    "final_address": "1527 Conery St",
    "address_councildis": "B",
    "status": "Pending",
    "rowid": "1173067",
    "final_x": "3675895.22792",
    "final_y": "522161.585274",
    "longitude": "-90.08608984811066",
    "latitude": "29.929932111488586",
    "geocoded_column": {
      "latitude": "29.929932111488586",
      "longitude": "-90.08608984811066"
    }
  },
  {
    "service_request": "2025-1173066",
    "request_type": "Abandoned Vehicles",
    "request_reason": "Abandoned/Junk Vehicles",
    "date_created": "2025-03-05T17:28:48.000",
    "date_modified": "2025-03-05T17:28:49.000",
    "request_status": "Pending",
    "responsible_agency": "Department of Public Works",
    "final_address": "1527 Conery St",
    "address_councildis": "B",
    "status": "Pending",
    "rowid": "1173066",
    "final_x": "3675895.22792",
    "final_y": "522161.585274",
    "longitude": "-90.08608984811066",
    "latitude": "29.929932111488586",
    "geocoded_column": {
      "latitude": "29.929932111488586",
      "longitude": "-90.08608984811066"
    }
  },
  {
    "service_request": "2025-1173065",
    "request_type": "General Services",
    "request_reason": "General Service Request",
    "date_created": "2025-03-05T17:14:11.000",
    "date_modified": "2025-03-05T17:14:13.000",
    "request_status": "Pending",
    "responsible_agency": "Orleans Parish Communication District",
    "final_address": "1234 Fourth St",
    "address_councildis": "B",
    "status": "Pending",
    "rowid": "1173065",
    "final_x": "3676906.82491",
    "final_y": "521530.792633",
    "longitude": "-90.08291813532202",
    "latitude": "29.928167321037034",
    "geocoded_column": {
      "latitude": "29.928167321037034",
      "longitude": "-90.08291813532202"
    }
  },
  {
    "service_request": "2025-1173064",
    "request_type": "Trash/Recycling",
    "request_reason": "Replace Trash Cart",
    "date_created": "2025-03-05T17:04:27.000",
    "date_modified": "2025-03-05T17:04:29.000",
    "request_status": "Pending",
    "responsible_agency": "Department of Sanitation",
    "final_address": "1916 Columbus St",
    "address_councildis": "D",
    "status": "Assigned to Contractor",
    "contractor": "IV Waste",
    "rowid": "1173064",
    "final_x": "3680734.04635",
    "final_y": "537902.214985",
    "longitude": "-90.07026678143782",
    "latitude": "29.973067826168744",
    "geocoded_column": {
      "latitude": "29.973067826168744",
      "longitude": "-90.07026678143782"
    }
  },
  {
    "service_request": "2025-1173063",
    "request_type": "Trash/Recycling",
    "request_reason": "Order Recycling Cart",
    "date_created": "2025-03-05T17:02:44.000",
    "date_modified": "2025-03-05T17:02:46.000",
    "request_status": "Pending",
    "responsible_agency": "Department of Sanitation",
    "final_address": "3125 N Robertson St",
    "address_councildis": "D",
    "status": "Pending",
    "rowid": "1173063",
    "final_x": "3689617.20303",
    "final_y": "537472.210824",
    "longitude": "-90.04222742279208",
    "latitude": "29.97161323119789",
    "geocoded_column": {
      "latitude": "29.97161323119789",
      "longitude": "-90.04222742279208"
    }
  },
  {
    "service_request": "2025-1173062",
    "request_type": "Roads and Streets",
    "request_reason": "Street Subsidence (Sinking)",
    "date_created": "2025-03-05T17:00:39.000",
    "date_modified": "2025-03-05T17:00:41.000",
    "request_status": "Pending",
    "responsible_agency": "Department of Public Works",
    "final_address": "137 20Th St",
    "address_councildis": "A",
    "status": "Pending",
    "rowid": "1173062",
    "final_x": "3665871.96135",
    "final_y": "549061.416275",
    "longitude": "-90.11683018088755",
    "latitude": "30.004193935145118",
    "geocoded_column": {
      "latitude": "30.004193935145118",
      "longitude": "-90.11683018088755"
    }
  },
  {
    "service_request": "2025-1173061",
    "request_type": "Traffic Signals",
    "request_reason": "Traffic Signal Malfunctioning or Damaged",
    "date_created": "2025-03-05T16:59:37.000",
    "date_modified": "2025-03-05T16:59:39.000",
    "request_status": "Pending",
    "responsible_agency": "Department of Public Works",
    "final_address": "LAFAYE ST & GENTILLY BLVD",
    "address_councildis": "D",
    "status": "Pending",
    "rowid": "1173061",
    "final_x": "3687572.54",
    "final_y": "548888.33",
    "longitude": "-90.04828041753437",
    "latitude": "30.003066674969364",
    "geocoded_column": {
      "latitude": "30.003066674969364",
      "longitude": "-90.04828041753437"
    }
  },
  {
    "service_request": "2025-1173060",
    "request_type": "Trash/Recycling",
    "request_reason": "Missed Trash Pick-Up",
    "date_created": "2025-03-05T16:56:48.000",
    "date_modified": "2025-03-05T16:56:50.000",
    "request_status": "Pending",
    "responsible_agency": "Department of Sanitation",
    "final_address": "6751 Catina St",
    "address_councildis": "A",
    "status": "Assigned to Contractor",
    "contractor": "IV Waste",
    "rowid": "1173060",
    "final_x": "3667101.57786",
    "final_y": "552653.834838",
    "longitude": "-90.11282469838044",
    "latitude": "30.014035880016497",
    "geocoded_column": {
      "latitude": "30.014035880016497",
      "longitude": "-90.11282469838044"
    }
  },
  {
    "service_request": "2025-1173059",
    "request_type": "Trash/Recycling",
    "request_reason": "Repair Recycling Cart",
    "date_created": "2025-03-05T16:52:12.000",
    "date_modified": "2025-03-05T16:52:14.000",
    "request_status": "Pending",
    "responsible_agency": "Department of Sanitation",
    "final_address": "1817 Marengo St",
    "address_councildis": "B",
    "status": "Pending",
    "rowid": "1173059",
    "final_x": "3671919.85275",
    "final_y": "521863.627834",
    "longitude": "-90.09864959943006",
    "latitude": "29.929231209134276",
    "geocoded_column": {
      "latitude": "29.929231209134276",
      "longitude": "-90.09864959943006"
    }
  },
  {
    "service_request": "2025-1173058",
    "request_type": "Trash/Recycling",
    "request_reason": "Request a Large Item Pick Up",
    "date_created": "2025-03-05T16:50:08.000",
    "date_modified": "2025-03-05T16:50:10.000",
    "request_status": "Pending",
    "responsible_agency": "Department of Sanitation",
    "final_address": "4638 Prytania St",
    "address_councildis": "B",
    "status": "Assigned to Contractor",
    "contractor": "IV Waste",
    "rowid": "1173058",
    "final_x": "3669897.04436",
    "final_y": "520166.205816",
    "longitude": "-90.10509267494132",
    "latitude": "29.924623618176202",
    "geocoded_column": {
      "latitude": "29.924623618176202",
      "longitude": "-90.10509267494132"
    }
  },
  {
    "service_request": "2025-1173057",
    "request_type": "Trash/Recycling",
    "request_reason": "Request a Large Item Pick Up",
    "date_created": "2025-03-05T16:49:45.000",
    "date_modified": "2025-03-05T16:49:47.000",
    "request_status": "Pending",
    "responsible_agency": "Department of Sanitation",
    "final_address": "2264 Lafreniere St",
    "address_councildis": "D",
    "status": "Assigned to Contractor",
    "contractor": "IV Waste",
    "rowid": "1173057",
    "final_x": "3684888.33986",
    "final_y": "545490.085648",
    "longitude": "-90.05687977536677",
    "latitude": "29.993805223338118",
    "geocoded_column": {
      "latitude": "29.993805223338118",
      "longitude": "-90.05687977536677"
    }
  },
  {
    "service_request": "2025-1173056",
    "request_type": "Trash/Recycling",
    "request_reason": "Request a Large Item Pick Up",
    "date_created": "2025-03-05T16:39:54.000",
    "date_modified": "2025-03-05T16:39:56.000",
    "request_status": "Pending",
    "responsible_agency": "Department of Sanitation",
    "final_address": "4605 Tulip St",
    "address_councildis": "E",
    "status": "Assigned to Contractor",
    "contractor": "Waste Pro",
    "rowid": "1173056",
    "final_x": "3702237.26884",
    "final_y": "553509.796503",
    "longitude": "-90.00178307172938",
    "latitude": "30.015313589939748",
    "geocoded_column": {
      "latitude": "30.015313589939748",
      "longitude": "-90.00178307172938"
    }
  },
  {
    "service_request": "2025-1173055",
    "request_type": "Trash/Recycling",
    "request_reason": "Request a Large Item Pick Up",
    "date_created": "2025-03-05T16:39:08.000",
    "date_modified": "2025-03-05T16:39:10.000",
    "request_status": "Pending",
    "responsible_agency": "Department of Sanitation",
    "final_address": "2642 Mercedes Blvd",
    "address_councildis": "C",
    "status": "Assigned to Contractor",
    "contractor": "Richards Disposal",
    "rowid": "1173055",
    "final_x": "3698084.51299",
    "final_y": "521370.394681",
    "longitude": "-90.0160711374577",
    "latitude": "29.927073832685206",
    "geocoded_column": {
      "latitude": "29.927073832685206",
      "longitude": "-90.0160711374577"
    }
  },
  {
    "service_request": "2025-1173054",
    "request_type": "Trash/Recycling",
    "request_reason": "Request a Large Item Pick Up",
    "date_created": "2025-03-05T16:38:29.000",
    "date_modified": "2025-03-05T16:38:30.000",
    "request_status": "Pending",
    "responsible_agency": "Department of Sanitation",
    "final_address": "5427 St Claude Ave",
    "address_councildis": "E",
    "status": "Assigned to Contractor",
    "contractor": "Waste Pro",
    "rowid": "1173054",
    "final_x": "3697453.07427",
    "final_y": "534017.915973",
    "longitude": "-90.01760597160691",
    "latitude": "29.96187005259772",
    "geocoded_column": {
      "latitude": "29.96187005259772",
      "longitude": "-90.01760597160691"
    }
  },
  {
    "service_request": "2025-1173053",
    "request_type": "Trash/Recycling",
    "request_reason": "Request a Large Item Pick Up",
    "date_created": "2025-03-05T16:37:42.000",
    "date_modified": "2025-03-05T16:37:44.000",
    "request_status": "Pending",
    "responsible_agency": "Department of Sanitation",
    "final_address": "1801 Rivertree Ct",
    "address_councildis": "C",
    "status": "Assigned to Contractor",
    "contractor": "Richards Disposal",
    "rowid": "1173053",
    "final_x": "3701382.58135",
    "final_y": "524170.108988",
    "longitude": "-90.00555764984756",
    "latitude": "29.934667410913914",
    "geocoded_column": {
      "latitude": "29.934667410913914",
      "longitude": "-90.00555764984756"
    }
  },
  {
    "service_request": "2025-1173052",
    "request_type": "Utility Poles",
    "request_reason": "Wires Sagging/Hanging Low",
    "date_created": "2025-03-05T16:33:31.000",
    "date_modified": "2025-03-05T16:33:35.000",
    "request_status": "Pending",
    "responsible_agency": "Utility Company Collective",
    "final_address": "4501 Press Dr",
    "address_councildis": "D",
    "status": "Pending",
    "rowid": "1173052",
    "final_x": "3689935.03292",
    "final_y": "549944.906132",
    "longitude": "-90.04077932993188",
    "latitude": "30.0058988087592",
    "geocoded_column": {
      "latitude": "30.0058988087592",
      "longitude": "-90.04077932993188"
    }
  },
  {
    "service_request": "2025-1173051",
    "request_type": "Drainage",
    "request_reason": "Catch Basin Clogged",
    "date_created": "2025-03-05T16:26:35.000",
    "date_modified": "2025-03-05T16:26:38.000",
    "request_status": "Pending",
    "responsible_agency": "Sewerage & Water Board ",
    "final_address": "1832 First St",
    "address_councildis": "B",
    "status": "Pending",
    "rowid": "1173051",
    "final_x": "3676371.2116",
    "final_y": "524018.100988",
    "longitude": "-90.08452337294676",
    "latitude": "29.935022669251456",
    "geocoded_column": {
      "latitude": "29.935022669251456",
      "longitude": "-90.08452337294676"
    }
  },
  {
    "service_request": "2025-1173050",
    "request_type": "Drainage",
    "request_reason": "Catch Basin Clogged",
    "date_created": "2025-03-05T16:22:59.000",
    "date_modified": "2025-03-05T16:23:01.000",
    "request_status": "Pending",
    "responsible_agency": "Sewerage & Water Board ",
    "final_address": "2501 Canal St",
    "address_councildis": "B",
    "status": "Pending",
    "rowid": "1173050",
    "final_x": "3676175.34504",
    "final_y": "534617.53479",
    "longitude": "-90.08477710289905",
    "latitude": "29.96417345672949",
    "geocoded_column": {
      "latitude": "29.96417345672949",
      "longitude": "-90.08477710289905"
    }
  },
  {
    "service_request": "2025-1173049",
    "request_type": "Trash/Recycling",
    "request_reason": "Repair Trash Cart",
    "date_created": "2025-03-05T16:20:26.000",
    "date_modified": "2025-03-05T16:20:29.000",
    "request_status": "Pending",
    "responsible_agency": "Department of Sanitation",
    "final_address": "639 Dauphine St",
    "address_councildis": "C",
    "status": "Assigned to Contractor",
    "contractor": "IV Waste",
    "rowid": "1173049",
    "final_x": "3681899.81807",
    "final_y": "532849.992388",
    "longitude": "-90.06676141978782",
    "latitude": "29.95914056402718",
    "geocoded_column": {
      "latitude": "29.95914056402718",
      "longitude": "-90.06676141978782"
    }
  },
  {
    "service_request": "2025-1173048",
    "request_type": "Trash/Recycling",
    "request_reason": "Repair Recycling Cart",
    "date_created": "2025-03-05T16:20:07.000",
    "date_modified": "2025-03-05T16:20:09.000",
    "request_status": "Pending",
    "responsible_agency": "Department of Sanitation",
    "final_address": "1424 Arabella St",
    "address_councildis": "A",
    "status": "Pending",
    "rowid": "1173048",
    "final_x": "3666262.52308",
    "final_y": "521122.607737",
    "longitude": "-90.11653361927125",
    "latitude": "29.927360045598025",
    "geocoded_column": {
      "latitude": "29.927360045598025",
      "longitude": "-90.11653361927125"
    }
  },
  {
    "service_request": "2025-1173047",
    "request_type": "Abandoned Vehicles",
    "request_reason": "Abandoned/Junk Vehicles",
    "date_created": "2025-03-05T16:20:03.000",
    "date_modified": "2025-03-05T16:20:04.000",
    "request_status": "Pending",
    "responsible_agency": "Department of Public Works",
    "final_address": "1832 First St",
    "address_councildis": "B",
    "status": "Pending",
    "rowid": "1173047",
    "final_x": "3676371.2116",
    "final_y": "524018.100988",
    "longitude": "-90.08452337294676",
    "latitude": "29.935022669251456",
    "geocoded_column": {
      "latitude": "29.935022669251456",
      "longitude": "-90.08452337294676"
    }
  },
  {
    "service_request": "2025-1173046",
    "request_type": "Street and Traffic Signs",
    "request_reason": "Traffic or Parking Sign Damaged or Missing",
    "date_created": "2025-03-05T16:13:45.000",
    "date_modified": "2025-03-05T16:14:42.000",
    "request_status": "Pending",
    "responsible_agency": "Department of Public Works",
    "final_address": "ST CHARLES AVE & MELPOMENE ST & MELPOMENE AVE",
    "address_councildis": "B",
    "status": "Pending",
    "rowid": "1173046",
    "final_x": "3679231.74",
    "final_y": "525496.99",
    "longitude": "-90.07544145301802",
    "latitude": "29.939003092346205",
    "geocoded_column": {
      "latitude": "29.939003092346205",
      "longitude": "-90.07544145301802"
    }
  },
  {
    "service_request": "2025-1173045",
    "request_type": "Trash/Recycling",
    "request_reason": "Replace Trash Cart",
    "date_created": "2025-03-05T16:08:42.000",
    "date_modified": "2025-03-05T16:08:43.000",
    "request_status": "Pending",
    "responsible_agency": "Department of Sanitation",
    "final_address": "5316 Timber Crest Dr",
    "address_councildis": "C",
    "status": "Assigned to Contractor",
    "contractor": "Richards Disposal",
    "rowid": "1173045",
    "final_x": "3703809.85713",
    "final_y": "511212.80472",
    "longitude": "-89.99837141859136",
    "latitude": "29.898961720367492",
    "geocoded_column": {
      "latitude": "29.898961720367492",
      "longitude": "-89.99837141859136"
    }
  },
  {
    "service_request": "2025-1173044",
    "request_type": "Streetlights",
    "request_reason": "Streetlight Outage/Malfunction",
    "date_created": "2025-03-05T16:07:58.000",
    "date_modified": "2025-03-05T16:07:59.000",
    "request_status": "Pending",
    "responsible_agency": "Department of Public Works",
    "final_address": "4823 Montegut Dr",
    "address_councildis": "D",
    "status": "Pending",
    "contractor": "Legacy Professional Services",
    "rowid": "1173044",
    "final_x": "3689977.9704",
    "final_y": "550818.418965",
    "longitude": "-90.04061254702067",
    "latitude": "30.008299316472044",
    "geocoded_column": {
      "latitude": "30.008299316472044",
      "longitude": "-90.04061254702067"
    }
  },
  {
    "service_request": "2025-1173043",
    "request_type": "General Services",
    "request_reason": "General Service Request",
    "date_created": "2025-03-05T16:07:57.000",
    "date_modified": "2025-03-05T16:09:42.000",
    "case_close_date": "2025-03-05T10:09:42.000",
    "request_status": "Closed",
    "responsible_agency": "Orleans Parish Communication District",
    "final_address": "141 S Gayoso St",
    "address_councildis": "B",
    "status": "Referred to External Agency",
    "rowid": "1173043",
    "final_x": "3674074.36475",
    "final_y": "535587.261446",
    "longitude": "-90.09137863738373",
    "latitude": "29.966902659598105",
    "geocoded_column": {
      "latitude": "29.966902659598105",
      "longitude": "-90.09137863738373"
    }
  },
  {
    "service_request": "2025-1173042",
    "request_type": "Drainage",
    "request_reason": "Catch Basin Clogged",
    "date_created": "2025-03-05T16:07:33.000",
    "date_modified": "2025-03-05T16:07:34.000",
    "request_status": "Pending",
    "responsible_agency": "Sewerage & Water Board ",
    "final_address": "2317 Esplanade Ave",
    "address_councildis": "D",
    "status": "Pending",
    "rowid": "1173042",
    "final_x": "3679215.38811",
    "final_y": "538225.937865",
    "longitude": "-90.07505177473833",
    "latitude": "29.97400389520315",
    "geocoded_column": {
      "latitude": "29.97400389520315",
      "longitude": "-90.07505177473833"
    }
  },
  {
    "service_request": "2025-1173041",
    "request_type": "Trash/Recycling",
    "request_reason": "Request a Large Item Pick Up",
    "date_created": "2025-03-05T16:06:41.000",
    "date_modified": "2025-03-05T16:06:43.000",
    "request_status": "Pending",
    "responsible_agency": "Department of Sanitation",
    "final_address": "4791 Marque Dr",
    "address_councildis": "E",
    "status": "Assigned to Contractor",
    "contractor": "Waste Pro",
    "rowid": "1173041",
    "final_x": "3710073.4531",
    "final_y": "556087.940442",
    "longitude": "-89.97692819765145",
    "latitude": "30.022149765771655",
    "geocoded_column": {
      "latitude": "30.022149765771655",
      "longitude": "-89.97692819765145"
    }
  },
  {
    "service_request": "2025-1173040",
    "request_type": "Trash/Recycling",
    "request_reason": "Request a Large Item Pick Up",
    "date_created": "2025-03-05T15:56:30.000",
    "date_modified": "2025-03-05T15:56:31.000",
    "request_status": "Pending",
    "responsible_agency": "Department of Sanitation",
    "final_address": "7080 W Tamaron Blvd",
    "address_councildis": "E",
    "status": "Assigned to Contractor",
    "contractor": "Waste Pro",
    "rowid": "1173040",
    "final_x": "3718474.08479",
    "final_y": "568513.086053",
    "longitude": "-89.94991062602641",
    "latitude": "30.056037757575535",
    "geocoded_column": {
      "latitude": "30.056037757575535",
      "longitude": "-89.94991062602641"
    }
  },
  {
    "service_request": "2025-1173039",
    "request_type": "Trash/Recycling",
    "request_reason": "Request a Large Item Pick Up",
    "date_created": "2025-03-05T15:56:16.000",
    "date_modified": "2025-03-05T15:56:19.000",
    "request_status": "Pending",
    "responsible_agency": "Department of Sanitation",
    "final_address": "3710 Dumaine St",
    "address_councildis": "A",
    "status": "Assigned to Contractor",
    "contractor": "IV Waste",
    "rowid": "1173039",
    "final_x": "3673978.86824",
    "final_y": "539883.159754",
    "longitude": "-90.09153318995807",
    "latitude": "29.97871776674738",
    "geocoded_column": {
      "latitude": "29.97871776674738",
      "longitude": "-90.09153318995807"
    }
  },
  {
    "service_request": "2025-1173038",
    "request_type": "Abandoned Vehicles",
    "request_reason": "Abandoned/Junk Vehicles",
    "date_created": "2025-03-05T15:52:23.000",
    "date_modified": "2025-03-05T15:52:24.000",
    "request_status": "Pending",
    "responsible_agency": "Department of Public Works",
    "final_address": "3439 St Charles Ave",
    "address_councildis": "B",
    "status": "Pending",
    "rowid": "1173038",
    "final_x": "3673844.61032",
    "final_y": "521472.379001",
    "longitude": "-90.0925868714278",
    "latitude": "29.928098232701842",
    "geocoded_column": {
      "latitude": "29.928098232701842",
      "longitude": "-90.0925868714278"
    }
  },
  {
    "service_request": "2025-1173037",
    "request_type": "Roads and Streets",
    "request_reason": "Push-up/Pavement Expansion",
    "date_created": "2025-03-05T15:52:22.000",
    "date_modified": "2025-03-05T15:52:24.000",
    "request_status": "Pending",
    "responsible_agency": "Department of Public Works",
    "final_address": "1830 Seventh St",
    "address_councildis": "B",
    "status": "Pending",
    "rowid": "1173037",
    "final_x": "3674672.10945",
    "final_y": "522894.871675",
    "longitude": "-90.0899259122716",
    "latitude": "29.93198496269958",
    "geocoded_column": {
      "latitude": "29.93198496269958",
      "longitude": "-90.0899259122716"
    }
  },
  {
    "service_request": "2025-1173036",
    "request_type": "Trash/Recycling",
    "request_reason": "Order Recycling Cart",
    "date_created": "2025-03-05T15:49:49.000",
    "date_modified": "2025-03-05T15:49:51.000",
    "request_status": "Pending",
    "responsible_agency": "Department of Sanitation",
    "final_address": "116 Fairway Dr",
    "address_councildis": "A",
    "status": "Pending",
    "rowid": "1173036",
    "final_x": "3664074.61959",
    "final_y": "540411.618123",
    "longitude": "-90.1227970275437",
    "latitude": "29.98046227285741",
    "geocoded_column": {
      "latitude": "29.98046227285741",
      "longitude": "-90.1227970275437"
    }
  },
  {
    "service_request": "2025-1173035",
    "request_type": "Trash/Recycling",
    "request_reason": "Missed Trash Pick-Up",
    "date_created": "2025-03-05T15:45:42.000",
    "date_modified": "2025-03-05T16:19:04.000",
    "case_close_date": "2025-03-05T10:19:04.000",
    "request_status": "Closed",
    "responsible_agency": "Department of Sanitation",
    "final_address": "7200 Camberley Dr",
    "address_councildis": "E",
    "status": "Invalid Request",
    "contractor": "Waste Pro",
    "contractor_action": "Invalid Request",
    "rowid": "1173035",
    "final_x": "3713151.0181",
    "final_y": "564960.100194",
    "longitude": "-89.96686965125654",
    "latitude": "30.046444129922275",
    "geocoded_column": {
      "latitude": "30.046444129922275",
      "longitude": "-89.96686965125654"
    }
  },
  {
    "service_request": "2025-1173034",
    "request_type": "Safety & Permits",
    "request_reason": "Licenses & Permits",
    "date_created": "2025-03-05T15:41:33.000",
    "date_modified": "2025-03-05T15:41:34.000",
    "request_status": "Pending",
    "responsible_agency": "Safety and Permits",
    "final_address": "538 Leboeuf St",
    "address_councildis": "C",
    "status": "Pending",
    "rowid": "1173034",
    "final_x": "3689887.03472",
    "final_y": "529504.307649",
    "longitude": "-90.04165892127727",
    "latitude": "29.94969590890328",
    "geocoded_column": {
      "latitude": "29.94969590890328",
      "longitude": "-90.04165892127727"
    }
  },
  {
    "service_request": "2025-1173033",
    "request_type": "Trash/Recycling",
    "request_reason": "Request a Large Item Pick Up",
    "date_created": "2025-03-05T15:41:09.000",
    "date_modified": "2025-03-05T15:41:11.000",
    "request_status": "Pending",
    "responsible_agency": "Department of Sanitation",
    "final_address": "7910 Sheephead St",
    "address_councildis": "E",
    "status": "Assigned to Contractor",
    "contractor": "Waste Pro",
    "rowid": "1173033",
    "final_x": "3699266.87204",
    "final_y": "561128.836382",
    "longitude": "-90.01089025446718",
    "latitude": "30.03635760648067",
    "geocoded_column": {
      "latitude": "30.03635760648067",
      "longitude": "-90.01089025446718"
    }
  },
  {
    "service_request": "2025-1173032",
    "request_type": "Trash/Recycling",
    "request_reason": "Order Trash Cart",
    "date_created": "2025-03-05T15:39:35.000",
    "date_modified": "2025-03-05T15:39:37.000",
    "request_status": "Pending",
    "responsible_agency": "Department of Sanitation",
    "final_address": "1612 Charbonnet St",
    "address_councildis": "E",
    "status": "Assigned to Contractor",
    "contractor": "Waste Pro",
    "rowid": "1173032",
    "final_x": "3699127.0234",
    "final_y": "535624.512262",
    "longitude": "-90.01226144581712",
    "latitude": "29.966234659836957",
    "geocoded_column": {
      "latitude": "29.966234659836957",
      "longitude": "-90.01226144581712"
    }
  },
  {
    "service_request": "2025-1173031",
    "request_type": "Safety & Permits",
    "request_reason": "Zoning Enforcement",
    "date_created": "2025-03-05T15:37:32.000",
    "date_modified": "2025-03-05T15:37:34.000",
    "request_status": "Pending",
    "responsible_agency": "Safety and Permits",
    "final_address": "1943 N Rampart St",
    "address_councildis": "C",
    "status": "Pending",
    "rowid": "1173031",
    "final_x": "3684229.0758",
    "final_y": "535901.470151",
    "longitude": "-90.05929906686211",
    "latitude": "29.967460076499936",
    "geocoded_column": {
      "latitude": "29.967460076499936",
      "longitude": "-90.05929906686211"
    }
  },
  {
    "service_request": "2025-1173030",
    "request_type": "Trash/Recycling",
    "request_reason": "Replace Trash Cart",
    "date_created": "2025-03-05T15:37:08.000",
    "date_modified": "2025-03-05T15:37:10.000",
    "request_status": "Pending",
    "responsible_agency": "Department of Sanitation",
    "final_address": "1530 Washington Ave",
    "address_councildis": "B",
    "status": "Assigned to Contractor",
    "contractor": "IV Waste",
    "rowid": "1173030",
    "final_x": "3676010.01326",
    "final_y": "522297.475258",
    "longitude": "-90.08572281898638",
    "latitude": "29.930302328735703",
    "geocoded_column": {
      "latitude": "29.930302328735703",
      "longitude": "-90.08572281898638"
    }
  },
  {
    "service_request": "2025-1173029",
    "request_type": "Trash/Recycling",
    "request_reason": "Request a Large Item Pick Up",
    "date_created": "2025-03-05T15:31:32.000",
    "date_modified": "2025-03-05T15:31:35.000",
    "request_status": "Pending",
    "responsible_agency": "Department of Sanitation",
    "final_address": "10139 Hillwood St",
    "address_councildis": "E",
    "status": "Assigned to Contractor",
    "contractor": "Waste Pro",
    "rowid": "1173029",
    "final_x": "3713074.71845",
    "final_y": "556751.188442",
    "longitude": "-89.96742006799512",
    "latitude": "30.02387540625517",
    "geocoded_column": {
      "latitude": "30.02387540625517",
      "longitude": "-89.96742006799512"
    }
  },
  {
    "service_request": "2025-1173028",
    "request_type": "Abandoned Vehicles",
    "request_reason": "Abandoned/Junk Vehicles",
    "date_created": "2025-03-05T15:31:03.000",
    "date_modified": "2025-03-05T15:31:05.000",
    "request_status": "Pending",
    "responsible_agency": "Department of Public Works",
    "final_address": "2123 Humanity St",
    "address_councildis": "D",
    "status": "Pending",
    "rowid": "1173028",
    "final_x": "3683736.16604",
    "final_y": "544780.090383",
    "longitude": "-90.06054423001352",
    "latitude": "29.991888230662045",
    "geocoded_column": {
      "latitude": "29.991888230662045",
      "longitude": "-90.06054423001352"
    }
  },
  {
    "service_request": "2025-1173027",
    "request_type": "Abandoned Vehicles",
    "request_reason": "Abandoned/Junk Vehicles",
    "date_created": "2025-03-05T15:31:03.000",
    "date_modified": "2025-03-05T15:31:05.000",
    "request_status": "Pending",
    "responsible_agency": "Department of Public Works",
    "final_address": "2123 Humanity St",
    "address_councildis": "D",
    "status": "Pending",
    "rowid": "1173027",
    "final_x": "3683736.16604",
    "final_y": "544780.090383",
    "longitude": "-90.06054423001352",
    "latitude": "29.991888230662045",
    "geocoded_column": {
      "latitude": "29.991888230662045",
      "longitude": "-90.06054423001352"
    }
  },
  {
    "service_request": "2025-1173026",
    "request_type": "Trash/Recycling",
    "request_reason": "Illegal Dumping",
    "date_created": "2025-03-05T15:29:28.000",
    "date_modified": "2025-03-05T15:29:36.000",
    "request_status": "Pending",
    "responsible_agency": "Department of Sanitation",
    "final_address": "CHEF MENTEUR HWY & WILSON AVE",
    "address_councildis": "E",
    "status": "Pending",
    "rowid": "1173026",
    "final_x": "3703240.7",
    "final_y": "552478.68",
    "longitude": "-89.99865066841369",
    "latitude": "30.0124463124892",
    "geocoded_column": {
      "latitude": "30.0124463124892",
      "longitude": "-89.99865066841369"
    }
  },
  {
    "service_request": "2025-1173025",
    "request_type": "Trash/Recycling",
    "request_reason": "Request a Large Item Pick Up",
    "date_created": "2025-03-05T15:26:23.000",
    "date_modified": "2025-03-05T15:26:25.000",
    "request_status": "Pending",
    "responsible_agency": "Department of Sanitation",
    "final_address": "7766 Scottwood Dr",
    "address_councildis": "E",
    "status": "Assigned to Contractor",
    "contractor": "Waste Pro",
    "rowid": "1173025",
    "final_x": "3716673.27628",
    "final_y": "571425.706344",
    "longitude": "-89.95549189517958",
    "latitude": "30.064105914750094",
    "geocoded_column": {
      "latitude": "30.064105914750094",
      "longitude": "-89.95549189517958"
    }
  },
  {
    "service_request": "2025-1173024",
    "request_type": "Trash/Recycling",
    "request_reason": "Dead Animal Pick Up",
    "date_created": "2025-03-05T15:26:22.000",
    "date_modified": "2025-03-05T15:26:24.000",
    "request_status": "Pending",
    "responsible_agency": "Department of Sanitation",
    "final_address": "5415 Providence Pl",
    "address_councildis": "D",
    "status": "Assigned to Contractor",
    "contractor": "IV Waste",
    "rowid": "1173024",
    "final_x": "3688446.26332",
    "final_y": "553125.103191",
    "longitude": "-90.04536975887918",
    "latitude": "30.014689276024193",
    "geocoded_column": {
      "latitude": "30.014689276024193",
      "longitude": "-90.04536975887918"
    }
  },
  {
    "service_request": "2025-1173023",
    "request_type": "Trash/Recycling",
    "request_reason": "Replace Trash Cart",
    "date_created": "2025-03-05T15:25:26.000",
    "date_modified": "2025-03-05T15:25:28.000",
    "request_status": "Pending",
    "responsible_agency": "Department of Sanitation",
    "final_address": "5001 Debore Cir",
    "address_councildis": "D",
    "status": "Assigned to Contractor",
    "contractor": "IV Waste",
    "rowid": "1173023",
    "final_x": "3692355.38243",
    "final_y": "552786.254998",
    "longitude": "-90.03303104153207",
    "latitude": "30.013636171810628",
    "geocoded_column": {
      "latitude": "30.013636171810628",
      "longitude": "-90.03303104153207"
    }
  },
  {
    "service_request": "2025-1173022",
    "request_type": "Trash/Recycling",
    "request_reason": "Replace Recycling Cart",
    "date_created": "2025-03-05T15:24:48.000",
    "date_modified": "2025-03-05T15:24:49.000",
    "request_status": "Pending",
    "responsible_agency": "Department of Sanitation",
    "final_address": "1303 Cadiz Street",
    "address_councildis": "B",
    "status": "Pending",
    "rowid": "1173022",
    "final_x": "3670225.21754",
    "final_y": "520045.56716",
    "longitude": "-90.10406082534332",
    "latitude": "29.924282223573574",
    "geocoded_column": {
      "latitude": "29.924282223573574",
      "longitude": "-90.10406082534332"
    }
  },
  {
    "service_request": "2025-1173021",
    "request_type": "Trash/Recycling",
    "request_reason": "Request a Large Item Pick Up",
    "date_created": "2025-03-05T15:24:12.000",
    "date_modified": "2025-03-05T15:24:14.000",
    "request_status": "Pending",
    "responsible_agency": "Department of Sanitation",
    "final_address": "6422 Kuebel Dr",
    "address_councildis": "E",
    "status": "Assigned to Contractor",
    "contractor": "Waste Pro",
    "rowid": "1173021",
    "final_x": "3696511.54538",
    "final_y": "560169.059357",
    "longitude": "-90.01963236683345",
    "latitude": "30.033805739200485",
    "geocoded_column": {
      "latitude": "30.033805739200485",
      "longitude": "-90.01963236683345"
    }
  },
  {
    "service_request": "2025-1173020",
    "request_type": "Trash/Recycling",
    "request_reason": "Repair Trash Cart",
    "date_created": "2025-03-05T15:20:11.000",
    "date_modified": "2025-03-05T15:20:13.000",
    "request_status": "Pending",
    "responsible_agency": "Department of Sanitation",
    "final_address": "4307 Hollygrove St",
    "address_councildis": "A",
    "status": "Assigned to Contractor",
    "contractor": "IV Waste",
    "rowid": "1173020",
    "final_x": "3667096.59853",
    "final_y": "538668.567433",
    "longitude": "-90.11331090112054",
    "latitude": "29.97558133750255",
    "geocoded_column": {
      "latitude": "29.97558133750255",
      "longitude": "-90.11331090112054"
    }
  },
  {
    "service_request": "2025-1173019",
    "request_type": "Abandoned Vehicles",
    "request_reason": "Abandoned/Junk Vehicles",
    "date_created": "2025-03-05T15:19:41.000",
    "date_modified": "2025-03-05T15:19:43.000",
    "request_status": "Pending",
    "responsible_agency": "Department of Public Works",
    "final_address": "2157 Humanity St",
    "address_councildis": "D",
    "status": "Pending",
    "rowid": "1173019",
    "final_x": "3684046.2742",
    "final_y": "544790.738703",
    "longitude": "-90.05956429042625",
    "latitude": "29.9919080345291",
    "geocoded_column": {
      "latitude": "29.9919080345291",
      "longitude": "-90.05956429042625"
    }
  },
  {
    "service_request": "2025-1173018",
    "request_type": "Abandoned Vehicles",
    "request_reason": "Abandoned/Junk Vehicles",
    "date_created": "2025-03-05T15:19:15.000",
    "date_modified": "2025-03-05T15:19:17.000",
    "request_status": "Pending",
    "responsible_agency": "Department of Public Works",
    "final_address": "1833 N Rocheblave St",
    "address_councildis": "D",
    "status": "Pending",
    "rowid": "1173018",
    "final_x": "3681030.89109",
    "final_y": "540834.475339",
    "longitude": "-90.0692271233773",
    "latitude": "29.98112152358146",
    "geocoded_column": {
      "latitude": "29.98112152358146",
      "longitude": "-90.0692271233773"
    }
  },
  {
    "service_request": "2025-1173017",
    "request_type": "Trash/Recycling",
    "request_reason": "Order Trash Cart",
    "date_created": "2025-03-05T15:19:13.000",
    "date_modified": "2025-03-05T15:19:15.000",
    "request_status": "Pending",
    "responsible_agency": "Department of Sanitation",
    "final_address": "8534 Palm St",
    "address_councildis": "A",
    "status": "Assigned to Contractor",
    "contractor": "IV Waste",
    "rowid": "1173017",
    "final_x": "3666414.3385",
    "final_y": "535831.456647",
    "longitude": "-90.1155609034477",
    "latitude": "29.967800184336767",
    "geocoded_column": {
      "latitude": "29.967800184336767",
      "longitude": "-90.1155609034477"
    }
  },
  {
    "service_request": "2025-1173016",
    "request_type": "Trash/Recycling",
    "request_reason": "Order Trash Cart",
    "date_created": "2025-03-05T15:18:32.000",
    "date_modified": "2025-03-05T15:18:34.000",
    "request_status": "Pending",
    "responsible_agency": "Department of Sanitation",
    "final_address": "3404 Delachaise St",
    "address_councildis": "B",
    "status": "Assigned to Contractor",
    "contractor": "IV Waste",
    "rowid": "1173016",
    "final_x": "3671430.35278",
    "final_y": "527447.047231",
    "longitude": "-90.10000514519928",
    "latitude": "29.944598298749177",
    "geocoded_column": {
      "latitude": "29.944598298749177",
      "longitude": "-90.10000514519928"
    }
  },
  {
    "service_request": "2025-1173015",
    "request_type": "Trash/Recycling",
    "request_reason": "Repair Trash Cart",
    "date_created": "2025-03-05T15:18:04.000",
    "date_modified": "2025-03-05T15:18:06.000",
    "request_status": "Pending",
    "responsible_agency": "Department of Sanitation",
    "final_address": "9438 Oleander St",
    "address_councildis": "A",
    "status": "Assigned to Contractor",
    "contractor": "IV Waste",
    "rowid": "1173015",
    "final_x": "3663132.45895",
    "final_y": "536928.646088",
    "longitude": "-90.12588871203356",
    "latitude": "29.970912591277354",
    "geocoded_column": {
      "latitude": "29.970912591277354",
      "longitude": "-90.12588871203356"
    }
  },
  {
    "service_request": "2025-1173014",
    "request_type": "Trash/Recycling",
    "request_reason": "Order Second Trash Cart",
    "date_created": "2025-03-05T15:16:59.000",
    "date_modified": "2025-03-05T15:17:01.000",
    "request_status": "Pending",
    "responsible_agency": "Department of Sanitation",
    "final_address": "7848 Sand St",
    "address_councildis": "E",
    "status": "Assigned to Contractor",
    "contractor": "Waste Pro",
    "rowid": "1173014",
    "final_x": "3720081.87513",
    "final_y": "574283.629162",
    "longitude": "-89.94460769078118",
    "latitude": "30.071850858181563",
    "geocoded_column": {
      "latitude": "30.071850858181563",
      "longitude": "-89.94460769078118"
    }
  },
  {
    "service_request": "2025-1173013",
    "request_type": "Trash/Recycling",
    "request_reason": "Request a Large Item Pick Up",
    "date_created": "2025-03-05T15:16:21.000",
    "date_modified": "2025-03-05T15:16:24.000",
    "request_status": "Pending",
    "responsible_agency": "Department of Sanitation",
    "final_address": "7211 Boston Dr",
    "address_councildis": "E",
    "status": "Assigned to Contractor",
    "contractor": "Waste Pro",
    "rowid": "1173013",
    "final_x": "3706126.78993",
    "final_y": "561409.344286",
    "longitude": "-89.98920132226719",
    "latitude": "30.036909415160466",
    "geocoded_column": {
      "latitude": "30.036909415160466",
      "longitude": "-89.98920132226719"
    }
  },
  {
    "service_request": "2025-1173012",
    "request_type": "Trash/Recycling",
    "request_reason": "Request a Large Item Pick Up",
    "date_created": "2025-03-05T15:15:05.000",
    "date_modified": "2025-03-05T15:15:37.000",
    "request_status": "Pending",
    "responsible_agency": "Department of Sanitation",
    "final_address": "7901 Lehigh St",
    "address_councildis": "E",
    "status": "Assigned to Contractor",
    "contractor": "Waste Pro",
    "rowid": "1173012",
    "final_x": "3710001.84145",
    "final_y": "566639.118435",
    "longitude": "-89.97675976638644",
    "latitude": "30.051163639475664",
    "geocoded_column": {
      "latitude": "30.051163639475664",
      "longitude": "-89.97675976638644"
    }
  },
  {
    "service_request": "2025-1173011",
    "request_type": "Trash/Recycling",
    "request_reason": "Request a Large Item Pick Up",
    "date_created": "2025-03-05T15:14:23.000",
    "date_modified": "2025-03-05T15:14:27.000",
    "request_status": "Pending",
    "responsible_agency": "Department of Sanitation",
    "final_address": "1129 Louisiana Ave",
    "address_councildis": "B",
    "status": "Assigned to Contractor",
    "contractor": "IV Waste",
    "rowid": "1173011",
    "final_x": "3675010.86574",
    "final_y": "519885.589176",
    "longitude": "-90.08895966168294",
    "latitude": "29.9237002969271",
    "geocoded_column": {
      "latitude": "29.9237002969271",
      "longitude": "-90.08895966168294"
    }
  },
  {
    "service_request": "2025-1173010",
    "request_type": "Trash/Recycling",
    "request_reason": "Repair Recycling Cart",
    "date_created": "2025-03-05T15:09:19.000",
    "date_modified": "2025-03-05T15:09:20.000",
    "request_status": "Pending",
    "responsible_agency": "Department of Sanitation",
    "final_address": "424 Seguin St",
    "address_councildis": "C",
    "status": "Pending",
    "rowid": "1173010",
    "final_x": "3686339.39791",
    "final_y": "530113.230337",
    "longitude": "-90.05283891956995",
    "latitude": "29.951479724881796",
    "geocoded_column": {
      "latitude": "29.951479724881796",
      "longitude": "-90.05283891956995"
    }
  },
  {
    "service_request": "2025-1173008",
    "request_type": "Trash/Recycling",
    "request_reason": "Request a Large Item Pick Up",
    "date_created": "2025-03-05T15:04:05.000",
    "date_modified": "2025-03-05T15:04:31.000",
    "request_status": "Pending",
    "responsible_agency": "Department of Sanitation",
    "final_address": "4719 Rosemont Pl",
    "address_councildis": "E",
    "status": "Assigned to Contractor",
    "contractor": "Waste Pro",
    "rowid": "1173008",
    "final_x": "3702787.29143",
    "final_y": "554757.930904",
    "longitude": "-89.99999938169341",
    "latitude": "30.01872789586705",
    "geocoded_column": {
      "latitude": "30.01872789586705",
      "longitude": "-89.99999938169341"
    }
  },
  {
    "service_request": "2025-1173007",
    "request_type": "Trash/Recycling",
    "request_reason": "Request a Large Item Pick Up",
    "date_created": "2025-03-05T15:03:08.000",
    "date_modified": "2025-03-05T15:03:10.000",
    "request_status": "Pending",
    "responsible_agency": "Department of Sanitation",
    "final_address": "8522 Gervais St",
    "address_councildis": "E",
    "status": "Assigned to Contractor",
    "contractor": "Waste Pro",
    "rowid": "1173007",
    "final_x": "3703775.60849",
    "final_y": "562606.753824",
    "longitude": "-89.99658736601529",
    "latitude": "30.040277447401696",
    "geocoded_column": {
      "latitude": "30.040277447401696",
      "longitude": "-89.99658736601529"
    }
  },
  {
    "service_request": "2025-1173006",
    "request_type": "Trash/Recycling",
    "request_reason": "Order Trash Cart",
    "date_created": "2025-03-05T15:01:12.000",
    "date_modified": "2025-03-05T15:01:14.000",
    "request_status": "Pending",
    "responsible_agency": "Department of Sanitation",
    "final_address": "8522 Gervais St",
    "address_councildis": "E",
    "status": "Assigned to Contractor",
    "contractor": "Waste Pro",
    "rowid": "1173006",
    "final_x": "3703775.60849",
    "final_y": "562606.753824",
    "longitude": "-89.99658736601529",
    "latitude": "30.040277447401696",
    "geocoded_column": {
      "latitude": "30.040277447401696",
      "longitude": "-89.99658736601529"
    }
  },
  {
    "service_request": "2025-1173005",
    "request_type": "Trash/Recycling",
    "request_reason": "Illegal Dumping",
    "date_created": "2025-03-05T15:00:58.000",
    "date_modified": "2025-03-05T15:01:00.000",
    "request_status": "Pending",
    "responsible_agency": "Department of Sanitation",
    "final_address": "7582 Forum Blvd",
    "address_councildis": "E",
    "status": "Pending",
    "rowid": "1173005",
    "final_x": "3720367.02425",
    "final_y": "572953.870505",
    "longitude": "-89.94375723316313",
    "latitude": "30.068185078422527",
    "geocoded_column": {
      "latitude": "30.068185078422527",
      "longitude": "-89.94375723316313"
    }
  },
  {
    "service_request": "2025-1173004",
    "request_type": "Trash/Recycling",
    "request_reason": "Missed Trash Pick-Up",
    "date_created": "2025-03-05T14:56:40.000",
    "date_modified": "2025-03-05T16:00:19.000",
    "case_close_date": "2025-03-05T10:00:18.000",
    "request_status": "Closed",
    "responsible_agency": "Department of Sanitation",
    "final_address": "2743 Verbena St",
    "address_councildis": "D",
    "status": "Invalid Request",
    "contractor": "IV Waste",
    "contractor_action": "Invalid",
    "rowid": "1173004",
    "final_x": "3688049.57923",
    "final_y": "547918.881746",
    "longitude": "-90.04680777163712",
    "latitude": "30.0003863252885",
    "geocoded_column": {
      "latitude": "30.0003863252885",
      "longitude": "-90.04680777163712"
    }
  },
  {
    "service_request": "2025-1173003",
    "request_type": "Safety & Permits",
    "request_reason": "Licenses & Permits",
    "date_created": "2025-03-05T14:56:36.000",
    "date_modified": "2025-03-05T14:56:37.000",
    "request_status": "Pending",
    "responsible_agency": "Safety and Permits",
    "final_address": "1906 Magazine St",
    "address_councildis": "B",
    "status": "Pending",
    "rowid": "1173003",
    "final_x": "3679728.28987",
    "final_y": "522728.293498",
    "longitude": "-90.07396985782103",
    "latitude": "29.931375092629494",
    "geocoded_column": {
      "latitude": "29.931375092629494",
      "longitude": "-90.07396985782103"
    }
  },
  {
    "service_request": "2025-1173002",
    "request_type": "Trash/Recycling",
    "request_reason": "Request a Large Item Pick Up",
    "date_created": "2025-03-05T14:56:19.000",
    "date_modified": "2025-03-05T14:56:21.000",
    "request_status": "Pending",
    "responsible_agency": "Department of Sanitation",
    "final_address": "8008 Devine Ave",
    "address_councildis": "E",
    "status": "Assigned to Contractor",
    "contractor": "Waste Pro",
    "rowid": "1173002",
    "final_x": "3705019.90142",
    "final_y": "564099.028513",
    "longitude": "-89.99259984598325",
    "latitude": "30.044340639908697",
    "geocoded_column": {
      "latitude": "30.044340639908697",
      "longitude": "-89.99259984598325"
    }
  },
  {
    "service_request": "2025-1173001",
    "request_type": "Streetlights",
    "request_reason": "Streetlight Outage/Malfunction",
    "date_created": "2025-03-05T14:55:39.000",
    "date_modified": "2025-03-05T14:55:40.000",
    "request_status": "Pending",
    "responsible_agency": "Department of Public Works",
    "final_address": "6468 Canal Blvd",
    "address_councildis": "A",
    "status": "Pending",
    "contractor": "Legacy Professional Services",
    "rowid": "1173001",
    "final_x": "3668616.45063",
    "final_y": "550616.726868",
    "longitude": "-90.10810727435613",
    "latitude": "30.008390093442788",
    "geocoded_column": {
      "latitude": "30.008390093442788",
      "longitude": "-90.10810727435613"
    }
  },
  {
    "service_request": "2025-1173000",
    "request_type": "Parks & Parkways",
    "request_reason": "Request Tree Service (Right of Way/Public Property)",
    "date_created": "2025-03-05T14:53:56.000",
    "date_modified": "2025-03-05T14:53:57.000",
    "request_status": "Pending",
    "responsible_agency": "Department of Parks & Parkway",
    "final_address": "7957 Vanderkloot Ave",
    "address_councildis": "E",
    "status": "Pending",
    "rowid": "1173000",
    "final_x": "3705411.44017",
    "final_y": "564279.311137",
    "longitude": "-89.99135574306119",
    "latitude": "30.044823742751667",
    "geocoded_column": {
      "latitude": "30.044823742751667",
      "longitude": "-89.99135574306119"
    }
  },
  {
    "service_request": "2025-1172999",
    "request_type": "Trash/Recycling",
    "request_reason": "Request a Large Item Pick Up",
    "date_created": "2025-03-05T14:53:26.000",
    "date_modified": "2025-03-05T14:53:35.000",
    "request_status": "Pending",
    "responsible_agency": "Department of Sanitation",
    "final_address": "4228 S Johnson St",
    "address_councildis": "B",
    "status": "Assigned to Contractor",
    "contractor": "IV Waste",
    "rowid": "1172999",
    "final_x": "3670723.62497",
    "final_y": "527231.549695",
    "longitude": "-90.10224380924073",
    "latitude": "29.9440266482561",
    "geocoded_column": {
      "latitude": "29.9440266482561",
      "longitude": "-90.10224380924073"
    }
  },
  {
    "service_request": "2025-1172998",
    "request_type": "Trash/Recycling",
    "request_reason": "Request a Large Item Pick Up",
    "date_created": "2025-03-05T14:53:11.000",
    "date_modified": "2025-03-05T14:53:13.000",
    "request_status": "Pending",
    "responsible_agency": "Department of Sanitation",
    "final_address": "4913 S Robertson St",
    "address_councildis": "B",
    "status": "Assigned to Contractor",
    "contractor": "IV Waste",
    "rowid": "1172998",
    "final_x": "3669064.87655",
    "final_y": "524293.93094",
    "longitude": "-90.10758017077487",
    "latitude": "29.93599804478946",
    "geocoded_column": {
      "latitude": "29.93599804478946",
      "longitude": "-90.10758017077487"
    }
  },
  {
    "service_request": "2025-1172997",
    "request_type": "Trash/Recycling",
    "request_reason": "Request a Large Item Pick Up",
    "date_created": "2025-03-05T14:51:45.000",
    "date_modified": "2025-03-05T14:52:17.000",
    "request_status": "Pending",
    "responsible_agency": "Department of Sanitation",
    "final_address": "1400 Farragut St",
    "address_councildis": "C",
    "status": "Assigned to Contractor",
    "contractor": "Richards Disposal",
    "rowid": "1172997",
    "final_x": "3692405.09731",
    "final_y": "526126.352638",
    "longitude": "-90.03382924126511",
    "latitude": "29.94032940527723",
    "geocoded_column": {
      "latitude": "29.94032940527723",
      "longitude": "-90.03382924126511"
    }
  },
  {
    "service_request": "2025-1172996",
    "request_type": "Trash/Recycling",
    "request_reason": "Repair Trash Cart",
    "date_created": "2025-03-05T14:48:42.000",
    "date_modified": "2025-03-05T14:48:44.000",
    "request_status": "Pending",
    "responsible_agency": "Department of Sanitation",
    "final_address": "7241 Lake Barrington Dr",
    "address_councildis": "E",
    "status": "Assigned to Contractor",
    "contractor": "Waste Pro",
    "rowid": "1172996",
    "final_x": "3712239.47115",
    "final_y": "564616.763681",
    "longitude": "-89.96976349690928",
    "latitude": "30.045529951629003",
    "geocoded_column": {
      "latitude": "30.045529951629003",
      "longitude": "-89.96976349690928"
    }
  },
  {
    "service_request": "2025-1172995",
    "request_type": "Trash/Recycling",
    "request_reason": "Missed Trash Pick-Up",
    "date_created": "2025-03-05T14:47:03.000",
    "date_modified": "2025-03-05T16:24:27.000",
    "case_close_date": "2025-03-05T10:24:26.000",
    "request_status": "Closed",
    "responsible_agency": "Department of Sanitation",
    "final_address": "7200 Wayside Dr",
    "address_councildis": "E",
    "status": "Invalid Request",
    "contractor": "Waste Pro",
    "contractor_action": "Invalid Request",
    "rowid": "1172995",
    "final_x": "3717165.79045",
    "final_y": "568320.959461",
    "longitude": "-89.9540531747876",
    "latitude": "30.05555285561597",
    "geocoded_column": {
      "latitude": "30.05555285561597",
      "longitude": "-89.9540531747876"
    }
  },
  {
    "service_request": "2025-1172994",
    "request_type": "Abandoned Vehicles",
    "request_reason": "Abandoned/Junk Vehicles",
    "date_created": "2025-03-05T14:46:49.000",
    "date_modified": "2025-03-05T14:46:51.000",
    "request_status": "Pending",
    "responsible_agency": "Department of Public Works",
    "final_address": "1532 S Norman C Francis Prkwy",
    "address_councildis": "B",
    "status": "Pending",
    "rowid": "1172994",
    "final_x": "3669620.02759",
    "final_y": "531287.353218",
    "longitude": "-90.10559097586228",
    "latitude": "29.955211338239256",
    "geocoded_column": {
      "latitude": "29.955211338239256",
      "longitude": "-90.10559097586228"
    }
  },
  {
    "service_request": "2025-1172993",
    "request_type": "Trash/Recycling",
    "request_reason": "Request a Large Item Pick Up",
    "date_created": "2025-03-05T14:45:18.000",
    "date_modified": "2025-03-05T14:45:21.000",
    "request_status": "Pending",
    "responsible_agency": "Department of Sanitation",
    "final_address": "4848 Dodt Ave",
    "address_councildis": "E",
    "status": "Assigned to Contractor",
    "contractor": "Waste Pro",
    "rowid": "1172993",
    "final_x": "3705282.76471",
    "final_y": "556063.886682",
    "longitude": "-89.99206634306535",
    "latitude": "30.02223868979049",
    "geocoded_column": {
      "latitude": "30.02223868979049",
      "longitude": "-89.99206634306535"
    }
  },
  {
    "service_request": "2025-1172992",
    "request_type": "Trash/Recycling",
    "request_reason": "Request a Large Item Pick Up",
    "date_created": "2025-03-05T14:44:16.000",
    "date_modified": "2025-03-05T14:44:19.000",
    "request_status": "Pending",
    "responsible_agency": "Department of Sanitation",
    "final_address": "2004 Pauger St",
    "address_councildis": "C",
    "status": "Assigned to Contractor",
    "contractor": "IV Waste",
    "rowid": "1172992",
    "final_x": "3683744.50639",
    "final_y": "537017.386888",
    "longitude": "-90.06079020627139",
    "latitude": "29.970543266927216",
    "geocoded_column": {
      "latitude": "29.970543266927216",
      "longitude": "-90.06079020627139"
    }
  },
  {
    "service_request": "2025-1172991",
    "request_type": "Trash/Recycling",
    "request_reason": "Request a Large Item Pick Up",
    "date_created": "2025-03-05T14:42:16.000",
    "date_modified": "2025-03-05T14:42:17.000",
    "request_status": "Pending",
    "responsible_agency": "Department of Sanitation",
    "final_address": "4627 Annunciation St",
    "address_councildis": "B",
    "status": "Assigned to Contractor",
    "contractor": "IV Waste",
    "rowid": "1172991",
    "final_x": "3670173.81422",
    "final_y": "517689.664886",
    "longitude": "-90.10430285514599",
    "latitude": "29.917805755480774",
    "geocoded_column": {
      "latitude": "29.917805755480774",
      "longitude": "-90.10430285514599"
    }
  },
  {
    "service_request": "2025-1172990",
    "request_type": "Trash/Recycling",
    "request_reason": "Missed Trash Pick-Up",
    "date_created": "2025-03-05T14:40:36.000",
    "date_modified": "2025-03-05T15:59:39.000",
    "case_close_date": "2025-03-05T09:59:38.000",
    "request_status": "Closed",
    "responsible_agency": "Department of Sanitation",
    "final_address": "625 Broadway St",
    "address_councildis": "A",
    "status": "Invalid Request",
    "contractor": "IV Waste",
    "contractor_action": "Invalid",
    "rowid": "1172990",
    "final_x": "3663179.67975",
    "final_y": "524888.07334",
    "longitude": "-90.1261401997073",
    "latitude": "29.937803545509258",
    "geocoded_column": {
      "latitude": "29.937803545509258",
      "longitude": "-90.1261401997073"
    }
  },
  {
    "service_request": "2025-1172989",
    "request_type": "General Services",
    "request_reason": "General Service Request",
    "date_created": "2025-03-05T14:39:04.000",
    "date_modified": "2025-03-05T14:49:30.000",
    "case_close_date": "2025-03-05T08:49:30.000",
    "request_status": "Closed",
    "responsible_agency": "Orleans Parish Communication District",
    "final_address": "2415 Milan St",
    "address_councildis": "B",
    "status": "Duplicate Request",
    "rowid": "1172989",
    "final_x": "3671342.49793",
    "final_y": "523913.802108",
    "longitude": "-90.10040256341955",
    "latitude": "29.93488562199893",
    "geocoded_column": {
      "latitude": "29.93488562199893",
      "longitude": "-90.10040256341955"
    }
  },
  {
    "service_request": "2025-1172988",
    "request_type": "Parks & Parkways",
    "request_reason": "Park Maintenance/Clean Up",
    "date_created": "2025-03-05T14:37:13.000",
    "date_modified": "2025-03-05T14:37:14.000",
    "request_status": "Pending",
    "responsible_agency": "Department of Parks & Parkway",
    "final_address": "2100 Napoleon Ave",
    "address_councildis": "B",
    "status": "Pending",
    "rowid": "1172988",
    "final_x": "3670394.96826",
    "final_y": "522656.31161",
    "longitude": "-90.10343652210679",
    "latitude": "29.931455927719163",
    "geocoded_column": {
      "latitude": "29.931455927719163",
      "longitude": "-90.10343652210679"
    }
  },
  {
    "service_request": "2025-1172987",
    "request_type": "Trash/Recycling",
    "request_reason": "Request a Large Item Pick Up",
    "date_created": "2025-03-05T14:29:43.000",
    "date_modified": "2025-03-05T14:29:45.000",
    "request_status": "Pending",
    "responsible_agency": "Department of Sanitation",
    "final_address": "5711 Macarthur Blvd",
    "address_councildis": "C",
    "status": "Assigned to Contractor",
    "contractor": "Richards Disposal",
    "rowid": "1172987",
    "final_x": "3704410.03268",
    "final_y": "519338.833015",
    "longitude": "-89.99617810631355",
    "latitude": "29.9212862765193",
    "geocoded_column": {
      "latitude": "29.9212862765193",
      "longitude": "-89.99617810631355"
    }
  },
  {
    "service_request": "2025-1172986",
    "request_type": "Trash/Recycling",
    "request_reason": "Illegal Dumping",
    "date_created": "2025-03-05T14:29:02.000",
    "date_modified": "2025-03-05T14:29:04.000",
    "request_status": "Pending",
    "responsible_agency": "Department of Sanitation",
    "final_address": "2214 S Claiborne Ave",
    "address_councildis": "B",
    "status": "Pending",
    "rowid": "1172986",
    "final_x": "3674540.14939",
    "final_y": "527495.734335",
    "longitude": "-90.09018491796954",
    "latitude": "29.9446397679687",
    "geocoded_column": {
      "latitude": "29.9446397679687",
      "longitude": "-90.09018491796954"
    }
  },
  {
    "service_request": "2025-1172985",
    "request_type": "Drainage",
    "request_reason": "Drainage Manhole Cover Missing or Damaged",
    "date_created": "2025-03-05T14:28:20.000",
    "date_modified": "2025-03-05T14:28:21.000",
    "request_status": "Pending",
    "responsible_agency": "Sewerage & Water Board ",
    "final_address": "628 Commerce St",
    "address_councildis": "B",
    "status": "Pending",
    "rowid": "1172985",
    "final_x": "3682111.38876",
    "final_y": "528308.12896",
    "longitude": "-90.06625192811116",
    "latitude": "29.946645545358283",
    "geocoded_column": {
      "latitude": "29.946645545358283",
      "longitude": "-90.06625192811116"
    }
  },
  {
    "service_request": "2025-1172983",
    "request_type": "General Services",
    "request_reason": "General Service Request",
    "date_created": "2025-03-05T14:25:41.000",
    "date_modified": "2025-03-05T14:48:47.000",
    "case_close_date": "2025-03-05T08:48:46.000",
    "request_status": "Closed",
    "responsible_agency": "Orleans Parish Communication District",
    "final_address": "2415 Milan St",
    "address_councildis": "B",
    "status": "Question Answered.",
    "rowid": "1172983",
    "final_x": "3671342.49793",
    "final_y": "523913.802108",
    "longitude": "-90.10040256341955",
    "latitude": "29.93488562199893",
    "geocoded_column": {
      "latitude": "29.93488562199893",
      "longitude": "-90.10040256341955"
    }
  },
  {
    "service_request": "2025-1172982",
    "request_type": "Abandoned Vehicles",
    "request_reason": "Abandoned/Junk Vehicles",
    "date_created": "2025-03-05T14:25:23.000",
    "date_modified": "2025-03-05T14:25:25.000",
    "request_status": "Pending",
    "responsible_agency": "Department of Public Works",
    "final_address": "1500 Clouet St",
    "address_councildis": "D",
    "status": "Pending",
    "rowid": "1172982",
    "final_x": "3689355.09852",
    "final_y": "537527.511752",
    "longitude": "-90.04305321892606",
    "latitude": "29.971773407317563",
    "geocoded_column": {
      "latitude": "29.971773407317563",
      "longitude": "-90.04305321892606"
    }
  },
  {
    "service_request": "2025-1172981",
    "request_type": "Trash/Recycling",
    "request_reason": "Request a Large Item Pick Up",
    "date_created": "2025-03-05T14:24:47.000",
    "date_modified": "2025-03-05T14:58:55.000",
    "request_status": "Pending",
    "responsible_agency": "Department of Sanitation",
    "final_address": "1210 S Genois St",
    "address_councildis": "B",
    "status": "Assigned to Contractor",
    "contractor": "IV Waste",
    "rowid": "1172981",
    "final_x": "3669438.92193",
    "final_y": "532695.380612",
    "longitude": "-90.10611522443055",
    "latitude": "29.959088283738886",
    "geocoded_column": {
      "latitude": "29.959088283738886",
      "longitude": "-90.10611522443055"
    }
  },
  {
    "service_request": "2025-1172980",
    "request_type": "General Services",
    "request_reason": "General Service Request",
    "date_created": "2025-03-05T14:24:46.000",
    "date_modified": "2025-03-05T14:28:48.000",
    "case_close_date": "2025-03-05T08:28:47.000",
    "request_status": "Closed",
    "responsible_agency": "Orleans Parish Communication District",
    "final_address": "628 Commerce St",
    "address_councildis": "B",
    "status": "Invalid Request",
    "rowid": "1172980",
    "final_x": "3682111.38876",
    "final_y": "528308.12896",
    "longitude": "-90.06625192811116",
    "latitude": "29.946645545358283",
    "geocoded_column": {
      "latitude": "29.946645545358283",
      "longitude": "-90.06625192811116"
    }
  },
  {
    "service_request": "2025-1172979",
    "request_type": "Abandoned Vehicles",
    "request_reason": "Abandoned/Junk Vehicles",
    "date_created": "2025-03-05T14:17:10.000",
    "date_modified": "2025-03-05T14:17:11.000",
    "request_status": "Pending",
    "responsible_agency": "Department of Public Works",
    "final_address": "6500 Magazine St",
    "address_councildis": "A",
    "status": "Pending",
    "rowid": "1172979",
    "final_x": "3662586.74362",
    "final_y": "520120.866808",
    "longitude": "-90.12817045257185",
    "latitude": "29.924712390786677",
    "geocoded_column": {
      "latitude": "29.924712390786677",
      "longitude": "-90.12817045257185"
    }
  },
  {
    "service_request": "2025-1172978",
    "request_type": "Roads and Streets",
    "request_reason": "Pothole",
    "date_created": "2025-03-05T14:14:38.000",
    "date_modified": "2025-03-05T14:14:39.000",
    "request_status": "Pending",
    "responsible_agency": "Department of Public Works",
    "final_address": "6475 Canal Blvd",
    "address_councildis": "A",
    "status": "Pending",
    "rowid": "1172978",
    "final_x": "3668946.09153",
    "final_y": "550641.107988",
    "longitude": "-90.10706500756473",
    "latitude": "30.00844743694873",
    "geocoded_column": {
      "latitude": "30.00844743694873",
      "longitude": "-90.10706500756473"
    }
  },
  {
    "service_request": "2025-1172977",
    "request_type": "Trash/Recycling",
    "request_reason": "Request a Large Item Pick Up",
    "date_created": "2025-03-05T14:14:00.000",
    "date_modified": "2025-03-05T14:14:03.000",
    "request_status": "Pending",
    "responsible_agency": "Department of Sanitation",
    "final_address": "5 Brownlee Ct",
    "address_councildis": "E",
    "status": "Assigned to Contractor",
    "contractor": "Waste Pro",
    "rowid": "1172977",
    "final_x": "3712672.82469",
    "final_y": "567255.755364",
    "longitude": "-89.96829454123358",
    "latitude": "30.052771920979204",
    "geocoded_column": {
      "latitude": "30.052771920979204",
      "longitude": "-89.96829454123358"
    }
  },
  {
    "service_request": "2025-1172976",
    "request_type": "Trash/Recycling",
    "request_reason": "Request a Large Item Pick Up",
    "date_created": "2025-03-05T14:13:22.000",
    "date_modified": "2025-03-05T14:13:24.000",
    "request_status": "Pending",
    "responsible_agency": "Department of Sanitation",
    "final_address": "4924 St Claude Ave",
    "address_councildis": "E",
    "status": "Assigned to Contractor",
    "contractor": "Waste Pro",
    "rowid": "1172976",
    "final_x": "3695588.22781",
    "final_y": "534298.795717",
    "longitude": "-90.02348469227103",
    "latitude": "29.96270112014267",
    "geocoded_column": {
      "latitude": "29.96270112014267",
      "longitude": "-90.02348469227103"
    }
  },
  {
    "service_request": "2025-1172975",
    "request_type": "Street and Traffic Signs",
    "request_reason": "Crosswalk Signage Damaged or Missing",
    "date_created": "2025-03-05T14:13:13.000",
    "date_modified": "2025-03-05T14:24:22.000",
    "request_status": "Pending",
    "responsible_agency": "Department of Public Works",
    "final_address": "100 Canal St",
    "address_councildis": "C",
    "status": "Pending",
    "contractor": "Legacy Professional Services",
    "rowid": "1172975",
    "final_x": "3682850.79036",
    "final_y": "529417.504129",
    "longitude": "-90.06387856805323",
    "latitude": "29.94967344974417",
    "geocoded_column": {
      "latitude": "29.94967344974417",
      "longitude": "-90.06387856805323"
    }
  },
  {
    "service_request": "2025-1172974",
    "request_type": "Drainage",
    "request_reason": "Catch Basin Clogged",
    "date_created": "2025-03-05T14:12:33.000",
    "date_modified": "2025-03-05T14:12:35.000",
    "request_status": "Pending",
    "responsible_agency": "Sewerage & Water Board ",
    "final_address": "4609 Banks St",
    "address_councildis": "A",
    "status": "Pending",
    "rowid": "1172974",
    "final_x": "3668653.9259",
    "final_y": "538779.323209",
    "longitude": "-90.10838867718144",
    "latitude": "29.975840193291997",
    "geocoded_column": {
      "latitude": "29.975840193291997",
      "longitude": "-90.10838867718144"
    }
  },
  {
    "service_request": "2025-1172973",
    "request_type": "Trash/Recycling",
    "request_reason": "Replace Trash Cart",
    "date_created": "2025-03-05T14:10:39.000",
    "date_modified": "2025-03-05T14:10:41.000",
    "request_status": "Pending",
    "responsible_agency": "Department of Sanitation",
    "final_address": "1439 Tennessee St",
    "address_councildis": "E",
    "status": "Assigned to Contractor",
    "contractor": "Waste Pro",
    "rowid": "1172973",
    "final_x": "3696101.03222",
    "final_y": "535674.390855",
    "longitude": "-90.02181561183428",
    "latitude": "29.966467389831116",
    "geocoded_column": {
      "latitude": "29.966467389831116",
      "longitude": "-90.02181561183428"
    }
  },
  {
    "service_request": "2025-1172972",
    "request_type": "Trash/Recycling",
    "request_reason": "Request a Large Item Pick Up",
    "date_created": "2025-03-05T14:10:20.000",
    "date_modified": "2025-03-05T14:11:05.000",
    "request_status": "Pending",
    "responsible_agency": "Department of Sanitation",
    "final_address": "5715 Dauphine St",
    "address_councildis": "E",
    "status": "Assigned to Contractor",
    "contractor": "Waste Pro",
    "rowid": "1172972",
    "final_x": "3698197.70544",
    "final_y": "532553.081092",
    "longitude": "-90.01530776625226",
    "latitude": "29.95781874524404",
    "geocoded_column": {
      "latitude": "29.95781874524404",
      "longitude": "-90.01530776625226"
    }
  },
  {
    "service_request": "2025-1172971",
    "request_type": "Parks & Parkways",
    "request_reason": "Request Tree Service (Right of Way/Public Property)",
    "date_created": "2025-03-05T14:10:12.000",
    "date_modified": "2025-03-05T14:10:14.000",
    "request_status": "Pending",
    "responsible_agency": "Department of Parks & Parkway",
    "final_address": "7957 Vanderkloot Ave",
    "address_councildis": "E",
    "status": "Pending",
    "rowid": "1172971",
    "final_x": "3705411.44017",
    "final_y": "564279.311137",
    "longitude": "-89.99135574306119",
    "latitude": "30.044823742751667",
    "geocoded_column": {
      "latitude": "30.044823742751667",
      "longitude": "-89.99135574306119"
    }
  },
  {
    "service_request": "2025-1172970",
    "request_type": "Trash/Recycling",
    "request_reason": "Missed Trash Pick-Up",
    "date_created": "2025-03-05T14:09:02.000",
    "date_modified": "2025-03-05T16:00:44.000",
    "case_close_date": "2025-03-05T10:00:43.000",
    "request_status": "Closed",
    "responsible_agency": "Department of Sanitation",
    "final_address": "7005 Memphis St",
    "address_councildis": "A",
    "status": "Invalid Request",
    "contractor": "IV Waste",
    "contractor_action": "Invalid",
    "rowid": "1172970",
    "final_x": "3669872.7371",
    "final_y": "553979.170968",
    "longitude": "-90.10402429071874",
    "latitude": "30.017598631641224",
    "geocoded_column": {
      "latitude": "30.017598631641224",
      "longitude": "-90.10402429071874"
    }
  },
  {
    "service_request": "2025-1172969",
    "request_type": "Trash/Recycling",
    "request_reason": "Repair Trash Cart",
    "date_created": "2025-03-05T14:08:58.000",
    "date_modified": "2025-03-05T14:08:59.000",
    "request_status": "Pending",
    "responsible_agency": "Department of Sanitation",
    "final_address": "4626 Bienville Ave",
    "address_councildis": "A",
    "status": "Assigned to Contractor",
    "contractor": "IV Waste",
    "rowid": "1172969",
    "final_x": "3669680.85511",
    "final_y": "540331.699083",
    "longitude": "-90.1050927798792",
    "latitude": "29.980078475640102",
    "geocoded_column": {
      "latitude": "29.980078475640102",
      "longitude": "-90.1050927798792"
    }
  },
  {
    "service_request": "2025-1172968",
    "request_type": "Roads and Streets",
    "request_reason": "Debris in Driving Lanes",
    "date_created": "2025-03-05T14:08:23.000",
    "date_modified": "2025-03-05T14:08:26.000",
    "request_status": "Pending",
    "responsible_agency": "Department of Public Works",
    "final_address": "2100 Annunciation St",
    "address_councildis": "B",
    "status": "Pending",
    "rowid": "1172968",
    "final_x": "3679784.02383",
    "final_y": "521364.446969",
    "longitude": "-90.07384123801305",
    "latitude": "29.927623277527097",
    "geocoded_column": {
      "latitude": "29.927623277527097",
      "longitude": "-90.07384123801305"
    }
  },
  {
    "service_request": "2025-1172967",
    "request_type": "Drainage",
    "request_reason": "Catch Basin Clogged",
    "date_created": "2025-03-05T14:07:31.000",
    "date_modified": "2025-03-05T14:07:33.000",
    "request_status": "Pending",
    "responsible_agency": "Sewerage & Water Board ",
    "final_address": "4609 Banks St",
    "address_councildis": "A",
    "status": "Pending",
    "rowid": "1172967",
    "final_x": "3668653.9259",
    "final_y": "538779.323209",
    "longitude": "-90.10838867718144",
    "latitude": "29.975840193291997",
    "geocoded_column": {
      "latitude": "29.975840193291997",
      "longitude": "-90.10838867718144"
    }
  },
  {
    "service_request": "2025-1172966",
    "request_type": "Drainage",
    "request_reason": "Catch Basin Clogged",
    "date_created": "2025-03-05T14:06:18.000",
    "date_modified": "2025-03-05T14:06:19.000",
    "request_status": "Pending",
    "responsible_agency": "Sewerage & Water Board ",
    "final_address": "4609 Banks St",
    "address_councildis": "A",
    "status": "Pending",
    "rowid": "1172966",
    "final_x": "3668653.9259",
    "final_y": "538779.323209",
    "longitude": "-90.10838867718144",
    "latitude": "29.975840193291997",
    "geocoded_column": {
      "latitude": "29.975840193291997",
      "longitude": "-90.10838867718144"
    }
  },
  {
    "service_request": "2025-1172965",
    "request_type": "Drainage",
    "request_reason": "Catch Basin Clogged",
    "date_created": "2025-03-05T14:05:21.000",
    "date_modified": "2025-03-05T14:05:22.000",
    "request_status": "Pending",
    "responsible_agency": "Sewerage & Water Board ",
    "final_address": "4609 Banks St",
    "address_councildis": "A",
    "status": "Pending",
    "rowid": "1172965",
    "final_x": "3668653.9259",
    "final_y": "538779.323209",
    "longitude": "-90.10838867718144",
    "latitude": "29.975840193291997",
    "geocoded_column": {
      "latitude": "29.975840193291997",
      "longitude": "-90.10838867718144"
    }
  },
  {
    "service_request": "2025-1172964",
    "request_type": "Trash/Recycling",
    "request_reason": "Request a Large Item Pick Up",
    "date_created": "2025-03-05T14:05:01.000",
    "date_modified": "2025-03-05T14:05:02.000",
    "request_status": "Pending",
    "responsible_agency": "Department of Sanitation",
    "final_address": "8015 Brevard Ave",
    "address_councildis": "E",
    "status": "Assigned to Contractor",
    "contractor": "Waste Pro",
    "rowid": "1172964",
    "final_x": "3705743.76318",
    "final_y": "564628.829345",
    "longitude": "-89.99029250777906",
    "latitude": "30.04577407286116",
    "geocoded_column": {
      "latitude": "30.04577407286116",
      "longitude": "-89.99029250777906"
    }
  },
  {
    "service_request": "2025-1172963",
    "request_type": "Trash/Recycling",
    "request_reason": "Return Recycling Cart",
    "date_created": "2025-03-05T14:04:26.000",
    "date_modified": "2025-03-05T14:04:28.000",
    "request_status": "Pending",
    "responsible_agency": "Department of Sanitation",
    "final_address": "11437 S Easterlyn Cir",
    "address_councildis": "E",
    "status": "Pending",
    "rowid": "1172963",
    "final_x": "3718998.88556",
    "final_y": "560682.858334",
    "longitude": "-89.94855095350064",
    "latitude": "30.034490407757158",
    "geocoded_column": {
      "latitude": "30.034490407757158",
      "longitude": "-89.94855095350064"
    }
  },