[
  {
    "service_request": "2022-859761",
    "request_type": "Trash/Recycling",
    "request_reason": "Request a Large Item Pick Up",
    "date_created": "2022-02-08T22:19:41.000",
    "date_modified": "2022-02-08T22:19:42.000",
    "request_status": "Pending",
    "responsible_agency": "Department of Sanitation",
    "final_address": "1035 Bourbon St",
    "address_councildis": "C",
    "status": "Assigned to Contractor",
    "contractor": "Empire Services",
    "rowid": "859761",
    "final_x": "3683094.85372",
    "final_y": "533812.551941",
    "longitude": "-90.06295409533034",
    "latitude": "29.961750897531278",
    "geocoded_column": {
      "latitude": "29.961750897531278",
      "longitude": "-90.06295409533034"
    }
  },
  {
    "service_request": "2022-859760",
    "request_type": "Property Maintenance",
    "request_reason": "Property Maintenance",
    "date_created": "2022-02-08T21:40:57.000",
    "date_modified": "2022-02-08T21:40:57.000",
    "request_status": "Pending",
    "responsible_agency": "Department of Code Enforcement",
    "final_address": "4822 Shalimar Dr",
    "address_councildis": "D",
    "status": "Pending",
    "rowid": "859760",
    "final_x": "3697082.13251",
    "final_y": "554641.327576",
    "longitude": "-90.0180297703339",
    "latitude": "30.018588586440167",
    "geocoded_column": {
      "latitude": "30.018588586440167",
      "longitude": "-90.0180297703339"
    }
  },
  {
    "service_request": "2022-859759",
    "request_type": "Abandoned Vehicles",
    "request_reason": "Abandoned/Junk Vehicles",
    "date_created": "2022-02-08T21:13:08.000",
    "date_modified": "2022-02-08T21:13:08.000",
    "request_status": "Pending",
    "responsible_agency": "Department of Public Works",
    "final_address": "1812 Nunez St",
    "address_councildis": "C",
    "status": "Pending",
    "rowid": "859759",
    "final_x": "3687277.08137",
    "final_y": "524748.742204",
    "longitude": "-90.05006787841484",
    "latitude": "29.936700358130203",
    "geocoded_column": {
      "latitude": "29.936700358130203",
      "longitude": "-90.05006787841484"
    }
  },
  {
    "service_request": "2022-859758",
    "request_type": "Trash/Recycling",
    "request_reason": "Missed Trash Pick-Up",
    "date_created": "2022-02-08T20:42:05.000",
    "date_modified": "2022-02-08T20:42:06.000",
    "request_status": "Pending",
    "responsible_agency": "Department of Sanitation",
    "final_address": "709 General Pershing St, New Orleans, Louisiana, 70115",
    "address_councildis": "B",
    "status": "Assigned to Contractor",
    "contractor": "Richards Disposal",
    "rowid": "859758",
    "final_x": "3671551.11617",
    "final_y": "518185.417974",
    "longitude": "-90.0999386195876",
    "latitude": "29.91912822644559",
    "geocoded_column": {
      "latitude": "29.91912822644559",
      "longitude": "-90.0999386195876"
    }
  },
  {
    "service_request": "2022-859757",
    "request_type": "Property Maintenance",
    "request_reason": "Property Maintenance",
    "date_created": "2022-02-08T19:38:02.000",
    "date_modified": "2022-02-08T19:38:02.000",
    "request_status": "Pending",
    "responsible_agency": "Department of Code Enforcement",
    "final_address": "1008 Third St",
    "address_councildis": "B",
    "status": "Pending",
    "rowid": "859757",
    "final_x": "3677680.21531",
    "final_y": "520903.394745",
    "longitude": "-90.08049836928909",
    "latitude": "29.9264189518421",
    "geocoded_column": {
      "latitude": "29.9264189518421",
      "longitude": "-90.08049836928909"
    }
  },
  {
    "service_request": "2022-859756",
    "request_type": "Trash/Recycling",
    "request_reason": "Order Recycling Cart",
    "date_created": "2022-02-08T19:18:41.000",
    "date_modified": "2022-02-08T19:18:41.000",
    "request_status": "Pending",
    "responsible_agency": "Department of Sanitation",
    "final_address": "5622 Charlotte Dr",
    "address_councildis": "D",
    "status": "Pending",
    "rowid": "859756",
    "final_x": "3679922.74568",
    "final_y": "553188.063575",
    "longitude": "-90.07229773710274",
    "latitude": "30.015123075330198",
    "geocoded_column": {
      "latitude": "30.015123075330198",
      "longitude": "-90.07229773710274"
    }
  },
  {
    "service_request": "2022-859755",
    "request_type": "Abandoned Vehicles",
    "request_reason": "Abandoned/Junk Vehicles",
    "date_created": "2022-02-08T19:09:46.000",
    "date_modified": "2022-02-08T19:09:46.000",
    "request_status": "Pending",
    "responsible_agency": "Department of Public Works",
    "final_address": "2400 Robert E Lee Blvd",
    "address_councildis": "D",
    "status": "Pending",
    "rowid": "859755",
    "final_x": "3685051.68892",
    "final_y": "555781.762073",
    "longitude": "-90.05600137515984",
    "latitude": "30.022098589428502",
    "geocoded_column": {
      "latitude": "30.022098589428502",
      "longitude": "-90.05600137515984"
    }
  },
  {
    "service_request": "2022-859754",
    "request_type": "Abandoned Vehicles",
    "request_reason": "Abandoned/Junk Vehicles",
    "date_created": "2022-02-08T19:02:38.000",
    "date_modified": "2022-02-08T19:02:38.000",
    "request_status": "Pending",
    "responsible_agency": "Department of Public Works",
    "final_address": "2400 Robert E Lee Blvd",
    "address_councildis": "D",
    "status": "Pending",
    "rowid": "859754",
    "final_x": "3685051.68892",
    "final_y": "555781.762073",
    "longitude": "-90.05600137515984",
    "latitude": "30.022098589428502",
    "geocoded_column": {
      "latitude": "30.022098589428502",
      "longitude": "-90.05600137515984"
    }
  },
  {
    "service_request": "2022-859753",
    "request_type": "Property Maintenance",
    "request_reason": "Property Maintenance",
    "date_created": "2022-02-08T18:56:41.000",
    "date_modified": "2022-02-08T18:56:42.000",
    "request_status": "Pending",
    "responsible_agency": "Department of Code Enforcement",
    "final_address": "408 Park Blvd",
    "address_councildis": "C",
    "status": "Pending",
    "rowid": "859753",
    "final_x": "3686839.10038",
    "final_y": "525877.527677",
    "longitude": "-90.05141073254983",
    "latitude": "29.93981761778865",
    "geocoded_column": {
      "latitude": "29.93981761778865",
      "longitude": "-90.05141073254983"
    }
  },
  {
    "service_request": "2022-859751",
    "request_type": "Property Maintenance",
    "request_reason": "Property Maintenance",
    "date_created": "2022-02-08T18:52:04.000",
    "date_modified": "2022-02-08T18:52:04.000",
    "request_status": "Pending",
    "responsible_agency": "Department of Code Enforcement",
    "final_address": "428 Park Blvd",
    "address_councildis": "C",
    "status": "Pending",
    "rowid": "859751",
    "final_x": "3687039.59535",
    "final_y": "525891.166909",
    "longitude": "-90.05077726060355",
    "latitude": "29.939848951875543",
    "geocoded_column": {
      "latitude": "29.939848951875543",
      "longitude": "-90.05077726060355"
    }
  },
  {
    "service_request": "2022-859750",
    "request_type": "Tax and Revenue",
    "request_reason": "Personal Property Tax Question",
    "date_created": "2022-02-08T18:52:03.000",
    "date_modified": "2022-02-08T18:52:03.000",
    "request_status": "Pending",
    "responsible_agency": "Bureau of Treasury",
    "final_address": "3012 Delachaise St",
    "address_councildis": "B",
    "status": "Pending",
    "rowid": "859750",
    "final_x": "3671786.21729",
    "final_y": "526248.82483",
    "longitude": "-90.09892232913019",
    "latitude": "29.941293041127032",
    "geocoded_column": {
      "latitude": "29.941293041127032",
      "longitude": "-90.09892232913019"
    }
  },
  {
    "service_request": "2022-859749",
    "request_type": "Property Maintenance",
    "request_reason": "Property Maintenance",
    "date_created": "2022-02-08T18:41:41.000",
    "date_modified": "2022-02-08T18:41:41.000",
    "request_status": "Pending",
    "responsible_agency": "Department of Code Enforcement",
    "final_address": "2273 N Derbigny St",
    "address_councildis": "D",
    "status": "Pending",
    "rowid": "859749",
    "final_x": "3685521.43279",
    "final_y": "538598.048905",
    "longitude": "-90.05512279136902",
    "latitude": "29.974835153878672",
    "geocoded_column": {
      "latitude": "29.974835153878672",
      "longitude": "-90.05512279136902"
    }
  },
  {
    "service_request": "2022-859748",
    "request_type": "Abandoned Vehicles",
    "request_reason": "Abandoned/Junk Vehicles",
    "date_created": "2022-02-08T18:37:59.000",
    "date_modified": "2022-02-08T18:37:59.000",
    "request_status": "Pending",
    "responsible_agency": "Department of Public Works",
    "final_address": "1611 Mandeville St",
    "address_councildis": "D",
    "status": "Pending",
    "rowid": "859748",
    "final_x": "3685650.86652",
    "final_y": "538320.831433",
    "longitude": "-90.05472377753557",
    "latitude": "29.974068932098582",
    "geocoded_column": {
      "latitude": "29.974068932098582",
      "longitude": "-90.05472377753557"
    }
  },
  {
    "service_request": "2022-859747",
    "request_type": "Abandoned Vehicles",
    "request_reason": "Abandoned/Junk Vehicles",
    "date_created": "2022-02-08T18:35:43.000",
    "date_modified": "2022-02-08T18:35:43.000",
    "request_status": "Pending",
    "responsible_agency": "Department of Public Works",
    "final_address": "1629 Mandeville St",
    "address_councildis": "D",
    "status": "Pending",
    "rowid": "859747",
    "final_x": "3685644.13014",
    "final_y": "538442.982537",
    "longitude": "-90.05474074775921",
    "latitude": "29.97440501158183",
    "geocoded_column": {
      "latitude": "29.97440501158183",
      "longitude": "-90.05474074775921"
    }
  },
  {
    "service_request": "2022-859745",
    "request_type": "Trash/Recycling",
    "request_reason": "Request a Large Item Pick Up",
    "date_created": "2022-02-08T18:23:40.000",
    "date_modified": "2022-02-08T18:23:41.000",
    "request_status": "Pending",
    "responsible_agency": "Department of Sanitation",
    "final_address": "38 Honeysuckle Ln",
    "address_councildis": "E",
    "status": "Assigned to Contractor",
    "contractor": "Metro Disposal",
    "rowid": "859745",
    "final_x": "3713141.84459",
    "final_y": "568258.695781",
    "longitude": "-89.96677430987765",
    "latitude": "30.055514225760845",
    "geocoded_column": {
      "latitude": "30.055514225760845",
      "longitude": "-89.96677430987765"
    }
  },
  {
    "service_request": "2022-859744",
    "request_type": "Roads/Drainage",
    "request_reason": "Pothole",
    "date_created": "2022-02-08T18:17:49.000",
    "date_modified": "2022-02-08T18:17:49.000",
    "request_status": "Pending",
    "responsible_agency": "Department of Public Works",
    "final_address": "3413 Camp St",
    "address_councildis": "B",
    "status": "Pending",
    "rowid": "859744",
    "final_x": "3674726.85877",
    "final_y": "519948.705848",
    "longitude": "-90.08985400686382",
    "latitude": "29.923882325219097",
    "geocoded_column": {
      "latitude": "29.923882325219097",
      "longitude": "-90.08985400686382"
    }
  },
  {
    "service_request": "2022-859743",
    "request_type": "Safety & Permits",
    "request_reason": "Licenses & Permits",
    "date_created": "2022-02-08T17:55:14.000",
    "date_modified": "2022-02-08T17:55:14.000",
    "request_status": "Pending",
    "responsible_agency": "Safety and Permits",
    "final_address": "1500 BLK Marigny St",
    "address_councildis": "C",
    "status": "Pending",
    "rowid": "859743",
    "final_x": "3685285.54442",
    "final_y": "537994.568812",
    "longitude": "-90.05588903334282",
    "latitude": "29.973183027837635",
    "geocoded_column": {
      "latitude": "29.973183027837635",
      "longitude": "-90.05588903334282"
    }
  },
  {
    "service_request": "2022-859742",
    "request_type": "Abandoned Vehicles",
    "request_reason": "Abandoned/Junk Vehicles",
    "date_created": "2022-02-08T17:29:46.000",
    "date_modified": "2022-02-08T17:29:46.000",
    "request_status": "Pending",
    "responsible_agency": "Department of Public Works",
    "final_address": "3031 Dryades St",
    "address_councildis": "B",
    "status": "Pending",
    "rowid": "859742",
    "final_x": "3674404.82734",
    "final_y": "522882.089083",
    "longitude": "-90.09077013295564",
    "latitude": "29.931957787187358",
    "geocoded_column": {
      "latitude": "29.931957787187358",
      "longitude": "-90.09077013295564"
    }
  },
  {
    "service_request": "2022-859741",
    "request_type": "Property Maintenance",
    "request_reason": "Property Maintenance",
    "date_created": "2022-02-08T17:25:15.000",
    "date_modified": "2022-02-08T17:25:15.000",
    "request_status": "Pending",
    "responsible_agency": "Department of Code Enforcement",
    "final_address": "11301 Curran Rd",
    "address_councildis": "E",
    "status": "Pending",
    "rowid": "859741",
    "final_x": "3711111.87832",
    "final_y": "566590.197347",
    "longitude": "-89.97325317692315",
    "latitude": "30.050992944568463",
    "geocoded_column": {
      "latitude": "30.050992944568463",
      "longitude": "-89.97325317692315"
    }
  },
  {
    "service_request": "2022-859740",
    "request_type": "Trash/Recycling",
    "request_reason": "Illegal Dumping",
    "date_created": "2022-02-08T17:24:56.000",
    "date_modified": "2022-02-08T17:24:56.000",
    "request_status": "Pending",
    "responsible_agency": "Department of Code Enforcement",
    "final_address": "11301 Curran Rd",
    "address_councildis": "E",
    "status": "Pending",
    "rowid": "859740",
    "final_x": "3711111.87832",
    "final_y": "566590.197347",
    "longitude": "-89.97325317692315",
    "latitude": "30.050992944568463",
    "geocoded_column": {
      "latitude": "30.050992944568463",
      "longitude": "-89.97325317692315"
    }
  },
  {
    "service_request": "2022-859739",
    "request_type": "COVID-19",
    "request_reason": "COVID-19 Business Non-Compliance",
    "date_created": "2022-02-08T17:22:15.000",
    "date_modified": "2022-02-08T17:22:17.000",
    "request_status": "Pending",
    "responsible_agency": "Safety and Permits",
    "final_address": "739 Canal St",
    "address_councildis": "C",
    "status": "Pending",
    "rowid": "859739",
    "final_x": "3681011.37141",
    "final_y": "530920.698434",
    "longitude": "-90.06963410407758",
    "latitude": "29.953862633161567",
    "geocoded_column": {
      "latitude": "29.953862633161567",
      "longitude": "-90.06963410407758"
    }
  },
  {
    "service_request": "2022-859738",
    "request_type": "Traffic Signals/Signs/Striping/Streetlights",
    "request_reason": "Street Light Outage/Malfunction",
    "date_created": "2022-02-08T17:20:45.000",
    "date_modified": "2022-02-08T17:20:46.000",
    "request_status": "Pending",
    "responsible_agency": "Department of Public Works",
    "final_address": "801 N Alexander St",
    "address_councildis": "A",
    "status": "Pending",
    "contractor": "Royal Engineering",
    "rowid": "859738",
    "final_x": "3671536.86721",
    "final_y": "541343.982156",
    "longitude": "-90.09919626866206",
    "latitude": "29.982807074386468",
    "geocoded_column": {
      "latitude": "29.982807074386468",
      "longitude": "-90.09919626866206"
    }
  },
  {
    "service_request": "2022-859737",
    "request_type": "Trash/Recycling",
    "request_reason": "Request a Large Item Pick Up",
    "date_created": "2022-02-08T17:02:06.000",
    "date_modified": "2022-02-08T17:02:07.000",
    "request_status": "Pending",
    "responsible_agency": "Department of Sanitation",
    "final_address": "208 Chartres St",
    "address_councildis": "C",
    "status": "Assigned to Contractor",
    "contractor": "Empire Services",
    "rowid": "859737",
    "final_x": "3681800.4758",
    "final_y": "530837.645698",
    "longitude": "-90.0671453372047",
    "latitude": "29.95361031318125",
    "geocoded_column": {
      "latitude": "29.95361031318125",
      "longitude": "-90.0671453372047"
    }
  },
  {
    "service_request": "2022-859736",
    "request_type": "Roads/Drainage",
    "request_reason": "Street Flooding / Drainage",
    "date_created": "2022-02-08T17:01:03.000",
    "date_modified": "2022-02-08T17:01:03.000",
    "request_status": "Pending",
    "responsible_agency": "Department of Public Works",
    "final_address": "7910 Alabama St",
    "address_councildis": "D",
    "status": "Pending",
    "rowid": "859736",
    "final_x": "3694566.07267",
    "final_y": "559362.853981",
    "longitude": "-90.02580933622197",
    "latitude": "30.031650168884997",
    "geocoded_column": {
      "latitude": "30.031650168884997",
      "longitude": "-90.02580933622197"
    }
  },
  {
    "service_request": "2022-859735",
    "request_type": "Traffic Signals/Signs/Striping/Streetlights",
    "request_reason": "Street Light Outage/Malfunction",
    "date_created": "2022-02-08T17:00:18.000",
    "date_modified": "2022-02-08T17:00:18.000",
    "request_status": "Pending",
    "responsible_agency": "Department of Public Works",
    "final_address": "2336 Mendez St",
    "address_councildis": "D",
    "status": "Pending",
    "contractor": "Royal Engineering",
    "rowid": "859735",
    "final_x": "3684709.27861",
    "final_y": "553451.437783",
    "longitude": "-90.05716531116327",
    "latitude": "30.015701545679384",
    "geocoded_column": {
      "latitude": "30.015701545679384",
      "longitude": "-90.05716531116327"
    }
  },
  {
    "service_request": "2022-859734",
    "request_type": "Traffic Signals/Signs/Striping/Streetlights",
    "request_reason": "Street Light Outage/Malfunction",
    "date_created": "2022-02-08T16:59:50.000",
    "date_modified": "2022-02-08T16:59:50.000",
    "request_status": "Pending",
    "responsible_agency": "Department of Public Works",
    "final_address": "2336 Mendez St",
    "address_councildis": "D",
    "status": "Pending",
    "contractor": "Royal Engineering",
    "rowid": "859734",
    "final_x": "3684709.27861",
    "final_y": "553451.437783",
    "longitude": "-90.05716531116327",
    "latitude": "30.015701545679384",
    "geocoded_column": {
      "latitude": "30.015701545679384",
      "longitude": "-90.05716531116327"
    }
  },
  {
    "service_request": "2022-859733",
    "request_type": "Trash/Recycling",
    "request_reason": "Return Trash Cart",
    "date_created": "2022-02-08T16:57:54.000",
    "date_modified": "2022-02-08T16:57:55.000",
    "request_status": "Pending",
    "responsible_agency": "Department of Sanitation",
    "final_address": "4006 Laurel St",
    "address_councildis": "B",
    "status": "Assigned to Contractor",
    "contractor": "Richards Disposal",
    "rowid": "859733",
    "final_x": "3672533.50356",
    "final_y": "518104.33087",
    "longitude": "-90.09684047978904",
    "latitude": "29.918876149634695",
    "geocoded_column": {
      "latitude": "29.918876149634695",
      "longitude": "-90.09684047978904"
    }
  },
  {
    "service_request": "2022-859731",
    "request_type": "Traffic Signals/Signs/Striping/Streetlights",
    "request_reason": "Street Light Outage/Malfunction",
    "date_created": "2022-02-08T16:57:30.000",
    "date_modified": "2022-02-08T16:57:30.000",
    "request_status": "Pending",
    "responsible_agency": "Department of Public Works",
    "final_address": "5617 Spain St",
    "address_councildis": "D",
    "status": "Pending",
    "contractor": "Royal Engineering",
    "rowid": "859731",
    "final_x": "3684777.11209",
    "final_y": "553648.009751",
    "longitude": "-90.0569440701347",
    "latitude": "30.01623996904414",
    "geocoded_column": {
      "latitude": "30.01623996904414",
      "longitude": "-90.0569440701347"
    }
  },
  {
    "service_request": "2022-859730",
    "request_type": "Trash/Recycling",
    "request_reason": "Request a Large Item Pick Up",
    "date_created": "2022-02-08T16:54:15.000",
    "date_modified": "2022-02-08T16:54:16.000",
    "request_status": "Pending",
    "responsible_agency": "Department of Sanitation",
    "final_address": "4006 Laurel St",
    "address_councildis": "B",
    "status": "Assigned to Contractor",
    "contractor": "Richards Disposal",
    "rowid": "859730",
    "final_x": "3672533.50356",
    "final_y": "518104.33087",
    "longitude": "-90.09684047978904",
    "latitude": "29.918876149634695",
    "geocoded_column": {
      "latitude": "29.918876149634695",
      "longitude": "-90.09684047978904"
    }
  },
  {
    "service_request": "2022-859729",
    "request_type": "Traffic Signals/Signs/Striping/Streetlights",
    "request_reason": "Street Light Outage/Malfunction",
    "date_created": "2022-02-08T16:52:24.000",
    "date_modified": "2022-02-08T16:52:25.000",
    "request_status": "Pending",
    "responsible_agency": "Department of Public Works",
    "final_address": "5525 Spain St",
    "address_councildis": "D",
    "status": "Pending",
    "contractor": "Royal Engineering",
    "rowid": "859729",
    "final_x": "3684823.18946",
    "final_y": "553334.530391",
    "longitude": "-90.0568095202178",
    "latitude": "30.015376604312173",
    "geocoded_column": {
      "latitude": "30.015376604312173",
      "longitude": "-90.0568095202178"
    }
  },
  {
    "service_request": "2022-859728",
    "request_type": "Trash/Recycling",
    "request_reason": "Illegal Dumping",
    "date_created": "2022-02-08T16:50:54.000",
    "date_modified": "2022-02-08T16:50:54.000",
    "request_status": "Pending",
    "responsible_agency": "Department of Sanitation",
    "final_address": "7900 Alabama St",
    "address_councildis": "D",
    "status": "Pending",
    "rowid": "859728",
    "final_x": "3694582.1455",
    "final_y": "559312.925853",
    "longitude": "-90.02576034594263",
    "latitude": "30.031512381283623",
    "geocoded_column": {
      "latitude": "30.031512381283623",
      "longitude": "-90.02576034594263"
    }
  },
  {
    "service_request": "2022-859727",
    "request_type": "Trash/Recycling",
    "request_reason": "Replace Recycling Cart",
    "date_created": "2022-02-08T16:49:20.000",
    "date_modified": "2022-02-08T16:49:20.000",
    "request_status": "Pending",
    "responsible_agency": "Department of Sanitation",
    "final_address": "939 Nashville Ave, New Orleans, Louisiana, 70115",
    "address_councildis": "A",
    "status": "Pending",
    "rowid": "859727",
    "final_x": "3665731.03789",
    "final_y": "519609.022712",
    "longitude": "-90.11826205882325",
    "latitude": "29.923213671948385",
    "geocoded_column": {
      "latitude": "29.923213671948385",
      "longitude": "-90.11826205882325"
    }
  },
  {
    "service_request": "2022-859726",
    "request_type": "Trash/Recycling",
    "request_reason": "Order Recycling Cart",
    "date_created": "2022-02-08T16:48:04.000",
    "date_modified": "2022-02-08T16:48:04.000",
    "request_status": "Pending",
    "responsible_agency": "Department of Sanitation",
    "final_address": "929 Burdette St, New Orleans, Louisiana, 70118",
    "address_councildis": "A",
    "status": "Pending",
    "rowid": "859726",
    "final_x": "3664620.26234",
    "final_y": "529569.524033",
    "longitude": "-90.12143582750514",
    "latitude": "29.95063422135673",
    "geocoded_column": {
      "latitude": "29.95063422135673",
      "longitude": "-90.12143582750514"
    }
  },
  {
    "service_request": "2022-859725",
    "request_type": "Trash/Recycling",
    "request_reason": "Order Trash Cart",
    "date_created": "2022-02-08T16:43:59.000",
    "date_modified": "2022-02-08T16:44:00.000",
    "request_status": "Pending",
    "responsible_agency": "Department of Sanitation",
    "final_address": "929 Burdette St, New Orleans, Louisiana, 70118",
    "address_councildis": "A",
    "status": "Assigned to Contractor",
    "contractor": "Richards Disposal",
    "rowid": "859725",
    "final_x": "3664620.26234",
    "final_y": "529569.524033",
    "longitude": "-90.12143582750514",
    "latitude": "29.95063422135673",
    "geocoded_column": {
      "latitude": "29.95063422135673",
      "longitude": "-90.12143582750514"
    }
  },
  {
    "service_request": "2022-859724",
    "request_type": "Traffic Signals/Signs/Striping/Streetlights",
    "request_reason": "Street Light Outage/Malfunction",
    "date_created": "2022-02-08T16:40:43.000",
    "date_modified": "2022-02-08T16:40:44.000",
    "request_status": "Pending",
    "responsible_agency": "Department of Public Works",
    "final_address": "FILMORE AVE & PARIS AVE",
    "address_councildis": "D",
    "status": "Pending",
    "contractor": "Royal Engineering",
    "rowid": "859724",
    "final_x": "3679126.3",
    "final_y": "551918.38",
    "longitude": "-90.07485818873242",
    "latitude": "30.011655980423722",
    "geocoded_column": {
      "latitude": "30.011655980423722",
      "longitude": "-90.07485818873242"
    }
  },
  {
    "service_request": "2022-859723",
    "request_type": "Traffic Signals/Signs/Striping/Streetlights",
    "request_reason": "Street Light Outage/Malfunction",
    "date_created": "2022-02-08T16:40:08.000",
    "date_modified": "2022-02-08T16:40:09.000",
    "request_status": "Pending",
    "responsible_agency": "Department of Public Works",
    "final_address": "FILMORE AVE & PARIS AVE",
    "address_councildis": "D",
    "status": "Pending",
    "contractor": "Royal Engineering",
    "rowid": "859723",
    "final_x": "3679126.3",
    "final_y": "551918.38",
    "longitude": "-90.07485818873242",
    "latitude": "30.011655980423722",
    "geocoded_column": {
      "latitude": "30.011655980423722",
      "longitude": "-90.07485818873242"
    }
  },
  {
    "service_request": "2022-859722",
    "request_type": "Trash/Recycling",
    "request_reason": "Replace Trash Cart",
    "date_created": "2022-02-08T16:37:59.000",
    "date_modified": "2022-02-08T16:37:59.000",
    "request_status": "Pending",
    "responsible_agency": "Department of Sanitation",
    "final_address": "1300 Elysian Fields Ave",
    "address_councildis": "C",
    "status": "Assigned to Contractor",
    "contractor": "Metro Disposal",
    "rowid": "859722",
    "final_x": "3684855.47484",
    "final_y": "537062.585032",
    "longitude": "-90.05728005535073",
    "latitude": "29.97063357367015",
    "geocoded_column": {
      "latitude": "29.97063357367015",
      "longitude": "-90.05728005535073"
    }
  },
  {
    "service_request": "2022-859721",
    "request_type": "Trash/Recycling",
    "request_reason": "Request a Large Item Pick Up",
    "date_created": "2022-02-08T16:37:27.000",
    "date_modified": "2022-02-08T16:37:28.000",
    "request_status": "Pending",
    "responsible_agency": "Department of Sanitation",
    "final_address": "7100 BLK Boston Dr",
    "address_councildis": "E",
    "status": "Assigned to Contractor",
    "contractor": "Metro Disposal",
    "rowid": "859721",
    "final_x": "3706132.19695",
    "final_y": "561278.83786",
    "longitude": "-89.98918907308942",
    "latitude": "30.03655039954185",
    "geocoded_column": {
      "latitude": "30.03655039954185",
      "longitude": "-89.98918907308942"
    }
  },
  {
    "service_request": "2022-859720",
    "request_type": "Trash/Recycling",
    "request_reason": "Order Trash Cart",
    "date_created": "2022-02-08T16:36:16.000",
    "date_modified": "2022-02-08T16:36:17.000",
    "request_status": "Pending",
    "responsible_agency": "Department of Sanitation",
    "final_address": "7100 BLK Boston Dr",
    "address_councildis": "E",
    "status": "Assigned to Contractor",
    "contractor": "Metro Disposal",
    "rowid": "859720",
    "final_x": "3706132.19695",
    "final_y": "561278.83786",
    "longitude": "-89.98918907308942",
    "latitude": "30.03655039954185",
    "geocoded_column": {
      "latitude": "30.03655039954185",
      "longitude": "-89.98918907308942"
    }
  },
  {
    "service_request": "2022-859719",
    "request_type": "Roads/Drainage",
    "request_reason": "Street Flooding / Drainage",
    "date_created": "2022-02-08T16:29:10.000",
    "date_modified": "2022-02-08T16:29:10.000",
    "request_status": "Pending",
    "responsible_agency": "Department of Public Works",
    "final_address": "2741 Jonquil St",
    "address_councildis": "D",
    "status": "Pending",
    "rowid": "859719",
    "final_x": "3688126.99062",
    "final_y": "547350.385937",
    "longitude": "-90.0465833926379",
    "latitude": "29.99882077773341",
    "geocoded_column": {
      "latitude": "29.99882077773341",
      "longitude": "-90.0465833926379"
    }
  },
  {
    "service_request": "2022-859717",
    "request_type": "Trash/Recycling",
    "request_reason": "Request a Large Item Pick Up",
    "date_created": "2022-02-08T16:17:48.000",
    "date_modified": "2022-02-08T16:17:50.000",
    "request_status": "Pending",
    "responsible_agency": "Department of Sanitation",
    "final_address": "4801 Francis Dr",
    "address_councildis": "D",
    "status": "Assigned to Contractor",
    "contractor": "Metro Disposal",
    "rowid": "859717",
    "final_x": "3698285.9537",
    "final_y": "554613.36956",
    "longitude": "-90.01422717121498",
    "latitude": "30.018473661517216",
    "geocoded_column": {
      "latitude": "30.018473661517216",
      "longitude": "-90.01422717121498"
    }
  },
  {
    "service_request": "2022-859716",
    "request_type": "Trash/Recycling",
    "request_reason": "Request a Large Item Pick Up",
    "date_created": "2022-02-08T16:17:37.000",
    "date_modified": "2022-02-08T16:17:38.000",
    "request_status": "Pending",
    "responsible_agency": "Department of Sanitation",
    "final_address": "2015 St Philip St",
    "address_councildis": "D",
    "status": "Assigned to Contractor",
    "contractor": "Richards Disposal",
    "rowid": "859716",
    "final_x": "3679530.99938",
    "final_y": "536239.166983",
    "longitude": "-90.07412395806277",
    "latitude": "29.9685314243136",
    "geocoded_column": {
      "latitude": "29.9685314243136",
      "longitude": "-90.07412395806277"
    }
  },
  {
    "service_request": "2022-859715",
    "request_type": "Traffic Signals/Signs/Striping/Streetlights",
    "request_reason": "Additional signage",
    "date_created": "2022-02-08T16:16:03.000",
    "date_modified": "2022-02-08T16:16:03.000",
    "request_status": "Pending",
    "responsible_agency": "Department of Public Works",
    "final_address": "LEAKE AVE & ST CHARLES AVE",
    "address_councildis": "A",
    "status": "Pending",
    "rowid": "859715",
    "final_x": "3660431.0",
    "final_y": "526875.98",
    "longitude": "-90.13475240157956",
    "latitude": "29.943349000393823",
    "geocoded_column": {
      "latitude": "29.943349000393823",
      "longitude": "-90.13475240157956"
    }
  },
  {
    "service_request": "2022-859714",
    "request_type": "Trash/Recycling",
    "request_reason": "Request a Large Item Pick Up",
    "date_created": "2022-02-08T16:05:38.000",
    "date_modified": "2022-02-08T16:05:39.000",
    "request_status": "Pending",
    "responsible_agency": "Department of Sanitation",
    "final_address": "3141 N Johnson St",
    "address_councildis": "D",
    "status": "Assigned to Contractor",
    "contractor": "Metro Disposal",
    "rowid": "859714",
    "final_x": "3690183.54659",
    "final_y": "539410.990986",
    "longitude": "-90.04036973969959",
    "latitude": "29.976926631899005",
    "geocoded_column": {
      "latitude": "29.976926631899005",
      "longitude": "-90.04036973969959"
    }
  },
  {
    "service_request": "2022-859713",
    "request_type": "Abandoned Vehicles",
    "request_reason": "Abandoned/Junk Vehicles",
    "date_created": "2022-02-08T16:03:11.000",
    "date_modified": "2022-02-08T16:10:07.000",
    "request_status": "Pending",
    "responsible_agency": "Department of Public Works",
    "status": "Inspected",
    "rowid": "859713",
    "longitude": "0.0",
    "latitude": "0.0",
    "geocoded_column": {
      "latitude": "0.0",
      "longitude": "0.0"
    }
  },
  {
    "service_request": "2022-859712",
    "request_type": "Trash/Recycling",
    "request_reason": "Request a Large Item Pick Up",
    "date_created": "2022-02-08T16:02:10.000",
    "date_modified": "2022-02-08T16:02:11.000",
    "case_close_date": "2022-01-17T18:00:00.000",
    "request_status": "Pending",
    "responsible_agency": "Department of Sanitation",
    "final_address": "13626 Dwyer Blvd",
    "address_councildis": "E",
    "status": "Assigned to Contractor",
    "contractor": "Metro Disposal",
    "rowid": "859712",
    "final_x": "3726612.3767",
    "final_y": "562112.468767",
    "longitude": "-89.92443606219479",
    "latitude": "30.038166052770492",
    "geocoded_column": {
      "latitude": "30.038166052770492",
      "longitude": "-89.92443606219479"
    }
  },
  {
    "service_request": "2022-859710",
    "request_type": "Trash/Recycling",
    "request_reason": "Illegal Dumping",
    "date_created": "2022-02-08T15:59:08.000",
    "date_modified": "2022-02-08T15:59:08.000",
    "request_status": "Pending",
    "responsible_agency": "Department of Sanitation",
    "final_address": "I 10 W & DWYER RD",
    "address_councildis": "D",
    "status": "Pending",
    "rowid": "859710",
    "final_x": "3698330.3",
    "final_y": "555353.88",
    "longitude": "-90.01406011520962",
    "latitude": "30.020508380217617",
    "geocoded_column": {
      "latitude": "30.020508380217617",
      "longitude": "-90.01406011520962"
    }
  },
  {
    "service_request": "2022-859709",
    "request_type": "Trash/Recycling",
    "request_reason": "Illegal Dumping",
    "date_created": "2022-02-08T15:58:13.000",
    "date_modified": "2022-02-08T15:58:13.000",
    "request_status": "Pending",
    "responsible_agency": "Department of Sanitation",
    "final_address": "DWYER RD & AMERICA ST",
    "address_councildis": "E",
    "status": "Pending",
    "rowid": "859709",
    "final_x": "3699656.9",
    "final_y": "555573.38",
    "longitude": "-90.00986047535794",
    "latitude": "30.021069857126363",
    "geocoded_column": {
      "latitude": "30.021069857126363",
      "longitude": "-90.00986047535794"
    }
  },
  {
    "service_request": "2022-859708",
    "request_type": "Trash/Recycling",
    "request_reason": "Illegal Dumping",
    "date_created": "2022-02-08T15:56:39.000",
    "date_modified": "2022-02-08T15:56:39.000",
    "request_status": "Pending",
    "responsible_agency": "Department of Sanitation",
    "final_address": "N DORGENOIS ST & DESLONDE ST",
    "address_councildis": "E",
    "status": "Pending",
    "rowid": "859708",
    "final_x": "3696835.6",
    "final_y": "539633.18",
    "longitude": "-90.01935250603867",
    "latitude": "29.977329501548173",
    "geocoded_column": {
      "latitude": "29.977329501548173",
      "longitude": "-90.01935250603867"
    }
  },
  {
    "service_request": "2022-859707",
    "request_type": "Trash/Recycling",
    "request_reason": "Illegal Dumping",
    "date_created": "2022-02-08T15:54:52.000",
    "date_modified": "2022-02-08T15:54:52.000",
    "request_status": "Pending",
    "responsible_agency": "Department of Sanitation",
    "final_address": "1200 BLK Reynes St",
    "address_councildis": "E",
    "status": "Pending",
    "rowid": "859707",
    "final_x": "3696118.33574",
    "final_y": "534806.731355",
    "longitude": "-90.02179233075769",
    "latitude": "29.96408108991671",
    "geocoded_column": {
      "latitude": "29.96408108991671",
      "longitude": "-90.02179233075769"
    }
  },
  {
    "service_request": "2022-859706",
    "request_type": "Trash/Recycling",
    "request_reason": "Illegal Dumping",
    "date_created": "2022-02-08T15:53:57.000",
    "date_modified": "2022-02-08T15:53:57.000",
    "request_status": "Pending",
    "responsible_agency": "Department of Sanitation",
    "final_address": "1100 BLK Tennessee St",
    "address_councildis": "E",
    "status": "Pending",
    "rowid": "859706",
    "final_x": "3695797.92825",
    "final_y": "534739.483786",
    "longitude": "-90.02280657292567",
    "latitude": "29.96390626318737",
    "geocoded_column": {
      "latitude": "29.96390626318737",
      "longitude": "-90.02280657292567"
    }
  },
  {
    "service_request": "2022-859705",
    "request_type": "Abandoned Vehicles",
    "request_reason": "Abandoned/Junk Vehicles",
    "date_created": "2022-02-08T15:51:21.000",
    "date_modified": "2022-02-08T15:51:21.000",
    "request_status": "Pending",
    "responsible_agency": "Department of Public Works",
    "final_address": "1020 Annunciation St",
    "address_councildis": "B",
    "status": "Pending",
    "rowid": "859705",
    "final_x": "3681707.26396",
    "final_y": "526302.087614",
    "longitude": "-90.06759785988025",
    "latitude": "29.94114188507435",
    "geocoded_column": {
      "latitude": "29.94114188507435",
      "longitude": "-90.06759785988025"
    }
  },
  {
    "service_request": "2022-859703",
    "request_type": "Health Related Questions",
    "request_reason": "Noise Ordinance Complaint",
    "date_created": "2022-02-08T15:46:03.000",
    "date_modified": "2022-02-08T15:46:03.000",
    "request_status": "Pending",
    "responsible_agency": "Health Department",
    "final_address": "1101 Royal St",
    "address_councildis": "C",
    "status": "Pending",
    "rowid": "859703",
    "final_x": "3683441.34671",
    "final_y": "533660.228549",
    "longitude": "-90.06186526556193",
    "latitude": "29.96132149302174",
    "geocoded_column": {
      "latitude": "29.96132149302174",
      "longitude": "-90.06186526556193"
    }
  },
  {
    "service_request": "2022-859702",
    "request_type": "Abandoned Vehicles",
    "request_reason": "Abandoned/Junk Vehicles",
    "date_created": "2022-02-08T15:42:08.000",
    "date_modified": "2022-02-08T15:42:08.000",
    "request_status": "Pending",
    "responsible_agency": "Department of Public Works",
    "final_address": "4511 Knight Dr",
    "address_councildis": "E",
    "status": "Pending",
    "rowid": "859702",
    "final_x": "3708346.486",
    "final_y": "554159.302232",
    "longitude": "-89.98245677715242",
    "latitude": "30.016902858339122",
    "geocoded_column": {
      "latitude": "30.016902858339122",
      "longitude": "-89.98245677715242"
    }
  },
  {
    "service_request": "2022-859701",
    "request_type": "Roads/Drainage",
    "request_reason": "Catch Basin - Clogged",
    "date_created": "2022-02-08T15:41:46.000",
    "date_modified": "2022-02-08T15:41:46.000",
    "request_status": "Pending",
    "responsible_agency": "Department of Public Works",
    "final_address": "121 N Clark St",
    "address_councildis": "B",
    "status": "Pending",
    "rowid": "859701",
    "final_x": "3672983.31892",
    "final_y": "537233.442888",
    "longitude": "-90.09476797412714",
    "latitude": "29.971461574587757",
    "geocoded_column": {
      "latitude": "29.971461574587757",
      "longitude": "-90.09476797412714"
    }
  },
  {
    "service_request": "2022-859700",
    "request_type": "Parks & Parkways",
    "request_reason": "Request Tree Service (Right of Way/Public Property)",
    "date_created": "2022-02-08T15:40:58.000",
    "date_modified": "2022-02-08T15:40:58.000",
    "request_status": "Pending",
    "responsible_agency": "Department of Parks & Parkway",
    "final_address": "CANAL BLVD & ROBERT E LEE BLVD",
    "address_councildis": "A",
    "status": "Pending",
    "rowid": "859700",
    "final_x": "3669092.6",
    "final_y": "554652.58",
    "longitude": "-90.10646644246677",
    "latitude": "30.0194732581145",
    "geocoded_column": {
      "latitude": "30.0194732581145",
      "longitude": "-90.10646644246677"
    }
  },
  {
    "service_request": "2022-859699",
    "request_type": "Trash/Recycling",
    "request_reason": "Missed Trash Pick-Up",
    "date_created": "2022-02-08T15:39:14.000",
    "date_modified": "2022-02-08T15:39:16.000",
    "request_status": "Pending",
    "responsible_agency": "Department of Sanitation",
    "final_address": "1500 N Roman St",
    "address_councildis": "D",
    "status": "Assigned to Contractor",
    "contractor": "Metro Disposal",
    "rowid": "859699",
    "final_x": "3681201.45461",
    "final_y": "537630.917128",
    "longitude": "-90.06880007108408",
    "latitude": "29.97230767556552",
    "geocoded_column": {
      "latitude": "29.97230767556552",
      "longitude": "-90.06880007108408"
    }
  },
  {
    "service_request": "2022-859698",
    "request_type": "Traffic Signals/Signs/Striping/Streetlights",
    "request_reason": "Traffic Signal Malfunctioning/Damaged",
    "date_created": "2022-02-08T15:39:06.000",
    "date_modified": "2022-02-08T15:39:06.000",
    "request_status": "Pending",
    "responsible_agency": "Department of Public Works",
    "final_address": "WASHINGTON AVE & MAGAZINE ST",
    "address_councildis": "B",
    "status": "Pending",
    "rowid": "859698",
    "final_x": "3677050.9",
    "final_y": "520822.68",
    "longitude": "-90.08248772433362",
    "latitude": "29.92621591740664",
    "geocoded_column": {
      "latitude": "29.92621591740664",
      "longitude": "-90.08248772433362"
    }
  },
  {
    "service_request": "2022-859697",
    "request_type": "Traffic Signals/Signs/Striping/Streetlights",
    "request_reason": "Street Light Outage/Malfunction",
    "date_created": "2022-02-08T15:37:26.000",
    "date_modified": "2022-02-08T15:37:26.000",
    "request_status": "Pending",
    "responsible_agency": "Department of Public Works",
    "final_address": "5643 Rosemary Pl",
    "address_councildis": "A",
    "status": "Pending",
    "contractor": "Royal Engineering",
    "rowid": "859697",
    "final_x": "3667247.35284",
    "final_y": "545091.861775",
    "longitude": "-90.11261865408011",
    "latitude": "29.993238806256056",
    "geocoded_column": {
      "latitude": "29.993238806256056",
      "longitude": "-90.11261865408011"
    }
  },
  {
    "service_request": "2022-859696",
    "request_type": "COVID-19",
    "request_reason": "COVID-19 Business Non-Compliance",
    "date_created": "2022-02-08T15:34:44.000",
    "date_modified": "2022-02-08T15:34:45.000",
    "request_status": "Pending",
    "responsible_agency": "Safety and Permits",
    "final_address": "830 Conti St",
    "address_councildis": "C",
    "status": "Pending",
    "rowid": "859696",
    "final_x": "3681394.18178",
    "final_y": "531901.761859",
    "longitude": "-90.06839114949983",
    "latitude": "29.95654861088931",
    "geocoded_column": {
      "latitude": "29.95654861088931",
      "longitude": "-90.06839114949983"
    }
  },
  {
    "service_request": "2022-859695",
    "request_type": "Roads/Drainage",
    "request_reason": "Pothole",
    "date_created": "2022-02-08T15:32:06.000",
    "date_modified": "2022-02-08T15:32:06.000",
    "request_status": "Pending",
    "responsible_agency": "Department of Public Works",
    "final_address": "1720 Soniat St, New Orleans, Louisiana, 70115",
    "address_councildis": "B",
    "status": "Pending",
    "rowid": "859695",
    "final_x": "3668395.56538",
    "final_y": "521986.59417",
    "longitude": "-90.10977099258422",
    "latitude": "29.92967327705658",
    "geocoded_column": {
      "latitude": "29.92967327705658",
      "longitude": "-90.10977099258422"
    }
  },
  {
    "service_request": "2022-859694",
    "request_type": "COVID-19",
    "request_reason": "COVID-19 Business Non-Compliance",
    "date_created": "2022-02-08T15:31:33.000",
    "date_modified": "2022-02-08T15:31:34.000",
    "request_status": "Pending",
    "responsible_agency": "Safety and Permits",
    "final_address": "533 Toulouse St",
    "address_councildis": "C",
    "status": "Pending",
    "rowid": "859694",
    "final_x": "3682709.01839",
    "final_y": "531893.626947",
    "longitude": "-90.06423961407563",
    "latitude": "29.95648626569676",
    "geocoded_column": {
      "latitude": "29.95648626569676",
      "longitude": "-90.06423961407563"
    }
  },
  {
    "service_request": "2022-859693",
    "request_type": "Trash/Recycling",
    "request_reason": "Replace Trash Cart",
    "date_created": "2022-02-08T15:31:04.000",
    "date_modified": "2022-02-08T15:31:05.000",
    "request_status": "Pending",
    "responsible_agency": "Department of Sanitation",
    "final_address": "90 Egret St",
    "address_councildis": "D",
    "status": "Assigned to Contractor",
    "contractor": "Metro Disposal",
    "rowid": "859693",
    "final_x": "3673837.83329",
    "final_y": "555680.712409",
    "longitude": "-90.09143785938417",
    "latitude": "30.022159695702435",
    "geocoded_column": {
      "latitude": "30.022159695702435",
      "longitude": "-90.09143785938417"
    }
  },
  {
    "service_request": "2022-859692",
    "request_type": "COVID-19",
    "request_reason": "COVID-19 Business Non-Compliance",
    "date_created": "2022-02-08T15:30:41.000",
    "date_modified": "2022-02-08T15:30:42.000",
    "request_status": "Pending",
    "responsible_agency": "Safety and Permits",
    "final_address": "533 Toulouse St",
    "address_councildis": "C",
    "status": "Pending",
    "rowid": "859692",
    "final_x": "3682709.01839",
    "final_y": "531893.626947",
    "longitude": "-90.06423961407563",
    "latitude": "29.95648626569676",
    "geocoded_column": {
      "latitude": "29.95648626569676",
      "longitude": "-90.06423961407563"
    }
  },
  {
    "service_request": "2022-859691",
    "request_type": "Traffic Signals/Signs/Striping/Streetlights",
    "request_reason": "Street Name Sign Damaged or Missing",
    "date_created": "2022-02-08T15:27:09.000",
    "date_modified": "2022-02-08T15:27:09.000",
    "request_status": "Pending",
    "responsible_agency": "Department of Public Works",
    "final_address": "5 Agriculture St",
    "address_councildis": "D",
    "status": "Pending",
    "rowid": "859691",
    "final_x": "3681719.87164",
    "final_y": "543152.605197",
    "longitude": "-90.06697009564193",
    "latitude": "29.98747464995326",
    "geocoded_column": {
      "latitude": "29.98747464995326",
      "longitude": "-90.06697009564193"
    }
  },
  {
    "service_request": "2022-859690",
    "request_type": "Trash/Recycling",
    "request_reason": "Request a Large Item Pick Up",
    "date_created": "2022-02-08T15:25:02.000",
    "date_modified": "2022-02-08T15:25:04.000",
    "request_status": "Pending",
    "responsible_agency": "Department of Sanitation",
    "final_address": "2025 Magazine St",
    "address_councildis": "B",
    "status": "Assigned to Contractor",
    "contractor": "Richards Disposal",
    "rowid": "859690",
    "final_x": "3679323.79387",
    "final_y": "522489.03705",
    "longitude": "-90.07525509471698",
    "latitude": "29.93072943395651",
    "geocoded_column": {
      "latitude": "29.93072943395651",
      "longitude": "-90.07525509471698"
    }
  },
  {
    "service_request": "2022-859689",
    "request_type": "Trash/Recycling",
    "request_reason": "Request a Large Item Pick Up",
    "date_created": "2022-02-08T15:24:08.000",
    "date_modified": "2022-02-08T15:24:09.000",
    "request_status": "Pending",
    "responsible_agency": "Department of Sanitation",
    "final_address": "2028 Magazine St",
    "address_councildis": "B",
    "status": "Assigned to Contractor",
    "contractor": "Richards Disposal",
    "rowid": "859689",
    "final_x": "3679348.02082",
    "final_y": "522403.682106",
    "longitude": "-90.07518157235823",
    "latitude": "29.930494004421814",
    "geocoded_column": {
      "latitude": "29.930494004421814",
      "longitude": "-90.07518157235823"
    }
  },
  {
    "service_request": "2022-859688",
    "request_type": "Trash/Recycling",
    "request_reason": "Replace Recycling Cart",
    "date_created": "2022-02-08T15:22:12.000",
    "date_modified": "2022-02-08T15:22:12.000",
    "request_status": "Pending",
    "responsible_agency": "Department of Sanitation",
    "final_address": "722 Louque Pl",
    "address_councildis": "A",
    "status": "Pending",
    "rowid": "859688",
    "final_x": "3668415.9433",
    "final_y": "543493.073358",
    "longitude": "-90.1089812217495",
    "latitude": "29.988808402033648",
    "geocoded_column": {
      "latitude": "29.988808402033648",
      "longitude": "-90.1089812217495"
    }
  },
  {
    "service_request": "2022-859687",
    "request_type": "Safety & Permits",
    "request_reason": "Safety & Permits Request (Cyber Incident Back Up)",
    "date_created": "2022-02-08T15:19:32.000",
    "date_modified": "2022-02-08T15:19:32.000",
    "request_status": "Pending",
    "responsible_agency": "Safety and Permits",
    "status": "Pending",
    "rowid": "859687",
    "longitude": "0.0",
    "latitude": "0.0",
    "geocoded_column": {
      "latitude": "0.0",
      "longitude": "0.0"
    }
  },
  {
    "service_request": "2022-859686",
    "request_type": "Property Maintenance",
    "request_reason": "Property Maintenance",
    "date_created": "2022-02-08T15:14:55.000",
    "date_modified": "2022-02-08T15:14:55.000",
    "request_status": "Pending",
    "responsible_agency": "Department of Code Enforcement",
    "final_address": "2124 St Denis St",
    "address_councildis": "D",
    "status": "Pending",
    "rowid": "859686",
    "final_x": "3683620.01653",
    "final_y": "546156.626896",
    "longitude": "-90.06086283443011",
    "latitude": "29.99567676283914",
    "geocoded_column": {
      "latitude": "29.99567676283914",
      "longitude": "-90.06086283443011"
    }
  },
  {
    "service_request": "2022-859685",
    "request_type": "Trash/Recycling",
    "request_reason": "Repair Trash Cart",
    "date_created": "2022-02-08T15:14:51.000",
    "date_modified": "2022-02-08T15:14:51.000",
    "request_status": "Pending",
    "responsible_agency": "Department of Sanitation",
    "final_address": "3935 Coliseum St",
    "address_councildis": "B",
    "status": "Assigned to Contractor",
    "contractor": "Richards Disposal",
    "rowid": "859685",
    "final_x": "3672534.44155",
    "final_y": "520017.433656",
    "longitude": "-90.09677235120941",
    "latitude": "29.924136543937344",
    "geocoded_column": {
      "latitude": "29.924136543937344",
      "longitude": "-90.09677235120941"
    }
  },
  {
    "service_request": "2022-859684",
    "request_type": "Trash/Recycling",
    "request_reason": "Replace Trash Cart",
    "date_created": "2022-02-08T15:11:41.000",
    "date_modified": "2022-02-08T15:11:41.000",
    "request_status": "Pending",
    "responsible_agency": "Department of Sanitation",
    "final_address": "2306 Short St, New Orleans, Louisiana, 70118",
    "address_councildis": "A",
    "status": "Assigned to Contractor",
    "contractor": "Richards Disposal",
    "rowid": "859684",
    "final_x": "3664907.14823",
    "final_y": "530994.835778",
    "longitude": "-90.1204823494632",
    "latitude": "29.9545450200299",
    "geocoded_column": {
      "latitude": "29.9545450200299",
      "longitude": "-90.1204823494632"
    }
  },
  {
    "service_request": "2022-859683",
    "request_type": "Property Maintenance",
    "request_reason": "Property Maintenance",
    "date_created": "2022-02-08T15:06:26.000",
    "date_modified": "2022-02-08T15:06:26.000",
    "request_status": "Pending",
    "responsible_agency": "Department of Code Enforcement",
    "final_address": "731 Valence St",
    "address_councildis": "B",
    "status": "Pending",
    "rowid": "859683",
    "final_x": "3670041.70286",
    "final_y": "518204.240374",
    "longitude": "-90.10470244302185",
    "latitude": "29.919224571159106",
    "geocoded_column": {
      "latitude": "29.919224571159106",
      "longitude": "-90.10470244302185"
    }
  },
  {
    "service_request": "2022-859682",
    "request_type": "Trash/Recycling",
    "request_reason": "MIssed Recycling Pick-Up",
    "date_created": "2022-02-08T14:59:49.000",
    "date_modified": "2022-02-08T14:59:53.000",
    "request_status": "Pending",
    "responsible_agency": "Department of Sanitation",
    "final_address": "1216 Shirley Dr",
    "address_councildis": "C",
    "status": "Assigned to Contractor",
    "contractor": "Richards Disposal",
    "rowid": "859682",
    "final_x": "3693204.82499",
    "final_y": "526704.765182",
    "longitude": "-90.03128363292335",
    "latitude": "29.941894878022655",
    "geocoded_column": {
      "latitude": "29.941894878022655",
      "longitude": "-90.03128363292335"
    }
  },
  {
    "service_request": "2022-859681",
    "request_type": "Trash/Recycling",
    "request_reason": "Request a Large Item Pick Up",
    "date_created": "2022-02-08T14:58:51.000",
    "date_modified": "2022-02-08T14:58:52.000",
    "request_status": "Pending",
    "responsible_agency": "Department of Sanitation",
    "final_address": "835 Governor Nicholls St",
    "address_councildis": "C",
    "status": "Assigned to Contractor",
    "contractor": "Empire Services",
    "rowid": "859681",
    "final_x": "3683154.8557",
    "final_y": "534334.219333",
    "longitude": "-90.06274635218878",
    "latitude": "29.963183474538464",
    "geocoded_column": {
      "latitude": "29.963183474538464",
      "longitude": "-90.06274635218878"
    }
  },
  {
    "service_request": "2022-859680",
    "request_type": "Roads/Drainage",
    "request_reason": "Catch Basin - Clogged",
    "date_created": "2022-02-08T14:55:41.000",
    "date_modified": "2022-02-08T14:55:41.000",
    "request_status": "Pending",
    "responsible_agency": "Department of Public Works",
    "final_address": "2235 S Carrollton Ave",
    "address_councildis": "A",
    "status": "Pending",
    "rowid": "859680",
    "final_x": "3664667.34394",
    "final_y": "531074.938114",
    "longitude": "-90.12123688553835",
    "latitude": "29.954772252680524",
    "geocoded_column": {
      "latitude": "29.954772252680524",
      "longitude": "-90.12123688553835"
    }
  },
  {
    "service_request": "2022-859679",
    "request_type": "Trash/Recycling",
    "request_reason": "Request a Large Item Pick Up",
    "date_created": "2022-02-08T14:50:32.000",
    "date_modified": "2022-02-08T14:50:34.000",
    "request_status": "Pending",
    "responsible_agency": "Department of Sanitation",
    "final_address": "2422 Annette St",
    "address_councildis": "D",
    "status": "Assigned to Contractor",
    "contractor": "Metro Disposal",
    "rowid": "859679",
    "final_x": "3682700.29634",
    "final_y": "541145.894028",
    "longitude": "-90.06394349783824",
    "latitude": "29.98192706965106",
    "geocoded_column": {
      "latitude": "29.98192706965106",
      "longitude": "-90.06394349783824"
    }
  },
  {
    "service_request": "2022-859678",
    "request_type": "Trash/Recycling",
    "request_reason": "Order Trash Cart",
    "date_created": "2022-02-08T14:48:33.000",
    "date_modified": "2022-02-08T14:48:34.000",
    "request_status": "Pending",
    "responsible_agency": "Department of Sanitation",
    "final_address": "4529 Constance St",
    "address_councildis": "B",
    "status": "Assigned to Contractor",
    "contractor": "Richards Disposal",
    "rowid": "859678",
    "final_x": "3670437.70644",
    "final_y": "518434.368374",
    "longitude": "-90.10344466055341",
    "latitude": "29.919845668757926",
    "geocoded_column": {
      "latitude": "29.919845668757926",
      "longitude": "-90.10344466055341"
    }
  },
  {
    "service_request": "2022-859677",
    "request_type": "Roads/Drainage",
    "request_reason": "Street Subsidence (Sinking)",
    "date_created": "2022-02-08T14:47:44.000",
    "date_modified": "2022-02-08T14:47:44.000",
    "request_status": "Pending",
    "responsible_agency": "Department of Public Works",
    "final_address": "8916 Olive St",
    "address_councildis": "A",
    "status": "Pending",
    "rowid": "859677",
    "final_x": "3665019.18093",
    "final_y": "536157.352071",
    "longitude": "-90.11995597197631",
    "latitude": "29.96873698563263",
    "geocoded_column": {
      "latitude": "29.96873698563263",
      "longitude": "-90.11995597197631"
    }
  },
  {
    "service_request": "2022-859676",
    "request_type": "Abandoned Vehicles",
    "request_reason": "Abandoned/Junk Vehicles",
    "date_created": "2022-02-08T14:44:55.000",
    "date_modified": "2022-02-08T14:44:55.000",
    "request_status": "Pending",
    "responsible_agency": "Department of Public Works",
    "final_address": "CARONDELET ST & POLYMNIA ST",
    "address_councildis": "B",
    "status": "Pending",
    "rowid": "859676",
    "final_x": "3678328.3",
    "final_y": "525014.98",
    "longitude": "-90.0783103882466",
    "latitude": "29.93770496385486",
    "geocoded_column": {
      "latitude": "29.93770496385486",
      "longitude": "-90.0783103882466"
    }
  },
  {
    "service_request": "2022-859675",
    "request_type": "Trash/Recycling",
    "request_reason": "Missed Trash Pick-Up",
    "date_created": "2022-02-08T14:41:00.000",
    "date_modified": "2022-02-08T14:41:01.000",
    "request_status": "Pending",
    "responsible_agency": "Department of Sanitation",
    "final_address": "1472 N Roman St",
    "address_councildis": "D",
    "status": "Assigned to Contractor",
    "contractor": "Metro Disposal",
    "rowid": "859675",
    "final_x": "3681113.96981",
    "final_y": "537512.178248",
    "longitude": "-90.06908050046881",
    "latitude": "29.971983839060513",
    "geocoded_column": {
      "latitude": "29.971983839060513",
      "longitude": "-90.06908050046881"
    }
  },
  {
    "service_request": "2022-859674",
    "request_type": "Property Maintenance",
    "request_reason": "Property Maintenance",
    "date_created": "2022-02-08T14:40:13.000",
    "date_modified": "2022-02-08T14:40:13.000",
    "request_status": "Pending",
    "responsible_agency": "Department of Code Enforcement",
    "final_address": "4621 St Roch Ave",
    "address_councildis": "D",
    "status": "Pending",
    "rowid": "859674",
    "final_x": "3685480.3014",
    "final_y": "549759.814612",
    "longitude": "-90.05485937341417",
    "latitude": "30.005527294604413",
    "geocoded_column": {
      "latitude": "30.005527294604413",
      "longitude": "-90.05485937341417"
    }
  },
  {
    "service_request": "2022-859673",
    "request_type": "Abandoned Vehicles",
    "request_reason": "Abandoned/Junk Vehicles",
    "date_created": "2022-02-08T14:40:08.000",
    "date_modified": "2022-02-08T14:40:08.000",
    "request_status": "Pending",
    "responsible_agency": "Department of Public Works",
    "final_address": "1705 Milan St",
    "address_councildis": "B",
    "status": "Pending",
    "rowid": "859673",
    "final_x": "3671612.0987",
    "final_y": "521387.865273",
    "longitude": "-90.099637292902",
    "latitude": "29.927932129537197",
    "geocoded_column": {
      "latitude": "29.927932129537197",
      "longitude": "-90.099637292902"
    }
  },
  {
    "service_request": "2022-859672",
    "request_type": "Trash/Recycling",
    "request_reason": "Order Recycling Cart",
    "date_created": "2022-02-08T14:32:38.000",
    "date_modified": "2022-02-08T14:32:39.000",
    "request_status": "Pending",
    "responsible_agency": "Department of Sanitation",
    "final_address": "2410 Palmer Ave",
    "address_councildis": "A",
    "status": "Pending",
    "rowid": "859672",
    "final_x": "3666315.65345",
    "final_y": "525685.750333",
    "longitude": "-90.11621289133215",
    "latitude": "29.939905683116457",
    "geocoded_column": {
      "latitude": "29.939905683116457",
      "longitude": "-90.11621289133215"
    }
  },
  {
    "service_request": "2022-859671",
    "request_type": "Trash/Recycling",
    "request_reason": "Request a Large Item Pick Up",
    "date_created": "2022-02-08T14:28:01.000",
    "date_modified": "2022-02-08T14:28:01.000",
    "request_status": "Pending",
    "responsible_agency": "Department of Sanitation",
    "final_address": "5175 Marigny St",
    "address_councildis": "D",
    "status": "Assigned to Contractor",
    "contractor": "Metro Disposal",
    "rowid": "859671",
    "final_x": "3684372.18313",
    "final_y": "551941.512214",
    "longitude": "-90.05828346455047",
    "latitude": "30.011560120626964",
    "geocoded_column": {
      "latitude": "30.011560120626964",
      "longitude": "-90.05828346455047"
    }
  },
  {
    "service_request": "2022-859670",
    "request_type": "Traffic Signals/Signs/Striping/Streetlights",
    "request_reason": "Street Light Outage/Malfunction",
    "date_created": "2022-02-08T14:27:42.000",
    "date_modified": "2022-02-08T14:27:43.000",
    "request_status": "Pending",
    "responsible_agency": "Department of Public Works",
    "final_address": "715 Dauphine St",
    "address_councildis": "C",
    "status": "Pending",
    "contractor": "Royal Engineering",
    "rowid": "859670",
    "final_x": "3682039.67042",
    "final_y": "533011.589636",
    "longitude": "-90.06631415818113",
    "latitude": "29.959580649967876",
    "geocoded_column": {
      "latitude": "29.959580649967876",
      "longitude": "-90.06631415818113"
    }
  },
  {
    "service_request": "2022-859669",
    "request_type": "Traffic Signals/Signs/Striping/Streetlights",
    "request_reason": "Street Light Outage/Malfunction",
    "date_created": "2022-02-08T14:26:07.000",
    "date_modified": "2022-02-08T14:26:07.000",
    "request_status": "Pending",
    "responsible_agency": "Department of Public Works",
    "final_address": "622 Dauphine St",
    "address_councildis": "C",
    "status": "Pending",
    "contractor": "Royal Engineering",
    "rowid": "859669",
    "final_x": "3681884.00322",
    "final_y": "532729.118276",
    "longitude": "-90.0668155780681",
    "latitude": "29.958808682069648",
    "geocoded_column": {
      "latitude": "29.958808682069648",
      "longitude": "-90.0668155780681"
    }
  },
  {
    "service_request": "2022-859668",
    "request_type": "Trash/Recycling",
    "request_reason": "Missed Trash Pick-Up",
    "date_created": "2022-02-08T14:23:10.000",
    "date_modified": "2022-02-08T14:23:11.000",
    "request_status": "Pending",
    "responsible_agency": "Department of Sanitation",
    "final_address": "1472 N Roman St",
    "address_councildis": "D",
    "status": "Assigned to Contractor",
    "contractor": "Metro Disposal",
    "rowid": "859668",
    "final_x": "3681113.96981",
    "final_y": "537512.178248",
    "longitude": "-90.06908050046881",
    "latitude": "29.971983839060513",
    "geocoded_column": {
      "latitude": "29.971983839060513",
      "longitude": "-90.06908050046881"
    }
  },
  {
    "service_request": "2022-859667",
    "request_type": "Abandoned Vehicles",
    "request_reason": "Abandoned/Junk Vehicles",
    "date_created": "2022-02-08T14:22:18.000",
    "date_modified": "2022-02-08T14:22:18.000",
    "request_status": "Pending",
    "responsible_agency": "Department of Public Works",
    "final_address": "3019 Dryades St",
    "address_councildis": "B",
    "status": "Pending",
    "rowid": "859667",
    "final_x": "3674482.99604",
    "final_y": "522938.900411",
    "longitude": "-90.09052141694757",
    "latitude": "29.93211166885501",
    "geocoded_column": {
      "latitude": "29.93211166885501",
      "longitude": "-90.09052141694757"
    }
  },
  {
    "service_request": "2022-859666",
    "request_type": "Traffic Signals/Signs/Striping/Streetlights",
    "request_reason": "Street Light Outage/Malfunction",
    "date_created": "2022-02-08T14:22:12.000",
    "date_modified": "2022-02-08T14:22:13.000",
    "request_status": "Pending",
    "responsible_agency": "Department of Public Works",
    "final_address": "622 Dauphine St",
    "address_councildis": "C",
    "status": "Pending",
    "contractor": "Royal Engineering",
    "rowid": "859666",
    "final_x": "3681884.00322",
    "final_y": "532729.118276",
    "longitude": "-90.0668155780681",
    "latitude": "29.958808682069648",
    "geocoded_column": {
      "latitude": "29.958808682069648",
      "longitude": "-90.0668155780681"
    }
  },
  {
    "service_request": "2022-859665",
    "request_type": "Property Maintenance",
    "request_reason": "Property Maintenance",
    "date_created": "2022-02-08T14:21:44.000",
    "date_modified": "2022-02-08T14:21:44.000",
    "request_status": "Pending",
    "responsible_agency": "Department of Code Enforcement",
    "final_address": "4936 Marque Dr",
    "address_councildis": "E",
    "status": "Pending",
    "rowid": "859665",
    "final_x": "3709871.33246",
    "final_y": "556941.142938",
    "longitude": "-89.97753494343715",
    "latitude": "30.024502315793235",
    "geocoded_column": {
      "latitude": "30.024502315793235",
      "longitude": "-89.97753494343715"
    }
  },
  {
    "service_request": "2022-859664",
    "request_type": "Traffic Signals/Signs/Striping/Streetlights",
    "request_reason": "Street Light Outage/Malfunction",
    "date_created": "2022-02-08T14:18:51.000",
    "date_modified": "2022-02-08T14:18:51.000",
    "request_status": "Pending",
    "responsible_agency": "Department of Public Works",
    "final_address": "200 Dauphine St",
    "address_councildis": "C",
    "status": "Pending",
    "contractor": "Royal Engineering",
    "rowid": "859664",
    "final_x": "3681036.30971",
    "final_y": "531600.413635",
    "longitude": "-90.06953168711884",
    "latitude": "29.955730863656704",
    "geocoded_column": {
      "latitude": "29.955730863656704",
      "longitude": "-90.06953168711884"
    }
  },
  {
    "service_request": "2022-859663",
    "request_type": "Roads/Drainage",
    "request_reason": "Damaged Sidewalk",
    "date_created": "2022-02-08T14:16:00.000",
    "date_modified": "2022-02-08T14:16:00.000",
    "request_status": "Pending",
    "responsible_agency": "Department of Public Works",
    "final_address": "2800 BLK S Johnson St",
    "address_councildis": "B",
    "status": "Pending",
    "rowid": "859663",
    "final_x": "3672253.71385",
    "final_y": "527768.805471",
    "longitude": "-90.09739458821986",
    "latitude": "29.945458634562424",
    "geocoded_column": {
      "latitude": "29.945458634562424",
      "longitude": "-90.09739458821986"
    }
  },
  {
    "service_request": "2022-859662",
    "request_type": "Traffic Signals/Signs/Striping/Streetlights",
    "request_reason": "Street Light Outage/Malfunction",
    "date_created": "2022-02-08T14:15:44.000",
    "date_modified": "2022-02-08T14:15:44.000",
    "request_status": "Pending",
    "responsible_agency": "Department of Public Works",
    "final_address": "200 Dauphine St",
    "address_councildis": "C",
    "status": "Pending",
    "contractor": "Royal Engineering",
    "rowid": "859662",
    "final_x": "3681036.30971",
    "final_y": "531600.413635",
    "longitude": "-90.06953168711884",
    "latitude": "29.955730863656704",
    "geocoded_column": {
      "latitude": "29.955730863656704",
      "longitude": "-90.06953168711884"
    }
  },
  {
    "service_request": "2022-859661",
    "request_type": "Trash/Recycling",
    "request_reason": "Order Recycling Cart",
    "date_created": "2022-02-08T14:15:32.000",
    "date_modified": "2022-02-08T14:15:32.000",
    "request_status": "Pending",
    "responsible_agency": "Department of Sanitation",
    "final_address": "5601 Norland Ave",
    "address_councildis": "C",
    "status": "Pending",
    "rowid": "859661",
    "final_x": "3704258.95441",
    "final_y": "520669.932665",
    "longitude": "-89.99660597343373",
    "latitude": "29.92495118596325",
    "geocoded_column": {
      "latitude": "29.92495118596325",
      "longitude": "-89.99660597343373"
    }
  },
  {
    "service_request": "2022-859660",
    "request_type": "Trash/Recycling",
    "request_reason": "MIssed Recycling Pick-Up",
    "date_created": "2022-02-08T14:14:48.000",
    "date_modified": "2022-02-08T14:14:48.000",
    "request_status": "Pending",
    "responsible_agency": "Department of Sanitation",
    "final_address": "4630 St Charles Ave",
    "address_councildis": "B",
    "status": "Assigned to Contractor",
    "contractor": "Richards Disposal",
    "rowid": "859660",
    "final_x": "3669824.55719",
    "final_y": "520628.244792",
    "longitude": "-90.10530586201752",
    "latitude": "29.925896214610017",
    "geocoded_column": {
      "latitude": "29.925896214610017",
      "longitude": "-90.10530586201752"
    }
  },
  {
    "service_request": "2022-859659",
    "request_type": "Traffic Signals/Signs/Striping/Streetlights",
    "request_reason": "Street Light Outage/Malfunction",
    "date_created": "2022-02-08T14:13:53.000",
    "date_modified": "2022-02-08T14:13:54.000",
    "request_status": "Pending",
    "responsible_agency": "Department of Public Works",
    "final_address": "401 38Th St",
    "address_councildis": "A",
    "status": "Pending",
    "contractor": "Royal Engineering",
    "rowid": "859659",
    "final_x": "3664963.22592",
    "final_y": "552759.808022",
    "longitude": "-90.11957728890528",
    "latitude": "30.014389724415707",
    "geocoded_column": {
      "latitude": "30.014389724415707",
      "longitude": "-90.11957728890528"
    }
  },
  {
    "service_request": "2022-859658",
    "request_type": "Traffic Signals/Signs/Striping/Streetlights",
    "request_reason": "Street Light Outage/Malfunction",
    "date_created": "2022-02-08T14:12:14.000",
    "date_modified": "2022-02-08T14:12:15.000",
    "request_status": "Pending",
    "responsible_agency": "Department of Public Works",
    "final_address": "241 Dauphine St",
    "address_councildis": "C",
    "status": "Pending",
    "contractor": "Royal Engineering",
    "rowid": "859658",
    "final_x": "3681025.16431",
    "final_y": "531738.215171",
    "longitude": "-90.06956208121869",
    "latitude": "29.95611010919252",
    "geocoded_column": {
      "latitude": "29.95611010919252",
      "longitude": "-90.06956208121869"
    }
  },
  {
    "service_request": "2022-859657",
    "request_type": "Traffic Signals/Signs/Striping/Streetlights",
    "request_reason": "Street Light Outage/Malfunction",
    "date_created": "2022-02-08T14:09:50.000",
    "date_modified": "2022-02-08T14:09:51.000",
    "request_status": "Pending",
    "responsible_agency": "Department of Public Works",
    "final_address": "401 38Th St",
    "address_councildis": "A",
    "status": "Pending",
    "contractor": "Royal Engineering",
    "rowid": "859657",
    "final_x": "3664963.22592",
    "final_y": "552759.808022",
    "longitude": "-90.11957728890528",
    "latitude": "30.014389724415707",
    "geocoded_column": {
      "latitude": "30.014389724415707",
      "longitude": "-90.11957728890528"
    }
  },
  {
    "service_request": "2022-859656",
    "request_type": "Traffic Signals/Signs/Striping/Streetlights",
    "request_reason": "Street Light Outage/Malfunction",
    "date_created": "2022-02-08T14:06:49.000",
    "date_modified": "2022-02-08T14:06:50.000",
    "request_status": "Pending",
    "responsible_agency": "Department of Public Works",
    "final_address": "100 Bourbon St",
    "address_councildis": "C",
    "status": "Pending",
    "contractor": "Royal Engineering",
    "rowid": "859656",
    "final_x": "3681026.51387",
    "final_y": "530995.060226",
    "longitude": "-90.06958370079413",
    "latitude": "29.954066643745975",
    "geocoded_column": {
      "latitude": "29.954066643745975",
      "longitude": "-90.06958370079413"
    }
  },
  {
    "service_request": "2022-859655",
    "request_type": "Trash/Recycling",
    "request_reason": "Order Recycling Cart",
    "date_created": "2022-02-08T14:06:25.000",
    "date_modified": "2022-02-08T14:06:25.000",
    "request_status": "Pending",
    "responsible_agency": "Department of Sanitation",
    "final_address": "3128 General Taylor St",
    "address_councildis": "B",
    "status": "Pending",
    "rowid": "859655",
    "final_x": "3671284.32334",
    "final_y": "526591.83859",
    "longitude": "-90.10049525589628",
    "latitude": "29.942251074951606",
    "geocoded_column": {
      "latitude": "29.942251074951606",
      "longitude": "-90.10049525589628"
    }
  },
  {
    "service_request": "2022-859654",
    "request_type": "Trash/Recycling",
    "request_reason": "Replace Trash Cart",
    "date_created": "2022-02-08T14:05:44.000",
    "date_modified": "2022-02-08T14:05:45.000",
    "request_status": "Pending",
    "responsible_agency": "Department of Sanitation",
    "final_address": "5601 Norland Ave",
    "address_councildis": "C",
    "status": "Assigned to Contractor",
    "contractor": "Richards Disposal",
    "rowid": "859654",
    "final_x": "3704258.95441",
    "final_y": "520669.932665",
    "longitude": "-89.99660597343373",
    "latitude": "29.92495118596325",
    "geocoded_column": {
      "latitude": "29.92495118596325",
      "longitude": "-89.99660597343373"
    }
  },
  {
    "service_request": "2022-859653",
    "request_type": "Abandoned Vehicles",
    "request_reason": "Abandoned/Junk Vehicles",
    "date_created": "2022-02-08T14:04:29.000",
    "date_modified": "2022-02-08T14:04:29.000",
    "request_status": "Pending",
    "responsible_agency": "Department of Public Works",
    "status": "Inspected",
    "rowid": "859653",
    "longitude": "0.0",
    "latitude": "0.0",
    "geocoded_column": {
      "latitude": "0.0",
      "longitude": "0.0"
    }
  },
  {
    "service_request": "2022-859652",
    "request_type": "Traffic Signals/Signs/Striping/Streetlights",
    "request_reason": "Street Light Outage/Malfunction",
    "date_created": "2022-02-08T14:03:18.000",
    "date_modified": "2022-02-08T14:03:19.000",
    "request_status": "Pending",
    "responsible_agency": "Department of Public Works",
    "final_address": "111 Bourbon St",
    "address_councildis": "C",
    "status": "Pending",
    "contractor": "Royal Engineering",
    "rowid": "859652",
    "final_x": "3680985.92226",
    "final_y": "531054.299202",
    "longitude": "-90.06970980977562",
    "latitude": "29.954230761821293",
    "geocoded_column": {
      "latitude": "29.954230761821293",
      "longitude": "-90.06970980977562"
    }
  },
  {
    "service_request": "2022-859651",
    "request_type": "Roads/Drainage",
    "request_reason": "Damaged Sidewalk",
    "date_created": "2022-02-08T14:02:40.000",
    "date_modified": "2022-02-08T14:02:40.000",
    "request_status": "Pending",
    "responsible_agency": "Department of Public Works",
    "final_address": "1701 Jena St",
    "address_councildis": "B",
    "status": "Pending",
    "rowid": "859651",
    "final_x": "3670435.17985",
    "final_y": "521315.126329",
    "longitude": "-90.10335502722437",
    "latitude": "29.927766910941525",
    "geocoded_column": {
      "latitude": "29.927766910941525",
      "longitude": "-90.10335502722437"
    }
  },
  {
    "service_request": "2022-859650",
    "request_type": "Traffic Signals/Signs/Striping/Streetlights",
    "request_reason": "Street Light Outage/Malfunction",
    "date_created": "2022-02-08T14:00:38.000",
    "date_modified": "2022-02-08T14:00:39.000",
    "request_status": "Pending",
    "responsible_agency": "Department of Public Works",
    "final_address": "100 Bourbon St",
    "address_councildis": "C",
    "status": "Pending",
    "contractor": "Royal Engineering",
    "rowid": "859650",
    "final_x": "3681026.51387",
    "final_y": "530995.060226",
    "longitude": "-90.06958370079413",
    "latitude": "29.954066643745975",
    "geocoded_column": {
      "latitude": "29.954066643745975",
      "longitude": "-90.06958370079413"
    }
  },
  {
    "service_request": "2022-859649",
    "request_type": "Roads/Drainage",
    "request_reason": "Street Subsidence (Sinking)",
    "date_created": "2022-02-08T13:58:58.000",
    "date_modified": "2022-02-08T13:58:58.000",
    "request_status": "Pending",
    "responsible_agency": "Department of Public Works",
    "final_address": "2735 Orleans Ave",
    "address_councildis": "A",
    "status": "Pending",
    "rowid": "859649",
    "final_x": "3676550.81576",
    "final_y": "537262.015688",
    "longitude": "-90.08350030793677",
    "latitude": "29.971433625757324",
    "geocoded_column": {
      "latitude": "29.971433625757324",
      "longitude": "-90.08350030793677"
    }
  },
  {
    "service_request": "2022-859648",
    "request_type": "Taxi Issues",
    "request_reason": "Taxi Complaint",
    "date_created": "2022-02-08T13:58:43.000",
    "date_modified": "2022-02-08T13:59:54.000",
    "request_status": "Pending",
    "responsible_agency": "Ground Transportation Bureau",
    "final_address": "3615 Tulane Ave",
    "address_councildis": "B",
    "status": "Pending",
    "rowid": "859648",
    "final_x": "3671115.90145",
    "final_y": "535545.517702",
    "longitude": "-90.1007229078135",
    "latitude": "29.96687571785411",
    "geocoded_column": {
      "latitude": "29.96687571785411",
      "longitude": "-90.1007229078135"
    }
  },
  {
    "service_request": "2022-859646",
    "request_type": "Roads/Drainage",
    "request_reason": "Catch Basin - Clogged",
    "date_created": "2022-02-08T13:48:24.000",
    "date_modified": "2022-02-08T13:48:24.000",
    "request_status": "Pending",
    "responsible_agency": "Department of Public Works",
    "final_address": "449 Esplanade Ave",
    "address_councildis": "C",
    "status": "Pending",
    "rowid": "859646",
    "final_x": "3684741.20553",
    "final_y": "533977.461061",
    "longitude": "-90.05774939485322",
    "latitude": "29.962154048884628",
    "geocoded_column": {
      "latitude": "29.962154048884628",
      "longitude": "-90.05774939485322"
    }
  },
  {
    "service_request": "2022-859645",
    "request_type": "Roads/Drainage",
    "request_reason": "Catch Basin - Clogged",
    "date_created": "2022-02-08T13:45:20.000",
    "date_modified": "2022-02-08T13:45:54.000",
    "case_close_date": "2022-02-08T07:45:54.000",
    "request_status": "Closed",
    "responsible_agency": "Department of Public Works",
    "final_address": "2547 Esplanade Ave",
    "address_councildis": "D",
    "status": "Resolved",
    "rowid": "859645",
    "final_x": "3678352.03323",
    "final_y": "538899.433354",
    "longitude": "-90.07775513734985",
    "latitude": "29.97588181663879",
    "geocoded_column": {
      "latitude": "29.97588181663879",
      "longitude": "-90.07775513734985"
    }
  },
  {
    "service_request": "2022-859644",
    "request_type": "Traffic Signals/Signs/Striping/Streetlights",
    "request_reason": "Street Light Outage/Malfunction",
    "date_created": "2022-02-08T13:43:45.000",
    "date_modified": "2022-02-08T13:44:07.000",
    "request_status": "Pending",
    "responsible_agency": "Department of Public Works",
    "final_address": "6338 Mandeville St",
    "address_councildis": "D",
    "status": "Pending",
    "contractor": "Royal Engineering",
    "rowid": "859644",
    "final_x": "3684113.21141",
    "final_y": "556463.040794",
    "longitude": "-90.05894278208541",
    "latitude": "30.024000586992912",
    "geocoded_column": {
      "latitude": "30.024000586992912",
      "longitude": "-90.05894278208541"
    }
  },
  {
    "service_request": "2022-859643",
    "request_type": "Property Maintenance",
    "request_reason": "Property Maintenance",
    "date_created": "2022-02-08T13:43:44.000",
    "date_modified": "2022-02-08T13:46:34.000",
    "case_close_date": "2022-02-08T07:46:34.000",
    "request_status": "Closed",
    "responsible_agency": "Department of Code Enforcement",
    "final_address": "2673 New Orleans St",
    "address_councildis": "D",
    "status": "Referred to Code Enforcement",
    "rowid": "859643",
    "final_x": "3681952.90012",
    "final_y": "542247.226829",
    "longitude": "-90.06626566368047",
    "latitude": "29.984978094323274",
    "geocoded_column": {
      "latitude": "29.984978094323274",
      "longitude": "-90.06626566368047"
    }
  },
  {
    "service_request": "2022-859642",
    "request_type": "Property Maintenance",
    "request_reason": "Property Maintenance",
    "date_created": "2022-02-08T13:42:33.000",
    "date_modified": "2022-02-08T13:50:50.000",
    "case_close_date": "2022-02-08T07:50:50.000",
    "request_status": "Closed",
    "responsible_agency": "Department of Code Enforcement",
    "final_address": "1910 Agriculture St",
    "address_councildis": "D",
    "status": "Referred to Code Enforcement",
    "rowid": "859642",
    "final_x": "3682315.3613",
    "final_y": "543098.843213",
    "longitude": "-90.0650910323225",
    "latitude": "29.987308713875226",
    "geocoded_column": {
      "latitude": "29.987308713875226",
      "longitude": "-90.0650910323225"
    }
  },
  {
    "service_request": "2022-859641",
    "request_type": "Traffic Signals/Signs/Striping/Streetlights",
    "request_reason": "Traffic Signal Malfunctioning/Damaged",
    "date_created": "2022-02-08T13:42:19.000",
    "date_modified": "2022-02-08T13:42:19.000",
    "request_status": "Pending",
    "responsible_agency": "Department of Public Works",
    "final_address": "ELYSIAN FIELDS AVE & GENTILLY BLVD",
    "address_councildis": "D",
    "status": "Pending",
    "rowid": "859641",
    "final_x": "3684059.79",
    "final_y": "547584.11",
    "longitude": "-90.05942349799389",
    "latitude": "29.99958839427118",
    "geocoded_column": {
      "latitude": "29.99958839427118",
      "longitude": "-90.05942349799389"
    }
  },
  {
    "service_request": "2022-859640",
    "request_type": "Property Maintenance",
    "request_reason": "Property Maintenance",
    "date_created": "2022-02-08T13:41:44.000",
    "date_modified": "2022-02-08T13:53:09.000",
    "case_close_date": "2022-02-08T07:53:08.000",
    "request_status": "Closed",
    "responsible_agency": "Department of Code Enforcement",
    "final_address": "2709 New Orleans St",
    "address_councildis": "D",
    "status": "Referred to Code Enforcement",
    "rowid": "859640",
    "final_x": "3681929.93762",
    "final_y": "542467.203661",
    "longitude": "-90.06633050952443",
    "latitude": "29.985583651516738",
    "geocoded_column": {
      "latitude": "29.985583651516738",
      "longitude": "-90.06633050952443"
    }
  },
  {
    "service_request": "2022-859639",
    "request_type": "Property Maintenance",
    "request_reason": "Property Maintenance",
    "date_created": "2022-02-08T13:40:24.000",
    "date_modified": "2022-02-08T14:07:56.000",
    "case_close_date": "2022-02-08T08:07:56.000",
    "request_status": "Closed",
    "responsible_agency": "Department of Code Enforcement",
    "final_address": "2633 Allen St",
    "address_councildis": "D",
    "status": "Referred to Code Enforcement",
    "rowid": "859639",
    "final_x": "3682346.2852",
    "final_y": "541917.790028",
    "longitude": "-90.0650346469141",
    "latitude": "29.98406029187841",
    "geocoded_column": {
      "latitude": "29.98406029187841",
      "longitude": "-90.0650346469141"
    }
  },
  {
    "service_request": "2022-859638",
    "request_type": "Traffic Signals/Signs/Striping/Streetlights",
    "request_reason": "Street Light Outage/Malfunction",
    "date_created": "2022-02-08T13:39:54.000",
    "date_modified": "2022-02-08T13:39:55.000",
    "request_status": "Pending",
    "responsible_agency": "Department of Public Works",
    "final_address": "1117 Bourbon St",
    "address_councildis": "C",
    "status": "Pending",
    "contractor": "Royal Engineering",
    "rowid": "859638",
    "final_x": "3683225.10658",
    "final_y": "533981.486661",
    "longitude": "-90.06253686198471",
    "latitude": "29.962211438642672",
    "geocoded_column": {
      "latitude": "29.962211438642672",
      "longitude": "-90.06253686198471"
    }
  },
  {
    "service_request": "2022-859637",
    "request_type": "Property Maintenance",
    "request_reason": "Property Maintenance",
    "date_created": "2022-02-08T13:39:17.000",
    "date_modified": "2022-02-08T14:08:38.000",
    "case_close_date": "2022-02-08T08:08:38.000",
    "request_status": "Closed",
    "responsible_agency": "Department of Code Enforcement",
    "final_address": "2217 New Orleans St",
    "address_councildis": "D",
    "status": "Referred to Code Enforcement",
    "rowid": "859637",
    "final_x": "3682109.90972",
    "final_y": "540305.180171",
    "longitude": "-90.06583759141422",
    "latitude": "29.9796333711588",
    "geocoded_column": {
      "latitude": "29.9796333711588",
      "longitude": "-90.06583759141422"
    }
  },
  {
    "service_request": "2022-859636",
    "request_type": "Property Maintenance",
    "request_reason": "Property Maintenance",
    "date_created": "2022-02-08T13:37:51.000",
    "date_modified": "2022-02-08T14:13:56.000",
    "case_close_date": "2022-02-08T08:13:56.000",
    "request_status": "Closed",
    "responsible_agency": "Department of Code Enforcement",
    "final_address": "17450 Paris Rd",
    "address_councildis": "E",
    "status": "Referred to Code Enforcement",
    "rowid": "859636",
    "final_x": "3721461.3271",
    "final_y": "571849.223656",
    "longitude": "-89.94034041131485",
    "latitude": "30.06511123108528",
    "geocoded_column": {
      "latitude": "30.06511123108528",
      "longitude": "-89.94034041131485"
    }
  },
  {
    "service_request": "2022-859635",
    "request_type": "Property Maintenance",
    "request_reason": "Property Maintenance",
    "date_created": "2022-02-08T13:37:18.000",
    "date_modified": "2022-02-08T14:09:32.000",
    "case_close_date": "2022-02-08T08:09:32.000",
    "request_status": "Closed",
    "responsible_agency": "Department of Code Enforcement",
    "final_address": "2624 Allen St",
    "address_councildis": "D",
    "status": "Referred to Code Enforcement",
    "rowid": "859635",
    "final_x": "3682279.10575",
    "final_y": "541838.139724",
    "longitude": "-90.06524962014764",
    "latitude": "29.983843325941283",
    "geocoded_column": {
      "latitude": "29.983843325941283",
      "longitude": "-90.06524962014764"
    }
  },
  {
    "service_request": "2022-859634",
    "request_type": "Roads/Drainage",
    "request_reason": "Catch Basin - Clogged",
    "date_created": "2022-02-08T13:37:03.000",
    "date_modified": "2022-02-08T13:37:27.000",
    "case_close_date": "2022-02-08T07:37:27.000",
    "request_status": "Closed",
    "responsible_agency": "Department of Public Works",
    "final_address": "1800 Ursulines Ave",
    "address_councildis": "D",
    "status": "Resolved",
    "rowid": "859634",
    "final_x": "3680297.6621",
    "final_y": "535988.673351",
    "longitude": "-90.07171150786057",
    "latitude": "29.967819464168848",
    "geocoded_column": {
      "latitude": "29.967819464168848",
      "longitude": "-90.07171150786057"
    }
  },
  {
    "service_request": "2022-859633",
    "request_type": "Traffic Signals/Signs/Striping/Streetlights",
    "request_reason": "Street Light Outage/Malfunction",
    "date_created": "2022-02-08T13:37:01.000",
    "date_modified": "2022-02-08T13:37:02.000",
    "request_status": "Pending",
    "responsible_agency": "Department of Public Works",
    "final_address": "417 Bourbon St",
    "address_councildis": "C",
    "status": "Pending",
    "contractor": "Royal Engineering",
    "rowid": "859633",
    "final_x": "3681668.79957",
    "final_y": "531942.864323",
    "longitude": "-90.06752256313759",
    "latitude": "29.95665328991003",
    "geocoded_column": {
      "latitude": "29.95665328991003",
      "longitude": "-90.06752256313759"
    }
  },
  {
    "service_request": "2022-859632",
    "request_type": "Property Maintenance",
    "request_reason": "Property Maintenance",
    "date_created": "2022-02-08T13:34:54.000",
    "date_modified": "2022-02-08T14:10:20.000",
    "case_close_date": "2022-02-08T08:10:20.000",
    "request_status": "Closed",
    "responsible_agency": "Department of Code Enforcement",
    "final_address": "2830 Allen St",
    "address_councildis": "D",
    "status": "Referred to Code Enforcement",
    "rowid": "859632",
    "final_x": "3682225.07112",
    "final_y": "542595.556749",
    "longitude": "-90.06539381785353",
    "latitude": "29.98592760082784",
    "geocoded_column": {
      "latitude": "29.98592760082784",
      "longitude": "-90.06539381785353"
    }
  },
  {
    "service_request": "2022-859630",
    "request_type": "Roads/Drainage",
    "request_reason": "Catch Basin - Clogged",
    "date_created": "2022-02-08T13:33:35.000",
    "date_modified": "2022-02-08T13:34:15.000",
    "case_close_date": "2022-02-08T07:34:15.000",
    "request_status": "Closed",
    "responsible_agency": "Department of Public Works",
    "final_address": "4305 Coliseum St",
    "address_councildis": "B",
    "status": "Resolved",
    "rowid": "859630",
    "final_x": "3671279.36852",
    "final_y": "519924.775864",
    "longitude": "-90.10073733068843",
    "latitude": "29.92391894767519",
    "geocoded_column": {
      "latitude": "29.92391894767519",
      "longitude": "-90.10073733068843"
    }
  },
  {
    "service_request": "2022-859629",
    "request_type": "Traffic Signals/Signs/Striping/Streetlights",
    "request_reason": "Street Light Outage/Malfunction",
    "date_created": "2022-02-08T13:32:50.000",
    "date_modified": "2022-02-08T13:32:51.000",
    "request_status": "Pending",
    "responsible_agency": "Department of Public Works",
    "final_address": "400 Bourbon St",
    "address_councildis": "C",
    "status": "Pending",
    "contractor": "Royal Engineering",
    "rowid": "859629",
    "final_x": "3681659.9908",
    "final_y": "531830.966787",
    "longitude": "-90.0675542815721",
    "latitude": "29.956345877254606",
    "geocoded_column": {
      "latitude": "29.956345877254606",
      "longitude": "-90.0675542815721"
    }
  },
  {
    "service_request": "2022-859628",
    "request_type": "Roads/Drainage",
    "request_reason": "Street Subsidence (Sinking)",
    "date_created": "2022-02-08T13:31:01.000",
    "date_modified": "2022-02-08T13:31:01.000",
    "request_status": "Pending",
    "responsible_agency": "Department of Public Works",
    "final_address": "11140 Morrison Rd",
    "address_councildis": "E",
    "status": "Pending",
    "rowid": "859628",
    "final_x": "3711750.83128",
    "final_y": "565251.613538",
    "longitude": "-89.97128397284885",
    "latitude": "30.047291512113706",
    "geocoded_column": {
      "latitude": "30.047291512113706",
      "longitude": "-89.97128397284885"
    }
  },
  {
    "service_request": "2022-859627",
    "request_type": "Trash/Recycling",
    "request_reason": "MIssed Recycling Pick-Up",
    "date_created": "2022-02-08T13:30:56.000",
    "date_modified": "2022-02-08T13:30:57.000",
    "request_status": "Pending",
    "responsible_agency": "Department of Sanitation",
    "final_address": "1507 Upperline St",
    "address_councildis": "B",
    "status": "Assigned to Contractor",
    "contractor": "Richards Disposal",
    "rowid": "859627",
    "final_x": "3669127.65575",
    "final_y": "520479.239608",
    "longitude": "-90.10751081191844",
    "latitude": "29.925507016314405",
    "geocoded_column": {
      "latitude": "29.925507016314405",
      "longitude": "-90.10751081191844"
    }
  },
  {
    "service_request": "2022-859626",
    "request_type": "Traffic Signals/Signs/Striping/Streetlights",
    "request_reason": "Traffic Signal Malfunctioning/Damaged",
    "date_created": "2022-02-08T13:30:17.000",
    "date_modified": "2022-02-08T13:30:17.000",
    "request_status": "Pending",
    "responsible_agency": "Department of Public Works",
    "final_address": "ESPLANADE AVE & N CLAIBORNE AVE",
    "address_councildis": "D",
    "status": "Pending",
    "rowid": "859626",
    "final_x": "3681231.3",
    "final_y": "536639.18",
    "longitude": "-90.06874038104324",
    "latitude": "29.969579834804723",
    "geocoded_column": {
      "latitude": "29.969579834804723",
      "longitude": "-90.06874038104324"
    }
  },
  {
    "service_request": "2022-859625",
    "request_type": "Property Maintenance",
    "request_reason": "Property Maintenance",
    "date_created": "2022-02-08T13:27:09.000",
    "date_modified": "2022-02-08T14:20:01.000",
    "request_status": "Pending",
    "responsible_agency": "Department of Code Enforcement",
    "final_address": "New Orleans,LA",
    "address_councildis": "D",
    "rowid": "859625",
    "final_x": "3691578.51561",
    "final_y": "548405.762898",
    "longitude": "-90.03564226982499",
    "latitude": "30.00161565153439",
    "geocoded_column": {
      "latitude": "30.00161565153439",
      "longitude": "-90.03564226982499"
    }
  },
  {
    "service_request": "2022-859624",
    "request_type": "Traffic Signals/Signs/Striping/Streetlights",
    "request_reason": "Street Light Outage/Malfunction",
    "date_created": "2022-02-08T13:25:43.000",
    "date_modified": "2022-02-08T13:25:44.000",
    "request_status": "Pending",
    "responsible_agency": "Department of Public Works",
    "final_address": "424 Bourbon St",
    "address_councildis": "C",
    "status": "Pending",
    "contractor": "Royal Engineering",
    "rowid": "859624",
    "final_x": "3681757.48533",
    "final_y": "531970.473475",
    "longitude": "-90.06724155911155",
    "latitude": "29.956726511522554",
    "geocoded_column": {
      "latitude": "29.956726511522554",
      "longitude": "-90.06724155911155"
    }
  },
  {
    "service_request": "2022-859623",
    "request_type": "Abandoned Vehicles",
    "request_reason": "Abandoned/Junk Vehicles",
    "date_created": "2022-02-08T13:24:15.000",
    "date_modified": "2022-02-08T13:24:15.000",
    "request_status": "Pending",
    "responsible_agency": "Department of Public Works",
    "final_address": "2888 Annette St",
    "address_councildis": "D",
    "status": "Pending",
    "rowid": "859623",
    "final_x": "3682546.45468",
    "final_y": "543002.638413",
    "longitude": "-90.06436445599834",
    "latitude": "29.987037149528366",
    "geocoded_column": {
      "latitude": "29.987037149528366",
      "longitude": "-90.06436445599834"
    }
  },
  {
    "service_request": "2022-859622",
    "request_type": "Traffic Signals/Signs/Striping/Streetlights",
    "request_reason": "Street Light Outage/Malfunction",
    "date_created": "2022-02-08T13:23:30.000",
    "date_modified": "2022-02-08T13:23:31.000",
    "request_status": "Pending",
    "responsible_agency": "Department of Public Works",
    "final_address": "435 Bourbon St",
    "address_councildis": "C",
    "status": "Pending",
    "contractor": "Royal Engineering",
    "rowid": "859622",
    "final_x": "3681748.12117",
    "final_y": "532042.908803",
    "longitude": "-90.06726860083805",
    "latitude": "29.956925968562203",
    "geocoded_column": {
      "latitude": "29.956925968562203",
      "longitude": "-90.06726860083805"
    }
  },
  {
    "service_request": "2022-859621",
    "request_type": "Roads/Drainage",
    "request_reason": "Pothole",
    "date_created": "2022-02-08T13:21:20.000",
    "date_modified": "2022-02-08T13:21:20.000",
    "request_status": "Pending",
    "responsible_agency": "Department of Public Works",
    "final_address": "4315 Bienville Ave",
    "address_councildis": "A",
    "status": "Pending",
    "rowid": "859621",
    "final_x": "3670694.74126",
    "final_y": "539769.20801",
    "longitude": "-90.10190958829605",
    "latitude": "29.97850189402613",
    "geocoded_column": {
      "latitude": "29.97850189402613",
      "longitude": "-90.10190958829605"
    }
  },
  {
    "service_request": "2022-859620",
    "request_type": "Traffic Signals/Signs/Striping/Streetlights",
    "request_reason": "Street Light Outage/Malfunction",
    "date_created": "2022-02-08T13:21:19.000",
    "date_modified": "2022-02-08T13:21:20.000",
    "request_status": "Pending",
    "responsible_agency": "Department of Public Works",
    "final_address": "532 Bourbon St",
    "address_councildis": "C",
    "status": "Pending",
    "contractor": "Royal Engineering",
    "rowid": "859620",
    "final_x": "3681995.19093",
    "final_y": "532273.061763",
    "longitude": "-90.06648039795897",
    "latitude": "29.957551302219034",
    "geocoded_column": {
      "latitude": "29.957551302219034",
      "longitude": "-90.06648039795897"
    }
  },
  {
    "service_request": "2022-859619",
    "request_type": "Trash/Recycling",
    "request_reason": "MIssed Recycling Pick-Up",
    "date_created": "2022-02-08T13:19:30.000",
    "date_modified": "2022-02-08T13:19:30.000",
    "request_status": "Pending",
    "responsible_agency": "Department of Sanitation",
    "final_address": "8221 Pritchard Pl",
    "address_councildis": "A",
    "status": "Assigned to Contractor",
    "contractor": "Richards Disposal",
    "rowid": "859619",
    "final_x": "3665698.47744",
    "final_y": "533267.569924",
    "longitude": "-90.1179075082421",
    "latitude": "29.960771240730512",
    "geocoded_column": {
      "latitude": "29.960771240730512",
      "longitude": "-90.1179075082421"
    }
  },
  {
    "service_request": "2022-859618",
    "request_type": "Property Maintenance",
    "request_reason": "Property Maintenance",
    "date_created": "2022-02-08T13:17:05.000",
    "date_modified": "2022-02-08T13:19:58.000",
    "case_close_date": "2022-02-08T07:19:58.000",
    "request_status": "Closed",
    "responsible_agency": "Department of Code Enforcement",
    "final_address": "6144 S Laverne St",
    "address_councildis": "D",
    "status": "Referred to Code Enforcement",
    "rowid": "859618",
    "final_x": "3696807.07338",
    "final_y": "555297.490585",
    "longitude": "-90.0188750695052",
    "latitude": "30.020401465206245",
    "geocoded_column": {
      "latitude": "30.020401465206245",
      "longitude": "-90.0188750695052"
    }
  },
  {
    "service_request": "2022-859617",
    "request_type": "Property Maintenance",
    "request_reason": "Property Maintenance",
    "date_created": "2022-02-08T13:15:04.000",
    "date_modified": "2022-02-08T13:20:48.000",
    "case_close_date": "2022-02-08T07:20:48.000",
    "request_status": "Closed",
    "responsible_agency": "Department of Code Enforcement",
    "final_address": "6028 Pines Blvd",
    "address_councildis": "D",
    "status": "Referred to Code Enforcement",
    "rowid": "859617",
    "final_x": "3696011.59062",
    "final_y": "555998.394649",
    "longitude": "-90.02136318199365",
    "latitude": "30.02235375364511",
    "geocoded_column": {
      "latitude": "30.02235375364511",
      "longitude": "-90.02136318199365"
    }
  },
  {
    "service_request": "2022-859616",
    "request_type": "Property Maintenance",
    "request_reason": "Property Maintenance",
    "date_created": "2022-02-08T13:14:16.000",
    "date_modified": "2022-02-08T13:23:09.000",
    "case_close_date": "2022-02-08T07:23:09.000",
    "request_status": "Closed",
    "responsible_agency": "Department of Code Enforcement",
    "final_address": "2322 N Roman St",
    "address_councildis": "D",
    "status": "Referred to Code Enforcement",
    "rowid": "859616",
    "final_x": "3685814.33487",
    "final_y": "538933.847306",
    "longitude": "-90.0541858954945",
    "latitude": "29.975749494361224",
    "geocoded_column": {
      "latitude": "29.975749494361224",
      "longitude": "-90.0541858954945"
    }
  },