[
  {
    "service_request": "2021-842899",
    "request_type": "Traffic Signals/Signs/Striping/Streetlights",
    "request_reason": "Street Light Outage/Malfunction",
    "date_created": "2021-11-17T21:19:39.000",
    "date_modified": "2021-11-17T21:19:39.000",
    "request_status": "Pending",
    "responsible_agency": "Department of Public Works",
    "final_address": "3108 Touro St",
    "address_councildis": "D",
    "status": "Pending",
    "contractor": "Royal Engineering",
    "rowid": "842899",
    "final_x": "3683543.75759",
    "final_y": "544060.714702",
    "longitude": "-90.06117723603226",
    "latitude": "29.989916078137504",
    "geocoded_column": {
      "latitude": "29.989916078137504",
      "longitude": "-90.06117723603226"
    }
  },
  {
    "service_request": "2021-842898",
    "request_type": "Traffic Signals/Signs/Striping/Streetlights",
    "request_reason": "Street Light Outage/Malfunction",
    "date_created": "2021-11-17T20:53:13.000",
    "date_modified": "2021-11-17T20:53:14.000",
    "request_status": "Pending",
    "responsible_agency": "Department of Public Works",
    "final_address": "11248 Lake Forest Blvd",
    "address_councildis": "E",
    "status": "Pending",
    "contractor": "Royal Engineering",
    "rowid": "842898",
    "final_x": "3716237.49343",
    "final_y": "561575.301983",
    "longitude": "-89.95724337105425",
    "latitude": "30.037035740024056",
    "geocoded_column": {
      "latitude": "30.037035740024056",
      "longitude": "-89.95724337105425"
    }
  },
  {
    "service_request": "2021-842897",
    "request_type": "Trash/Recycling",
    "request_reason": "Order Recycling Cart",
    "date_created": "2021-11-17T20:51:39.000",
    "date_modified": "2021-11-17T21:02:06.000",
    "request_status": "Pending",
    "responsible_agency": "Department of Sanitation",
    "final_address": "1656 Joseph St",
    "address_councildis": "A",
    "status": "Pending",
    "rowid": "842897",
    "final_x": "3666846.44577",
    "final_y": "522387.32921",
    "longitude": "-90.11464785233989",
    "latitude": "29.930820565241746",
    "geocoded_column": {
      "latitude": "29.930820565241746",
      "longitude": "-90.11464785233989"
    }
  },
  {
    "service_request": "2021-842896",
    "request_type": "COVID-19",
    "request_reason": "COVID-19 Business Non-Compliance",
    "date_created": "2021-11-17T20:46:58.000",
    "date_modified": "2021-11-17T20:46:59.000",
    "request_status": "Pending",
    "responsible_agency": "Safety and Permits",
    "final_address": "501 Basin St",
    "address_councildis": "C",
    "status": "Pending",
    "rowid": "842896",
    "final_x": "3680674.30875",
    "final_y": "533050.050244",
    "longitude": "-90.07062431486618",
    "latitude": "29.959727846095657",
    "geocoded_column": {
      "latitude": "29.959727846095657",
      "longitude": "-90.07062431486618"
    }
  },
  {
    "service_request": "2021-842895",
    "request_type": "Traffic Signals/Signs/Striping/Streetlights",
    "request_reason": "Request for Traffic Calming due to Speeding",
    "date_created": "2021-11-17T20:35:10.000",
    "date_modified": "2021-11-17T20:35:10.000",
    "request_status": "Pending",
    "responsible_agency": "Department of Public Works",
    "final_address": "11248 Lake Forest Blvd",
    "address_councildis": "E",
    "status": "Pending",
    "rowid": "842895",
    "final_x": "3716237.49343",
    "final_y": "561575.301983",
    "longitude": "-89.95724337105425",
    "latitude": "30.037035740024056",
    "geocoded_column": {
      "latitude": "30.037035740024056",
      "longitude": "-89.95724337105425"
    }
  },
  {
    "service_request": "2021-842892",
    "request_type": "Abandoned Vehicles",
    "request_reason": "Abandoned/Junk Vehicles",
    "date_created": "2021-11-17T19:56:01.000",
    "date_modified": "2021-11-17T19:56:01.000",
    "request_status": "Pending",
    "responsible_agency": "Department of Public Works",
    "final_address": "737 Alvar St",
    "address_councildis": "C",
    "status": "Pending",
    "rowid": "842892",
    "final_x": "3691223.04092",
    "final_y": "534172.153861",
    "longitude": "-90.03727384847002",
    "latitude": "29.962489384999238",
    "geocoded_column": {
      "latitude": "29.962489384999238",
      "longitude": "-90.03727384847002"
    }
  },
  {
    "service_request": "2021-842891",
    "request_type": "Abandoned Vehicles",
    "request_reason": "Abandoned/Junk Vehicles",
    "date_created": "2021-11-17T19:51:03.000",
    "date_modified": "2021-11-17T19:51:03.000",
    "request_status": "Pending",
    "responsible_agency": "Department of Public Works",
    "final_address": "343 Kenilworth St",
    "address_councildis": "A",
    "status": "Pending",
    "rowid": "842891",
    "final_x": "3667283.07284",
    "final_y": "546178.137168",
    "longitude": "-90.11246925974366",
    "latitude": "29.996224644513156",
    "geocoded_column": {
      "latitude": "29.996224644513156",
      "longitude": "-90.11246925974366"
    }
  },
  {
    "service_request": "2021-842890",
    "request_type": "Traffic Signals/Signs/Striping/Streetlights",
    "request_reason": "Street Light Outage/Malfunction",
    "date_created": "2021-11-17T19:39:44.000",
    "date_modified": "2021-11-17T19:39:45.000",
    "request_status": "Pending",
    "responsible_agency": "Department of Public Works",
    "final_address": "931 Louisa St",
    "address_councildis": "C",
    "status": "Pending",
    "contractor": "Royal Engineering",
    "rowid": "842890",
    "final_x": "3689452.84233",
    "final_y": "535312.252358",
    "longitude": "-90.04282332408857",
    "latitude": "29.965679194659177",
    "geocoded_column": {
      "latitude": "29.965679194659177",
      "longitude": "-90.04282332408857"
    }
  },
  {
    "service_request": "2021-842888",
    "request_type": "Trash/Recycling",
    "request_reason": "Missed Trash Pick-Up",
    "date_created": "2021-11-17T19:29:38.000",
    "date_modified": "2021-11-17T19:29:39.000",
    "request_status": "Pending",
    "responsible_agency": "Department of Sanitation",
    "final_address": "1429 Henriette Delille St",
    "address_councildis": "C",
    "status": "Assigned to Contractor",
    "contractor": "Metro Disposal",
    "rowid": "842888",
    "final_x": "3682693.73711",
    "final_y": "535832.534279",
    "longitude": "-90.06415010107918",
    "latitude": "29.96731737692603",
    "geocoded_column": {
      "latitude": "29.96731737692603",
      "longitude": "-90.06415010107918"
    }
  },
  {
    "service_request": "2021-842887",
    "request_type": "Abandoned Vehicles",
    "request_reason": "Abandoned/Junk Vehicles",
    "date_created": "2021-11-17T19:22:37.000",
    "date_modified": "2021-11-17T19:22:37.000",
    "request_status": "Pending",
    "responsible_agency": "Department of Public Works",
    "status": "Pending",
    "rowid": "842887",
    "longitude": "0.0",
    "latitude": "0.0",
    "geocoded_column": {
      "latitude": "0.0",
      "longitude": "0.0"
    }
  },
  {
    "service_request": "2021-842886",
    "request_type": "Traffic Signals/Signs/Striping/Streetlights",
    "request_reason": "Street Light Outage/Malfunction",
    "date_created": "2021-11-17T19:00:57.000",
    "date_modified": "2021-11-17T19:00:58.000",
    "request_status": "Pending",
    "responsible_agency": "Department of Public Works",
    "final_address": "2035 Gentilly Blvd",
    "address_councildis": "D",
    "status": "Pending",
    "contractor": "Royal Engineering",
    "rowid": "842886",
    "final_x": "3679940.00904",
    "final_y": "544054.443406",
    "longitude": "-90.07256071789855",
    "latitude": "29.990008356062305",
    "geocoded_column": {
      "latitude": "29.990008356062305",
      "longitude": "-90.07256071789855"
    }
  },
  {
    "service_request": "2021-842884",
    "request_type": "Traffic Signals/Signs/Striping/Streetlights",
    "request_reason": "Street Light Outage/Malfunction",
    "date_created": "2021-11-17T18:06:11.000",
    "date_modified": "2021-11-17T18:06:11.000",
    "request_status": "Pending",
    "responsible_agency": "Department of Public Works",
    "final_address": "104 Woodland Dr",
    "address_councildis": "C",
    "status": "Pending",
    "contractor": "Royal Engineering",
    "rowid": "842884",
    "final_x": "3705759.01412",
    "final_y": "521640.265785",
    "longitude": "-89.99183495323122",
    "latitude": "29.927571060076808",
    "geocoded_column": {
      "latitude": "29.927571060076808",
      "longitude": "-89.99183495323122"
    }
  },
  {
    "service_request": "2021-842883",
    "request_type": "Property Maintenance",
    "request_reason": "Property Maintenance",
    "date_created": "2021-11-17T18:00:34.000",
    "date_modified": "2021-11-17T18:00:34.000",
    "request_status": "Pending",
    "responsible_agency": "Department of Code Enforcement",
    "final_address": "1420 Hendee St",
    "address_councildis": "C",
    "status": "Pending",
    "rowid": "842883",
    "final_x": "3690761.87593",
    "final_y": "525948.817341",
    "longitude": "-90.03902346717162",
    "latitude": "29.939892383876092",
    "geocoded_column": {
      "latitude": "29.939892383876092",
      "longitude": "-90.03902346717162"
    }
  },
  {
    "service_request": "2021-842882",
    "request_type": "Trash/Recycling",
    "request_reason": "Missed Trash Pick-Up",
    "date_created": "2021-11-17T17:59:31.000",
    "date_modified": "2021-11-17T18:01:44.000",
    "request_status": "Pending",
    "responsible_agency": "Department of Sanitation",
    "final_address": "1736 First St",
    "address_councildis": "B",
    "status": "Assigned to Contractor",
    "contractor": "Richards Disposal",
    "rowid": "842882",
    "final_x": "3676581.34664",
    "final_y": "523722.409659",
    "longitude": "-90.0838701568795",
    "latitude": "29.934203315908604",
    "geocoded_column": {
      "latitude": "29.934203315908604",
      "longitude": "-90.0838701568795"
    }
  },
  {
    "service_request": "2021-842881",
    "request_type": "Roads/Drainage",
    "request_reason": "Pothole",
    "date_created": "2021-11-17T17:50:01.000",
    "date_modified": "2021-11-17T18:01:46.000",
    "request_status": "Pending",
    "responsible_agency": "Department of Public Works",
    "final_address": "8025 Edinburgh St",
    "address_councildis": "B",
    "status": "Pending",
    "rowid": "842881",
    "final_x": "3667685.23655",
    "final_y": "534296.855109",
    "longitude": "-90.11159902953037",
    "latitude": "29.963543338718242",
    "geocoded_column": {
      "latitude": "29.963543338718242",
      "longitude": "-90.11159902953037"
    }
  },
  {
    "service_request": "2021-842880",
    "request_type": "Traffic Signals/Signs/Striping/Streetlights",
    "request_reason": "Street Light Outage/Malfunction",
    "date_created": "2021-11-17T17:49:32.000",
    "date_modified": "2021-11-17T17:49:32.000",
    "request_status": "Pending",
    "responsible_agency": "Department of Public Works",
    "final_address": "323 Opelousas Ave",
    "address_councildis": "C",
    "status": "Pending",
    "contractor": "Royal Engineering",
    "rowid": "842880",
    "final_x": "3686313.68732",
    "final_y": "528991.298432",
    "longitude": "-90.05295968529492",
    "latitude": "29.948395584747722",
    "geocoded_column": {
      "latitude": "29.948395584747722",
      "longitude": "-90.05295968529492"
    }
  },
  {
    "service_request": "2021-842879",
    "request_type": "Traffic Signals/Signs/Striping/Streetlights",
    "request_reason": "Street Light Outage/Malfunction",
    "date_created": "2021-11-17T17:49:23.000",
    "date_modified": "2021-11-17T17:49:23.000",
    "request_status": "Pending",
    "responsible_agency": "Department of Public Works",
    "final_address": "323 Opelousas Ave",
    "address_councildis": "C",
    "status": "Pending",
    "contractor": "Royal Engineering",
    "rowid": "842879",
    "final_x": "3686313.68732",
    "final_y": "528991.298432",
    "longitude": "-90.05295968529492",
    "latitude": "29.948395584747722",
    "geocoded_column": {
      "latitude": "29.948395584747722",
      "longitude": "-90.05295968529492"
    }
  },
  {
    "service_request": "2021-842878",
    "request_type": "Traffic Signals/Signs/Striping/Streetlights",
    "request_reason": "Street Light Outage/Malfunction",
    "date_created": "2021-11-17T17:48:55.000",
    "date_modified": "2021-11-17T17:48:55.000",
    "request_status": "Pending",
    "responsible_agency": "Department of Public Works",
    "final_address": "323 Opelousas Ave",
    "address_councildis": "C",
    "status": "Pending",
    "contractor": "Royal Engineering",
    "rowid": "842878",
    "final_x": "3686313.68732",
    "final_y": "528991.298432",
    "longitude": "-90.05295968529492",
    "latitude": "29.948395584747722",
    "geocoded_column": {
      "latitude": "29.948395584747722",
      "longitude": "-90.05295968529492"
    }
  },
  {
    "service_request": "2021-842877",
    "request_type": "Traffic Signals/Signs/Striping/Streetlights",
    "request_reason": "Street Light Outage/Malfunction",
    "date_created": "2021-11-17T17:48:39.000",
    "date_modified": "2021-11-17T17:48:39.000",
    "request_status": "Pending",
    "responsible_agency": "Department of Public Works",
    "final_address": "323 Opelousas Ave",
    "address_councildis": "C",
    "status": "Pending",
    "contractor": "Royal Engineering",
    "rowid": "842877",
    "final_x": "3686313.68732",
    "final_y": "528991.298432",
    "longitude": "-90.05295968529492",
    "latitude": "29.948395584747722",
    "geocoded_column": {
      "latitude": "29.948395584747722",
      "longitude": "-90.05295968529492"
    }
  },
  {
    "service_request": "2021-842876",
    "request_type": "Traffic Signals/Signs/Striping/Streetlights",
    "request_reason": "Street Light Outage/Malfunction",
    "date_created": "2021-11-17T17:48:22.000",
    "date_modified": "2021-11-17T17:48:22.000",
    "request_status": "Pending",
    "responsible_agency": "Department of Public Works",
    "final_address": "323 Opelousas Ave",
    "address_councildis": "C",
    "status": "Pending",
    "contractor": "Royal Engineering",
    "rowid": "842876",
    "final_x": "3686313.68732",
    "final_y": "528991.298432",
    "longitude": "-90.05295968529492",
    "latitude": "29.948395584747722",
    "geocoded_column": {
      "latitude": "29.948395584747722",
      "longitude": "-90.05295968529492"
    }
  },
  {
    "service_request": "2021-842875",
    "request_type": "Traffic Signals/Signs/Striping/Streetlights",
    "request_reason": "Street Light Outage/Malfunction",
    "date_created": "2021-11-17T17:48:01.000",
    "date_modified": "2021-11-17T17:48:01.000",
    "request_status": "Pending",
    "responsible_agency": "Department of Public Works",
    "final_address": "323 Opelousas Ave",
    "address_councildis": "C",
    "status": "Pending",
    "contractor": "Royal Engineering",
    "rowid": "842875",
    "final_x": "3686313.68732",
    "final_y": "528991.298432",
    "longitude": "-90.05295968529492",
    "latitude": "29.948395584747722",
    "geocoded_column": {
      "latitude": "29.948395584747722",
      "longitude": "-90.05295968529492"
    }
  },
  {
    "service_request": "2021-842874",
    "request_type": "Traffic Signals/Signs/Striping/Streetlights",
    "request_reason": "Street Light Outage/Malfunction",
    "date_created": "2021-11-17T17:47:32.000",
    "date_modified": "2021-11-17T17:47:32.000",
    "request_status": "Pending",
    "responsible_agency": "Department of Public Works",
    "final_address": "323 Opelousas Ave",
    "address_councildis": "C",
    "status": "Pending",
    "contractor": "Royal Engineering",
    "rowid": "842874",
    "final_x": "3686313.68732",
    "final_y": "528991.298432",
    "longitude": "-90.05295968529492",
    "latitude": "29.948395584747722",
    "geocoded_column": {
      "latitude": "29.948395584747722",
      "longitude": "-90.05295968529492"
    }
  },
  {
    "service_request": "2021-842873",
    "request_type": "Traffic Signals/Signs/Striping/Streetlights",
    "request_reason": "Street Light Outage/Malfunction",
    "date_created": "2021-11-17T17:46:54.000",
    "date_modified": "2021-11-17T17:46:55.000",
    "request_status": "Pending",
    "responsible_agency": "Department of Public Works",
    "final_address": "323 Opelousas Ave",
    "address_councildis": "C",
    "status": "Pending",
    "contractor": "Royal Engineering",
    "rowid": "842873",
    "final_x": "3686313.68732",
    "final_y": "528991.298432",
    "longitude": "-90.05295968529492",
    "latitude": "29.948395584747722",
    "geocoded_column": {
      "latitude": "29.948395584747722",
      "longitude": "-90.05295968529492"
    }
  },
  {
    "service_request": "2021-842872",
    "request_type": "Abandoned Vehicles",
    "request_reason": "Abandoned/Junk Vehicles",
    "date_created": "2021-11-17T17:36:29.000",
    "date_modified": "2021-11-17T17:36:29.000",
    "request_status": "Pending",
    "responsible_agency": "Department of Public Works",
    "final_address": "1537 N Roman St",
    "address_councildis": "D",
    "status": "Pending",
    "rowid": "842872",
    "final_x": "3681316.97276",
    "final_y": "537887.645257",
    "longitude": "-90.06842629471447",
    "latitude": "29.97301008330557",
    "geocoded_column": {
      "latitude": "29.97301008330557",
      "longitude": "-90.06842629471447"
    }
  },
  {
    "service_request": "2021-842871",
    "request_type": "Roads/Drainage",
    "request_reason": "Pothole",
    "date_created": "2021-11-17T17:31:36.000",
    "date_modified": "2021-11-17T17:31:36.000",
    "request_status": "Pending",
    "responsible_agency": "Department of Public Works",
    "final_address": "1722 Laharpe St",
    "address_councildis": "D",
    "status": "Pending",
    "rowid": "842871",
    "final_x": "3681499.23592",
    "final_y": "537780.364488",
    "longitude": "-90.06785441455803",
    "latitude": "29.97270956466114",
    "geocoded_column": {
      "latitude": "29.97270956466114",
      "longitude": "-90.06785441455803"
    }
  },
  {
    "service_request": "2021-842870",
    "request_type": "Trash/Recycling",
    "request_reason": "Order Recycling Cart",
    "date_created": "2021-11-17T17:28:59.000",
    "date_modified": "2021-11-17T18:01:47.000",
    "request_status": "Pending",
    "responsible_agency": "Department of Sanitation",
    "final_address": "8705 Pritchard Pl",
    "address_councildis": "A",
    "status": "Pending",
    "rowid": "842870",
    "final_x": "3664463.2642",
    "final_y": "534387.493957",
    "longitude": "-90.12177069658863",
    "latitude": "29.963886633755397",
    "geocoded_column": {
      "latitude": "29.963886633755397",
      "longitude": "-90.12177069658863"
    }
  },
  {
    "service_request": "2021-842869",
    "request_type": "Traffic Signals/Signs/Striping/Streetlights",
    "request_reason": "Street Light Outage/Malfunction",
    "date_created": "2021-11-17T17:20:48.000",
    "date_modified": "2021-11-17T18:01:48.000",
    "request_status": "Pending",
    "responsible_agency": "Department of Public Works",
    "final_address": "833 Henry Clay Avenue",
    "address_councildis": "A",
    "status": "Pending",
    "contractor": "Royal Engineering",
    "rowid": "842869",
    "final_x": "3663948.2176",
    "final_y": "519822.926264",
    "longitude": "-90.12388264135492",
    "latitude": "29.923853703088422",
    "geocoded_column": {
      "latitude": "29.923853703088422",
      "longitude": "-90.12388264135492"
    }
  },
  {
    "service_request": "2021-842868",
    "request_type": "Roads/Drainage",
    "request_reason": "Pothole",
    "date_created": "2021-11-17T17:17:43.000",
    "date_modified": "2021-11-17T18:01:49.000",
    "request_status": "Pending",
    "responsible_agency": "Department of Public Works",
    "final_address": "1469 Calhoun Street",
    "address_councildis": "A",
    "status": "Pending",
    "rowid": "842868",
    "final_x": "3664517.47636",
    "final_y": "522124.241786",
    "longitude": "-90.1220088932127",
    "latitude": "29.930165062765358",
    "geocoded_column": {
      "latitude": "29.930165062765358",
      "longitude": "-90.1220088932127"
    }
  },
  {
    "service_request": "2021-842866",
    "request_type": "Trash/Recycling",
    "request_reason": "Repair Trash Cart",
    "date_created": "2021-11-17T16:55:54.000",
    "date_modified": "2021-11-17T16:55:56.000",
    "request_status": "Pending",
    "responsible_agency": "Department of Sanitation",
    "final_address": "1729 Jefferson Ave",
    "address_councildis": "B",
    "status": "Assigned to Contractor",
    "contractor": "Richards Disposal",
    "rowid": "842866",
    "final_x": "3667581.35213",
    "final_y": "522130.841082",
    "longitude": "-90.11233647635366",
    "latitude": "29.930093791873457",
    "geocoded_column": {
      "latitude": "29.930093791873457",
      "longitude": "-90.11233647635366"
    }
  },
  {
    "service_request": "2021-842865",
    "request_type": "Trash/Recycling",
    "request_reason": "Repair Trash Cart",
    "date_created": "2021-11-17T16:52:57.000",
    "date_modified": "2021-11-17T17:01:29.000",
    "request_status": "Pending",
    "responsible_agency": "Department of Sanitation",
    "final_address": "4926 Annunciation St, New Orleans, Louisiana, 70115",
    "address_councildis": "B",
    "status": "Assigned to Contractor",
    "contractor": "Richards Disposal",
    "rowid": "842865",
    "final_x": "3668730.21722",
    "final_y": "517501.69759",
    "longitude": "-90.1088658481922",
    "latitude": "29.917331401796474",
    "geocoded_column": {
      "latitude": "29.917331401796474",
      "longitude": "-90.1088658481922"
    }
  },
  {
    "service_request": "2021-842864",
    "request_type": "Traffic Signals/Signs/Striping/Streetlights",
    "request_reason": "Traffic Sign Missing/Damaged",
    "date_created": "2021-11-17T16:49:51.000",
    "date_modified": "2021-11-17T16:49:51.000",
    "request_status": "Pending",
    "responsible_agency": "Department of Public Works",
    "final_address": "HOLLYGROVE ST & I 10 E ONRAMP & PONTCHARTRAIN BLVD",
    "address_councildis": "A",
    "status": "Pending",
    "rowid": "842864",
    "final_x": "3667401.1",
    "final_y": "539054.48",
    "longitude": "-90.11233621055388",
    "latitude": "29.976633549246717",
    "geocoded_column": {
      "latitude": "29.976633549246717",
      "longitude": "-90.11233621055388"
    }
  },
  {
    "service_request": "2021-842863",
    "request_type": "Traffic Signals/Signs/Striping/Streetlights",
    "request_reason": "Street Light Outage/Malfunction",
    "date_created": "2021-11-17T16:38:15.000",
    "date_modified": "2021-11-17T16:38:16.000",
    "request_status": "Pending",
    "responsible_agency": "Department of Public Works",
    "final_address": "PRENTISS AVE & PROVIDENCE PL",
    "address_councildis": "D",
    "status": "Pending",
    "contractor": "Royal Engineering",
    "rowid": "842863",
    "final_x": "3688281.6",
    "final_y": "554195.98",
    "longitude": "-90.04585199663484",
    "latitude": "30.01763887963582",
    "geocoded_column": {
      "latitude": "30.01763887963582",
      "longitude": "-90.04585199663484"
    }
  },
  {
    "service_request": "2021-842862",
    "request_type": "Traffic Signals/Signs/Striping/Streetlights",
    "request_reason": "Street Light Outage/Malfunction",
    "date_created": "2021-11-17T16:37:19.000",
    "date_modified": "2021-11-17T16:37:20.000",
    "request_status": "Pending",
    "responsible_agency": "Department of Public Works",
    "final_address": "CAMPUS BLVD & PRENTISS AVE",
    "address_councildis": "D",
    "status": "Pending",
    "contractor": "Royal Engineering",
    "rowid": "842862",
    "final_x": "3688902.7",
    "final_y": "554335.98",
    "longitude": "-90.0438845924685",
    "latitude": "30.018004624047165",
    "geocoded_column": {
      "latitude": "30.018004624047165",
      "longitude": "-90.0438845924685"
    }
  },
  {
    "service_request": "2021-842861",
    "request_type": "Traffic Signals/Signs/Striping/Streetlights",
    "request_reason": "Street Light Outage/Malfunction",
    "date_created": "2021-11-17T16:36:10.000",
    "date_modified": "2021-11-17T16:36:11.000",
    "request_status": "Pending",
    "responsible_agency": "Department of Public Works",
    "final_address": "4015 Prentiss Ave",
    "address_councildis": "D",
    "status": "Pending",
    "contractor": "Royal Engineering",
    "rowid": "842861",
    "final_x": "3688713.57046",
    "final_y": "554342.372312",
    "longitude": "-90.04448194083461",
    "latitude": "30.018028051313305",
    "geocoded_column": {
      "latitude": "30.018028051313305",
      "longitude": "-90.04448194083461"
    }
  },
  {
    "service_request": "2021-842860",
    "request_type": "Traffic Signals/Signs/Striping/Streetlights",
    "request_reason": "Street Light Outage/Malfunction",
    "date_created": "2021-11-17T16:35:26.000",
    "date_modified": "2021-11-17T16:35:27.000",
    "request_status": "Pending",
    "responsible_agency": "Department of Public Works",
    "final_address": "4001 Prentiss Ave",
    "address_councildis": "D",
    "status": "Pending",
    "contractor": "Royal Engineering",
    "rowid": "842860",
    "final_x": "3688612.82876",
    "final_y": "554309.409368",
    "longitude": "-90.04480141658217",
    "latitude": "30.01794053080402",
    "geocoded_column": {
      "latitude": "30.01794053080402",
      "longitude": "-90.04480141658217"
    }
  },
  {
    "service_request": "2021-842859",
    "request_type": "Traffic Signals/Signs/Striping/Streetlights",
    "request_reason": "Street Light Outage/Malfunction",
    "date_created": "2021-11-17T16:34:40.000",
    "date_modified": "2021-11-17T16:34:41.000",
    "request_status": "Pending",
    "responsible_agency": "Department of Public Works",
    "final_address": "3933 Prentiss Ave",
    "address_councildis": "D",
    "status": "Pending",
    "contractor": "Royal Engineering",
    "rowid": "842859",
    "final_x": "3688444.95964",
    "final_y": "554294.394264",
    "longitude": "-90.04533235047984",
    "latitude": "30.017904434354534",
    "geocoded_column": {
      "latitude": "30.017904434354534",
      "longitude": "-90.04533235047984"
    }
  },
  {
    "service_request": "2021-842858",
    "request_type": "Trash/Recycling",
    "request_reason": "Start Trash Service",
    "date_created": "2021-11-17T16:22:15.000",
    "date_modified": "2021-11-17T16:22:16.000",
    "request_status": "Pending",
    "responsible_agency": "Department of Sanitation",
    "final_address": "1501 Mazant St",
    "address_councildis": "D",
    "status": "Assigned to Contractor",
    "contractor": "Metro Disposal",
    "rowid": "842858",
    "final_x": "3692523.44329",
    "final_y": "536741.477383",
    "longitude": "-90.03307530545969",
    "latitude": "29.96951361065496",
    "geocoded_column": {
      "latitude": "29.96951361065496",
      "longitude": "-90.03307530545969"
    }
  },
  {
    "service_request": "2021-842857",
    "request_type": "Trash/Recycling",
    "request_reason": "Return Trash Cart",
    "date_created": "2021-11-17T16:20:48.000",
    "date_modified": "2021-11-17T17:01:33.000",
    "request_status": "Pending",
    "responsible_agency": "Department of Sanitation",
    "final_address": "815 N Salcedo St",
    "address_councildis": "A",
    "status": "Assigned to Contractor",
    "contractor": "Richards Disposal",
    "rowid": "842857",
    "final_x": "3675729.68942",
    "final_y": "538300.804169",
    "longitude": "-90.08605783546777",
    "latitude": "29.97431454150123",
    "geocoded_column": {
      "latitude": "29.97431454150123",
      "longitude": "-90.08605783546777"
    }
  },
  {
    "service_request": "2021-842856",
    "request_type": "Trash/Recycling",
    "request_reason": "Repair Trash Cart",
    "date_created": "2021-11-17T16:17:55.000",
    "date_modified": "2021-11-17T17:01:36.000",
    "request_status": "Pending",
    "responsible_agency": "Department of Sanitation",
    "final_address": "819 Verret St",
    "address_councildis": "C",
    "status": "Assigned to Contractor",
    "contractor": "Richards Disposal",
    "rowid": "842856",
    "final_x": "3687077.07644",
    "final_y": "528546.7776",
    "longitude": "-90.05056506721004",
    "latitude": "29.947149826750845",
    "geocoded_column": {
      "latitude": "29.947149826750845",
      "longitude": "-90.05056506721004"
    }
  },
  {
    "service_request": "2021-842855",
    "request_type": "Trash/Recycling",
    "request_reason": "Order Recycling Cart",
    "date_created": "2021-11-17T16:00:30.000",
    "date_modified": "2021-11-17T16:00:30.000",
    "request_status": "Pending",
    "responsible_agency": "Department of Sanitation",
    "final_address": "5411 Pratt Dr",
    "address_councildis": "D",
    "status": "Pending",
    "rowid": "842855",
    "final_x": "3680476.06767",
    "final_y": "552455.96655",
    "longitude": "-90.07057499260952",
    "latitude": "30.013093318116198",
    "geocoded_column": {
      "latitude": "30.013093318116198",
      "longitude": "-90.07057499260952"
    }
  },
  {
    "service_request": "2021-842854",
    "request_type": "Abandoned Vehicles",
    "request_reason": "Abandoned/Junk Vehicles",
    "date_created": "2021-11-17T15:58:34.000",
    "date_modified": "2021-11-17T16:08:28.000",
    "request_status": "Pending",
    "responsible_agency": "Department of Public Works",
    "final_address": "N PRIEUR ST & CONTI ST",
    "address_councildis": "B",
    "status": "Inspected",
    "rowid": "842854",
    "final_x": "3678242.6",
    "final_y": "534370.68",
    "longitude": "-90.07825742519965",
    "latitude": "29.96343258998166",
    "geocoded_column": {
      "latitude": "29.96343258998166",
      "longitude": "-90.07825742519965"
    }
  },
  {
    "service_request": "2021-842853",
    "request_type": "Roads/Drainage",
    "request_reason": "Pothole",
    "date_created": "2021-11-17T15:56:10.000",
    "date_modified": "2021-11-17T16:02:06.000",
    "case_close_date": "2021-07-30T19:00:00.000",
    "request_status": "Pending",
    "responsible_agency": "Department of Public Works",
    "final_address": "MONTPELIER ST & FAIRMONT DR",
    "address_councildis": "D",
    "status": "Pending",
    "rowid": "842853",
    "final_x": "3685143.9",
    "final_y": "546420.18",
    "longitude": "-90.05603974917987",
    "latitude": "29.996354819381192",
    "geocoded_column": {
      "latitude": "29.996354819381192",
      "longitude": "-90.05603974917987"
    }
  },
  {
    "service_request": "2021-842852",
    "request_type": "Abandoned Vehicles",
    "request_reason": "Abandoned/Junk Vehicles",
    "date_created": "2021-11-17T15:54:19.000",
    "date_modified": "2021-11-17T15:54:19.000",
    "request_status": "Pending",
    "responsible_agency": "Department of Public Works",
    "final_address": "3330 Fern St",
    "address_councildis": "B",
    "status": "Pending",
    "rowid": "842852",
    "final_x": "3667729.51674",
    "final_y": "533606.593605",
    "longitude": "-90.11148244061081",
    "latitude": "29.961644049436995",
    "geocoded_column": {
      "latitude": "29.961644049436995",
      "longitude": "-90.11148244061081"
    }
  },
  {
    "service_request": "2021-842851",
    "request_type": "Traffic Signals/Signs/Striping/Streetlights",
    "request_reason": "Street Light Outage/Malfunction",
    "date_created": "2021-11-17T15:53:39.000",
    "date_modified": "2021-11-17T15:53:40.000",
    "request_status": "Pending",
    "responsible_agency": "Department of Public Works",
    "final_address": "6000 St Charles Ave",
    "address_councildis": "A",
    "status": "Pending",
    "contractor": "Royal Engineering",
    "rowid": "842851",
    "final_x": "3665637.85568",
    "final_y": "522382.40153",
    "longitude": "-90.1184633815831",
    "latitude": "29.930842305352986",
    "geocoded_column": {
      "latitude": "29.930842305352986",
      "longitude": "-90.1184633815831"
    }
  },
  {
    "service_request": "2021-842850",
    "request_type": "Trash/Recycling",
    "request_reason": "Order Trash Cart",
    "date_created": "2021-11-17T15:48:09.000",
    "date_modified": "2021-11-17T15:48:09.000",
    "request_status": "Pending",
    "responsible_agency": "Department of Sanitation",
    "final_address": "1641 Sauvage St",
    "address_councildis": "A",
    "status": "Assigned to Contractor",
    "contractor": "Metro Disposal",
    "rowid": "842850",
    "final_x": "3677139.41179",
    "final_y": "540892.773067",
    "longitude": "-90.08151616591678",
    "latitude": "29.981399294490334",
    "geocoded_column": {
      "latitude": "29.981399294490334",
      "longitude": "-90.08151616591678"
    }
  },
  {
    "service_request": "2021-842849",
    "request_type": "Property Maintenance",
    "request_reason": "Property Maintenance",
    "date_created": "2021-11-17T15:47:14.000",
    "date_modified": "2021-11-17T15:47:14.000",
    "request_status": "Pending",
    "responsible_agency": "Department of Code Enforcement",
    "final_address": "3308 Fern St",
    "address_councildis": "B",
    "status": "Pending",
    "rowid": "842849",
    "final_x": "3667624.98157",
    "final_y": "533489.901316",
    "longitude": "-90.1118164748367",
    "latitude": "29.961326248773847",
    "geocoded_column": {
      "latitude": "29.961326248773847",
      "longitude": "-90.1118164748367"
    }
  },
  {
    "service_request": "2021-842848",
    "request_type": "Abandoned Vehicles",
    "request_reason": "Abandoned/Junk Vehicles",
    "date_created": "2021-11-17T15:44:44.000",
    "date_modified": "2021-11-17T15:44:44.000",
    "request_status": "Pending",
    "responsible_agency": "Department of Public Works",
    "final_address": "3332 Fern St",
    "address_councildis": "B",
    "status": "Pending",
    "rowid": "842848",
    "final_x": "3667739.72749",
    "final_y": "533619.235013",
    "longitude": "-90.11144977095482",
    "latitude": "29.96167850974573",
    "geocoded_column": {
      "latitude": "29.96167850974573",
      "longitude": "-90.11144977095482"
    }
  },
  {
    "service_request": "2021-842847",
    "request_type": "Abandoned Vehicles",
    "request_reason": "Abandoned/Junk Vehicles",
    "date_created": "2021-11-17T15:41:14.000",
    "date_modified": "2021-11-17T16:02:10.000",
    "request_status": "Pending",
    "responsible_agency": "Department of Public Works",
    "final_address": "56 Camelia Trce, New Orleans, Louisiana, 70114",
    "status": "Pending",
    "rowid": "842847",
    "longitude": "0.0",
    "latitude": "0.0",
    "geocoded_column": {
      "latitude": "0.0",
      "longitude": "0.0"
    }
  },
  {
    "service_request": "2021-842846",
    "request_type": "Trash/Recycling",
    "request_reason": "Request a Large Item Pick Up",
    "date_created": "2021-11-17T15:40:14.000",
    "date_modified": "2021-11-17T16:02:12.000",
    "request_status": "Pending",
    "responsible_agency": "Department of Sanitation",
    "final_address": "121 Wilshire St, New Orleans, Louisiana, 70119",
    "status": "Assigned to Contractor",
    "rowid": "842846",
    "longitude": "0.0",
    "latitude": "0.0",
    "geocoded_column": {
      "latitude": "0.0",
      "longitude": "0.0"
    }
  },
  {
    "service_request": "2021-842844",
    "request_type": "Abandoned Vehicles",
    "request_reason": "Abandoned/Junk Vehicles",
    "date_created": "2021-11-17T15:26:01.000",
    "date_modified": "2021-11-17T15:26:01.000",
    "request_status": "Pending",
    "responsible_agency": "Department of Public Works",
    "final_address": "3314 N Roman St",
    "address_councildis": "D",
    "status": "Pending",
    "rowid": "842844",
    "final_x": "3690634.47862",
    "final_y": "538345.168713",
    "longitude": "-90.03898358274137",
    "latitude": "29.973981999847002",
    "geocoded_column": {
      "latitude": "29.973981999847002",
      "longitude": "-90.03898358274137"
    }
  },
  {
    "service_request": "2021-842843",
    "request_type": "Property Maintenance",
    "request_reason": "Property Maintenance",
    "date_created": "2021-11-17T15:24:04.000",
    "date_modified": "2021-11-17T15:24:04.000",
    "request_status": "Pending",
    "responsible_agency": "Department of Code Enforcement",
    "final_address": "741 Congress St",
    "address_councildis": "C",
    "status": "Pending",
    "rowid": "842843",
    "final_x": "3690454.2198",
    "final_y": "534380.819653",
    "longitude": "-90.03969423116366",
    "latitude": "29.96308703198362",
    "geocoded_column": {
      "latitude": "29.96308703198362",
      "longitude": "-90.03969423116366"
    }
  },
  {
    "service_request": "2021-842842",
    "request_type": "Abandoned Vehicles",
    "request_reason": "Abandoned/Junk Vehicles",
    "date_created": "2021-11-17T15:22:37.000",
    "date_modified": "2021-11-17T15:22:37.000",
    "request_status": "Pending",
    "responsible_agency": "Department of Public Works",
    "final_address": "TRAFALGAR ST & DESAIX BLVD",
    "address_councildis": "A",
    "status": "Pending",
    "rowid": "842842",
    "final_x": "3676545.9",
    "final_y": "543621.58",
    "longitude": "-90.08329672473488",
    "latitude": "29.98892038299906",
    "geocoded_column": {
      "latitude": "29.98892038299906",
      "longitude": "-90.08329672473488"
    }
  },
  {
    "service_request": "2021-842841",
    "request_type": "Roads/Drainage",
    "request_reason": "Pothole",
    "date_created": "2021-11-17T15:21:14.000",
    "date_modified": "2021-11-17T16:02:15.000",
    "request_status": "Pending",
    "responsible_agency": "Department of Public Works",
    "final_address": "1310 St Andrew St",
    "address_councildis": "B",
    "status": "Pending",
    "rowid": "842841",
    "final_x": "3678927.94331",
    "final_y": "523197.496955",
    "longitude": "-90.0764802063578",
    "latitude": "29.932689411105056",
    "geocoded_column": {
      "latitude": "29.932689411105056",
      "longitude": "-90.0764802063578"
    }
  },
  {
    "service_request": "2021-842840",
    "request_type": "Trash/Recycling",
    "request_reason": "Request a Large Item Pick Up",
    "date_created": "2021-11-17T15:11:40.000",
    "date_modified": "2021-11-17T15:11:41.000",
    "request_status": "Pending",
    "responsible_agency": "Department of Sanitation",
    "final_address": "3429 Laurel St",
    "address_councildis": "B",
    "status": "Assigned to Contractor",
    "contractor": "Richards Disposal",
    "rowid": "842840",
    "final_x": "3675051.33358",
    "final_y": "518930.769911",
    "longitude": "-90.08886465383328",
    "latitude": "29.921073642444608",
    "geocoded_column": {
      "latitude": "29.921073642444608",
      "longitude": "-90.08886465383328"
    }
  },
  {
    "service_request": "2021-842839",
    "request_type": "Abandoned Vehicles",
    "request_reason": "Abandoned/Junk Vehicles",
    "date_created": "2021-11-17T15:09:08.000",
    "date_modified": "2021-11-17T15:10:43.000",
    "request_status": "Pending",
    "responsible_agency": "Department of Public Works",
    "final_address": "737 Napoleon Ave",
    "address_councildis": "B",
    "status": "Pending",
    "rowid": "842839",
    "final_x": "3671199.72379",
    "final_y": "518375.27647",
    "longitude": "-90.1010413436244",
    "latitude": "29.919660672842603",
    "geocoded_column": {
      "latitude": "29.919660672842603",
      "longitude": "-90.1010413436244"
    }
  },
  {
    "service_request": "2021-842838",
    "request_type": "Trash/Recycling",
    "request_reason": "Start Trash Service",
    "date_created": "2021-11-17T15:04:53.000",
    "date_modified": "2021-11-17T15:04:53.000",
    "request_status": "Pending",
    "responsible_agency": "Department of Sanitation",
    "final_address": "381 Audubon St",
    "address_councildis": "A",
    "status": "Assigned to Contractor",
    "contractor": "Richards Disposal",
    "rowid": "842838",
    "final_x": "3662032.18221",
    "final_y": "522706.85337",
    "longitude": "-90.12983528800707",
    "latitude": "29.93183907067319",
    "geocoded_column": {
      "latitude": "29.93183907067319",
      "longitude": "-90.12983528800707"
    }
  },
  {
    "service_request": "2021-842837",
    "request_type": "Trash/Recycling",
    "request_reason": "Order Trash Cart",
    "date_created": "2021-11-17T15:04:28.000",
    "date_modified": "2021-11-17T15:04:29.000",
    "request_status": "Pending",
    "responsible_agency": "Department of Sanitation",
    "final_address": "381 Audubon St",
    "address_councildis": "A",
    "status": "Assigned to Contractor",
    "contractor": "Richards Disposal",
    "rowid": "842837",
    "final_x": "3662032.18221",
    "final_y": "522706.85337",
    "longitude": "-90.12983528800707",
    "latitude": "29.93183907067319",
    "geocoded_column": {
      "latitude": "29.93183907067319",
      "longitude": "-90.12983528800707"
    }
  },
  {
    "service_request": "2021-842834",
    "request_type": "Traffic Signals/Signs/Striping/Streetlights",
    "request_reason": "Street Light Outage/Malfunction",
    "date_created": "2021-11-17T15:01:29.000",
    "date_modified": "2021-11-17T15:02:12.000",
    "request_status": "Pending",
    "responsible_agency": "Department of Public Works",
    "final_address": "6618 Maumus Ave",
    "address_councildis": "C",
    "status": "Pending",
    "contractor": "Royal Engineering",
    "rowid": "842834",
    "final_x": "3708240.83166",
    "final_y": "516719.564533",
    "longitude": "-89.98418342593234",
    "latitude": "29.913960723250266",
    "geocoded_column": {
      "latitude": "29.913960723250266",
      "longitude": "-89.98418342593234"
    }
  },
  {
    "service_request": "2021-842833",
    "request_type": "Traffic Signals/Signs/Striping/Streetlights",
    "request_reason": "Street Light Outage/Malfunction",
    "date_created": "2021-11-17T14:58:52.000",
    "date_modified": "2021-11-17T15:02:14.000",
    "request_status": "Pending",
    "responsible_agency": "Department of Public Works",
    "final_address": "6618 Maumus Ave",
    "address_councildis": "C",
    "status": "Pending",
    "contractor": "Royal Engineering",
    "rowid": "842833",
    "final_x": "3708240.83166",
    "final_y": "516719.564533",
    "longitude": "-89.98418342593234",
    "latitude": "29.913960723250266",
    "geocoded_column": {
      "latitude": "29.913960723250266",
      "longitude": "-89.98418342593234"
    }
  },
  {
    "service_request": "2021-842832",
    "request_type": "Trash/Recycling",
    "request_reason": "Order Recycling Cart",
    "date_created": "2021-11-17T14:57:16.000",
    "date_modified": "2021-11-17T15:02:17.000",
    "request_status": "Pending",
    "responsible_agency": "Department of Sanitation",
    "final_address": "827 Lowerline St",
    "address_councildis": "A",
    "status": "Pending",
    "rowid": "842832",
    "final_x": "3663067.35328",
    "final_y": "525838.348349",
    "longitude": "-90.12646322617557",
    "latitude": "29.940419753246985",
    "geocoded_column": {
      "latitude": "29.940419753246985",
      "longitude": "-90.12646322617557"
    }
  },
  {
    "service_request": "2021-842831",
    "request_type": "Roads/Drainage",
    "request_reason": "Pothole",
    "date_created": "2021-11-17T14:56:32.000",
    "date_modified": "2021-11-17T15:02:19.000",
    "request_status": "Pending",
    "responsible_agency": "Department of Public Works",
    "final_address": "KENILWORTH ST & MEMPHIS ST",
    "address_councildis": "A",
    "status": "Pending",
    "rowid": "842831",
    "final_x": "3669027.4",
    "final_y": "545609.88",
    "longitude": "-90.10697824927891",
    "latitude": "29.994610914645584",
    "geocoded_column": {
      "latitude": "29.994610914645584",
      "longitude": "-90.10697824927891"
    }
  },
  {
    "service_request": "2021-842830",
    "request_type": "Trash/Recycling",
    "request_reason": "Request a Large Item Pick Up",
    "date_created": "2021-11-17T14:47:42.000",
    "date_modified": "2021-11-17T14:47:55.000",
    "request_status": "Pending",
    "responsible_agency": "Department of Sanitation",
    "final_address": "614 Pacific Ave",
    "address_councildis": "C",
    "status": "Assigned to Contractor",
    "contractor": "Richards Disposal",
    "rowid": "842830",
    "final_x": "3688519.74332",
    "final_y": "529311.325377",
    "longitude": "-90.04598291779914",
    "latitude": "29.949207583785558",
    "geocoded_column": {
      "latitude": "29.949207583785558",
      "longitude": "-90.04598291779914"
    }
  },
  {
    "service_request": "2021-842829",
    "request_type": "Parks & Parkways",
    "request_reason": "Request Tree Service (Right of Way/Public Property)",
    "date_created": "2021-11-17T14:42:59.000",
    "date_modified": "2021-11-17T15:02:21.000",
    "request_status": "Pending",
    "responsible_agency": "Department of Parks & Parkway",
    "final_address": "4504 Pitt St",
    "address_councildis": "B",
    "status": "Pending",
    "rowid": "842829",
    "final_x": "3670445.20065",
    "final_y": "520475.070072",
    "longitude": "-90.10335185976484",
    "latitude": "29.92545672864306",
    "geocoded_column": {
      "latitude": "29.92545672864306",
      "longitude": "-90.10335185976484"
    }
  },
  {
    "service_request": "2021-842828",
    "request_type": "Abandoned Vehicles",
    "request_reason": "Abandoned/Junk Vehicles",
    "date_created": "2021-11-17T14:42:39.000",
    "date_modified": "2021-11-17T15:02:23.000",
    "request_status": "Pending",
    "responsible_agency": "Department of Public Works",
    "final_address": "5851 W Deer Park Blvd",
    "address_councildis": "E",
    "status": "Pending",
    "rowid": "842828",
    "final_x": "3712229.74597",
    "final_y": "561050.25507",
    "longitude": "-89.96992835403863",
    "latitude": "30.035723803137",
    "geocoded_column": {
      "latitude": "30.035723803137",
      "longitude": "-89.96992835403863"
    }
  },
  {
    "service_request": "2021-842827",
    "request_type": "Trash/Recycling",
    "request_reason": "Request a Large Item Pick Up",
    "date_created": "2021-11-17T14:42:27.000",
    "date_modified": "2021-11-17T14:42:48.000",
    "request_status": "Pending",
    "responsible_agency": "Department of Sanitation",
    "final_address": "8110 Lomond Rd",
    "address_councildis": "E",
    "status": "Assigned to Contractor",
    "contractor": "Metro Disposal",
    "rowid": "842827",
    "final_x": "3702623.96215",
    "final_y": "561455.773471",
    "longitude": "-90.00026923394736",
    "latitude": "30.037149594083953",
    "geocoded_column": {
      "latitude": "30.037149594083953",
      "longitude": "-90.00026923394736"
    }
  },
  {
    "service_request": "2021-842826",
    "request_type": "Trash/Recycling",
    "request_reason": "Request a Large Item Pick Up",
    "date_created": "2021-11-17T14:40:43.000",
    "date_modified": "2021-11-17T15:02:25.000",
    "request_status": "Pending",
    "responsible_agency": "Department of Sanitation",
    "final_address": "2461 N Rocheblave St",
    "address_councildis": "D",
    "status": "Assigned to Contractor",
    "contractor": "Metro Disposal",
    "rowid": "842826",
    "final_x": "3685605.94742",
    "final_y": "541209.17966",
    "longitude": "-90.05476385486844",
    "latitude": "29.98201225293544",
    "geocoded_column": {
      "latitude": "29.98201225293544",
      "longitude": "-90.05476385486844"
    }
  },
  {
    "service_request": "2021-842825",
    "request_type": "Traffic Signals/Signs/Striping/Streetlights",
    "request_reason": "Street Light Outage/Malfunction",
    "date_created": "2021-11-17T14:36:45.000",
    "date_modified": "2021-11-17T14:37:05.000",
    "request_status": "Pending",
    "responsible_agency": "Department of Public Works",
    "final_address": "MONTEGUT ST & DAUPHINE ST",
    "address_councildis": "C",
    "status": "Pending",
    "contractor": "Royal Engineering",
    "rowid": "842825",
    "final_x": "3688150.6",
    "final_y": "535000.18",
    "longitude": "-90.04694680874974",
    "latitude": "29.964861368240896",
    "geocoded_column": {
      "latitude": "29.964861368240896",
      "longitude": "-90.04694680874974"
    }
  },
  {
    "service_request": "2021-842824",
    "request_type": "Abandoned Vehicles",
    "request_reason": "Abandoned/Junk Vehicles",
    "date_created": "2021-11-17T14:27:48.000",
    "date_modified": "2021-11-17T14:27:48.000",
    "request_status": "Pending",
    "responsible_agency": "Department of Public Works",
    "final_address": "3700 BLK Willow St",
    "address_councildis": "B",
    "status": "Pending",
    "rowid": "842824",
    "final_x": "3671785.23546",
    "final_y": "525602.484672",
    "longitude": "-90.0989474120677",
    "latitude": "29.939515845073213",
    "geocoded_column": {
      "latitude": "29.939515845073213",
      "longitude": "-90.0989474120677"
    }
  },
  {
    "service_request": "2021-842822",
    "request_type": "Abandoned Vehicles",
    "request_reason": "Abandoned/Junk Vehicles",
    "date_created": "2021-11-17T14:22:50.000",
    "date_modified": "2021-11-17T14:48:53.000",
    "request_status": "Pending",
    "responsible_agency": "Department of Public Works",
    "status": "Inspected",
    "rowid": "842822",
    "longitude": "0.0",
    "latitude": "0.0",
    "geocoded_column": {
      "latitude": "0.0",
      "longitude": "0.0"
    }
  },
  {
    "service_request": "2021-842821",
    "request_type": "Trash/Recycling",
    "request_reason": "Missed Trash Pick-Up",
    "date_created": "2021-11-17T14:12:20.000",
    "date_modified": "2021-11-17T14:12:29.000",
    "request_status": "Pending",
    "responsible_agency": "Department of Sanitation",
    "final_address": "1711 Milan St",
    "address_councildis": "B",
    "status": "Assigned to Contractor",
    "contractor": "Richards Disposal",
    "rowid": "842821",
    "final_x": "3671586.28251",
    "final_y": "521441.770361",
    "longitude": "-90.09971695679681",
    "latitude": "29.92808111550677",
    "geocoded_column": {
      "latitude": "29.92808111550677",
      "longitude": "-90.09971695679681"
    }
  },
  {
    "service_request": "2021-842820",
    "request_type": "Trash/Recycling",
    "request_reason": "Replace Trash Cart",
    "date_created": "2021-11-17T14:11:38.000",
    "date_modified": "2021-11-17T14:11:38.000",
    "request_status": "Pending",
    "responsible_agency": "Department of Sanitation",
    "final_address": "3912 Patterson St",
    "address_councildis": "C",
    "status": "Assigned to Contractor",
    "contractor": "Richards Disposal",
    "rowid": "842820",
    "final_x": "3698695.50359",
    "final_y": "526616.236094",
    "longitude": "-90.01395173264007",
    "latitude": "29.94147875465989",
    "geocoded_column": {
      "latitude": "29.94147875465989",
      "longitude": "-90.01395173264007"
    }
  },
  {
    "service_request": "2021-842819",
    "request_type": "Trash/Recycling",
    "request_reason": "Missed Trash Pick-Up",
    "date_created": "2021-11-17T14:06:16.000",
    "date_modified": "2021-11-17T14:06:24.000",
    "request_status": "Pending",
    "responsible_agency": "Department of Sanitation",
    "final_address": "2815 Chartres St",
    "address_councildis": "C",
    "status": "Assigned to Contractor",
    "contractor": "Metro Disposal",
    "rowid": "842819",
    "final_x": "3687387.85871",
    "final_y": "534476.312965",
    "longitude": "-90.04937402861303",
    "latitude": "29.963444439079606",
    "geocoded_column": {
      "latitude": "29.963444439079606",
      "longitude": "-90.04937402861303"
    }
  },
  {
    "service_request": "2021-842818",
    "request_type": "Traffic Signals/Signs/Striping/Streetlights",
    "request_reason": "Additional signage",
    "date_created": "2021-11-17T13:57:17.000",
    "date_modified": "2021-11-17T14:02:24.000",
    "request_status": "Pending",
    "responsible_agency": "Department of Public Works",
    "final_address": "ALABAMA ST & WALES ST",
    "address_councildis": "D",
    "status": "Pending",
    "rowid": "842818",
    "final_x": "3694668.8",
    "final_y": "559289.08",
    "longitude": "-90.0254873750365",
    "latitude": "30.03144409502435",
    "geocoded_column": {
      "latitude": "30.03144409502435",
      "longitude": "-90.0254873750365"
    }
  },
  {
    "service_request": "2021-842817",
    "request_type": "Traffic Signals/Signs/Striping/Streetlights",
    "request_reason": "Additional signage",
    "date_created": "2021-11-17T13:56:40.000",
    "date_modified": "2021-11-17T14:02:25.000",
    "request_status": "Pending",
    "responsible_agency": "Department of Public Works",
    "final_address": "ALABAMA ST & WALES ST",
    "address_councildis": "D",
    "status": "Pending",
    "rowid": "842817",
    "final_x": "3694668.8",
    "final_y": "559289.08",
    "longitude": "-90.0254873750365",
    "latitude": "30.03144409502435",
    "geocoded_column": {
      "latitude": "30.03144409502435",
      "longitude": "-90.0254873750365"
    }
  },
  {
    "service_request": "2021-842816",
    "request_type": "Trash/Recycling",
    "request_reason": "Request a Large Item Pick Up",
    "date_created": "2021-11-17T13:53:39.000",
    "date_modified": "2021-11-17T14:02:26.000",
    "request_status": "Pending",
    "responsible_agency": "Department of Sanitation",
    "final_address": "615 Lesseps St",
    "address_councildis": "C",
    "status": "Assigned to Contractor",
    "contractor": "Metro Disposal",
    "rowid": "842816",
    "final_x": "3692314.0104",
    "final_y": "533347.278468",
    "longitude": "-90.03385827311315",
    "latitude": "29.96018729106796",
    "geocoded_column": {
      "latitude": "29.96018729106796",
      "longitude": "-90.03385827311315"
    }
  },
  {
    "service_request": "2021-842815",
    "request_type": "Trash/Recycling",
    "request_reason": "Order Recycling Cart",
    "date_created": "2021-11-17T13:52:58.000",
    "date_modified": "2021-11-17T13:52:58.000",
    "request_status": "Pending",
    "responsible_agency": "Department of Sanitation",
    "final_address": "5502 Annunciation St",
    "address_councildis": "A",
    "status": "Pending",
    "rowid": "842815",
    "final_x": "3666098.93472",
    "final_y": "517515.448758",
    "longitude": "-90.1171708862869",
    "latitude": "29.917446267590737",
    "geocoded_column": {
      "latitude": "29.917446267590737",
      "longitude": "-90.1171708862869"
    }
  },
  {
    "service_request": "2021-842813",
    "request_type": "Trash/Recycling",
    "request_reason": "Replace Trash Cart",
    "date_created": "2021-11-17T13:48:40.000",
    "date_modified": "2021-11-17T14:02:29.000",
    "request_status": "Pending",
    "responsible_agency": "Department of Sanitation",
    "final_address": "4555 Francisco Verrett Dr",
    "address_councildis": "E",
    "status": "Assigned to Contractor",
    "contractor": "Metro Disposal",
    "rowid": "842813",
    "final_x": "3704404.49668",
    "final_y": "553921.948696",
    "longitude": "-89.99492048558865",
    "latitude": "30.01637742353255",
    "geocoded_column": {
      "latitude": "30.01637742353255",
      "longitude": "-89.99492048558865"
    }
  },
  {
    "service_request": "2021-842811",
    "request_type": "Abandoned Vehicles",
    "request_reason": "Abandoned/Junk Vehicles",
    "date_created": "2021-11-17T13:43:16.000",
    "date_modified": "2021-11-17T14:20:04.000",
    "request_status": "Pending",
    "responsible_agency": "Department of Public Works",
    "status": "Inspected",
    "rowid": "842811",
    "longitude": "0.0",
    "latitude": "0.0",
    "geocoded_column": {
      "latitude": "0.0",
      "longitude": "0.0"
    }
  },
  {
    "service_request": "2021-842810",
    "request_type": "Trash/Recycling",
    "request_reason": "Order Trash Cart",
    "date_created": "2021-11-17T13:39:42.000",
    "date_modified": "2021-11-17T14:02:36.000",
    "request_status": "Pending",
    "responsible_agency": "Department of Sanitation",
    "final_address": "2216 St Ann St",
    "address_councildis": "D",
    "status": "Assigned to Contractor",
    "contractor": "Richards Disposal",
    "rowid": "842810",
    "final_x": "3678407.95867",
    "final_y": "536012.147335",
    "longitude": "-90.07767843685102",
    "latitude": "29.967941085017557",
    "geocoded_column": {
      "latitude": "29.967941085017557",
      "longitude": "-90.07767843685102"
    }
  },
  {
    "service_request": "2021-842809",
    "request_type": "Trash/Recycling",
    "request_reason": "Start Trash Service",
    "date_created": "2021-11-17T13:39:17.000",
    "date_modified": "2021-11-17T14:02:38.000",
    "request_status": "Pending",
    "responsible_agency": "Department of Sanitation",
    "final_address": "2216 St Ann St",
    "address_councildis": "D",
    "status": "Assigned to Contractor",
    "contractor": "Richards Disposal",
    "rowid": "842809",
    "final_x": "3678407.95867",
    "final_y": "536012.147335",
    "longitude": "-90.07767843685102",
    "latitude": "29.967941085017557",
    "geocoded_column": {
      "latitude": "29.967941085017557",
      "longitude": "-90.07767843685102"
    }
  },
  {
    "service_request": "2021-842808",
    "request_type": "Trash/Recycling",
    "request_reason": "Order Recycling Cart",
    "date_created": "2021-11-17T13:38:51.000",
    "date_modified": "2021-11-17T14:02:39.000",
    "request_status": "Pending",
    "responsible_agency": "Department of Sanitation",
    "final_address": "2216 St Ann St",
    "address_councildis": "D",
    "status": "Pending",
    "rowid": "842808",
    "final_x": "3678407.95867",
    "final_y": "536012.147335",
    "longitude": "-90.07767843685102",
    "latitude": "29.967941085017557",
    "geocoded_column": {
      "latitude": "29.967941085017557",
      "longitude": "-90.07767843685102"
    }
  },
  {
    "service_request": "2021-842807",
    "request_type": "Trash/Recycling",
    "request_reason": "Missed Trash Pick-Up",
    "date_created": "2021-11-17T13:38:08.000",
    "date_modified": "2021-11-17T14:02:40.000",
    "request_status": "Pending",
    "responsible_agency": "Department of Sanitation",
    "final_address": "6739 Catina St",
    "address_councildis": "A",
    "status": "Assigned to Contractor",
    "contractor": "Metro Disposal",
    "rowid": "842807",
    "final_x": "3667118.85396",
    "final_y": "552489.164886",
    "longitude": "-90.1127756564614",
    "latitude": "30.013582589454955",
    "geocoded_column": {
      "latitude": "30.013582589454955",
      "longitude": "-90.1127756564614"
    }
  },
  {
    "service_request": "2021-842806",
    "request_type": "Property Maintenance",
    "request_reason": "Property Maintenance",
    "date_created": "2021-11-17T13:37:33.000",
    "date_modified": "2021-11-17T13:37:33.000",
    "request_status": "Pending",
    "responsible_agency": "Department of Code Enforcement",
    "final_address": "2706 S Miro St",
    "address_councildis": "B",
    "status": "Pending",
    "rowid": "842806",
    "final_x": "3672262.48583",
    "final_y": "528528.965504",
    "longitude": "-90.0973410031582",
    "latitude": "29.947548565128812",
    "geocoded_column": {
      "latitude": "29.947548565128812",
      "longitude": "-90.0973410031582"
    }
  },
  {
    "service_request": "2021-842805",
    "request_type": "Trash/Recycling",
    "request_reason": "Repair Trash Cart",
    "date_created": "2021-11-17T13:33:39.000",
    "date_modified": "2021-11-17T14:02:41.000",
    "request_status": "Pending",
    "responsible_agency": "Department of Sanitation",
    "final_address": "4631 Prytania St",
    "address_councildis": "B",
    "status": "Assigned to Contractor",
    "contractor": "Richards Disposal",
    "rowid": "842805",
    "final_x": "3669908.82791",
    "final_y": "520304.976504",
    "longitude": "-90.1050507824352",
    "latitude": "29.92500484610099",
    "geocoded_column": {
      "latitude": "29.92500484610099",
      "longitude": "-90.1050507824352"
    }
  },
  {
    "service_request": "2021-842803",
    "request_type": "Abandoned Vehicles",
    "request_reason": "Abandoned/Junk Vehicles",
    "date_created": "2021-11-17T13:27:11.000",
    "date_modified": "2021-11-17T13:27:11.000",
    "request_status": "Pending",
    "responsible_agency": "Department of Public Works",
    "final_address": "4018 Banks St",
    "address_councildis": "A",
    "status": "Pending",
    "rowid": "842803",
    "final_x": "3670577.49275",
    "final_y": "537131.822856",
    "longitude": "-90.1023693897664",
    "latitude": "29.971253439575786",
    "geocoded_column": {
      "latitude": "29.971253439575786",
      "longitude": "-90.1023693897664"
    }
  },
  {
    "service_request": "2021-842802",
    "request_type": "Roads/Drainage",
    "request_reason": "Street Subsidence (Sinking)",
    "date_created": "2021-11-17T13:13:56.000",
    "date_modified": "2021-11-17T14:02:45.000",
    "request_status": "Pending",
    "responsible_agency": "Department of Public Works",
    "final_address": "2101 St Claude Ave",
    "address_councildis": "C",
    "status": "Pending",
    "rowid": "842802",
    "final_x": "3684650.13001",
    "final_y": "536382.140039",
    "longitude": "-90.05795247634498",
    "latitude": "29.96876887254759",
    "geocoded_column": {
      "latitude": "29.96876887254759",
      "longitude": "-90.05795247634498"
    }
  },
  {
    "service_request": "2021-842801",
    "request_type": "Roads/Drainage",
    "request_reason": "Pothole",
    "date_created": "2021-11-17T13:13:54.000",
    "date_modified": "2021-11-17T13:14:09.000",
    "request_status": "Pending",
    "responsible_agency": "Department of Public Works",
    "final_address": "715 Ursulines Ave",
    "address_councildis": "C",
    "status": "Pending",
    "rowid": "842801",
    "final_x": "3683345.22895",
    "final_y": "533729.349893",
    "longitude": "-90.06216636670666",
    "latitude": "29.96151448533939",
    "geocoded_column": {
      "latitude": "29.96151448533939",
      "longitude": "-90.06216636670666"
    }
  },
  {
    "service_request": "2021-842800",
    "request_type": "Trash/Recycling",
    "request_reason": "Repair Trash Cart",
    "date_created": "2021-11-17T13:04:32.000",
    "date_modified": "2021-11-17T13:04:37.000",
    "request_status": "Pending",
    "responsible_agency": "Department of Sanitation",
    "final_address": "5231 Timber Haven Ln",
    "address_councildis": "C",
    "status": "Assigned to Contractor",
    "contractor": "Richards Disposal",
    "rowid": "842800",
    "final_x": "3703559.45162",
    "final_y": "511371.855024",
    "longitude": "-89.9991558109626",
    "latitude": "29.899407074373514",
    "geocoded_column": {
      "latitude": "29.899407074373514",
      "longitude": "-89.9991558109626"
    }
  },
  {
    "service_request": "2021-842799",
    "request_type": "Trash/Recycling",
    "request_reason": "Illegal Dumping",
    "date_created": "2021-11-17T13:03:51.000",
    "date_modified": "2021-11-17T14:02:47.000",
    "request_status": "Pending",
    "responsible_agency": "Department of Sanitation",
    "final_address": "1900 BLK First St",
    "address_councildis": "B",
    "status": "Pending",
    "rowid": "842799",
    "final_x": "3676253.79444",
    "final_y": "524263.400408",
    "longitude": "-90.08488562078982",
    "latitude": "29.935700680596568",
    "geocoded_column": {
      "latitude": "29.935700680596568",
      "longitude": "-90.08488562078982"
    }
  },
  {
    "service_request": "2021-842797",
    "request_type": "Roads/Drainage",
    "request_reason": "Street Subsidence (Sinking)",
    "date_created": "2021-11-17T13:01:55.000",
    "date_modified": "2021-11-17T13:01:55.000",
    "request_status": "Pending",
    "responsible_agency": "Department of Public Works",
    "final_address": "6737 General Diaz St",
    "address_councildis": "A",
    "status": "Pending",
    "rowid": "842797",
    "final_x": "3670056.49985",
    "final_y": "552276.477526",
    "longitude": "-90.10350141316007",
    "latitude": "30.012911405324456",
    "geocoded_column": {
      "latitude": "30.012911405324456",
      "longitude": "-90.10350141316007"
    }
  },
  {
    "service_request": "2021-842796",
    "request_type": "Roads/Drainage",
    "request_reason": "Pothole",
    "date_created": "2021-11-17T13:01:22.000",
    "date_modified": "2021-11-17T13:06:53.000",
    "request_status": "Pending",
    "responsible_agency": "Department of Public Works",
    "final_address": "900 BLK Thalia St",
    "address_councildis": "B",
    "status": "Inspected",
    "rowid": "842796",
    "final_x": "3681116.20072",
    "final_y": "525097.003071",
    "longitude": "-90.06950591968877",
    "latitude": "29.937846243157008",
    "geocoded_column": {
      "latitude": "29.937846243157008",
      "longitude": "-90.06950591968877"
    }
  },
  {
    "service_request": "2021-842794",
    "request_type": "Trash/Recycling",
    "request_reason": "Repair Recycling Cart",
    "date_created": "2021-11-17T12:55:00.000",
    "date_modified": "2021-11-17T13:02:30.000",
    "request_status": "Pending",
    "responsible_agency": "Department of Sanitation",
    "final_address": "1016 Henriette Delille St",
    "address_councildis": "C",
    "status": "Pending",
    "rowid": "842794",
    "final_x": "3681863.05064",
    "final_y": "534571.535877",
    "longitude": "-90.06681743491802",
    "latitude": "29.963875337810986",
    "geocoded_column": {
      "latitude": "29.963875337810986",
      "longitude": "-90.06681743491802"
    }
  },
  {
    "service_request": "2021-842793",
    "request_type": "Trash/Recycling",
    "request_reason": "Request a Large Item Pick Up",
    "date_created": "2021-11-17T12:48:21.000",
    "date_modified": "2021-11-17T12:48:21.000",
    "case_close_date": "2021-07-05T19:00:00.000",
    "request_status": "Pending",
    "responsible_agency": "Department of Sanitation",
    "final_address": "341 N Murat St",
    "address_councildis": "A",
    "status": "Assigned to Contractor",
    "contractor": "Richards Disposal",
    "rowid": "842793",
    "final_x": "3670362.38855",
    "final_y": "540321.197835",
    "longitude": "-90.10294056289774",
    "latitude": "29.980029495723407",
    "geocoded_column": {
      "latitude": "29.980029495723407",
      "longitude": "-90.10294056289774"
    }
  },
  {
    "service_request": "2021-842792",
    "request_type": "Abandoned Vehicles",
    "request_reason": "Abandoned/Junk Vehicles",
    "date_created": "2021-11-17T12:43:20.000",
    "date_modified": "2021-11-17T12:43:20.000",
    "request_status": "Pending",
    "responsible_agency": "Department of Public Works",
    "final_address": "3902 Louisiana Avenue Prkwy",
    "address_councildis": "B",
    "status": "Pending",
    "rowid": "842792",
    "final_x": "3671135.15457",
    "final_y": "529071.060928",
    "longitude": "-90.10088202464446",
    "latitude": "29.949072538402365",
    "geocoded_column": {
      "latitude": "29.949072538402365",
      "longitude": "-90.10088202464446"
    }
  },
  {
    "service_request": "2021-842791",
    "request_type": "Roads/Drainage",
    "request_reason": "Road Shoulder Repair",
    "date_created": "2021-11-17T12:39:45.000",
    "date_modified": "2021-11-17T12:39:45.000",
    "request_status": "Pending",
    "responsible_agency": "Department of Public Works",
    "final_address": "4116 S Liberty St",
    "address_councildis": "B",
    "status": "Pending",
    "rowid": "842791",
    "final_x": "3671553.03515",
    "final_y": "523343.526459",
    "longitude": "-90.09975728049234",
    "latitude": "29.933311317314892",
    "geocoded_column": {
      "latitude": "29.933311317314892",
      "longitude": "-90.09975728049234"
    }
  },
  {
    "service_request": "2021-842790",
    "request_type": "Trash/Recycling",
    "request_reason": "Illegal Dumping",
    "date_created": "2021-11-17T12:38:46.000",
    "date_modified": "2021-11-17T12:38:46.000",
    "request_status": "Pending",
    "responsible_agency": "Department of Sanitation",
    "final_address": "DUMAINE ST & N CLAIBORNE AVE",
    "address_councildis": "C",
    "status": "Pending",
    "rowid": "842790",
    "final_x": "3680275.7",
    "final_y": "535139.88",
    "longitude": "-90.07181037616235",
    "latitude": "29.9654862379528",
    "geocoded_column": {
      "latitude": "29.9654862379528",
      "longitude": "-90.07181037616235"
    }
  },
  {
    "service_request": "2021-842789",
    "request_type": "Property Maintenance",
    "request_reason": "Property Maintenance",
    "date_created": "2021-11-17T12:36:44.000",
    "date_modified": "2021-11-17T13:16:34.000",
    "case_close_date": "2021-11-17T07:16:34.000",
    "request_status": "Closed",
    "responsible_agency": "Department of Code Enforcement",
    "final_address": "1118 Spain St",
    "address_councildis": "C",
    "status": "Invalid Case",
    "rowid": "842789",
    "final_x": "3686085.03324",
    "final_y": "536624.841351",
    "longitude": "-90.05341241393575",
    "latitude": "29.96939222323932",
    "geocoded_column": {
      "latitude": "29.96939222323932",
      "longitude": "-90.05341241393575"
    }
  },
  {
    "service_request": "2021-842788",
    "request_type": "Traffic Signals/Signs/Striping/Streetlights",
    "request_reason": "Striping/Road Surface Markings",
    "date_created": "2021-11-17T12:35:39.000",
    "date_modified": "2021-11-17T12:35:39.000",
    "request_status": "Pending",
    "responsible_agency": "Department of Public Works",
    "final_address": "2000 Earhart Blvd",
    "address_councildis": "B",
    "status": "Pending",
    "rowid": "842788",
    "final_x": "3678032.89794",
    "final_y": "527548.163711",
    "longitude": "-90.07915545960367",
    "latitude": "29.944679274323157",
    "geocoded_column": {
      "latitude": "29.944679274323157",
      "longitude": "-90.07915545960367"
    }
  },
  {
    "service_request": "2021-842787",
    "request_type": "Roads/Drainage",
    "request_reason": "Pothole",
    "date_created": "2021-11-17T12:34:08.000",
    "date_modified": "2021-11-17T13:02:37.000",
    "request_status": "Pending",
    "responsible_agency": "Department of Public Works",
    "final_address": "115 N Genois St",
    "address_councildis": "B",
    "status": "Pending",
    "rowid": "842787",
    "final_x": "3672686.2756",
    "final_y": "537394.124936",
    "longitude": "-90.09570060079082",
    "latitude": "29.971912221179128",
    "geocoded_column": {
      "latitude": "29.971912221179128",
      "longitude": "-90.09570060079082"
    }
  },
  {
    "service_request": "2021-842786",
    "request_type": "Trash/Recycling",
    "request_reason": "Order Trash Cart",
    "date_created": "2021-11-17T12:30:18.000",
    "date_modified": "2021-11-17T13:02:39.000",
    "request_status": "Pending",
    "responsible_agency": "Department of Sanitation",
    "final_address": "1723 N Rocheblave St",
    "address_councildis": "D",
    "status": "Assigned to Contractor",
    "contractor": "Metro Disposal",
    "rowid": "842786",
    "final_x": "3680462.93775",
    "final_y": "540257.344907",
    "longitude": "-90.0710410563885",
    "latitude": "29.97955183210389",
    "geocoded_column": {
      "latitude": "29.97955183210389",
      "longitude": "-90.0710410563885"
    }
  },
  {
    "service_request": "2021-842785",
    "request_type": "Trash/Recycling",
    "request_reason": "Order Trash Cart",
    "date_created": "2021-11-17T12:29:47.000",
    "date_modified": "2021-11-17T13:02:41.000",
    "request_status": "Pending",
    "responsible_agency": "Department of Sanitation",
    "final_address": "1721 N Rocheblave St",
    "address_councildis": "D",
    "status": "Assigned to Contractor",
    "contractor": "Metro Disposal",
    "rowid": "842785",
    "final_x": "3680450.96565",
    "final_y": "540240.716939",
    "longitude": "-90.07107944760395",
    "latitude": "29.979506473614222",
    "geocoded_column": {
      "latitude": "29.979506473614222",
      "longitude": "-90.07107944760395"
    }
  },
  {
    "service_request": "2021-842784",
    "request_type": "Trash/Recycling",
    "request_reason": "Repair Trash Cart",
    "date_created": "2021-11-17T12:24:59.000",
    "date_modified": "2021-11-17T13:02:43.000",
    "request_status": "Pending",
    "responsible_agency": "Department of Sanitation",
    "final_address": "144 Audubon Blvd",
    "address_councildis": "A",
    "status": "Assigned to Contractor",
    "contractor": "Richards Disposal",
    "rowid": "842784",
    "final_x": "3665982.90439",
    "final_y": "528138.889599",
    "longitude": "-90.11718123126242",
    "latitude": "29.94666074131448",
    "geocoded_column": {
      "latitude": "29.94666074131448",
      "longitude": "-90.11718123126242"
    }
  },
  {
    "service_request": "2021-842783",
    "request_type": "Roads/Drainage",
    "request_reason": "Pothole",
    "date_created": "2021-11-17T12:24:34.000",
    "date_modified": "2021-11-17T12:24:34.000",
    "request_status": "Pending",
    "responsible_agency": "Department of Public Works",
    "final_address": "3509 S Liberty St",
    "address_councildis": "B",
    "status": "Pending",
    "rowid": "842783",
    "final_x": "3672735.50734",
    "final_y": "523687.243323",
    "longitude": "-90.09601256447773",
    "latitude": "29.934221370783384",
    "geocoded_column": {
      "latitude": "29.934221370783384",
      "longitude": "-90.09601256447773"
    }
  },
  {
    "service_request": "2021-842782",
    "request_type": "Trash/Recycling",
    "request_reason": "Repair Trash Cart",
    "date_created": "2021-11-17T12:17:51.000",
    "date_modified": "2021-11-17T13:02:44.000",
    "request_status": "Pending",
    "responsible_agency": "Department of Sanitation",
    "final_address": "4824 Constance St",
    "address_councildis": "B",
    "status": "Assigned to Contractor",
    "contractor": "Richards Disposal",
    "rowid": "842782",
    "final_x": "3669412.66938",
    "final_y": "518209.222134",
    "longitude": "-90.10668782005432",
    "latitude": "29.919256800556497",
    "geocoded_column": {
      "latitude": "29.919256800556497",
      "longitude": "-90.10668782005432"
    }
  },
  {
    "service_request": "2021-842781",
    "request_type": "Trash/Recycling",
    "request_reason": "Order Trash Cart",
    "date_created": "2021-11-17T12:16:31.000",
    "date_modified": "2021-11-17T13:02:46.000",
    "request_status": "Pending",
    "responsible_agency": "Department of Sanitation",
    "final_address": "5551 Chamberlain Dr",
    "address_councildis": "D",
    "status": "Assigned to Contractor",
    "contractor": "Metro Disposal",
    "rowid": "842781",
    "final_x": "3679510.17435",
    "final_y": "552965.238039",
    "longitude": "-90.07360900749069",
    "latitude": "30.014522863927805",
    "geocoded_column": {
      "latitude": "30.014522863927805",
      "longitude": "-90.07360900749069"
    }
  },
  {
    "service_request": "2021-842780",
    "request_type": "Roads/Drainage",
    "request_reason": "Street Subsidence (Sinking)",
    "date_created": "2021-11-17T12:12:45.000",
    "date_modified": "2021-11-17T12:12:45.000",
    "request_status": "Pending",
    "responsible_agency": "Department of Public Works",
    "final_address": "7004 General Diaz St",
    "address_councildis": "A",
    "status": "Pending",
    "rowid": "842780",
    "final_x": "3670060.12967",
    "final_y": "554027.443928",
    "longitude": "-90.10343056524961",
    "latitude": "30.017725835845905",
    "geocoded_column": {
      "latitude": "30.017725835845905",
      "longitude": "-90.10343056524961"
    }
  },
  {
    "service_request": "2021-842779",
    "request_type": "Abandoned Vehicles",
    "request_reason": "Abandoned/Junk Vehicles",
    "date_created": "2021-11-17T12:02:06.000",
    "date_modified": "2021-11-17T12:02:06.000",
    "request_status": "Pending",
    "responsible_agency": "Department of Public Works",
    "status": "Inspected",
    "rowid": "842779",
    "longitude": "0.0",
    "latitude": "0.0",
    "geocoded_column": {
      "latitude": "0.0",
      "longitude": "0.0"
    }
  },
  {
    "service_request": "2021-842778",
    "request_type": "Abandoned Vehicles",
    "request_reason": "Abandoned/Junk Vehicles",
    "date_created": "2021-11-17T11:57:16.000",
    "date_modified": "2021-11-17T11:57:16.000",
    "request_status": "Pending",
    "responsible_agency": "Department of Public Works",
    "status": "Inspected",
    "rowid": "842778",
    "longitude": "0.0",
    "latitude": "0.0",
    "geocoded_column": {
      "latitude": "0.0",
      "longitude": "0.0"
    }
  },
  {
    "service_request": "2021-842777",
    "request_type": "Trash/Recycling",
    "request_reason": "Request a Large Item Pick Up",
    "date_created": "2021-11-17T11:52:37.000",
    "date_modified": "2021-11-17T12:03:04.000",
    "request_status": "Pending",
    "responsible_agency": "Department of Sanitation",
    "final_address": "3150 State Street Dr",
    "address_councildis": "A",
    "status": "Assigned to Contractor",
    "contractor": "Richards Disposal",
    "rowid": "842777",
    "final_x": "3667486.33153",
    "final_y": "527969.799551",
    "longitude": "-90.11244004187316",
    "latitude": "29.946151836897233",
    "geocoded_column": {
      "latitude": "29.946151836897233",
      "longitude": "-90.11244004187316"
    }
  },
  {
    "service_request": "2021-842775",
    "request_type": "Trash/Recycling",
    "request_reason": "Request a Large Item Pick Up",
    "date_created": "2021-11-17T11:44:11.000",
    "date_modified": "2021-11-17T11:44:31.000",
    "request_status": "Pending",
    "responsible_agency": "Department of Sanitation",
    "final_address": "3819 Ulloa St",
    "address_councildis": "B",
    "status": "Assigned to Contractor",
    "contractor": "Richards Disposal",
    "rowid": "842775",
    "final_x": "3670563.35783",
    "final_y": "535890.015047",
    "longitude": "-90.10245615846803",
    "latitude": "29.967839302280982",
    "geocoded_column": {
      "latitude": "29.967839302280982",
      "longitude": "-90.10245615846803"
    }
  },
  {
    "service_request": "2021-842774",
    "request_type": "Roads/Drainage",
    "request_reason": "Road Shoulder Repair",
    "date_created": "2021-11-17T11:40:54.000",
    "date_modified": "2021-11-17T14:38:00.000",
    "request_status": "Pending",
    "responsible_agency": "Department of Public Works",
    "final_address": "2621 Prentiss Ave",
    "address_councildis": "D",
    "status": "Inspected",
    "rowid": "842774",
    "final_x": "3686723.46537",
    "final_y": "554157.42524",
    "longitude": "-90.05077644257436",
    "latitude": "30.01758091520797",
    "geocoded_column": {
      "latitude": "30.01758091520797",
      "longitude": "-90.05077644257436"
    }
  },
  {
    "service_request": "2021-842773",
    "request_type": "Trash/Recycling",
    "request_reason": "Replace Trash Cart",
    "date_created": "2021-11-17T11:38:32.000",
    "date_modified": "2021-11-17T13:42:14.000",
    "case_close_date": "2021-11-17T07:30:38.000",
    "request_status": "Closed",
    "responsible_agency": "Department of Sanitation",
    "final_address": "New Orleans,LA",
    "status": "Question Answered.",
    "rowid": "842773",
    "longitude": "0.0",
    "latitude": "0.0",
    "geocoded_column": {
      "latitude": "0.0",
      "longitude": "0.0"
    }
  },
  {
    "service_request": "2021-842772",
    "request_type": "Trash/Recycling",
    "request_reason": "Replace Trash Cart",
    "date_created": "2021-11-17T11:36:14.000",
    "date_modified": "2021-11-17T12:03:13.000",
    "request_status": "Pending",
    "responsible_agency": "Department of Sanitation",
    "final_address": "3218 Pittari Pl",
    "address_councildis": "C",
    "status": "Assigned to Contractor",
    "contractor": "Richards Disposal",
    "rowid": "842772",
    "final_x": "3709765.98245",
    "final_y": "518876.195703",
    "longitude": "-89.97928915999786",
    "latitude": "29.919841239874714",
    "geocoded_column": {
      "latitude": "29.919841239874714",
      "longitude": "-89.97928915999786"
    }
  },
  {
    "service_request": "2021-842771",
    "request_type": "Abandoned Vehicles",
    "request_reason": "Abandoned/Junk Vehicles",
    "date_created": "2021-11-17T11:36:01.000",
    "date_modified": "2021-11-17T11:38:20.000",
    "request_status": "Pending",
    "responsible_agency": "Department of Public Works",
    "final_address": "5111 E Parkwood Ct",
    "address_councildis": "E",
    "status": "Pending",
    "rowid": "842771",
    "final_x": "3717168.69567",
    "final_y": "559389.539485",
    "longitude": "-89.95438372784182",
    "latitude": "30.030994991538027",
    "geocoded_column": {
      "latitude": "30.030994991538027",
      "longitude": "-89.95438372784182"
    }
  },
  {
    "service_request": "2021-842770",
    "request_type": "Abandoned Vehicles",
    "request_reason": "Abandoned/Junk Vehicles",
    "date_created": "2021-11-17T11:31:33.000",
    "date_modified": "2021-11-17T12:03:15.000",
    "request_status": "Pending",
    "responsible_agency": "Department of Public Works",
    "final_address": "5720 Brunswick Ct",
    "address_councildis": "C",
    "status": "Pending",
    "rowid": "842770",
    "final_x": "3704692.39223",
    "final_y": "517245.363189",
    "longitude": "-89.99536399075438",
    "latitude": "29.915520894304134",
    "geocoded_column": {
      "latitude": "29.915520894304134",
      "longitude": "-89.99536399075438"
    }
  },
  {
    "service_request": "2021-842767",
    "request_type": "Abandoned Vehicles",
    "request_reason": "Abandoned/Junk Vehicles",
    "date_created": "2021-11-17T11:23:26.000",
    "date_modified": "2021-11-17T12:03:20.000",
    "request_status": "Pending",
    "responsible_agency": "Department of Public Works",
    "final_address": "632 St James St",
    "address_councildis": "B",
    "status": "Pending",
    "rowid": "842767",
    "final_x": "3681439.27151",
    "final_y": "521982.213114",
    "longitude": "-90.06859449987346",
    "latitude": "29.92927179918108",
    "geocoded_column": {
      "latitude": "29.92927179918108",
      "longitude": "-90.06859449987346"
    }
  },
  {
    "service_request": "2021-842766",
    "request_type": "Roads/Drainage",
    "request_reason": "Pothole",
    "date_created": "2021-11-17T11:23:03.000",
    "date_modified": "2021-11-17T11:23:03.000",
    "request_status": "Pending",
    "responsible_agency": "Department of Public Works",
    "final_address": "500 Adams St",
    "address_councildis": "A",
    "status": "Pending",
    "rowid": "842766",
    "final_x": "3661404.90874",
    "final_y": "525611.729341",
    "longitude": "-90.1317193651245",
    "latitude": "29.939844664586417",
    "geocoded_column": {
      "latitude": "29.939844664586417",
      "longitude": "-90.1317193651245"
    }
  },
  {
    "service_request": "2021-842765",
    "request_type": "Trash/Recycling",
    "request_reason": "Missed Trash Pick-Up",
    "date_created": "2021-11-17T11:21:24.000",
    "date_modified": "2021-11-17T12:03:22.000",
    "request_status": "Pending",
    "responsible_agency": "Department of Sanitation",
    "final_address": "628 St James St",
    "address_councildis": "B",
    "status": "Assigned to Contractor",
    "contractor": "Richards Disposal",
    "rowid": "842765",
    "final_x": "3681469.22556",
    "final_y": "521974.265722",
    "longitude": "-90.0685002176205",
    "latitude": "29.929249037333037",
    "geocoded_column": {
      "latitude": "29.929249037333037",
      "longitude": "-90.0685002176205"
    }
  },
  {
    "service_request": "2021-842764",
    "request_type": "Trash/Recycling",
    "request_reason": "Missed Trash Pick-Up",
    "date_created": "2021-11-17T11:20:22.000",
    "date_modified": "2021-11-17T11:20:30.000",
    "request_status": "Pending",
    "responsible_agency": "Department of Sanitation",
    "final_address": "600 BLK Saint James St",
    "address_councildis": "B",
    "status": "Assigned to Contractor",
    "contractor": "Richards Disposal",
    "rowid": "842764",
    "final_x": "3681535.85179",
    "final_y": "521988.932188",
    "longitude": "-90.06828938028544",
    "latitude": "29.929287342864406",
    "geocoded_column": {
      "latitude": "29.929287342864406",
      "longitude": "-90.06828938028544"
    }
  },
  {
    "service_request": "2021-842763",
    "request_type": "Property Maintenance",
    "request_reason": "Property Maintenance",
    "date_created": "2021-11-17T11:18:49.000",
    "date_modified": "2021-11-17T11:18:49.000",
    "request_status": "Pending",
    "responsible_agency": "Department of Code Enforcement",
    "final_address": "1224 Merrill St",
    "address_councildis": "C",
    "status": "Pending",
    "rowid": "842763",
    "final_x": "3694996.5361",
    "final_y": "527126.369087",
    "longitude": "-90.02561166151678",
    "latitude": "29.942998039106453",
    "geocoded_column": {
      "latitude": "29.942998039106453",
      "longitude": "-90.02561166151678"
    }
  },
  {
    "service_request": "2021-842761",
    "request_type": "Property Maintenance",
    "request_reason": "Property Maintenance",
    "date_created": "2021-11-17T11:14:59.000",
    "date_modified": "2021-11-17T11:14:59.000",
    "request_status": "Pending",
    "responsible_agency": "Department of Code Enforcement",
    "final_address": "4109 Tchoupitoulas St",
    "address_councildis": "B",
    "status": "Pending",
    "rowid": "842761",
    "final_x": "3672193.85985",
    "final_y": "517611.83487",
    "longitude": "-90.09792932184037",
    "latitude": "29.917532015690462",
    "geocoded_column": {
      "latitude": "29.917532015690462",
      "longitude": "-90.09792932184037"
    }
  },
  {
    "service_request": "2021-842759",
    "request_type": "Trash/Recycling",
    "request_reason": "Request a Large Item Pick Up",
    "date_created": "2021-11-17T11:12:49.000",
    "date_modified": "2021-11-17T11:13:16.000",
    "request_status": "Pending",
    "responsible_agency": "Department of Sanitation",
    "final_address": "4444 Duplessis St",
    "address_councildis": "D",
    "status": "Assigned to Contractor",
    "contractor": "Metro Disposal",
    "rowid": "842759",
    "final_x": "3678158.68219",
    "final_y": "548854.440787",
    "longitude": "-90.07802134975302",
    "latitude": "30.003260428350355",
    "geocoded_column": {
      "latitude": "30.003260428350355",
      "longitude": "-90.07802134975302"
    }
  },
  {
    "service_request": "2021-842758",
    "request_type": "Trash/Recycling",
    "request_reason": "Order Trash Cart",
    "date_created": "2021-11-17T11:12:15.000",
    "date_modified": "2021-11-17T12:03:26.000",
    "request_status": "Pending",
    "responsible_agency": "Department of Sanitation",
    "final_address": "2436 DAbadie St",
    "address_councildis": "D",
    "status": "Assigned to Contractor",
    "contractor": "Metro Disposal",
    "rowid": "842758",
    "final_x": "3680128.88763",
    "final_y": "540249.389195",
    "longitude": "-90.07209639698836",
    "latitude": "29.979540071144626",
    "geocoded_column": {
      "latitude": "29.979540071144626",
      "longitude": "-90.07209639698836"
    }
  },
  {
    "service_request": "2021-842757",
    "request_type": "Abandoned Vehicles",
    "request_reason": "Abandoned/Junk Vehicles",
    "date_created": "2021-11-17T11:08:16.000",
    "date_modified": "2021-11-17T11:08:16.000",
    "request_status": "Pending",
    "responsible_agency": "Department of Public Works",
    "final_address": "CYPRESS ACRES DR & WESTPARK CT",
    "address_councildis": "C",
    "status": "Pending",
    "rowid": "842757",
    "final_x": "3696199.6",
    "final_y": "522367.18",
    "longitude": "-90.02198527719017",
    "latitude": "29.929874099909103",
    "geocoded_column": {
      "latitude": "29.929874099909103",
      "longitude": "-90.02198527719017"
    }
  },
  {
    "service_request": "2021-842756",
    "request_type": "Traffic Signals/Signs/Striping/Streetlights",
    "request_reason": "Striping/Road Surface Markings",
    "date_created": "2021-11-17T11:03:53.000",
    "date_modified": "2021-11-17T11:03:53.000",
    "request_status": "Pending",
    "responsible_agency": "Department of Public Works",
    "final_address": "ELYSIAN FIELDS AVE & I 10 E",
    "address_councildis": "D",
    "status": "Pending",
    "rowid": "842756",
    "final_x": "3684722.5",
    "final_y": "540639.18",
    "longitude": "-90.05757424500491",
    "latitude": "29.980472030461726",
    "geocoded_column": {
      "latitude": "29.980472030461726",
      "longitude": "-90.05757424500491"
    }
  },
  {
    "service_request": "2021-842755",
    "request_type": "Parks & Parkways",
    "request_reason": "Request Tree Service (Right of Way/Public Property)",
    "date_created": "2021-11-17T11:03:39.000",
    "date_modified": "2021-11-17T11:05:32.000",
    "request_status": "Pending",
    "responsible_agency": "Department of Parks & Parkway",
    "final_address": "2 Westpark Ct",
    "address_councildis": "C",
    "status": "Pending",
    "rowid": "842755",
    "final_x": "3696112.57674",
    "final_y": "521718.718714",
    "longitude": "-90.02228341563978",
    "latitude": "29.92809379111836",
    "geocoded_column": {
      "latitude": "29.92809379111836",
      "longitude": "-90.02228341563978"
    }
  },
  {
    "service_request": "2021-842754",
    "request_type": "Traffic Signals/Signs/Striping/Streetlights",
    "request_reason": "Request for Stop Sign",
    "date_created": "2021-11-17T11:03:26.000",
    "date_modified": "2021-11-17T12:03:28.000",
    "request_status": "Pending",
    "responsible_agency": "Department of Public Works",
    "final_address": "3128 Fortin St",
    "address_councildis": "A",
    "status": "Pending",
    "rowid": "842754",
    "final_x": "3676344.04059",
    "final_y": "540919.483723",
    "longitude": "-90.08402739617037",
    "latitude": "29.981496608267335",
    "geocoded_column": {
      "latitude": "29.981496608267335",
      "longitude": "-90.08402739617037"
    }
  },
  {
    "service_request": "2021-842753",
    "request_type": "Trash/Recycling",
    "request_reason": "Request a Large Item Pick Up",
    "date_created": "2021-11-17T11:03:25.000",
    "date_modified": "2021-11-17T12:03:30.000",
    "request_status": "Pending",
    "responsible_agency": "Department of Sanitation",
    "final_address": "5863 West End Blvd",
    "address_councildis": "A",
    "status": "Assigned to Contractor",
    "contractor": "Metro Disposal",
    "rowid": "842753",
    "final_x": "3666490.34106",
    "final_y": "547026.299281",
    "longitude": "-90.11494496350359",
    "latitude": "29.998579999643205",
    "geocoded_column": {
      "latitude": "29.998579999643205",
      "longitude": "-90.11494496350359"
    }
  },
  {
    "service_request": "2021-842750",
    "request_type": "Roads/Drainage",
    "request_reason": "Catch Basin - Clogged",
    "date_created": "2021-11-17T10:57:10.000",
    "date_modified": "2021-11-17T10:57:10.000",
    "request_status": "Pending",
    "responsible_agency": "Department of Public Works",
    "final_address": "7700 St Charles Ave",
    "address_councildis": "A",
    "status": "Pending",
    "rowid": "842750",
    "final_x": "3661580.99885",
    "final_y": "525823.957821",
    "longitude": "-90.13115639045508",
    "latitude": "29.940423146864543",
    "geocoded_column": {
      "latitude": "29.940423146864543",
      "longitude": "-90.13115639045508"
    }
  },
  {
    "service_request": "2021-842749",
    "request_type": "Traffic Signals/Signs/Striping/Streetlights",
    "request_reason": "Request for Stop Sign",
    "date_created": "2021-11-17T10:55:48.000",
    "date_modified": "2021-11-17T10:55:48.000",
    "request_status": "Pending",
    "responsible_agency": "Department of Public Works",
    "final_address": "1400 Gallier St",
    "address_councildis": "C",
    "status": "Pending",
    "rowid": "842749",
    "final_x": "3690704.68873",
    "final_y": "536793.289864",
    "longitude": "-90.03881721536938",
    "latitude": "29.969712700287506",
    "geocoded_column": {
      "latitude": "29.969712700287506",
      "longitude": "-90.03881721536938"
    }
  },
  {
    "service_request": "2021-842748",
    "request_type": "Property Maintenance",
    "request_reason": "Property Maintenance",
    "date_created": "2021-11-17T10:53:37.000",
    "date_modified": "2021-11-17T10:53:37.000",
    "request_status": "Pending",
    "responsible_agency": "Department of Code Enforcement",
    "final_address": "8 Westpark Ct",
    "address_councildis": "C",
    "status": "Pending",
    "rowid": "842748",
    "final_x": "3696065.06742",
    "final_y": "521720.538362",
    "longitude": "-90.02243332528634",
    "latitude": "29.928100289144318",
    "geocoded_column": {
      "latitude": "29.928100289144318",
      "longitude": "-90.02243332528634"
    }
  },
  {
    "service_request": "2021-842747",
    "request_type": "Property Maintenance",
    "request_reason": "Property Maintenance",
    "date_created": "2021-11-17T10:53:05.000",
    "date_modified": "2021-11-17T10:53:05.000",
    "request_status": "Pending",
    "responsible_agency": "Department of Code Enforcement",
    "final_address": "1238 Annette St",
    "address_councildis": "C",
    "status": "Pending",
    "rowid": "842747",
    "final_x": "3683084.98818",
    "final_y": "536471.196935",
    "longitude": "-90.06289216391815",
    "latitude": "29.969061556769883",
    "geocoded_column": {
      "latitude": "29.969061556769883",
      "longitude": "-90.06289216391815"
    }
  },
  {
    "service_request": "2021-842746",
    "request_type": "Trash/Recycling",
    "request_reason": "Illegal Dumping",
    "date_created": "2021-11-17T10:50:05.000",
    "date_modified": "2021-11-17T10:50:05.000",
    "request_status": "Pending",
    "responsible_agency": "Department of Sanitation",
    "final_address": "424 S Roadway St Lot 36",
    "address_councildis": "A",
    "status": "Pending",
    "rowid": "842746",
    "final_x": "3665564.12864",
    "final_y": "556078.526618",
    "longitude": "-90.11756747233395",
    "latitude": "30.023497516662523",
    "geocoded_column": {
      "latitude": "30.023497516662523",
      "longitude": "-90.11756747233395"
    }
  },
  {
    "service_request": "2021-842745",
    "request_type": "Trash/Recycling",
    "request_reason": "Request a Large Item Pick Up",
    "date_created": "2021-11-17T10:36:47.000",
    "date_modified": "2021-11-17T11:02:11.000",
    "request_status": "Pending",
    "responsible_agency": "Department of Sanitation",
    "final_address": "18 Flamingo St",
    "address_councildis": "D",
    "status": "Assigned to Contractor",
    "contractor": "Metro Disposal",
    "rowid": "842745",
    "final_x": "3674677.94977",
    "final_y": "555110.834137",
    "longitude": "-90.08880285481155",
    "latitude": "30.0205676725022",
    "geocoded_column": {
      "latitude": "30.0205676725022",
      "longitude": "-90.08880285481155"
    }
  },
  {
    "service_request": "2021-842744",
    "request_type": "Trash/Recycling",
    "request_reason": "Dead Animal Pick Up",
    "date_created": "2021-11-17T10:35:12.000",
    "date_modified": "2021-11-17T11:02:14.000",
    "request_status": "Pending",
    "responsible_agency": "Department of Sanitation",
    "final_address": "2401 Westbend Prkwy",
    "address_councildis": "C",
    "status": "Assigned to Contractor",
    "contractor": "Richards Disposal",
    "rowid": "842744",
    "final_x": "3696531.23152",
    "final_y": "521885.760698",
    "longitude": "-90.02095578503594",
    "latitude": "29.928539921460334",
    "geocoded_column": {
      "latitude": "29.928539921460334",
      "longitude": "-90.02095578503594"
    }
  },
  {
    "service_request": "2021-842743",
    "request_type": "Roads/Drainage",
    "request_reason": "Pothole",
    "date_created": "2021-11-17T10:33:53.000",
    "date_modified": "2021-11-17T11:02:16.000",
    "request_status": "Pending",
    "responsible_agency": "Department of Public Works",
    "final_address": "8823 Marks St",
    "address_councildis": "A",
    "status": "Pending",
    "rowid": "842743",
    "final_x": "3666988.62785",
    "final_y": "537856.210633",
    "longitude": "-90.11367921278148",
    "latitude": "29.973350788683373",
    "geocoded_column": {
      "latitude": "29.973350788683373",
      "longitude": "-90.11367921278148"
    }
  },
  {
    "service_request": "2021-842741",
    "request_type": "Traffic Signals/Signs/Striping/Streetlights",
    "request_reason": "Additional signage",
    "date_created": "2021-11-17T10:30:45.000",
    "date_modified": "2021-11-17T10:30:45.000",
    "request_status": "Pending",
    "responsible_agency": "Department of Public Works",
    "final_address": "ESPLANADE AVE & N DORGENOIS ST",
    "address_councildis": "D",
    "status": "Pending",
    "rowid": "842741",
    "final_x": "3678630.72",
    "final_y": "538582.89",
    "longitude": "-90.07688592730652",
    "latitude": "29.975003031713594",
    "geocoded_column": {
      "latitude": "29.975003031713594",
      "longitude": "-90.07688592730652"
    }
  },
  {
    "service_request": "2021-842740",
    "request_type": "Trash/Recycling",
    "request_reason": "Missed Trash Pick-Up",
    "date_created": "2021-11-17T10:29:35.000",
    "date_modified": "2021-11-17T11:02:17.000",
    "request_status": "Pending",
    "responsible_agency": "Department of Sanitation",
    "final_address": "4242 Vincennes Pl",
    "address_councildis": "B",
    "status": "Assigned to Contractor",
    "contractor": "Richards Disposal",
    "rowid": "842740",
    "final_x": "3668796.42458",
    "final_y": "531621.969667",
    "longitude": "-90.10818032094456",
    "latitude": "29.956155662821025",
    "geocoded_column": {
      "latitude": "29.956155662821025",
      "longitude": "-90.10818032094456"
    }
  },
  {
    "service_request": "2021-842739",
    "request_type": "Trash/Recycling",
    "request_reason": "Replace Trash Cart",
    "date_created": "2021-11-17T10:29:12.000",
    "date_modified": "2021-11-17T11:02:19.000",
    "request_status": "Pending",
    "responsible_agency": "Department of Sanitation",
    "final_address": "6032 Kuebel Dr",
    "address_councildis": "E",
    "status": "Assigned to Contractor",
    "contractor": "Metro Disposal",
    "rowid": "842739",
    "final_x": "3695119.13981",
    "final_y": "559699.922589",
    "longitude": "-90.02404945338408",
    "latitude": "30.032559613922707",
    "geocoded_column": {
      "latitude": "30.032559613922707",
      "longitude": "-90.02404945338408"
    }
  },
  {
    "service_request": "2021-842738",
    "request_type": "Traffic Signals/Signs/Striping/Streetlights",
    "request_reason": "Request for Stop Sign",
    "date_created": "2021-11-17T10:27:36.000",
    "date_modified": "2021-11-17T11:02:20.000",
    "request_status": "Pending",
    "responsible_agency": "Department of Public Works",
    "final_address": "4101 General Ogden St",
    "address_councildis": "A",
    "status": "Pending",
    "rowid": "842738",
    "final_x": "3666857.81645",
    "final_y": "537896.281993",
    "longitude": "-90.11409099690681",
    "latitude": "29.973464799462775",
    "geocoded_column": {
      "latitude": "29.973464799462775",
      "longitude": "-90.11409099690681"
    }
  },