[
  {
    "service_request": "2025-1190756",
    "request_type": "Trash/Recycling",
    "request_reason": "Missed Trash Pick-Up",
    "date_created": "2025-05-08T23:31:40.000",
    "date_modified": "2025-05-08T23:31:42.000",
    "request_status": "Pending",
    "responsible_agency": "Department of Sanitation",
    "final_address": "3329 General Meyer Ave",
    "address_councildis": "C",
    "status": "Assigned to Contractor",
    "contractor": "Richards Disposal",
    "rowid": "1190756",
    "final_x": "3696550.78205",
    "final_y": "525852.945213",
    "longitude": "-90.0207506089592",
    "latitude": "29.939447698981276",
    "geocoded_column": {
      "latitude": "29.939447698981276",
      "longitude": "-90.0207506089592"
    }
  },
  {
    "service_request": "2025-1190755",
    "request_type": "Trash/Recycling",
    "request_reason": "Illegal Dumping",
    "date_created": "2025-05-08T23:21:59.000",
    "date_modified": "2025-05-08T23:22:02.000",
    "request_status": "Pending",
    "responsible_agency": "Department of Sanitation",
    "final_address": "0 BLK Brazillier Island Rd",
    "address_councildis": "E",
    "status": "Pending",
    "rowid": "1190755",
    "final_x": "3771175.05997",
    "final_y": "582304.363722",
    "longitude": "-89.78274733939394",
    "latitude": "30.092102390412567",
    "geocoded_column": {
      "latitude": "30.092102390412567",
      "longitude": "-89.78274733939394"
    }
  },
  {
    "service_request": "2025-1190754",
    "request_type": "Roads and Streets",
    "request_reason": "Debris in Driving Lanes",
    "date_created": "2025-05-08T22:12:51.000",
    "date_modified": "2025-05-08T22:12:54.000",
    "request_status": "Pending",
    "responsible_agency": "Department of Public Works",
    "final_address": "1235 Saint Andrew St, New Orleans, Louisiana, 70130",
    "status": "Pending",
    "rowid": "1190754",
    "longitude": "0.0",
    "latitude": "0.0",
    "geocoded_column": {
      "latitude": "0.0",
      "longitude": "0.0"
    }
  },
  {
    "service_request": "2025-1190753",
    "request_type": "Streetlights",
    "request_reason": "Streetlight Outage/Malfunction",
    "date_created": "2025-05-08T22:00:56.000",
    "date_modified": "2025-05-08T22:01:03.000",
    "request_status": "Pending",
    "responsible_agency": "Department of Public Works",
    "final_address": "1009 Marengo St",
    "address_councildis": "B",
    "status": "Pending",
    "contractor": "Legacy Professional Services",
    "rowid": "1190753",
    "final_x": "3672166.29089",
    "final_y": "519384.302071",
    "longitude": "-90.09795602314999",
    "latitude": "29.92240655362659",
    "geocoded_column": {
      "latitude": "29.92240655362659",
      "longitude": "-90.09795602314999"
    }
  },
  {
    "service_request": "2025-1190752",
    "request_type": "Trash/Recycling",
    "request_reason": "Replace Recycling Cart",
    "date_created": "2025-05-08T21:53:45.000",
    "date_modified": "2025-05-08T21:53:47.000",
    "request_status": "Pending",
    "responsible_agency": "Department of Sanitation",
    "final_address": "706 Lowerline St",
    "address_councildis": "A",
    "status": "Pending",
    "rowid": "1190752",
    "final_x": "3662732.63245",
    "final_y": "525479.167229",
    "longitude": "-90.12753193290035",
    "latitude": "29.93944180903833",
    "geocoded_column": {
      "latitude": "29.93944180903833",
      "longitude": "-90.12753193290035"
    }
  },
  {
    "service_request": "2025-1190751",
    "request_type": "Trash/Recycling",
    "request_reason": "Request a Large Item Pick Up",
    "date_created": "2025-05-08T20:57:26.000",
    "date_modified": "2025-05-08T20:57:28.000",
    "request_status": "Pending",
    "responsible_agency": "Department of Sanitation",
    "final_address": "408 14Th St",
    "address_councildis": "A",
    "status": "Assigned to Contractor",
    "contractor": "IV Waste",
    "rowid": "1190751",
    "final_x": "3664774.6418",
    "final_y": "548099.861394",
    "longitude": "-90.12032898531201",
    "latitude": "30.001581977930055",
    "geocoded_column": {
      "latitude": "30.001581977930055",
      "longitude": "-90.12032898531201"
    }
  },
  {
    "service_request": "2025-1190750",
    "request_type": "Roads and Streets",
    "request_reason": "Sidewalk Damaged or Missing",
    "date_created": "2025-05-08T20:45:57.000",
    "date_modified": "2025-05-08T20:45:59.000",
    "request_status": "Pending",
    "responsible_agency": "Department of Public Works",
    "final_address": "10301 Chevy Chase Dr",
    "address_councildis": "E",
    "status": "Pending",
    "rowid": "1190750",
    "final_x": "3710200.78104",
    "final_y": "563398.777696",
    "longitude": "-89.97625228715108",
    "latitude": "30.04224752897532",
    "geocoded_column": {
      "latitude": "30.04224752897532",
      "longitude": "-89.97625228715108"
    }
  },
  {
    "service_request": "2025-1190749",
    "request_type": "Street and Traffic Signs",
    "request_reason": "One Way Sign Missing or Damaged",
    "date_created": "2025-05-08T20:44:57.000",
    "date_modified": "2025-05-08T20:44:59.000",
    "request_status": "Pending",
    "responsible_agency": "Department of Public Works",
    "final_address": "ST LOUIS ST & BURGUNDY ST",
    "address_councildis": "C",
    "status": "Pending",
    "rowid": "1190749",
    "final_x": "3681239.8",
    "final_y": "532517.78",
    "longitude": "-90.06885717060959",
    "latitude": "29.9582471368884",
    "geocoded_column": {
      "latitude": "29.9582471368884",
      "longitude": "-90.06885717060959"
    }
  },
  {
    "service_request": "2025-1190748",
    "request_type": "Street and Traffic Signs",
    "request_reason": "Street Name Sign Damaged or Missing",
    "date_created": "2025-05-08T20:44:08.000",
    "date_modified": "2025-05-08T20:44:09.000",
    "request_status": "Pending",
    "responsible_agency": "Department of Public Works",
    "final_address": "DAUPHINE ST & ST LOUIS ST",
    "address_councildis": "C",
    "status": "Pending",
    "rowid": "1190748",
    "final_x": "3681528.8",
    "final_y": "532300.18",
    "longitude": "-90.06795217621693",
    "latitude": "29.957640038446165",
    "geocoded_column": {
      "latitude": "29.957640038446165",
      "longitude": "-90.06795217621693"
    }
  },
  {
    "service_request": "2025-1190747",
    "request_type": "Street and Traffic Signs",
    "request_reason": "Street Name Sign Damaged or Missing",
    "date_created": "2025-05-08T20:42:33.000",
    "date_modified": "2025-05-08T20:42:35.000",
    "request_status": "Pending",
    "responsible_agency": "Department of Public Works",
    "final_address": "CHARTRES ST & CONTI ST",
    "address_councildis": "C",
    "status": "Pending",
    "rowid": "1190747",
    "final_x": "3682169.3",
    "final_y": "531369.18",
    "longitude": "-90.06596218251738",
    "latitude": "29.95506064048952",
    "geocoded_column": {
      "latitude": "29.95506064048952",
      "longitude": "-90.06596218251738"
    }
  },
  {
    "service_request": "2025-1190746",
    "request_type": "Street and Traffic Signs",
    "request_reason": "Stop Sign Missing or Damaged",
    "date_created": "2025-05-08T20:41:34.000",
    "date_modified": "2025-05-08T20:41:36.000",
    "request_status": "Pending",
    "responsible_agency": "Department of Public Works",
    "final_address": "LOUISIANA AVE & S LIBERTY ST",
    "address_councildis": "B",
    "status": "Pending",
    "rowid": "1190746",
    "final_x": "3673193.5",
    "final_y": "523825.08",
    "longitude": "-90.09456198982343",
    "latitude": "29.934586770290995",
    "geocoded_column": {
      "latitude": "29.934586770290995",
      "longitude": "-90.09456198982343"
    }
  },
  {
    "service_request": "2025-1190745",
    "request_type": "Trash/Recycling",
    "request_reason": "Order Recycling Cart",
    "date_created": "2025-05-08T20:40:55.000",
    "date_modified": "2025-05-08T20:40:57.000",
    "request_status": "Pending",
    "responsible_agency": "Department of Sanitation",
    "final_address": "7110 Sycamore St",
    "address_councildis": "A",
    "status": "Pending",
    "rowid": "1190745",
    "final_x": "3666270.53421",
    "final_y": "529311.077825",
    "longitude": "-90.11623376487417",
    "latitude": "29.949875482031022",
    "geocoded_column": {
      "latitude": "29.949875482031022",
      "longitude": "-90.11623376487417"
    }
  },
  {
    "service_request": "2025-1190744",
    "request_type": "Streetlights",
    "request_reason": "Streetlight Outage/Malfunction",
    "date_created": "2025-05-08T20:31:28.000",
    "date_modified": "2025-05-08T20:31:30.000",
    "request_status": "Pending",
    "responsible_agency": "Department of Public Works",
    "final_address": "6300 BLK Carlson Dr",
    "address_councildis": "D",
    "status": "Pending",
    "contractor": "Legacy Professional Services",
    "rowid": "1190744",
    "final_x": "3679354.63863",
    "final_y": "557021.919208",
    "longitude": "-90.07395955313771",
    "latitude": "30.02568196208606",
    "geocoded_column": {
      "latitude": "30.02568196208606",
      "longitude": "-90.07395955313771"
    }
  },
  {
    "service_request": "2025-1190743",
    "request_type": "Trash/Recycling",
    "request_reason": "Request a Large Item Pick Up",
    "date_created": "2025-05-08T20:30:13.000",
    "date_modified": "2025-05-08T20:30:15.000",
    "request_status": "Pending",
    "responsible_agency": "Department of Sanitation",
    "final_address": "5920 Jamison St",
    "address_councildis": "D",
    "status": "Assigned to Contractor",
    "contractor": "Waste Pro",
    "rowid": "1190743",
    "final_x": "3696242.18851",
    "final_y": "553494.894103",
    "longitude": "-90.02072516996958",
    "latitude": "30.015462810705714",
    "geocoded_column": {
      "latitude": "30.015462810705714",
      "longitude": "-90.02072516996958"
    }
  },
  {
    "service_request": "2025-1190742",
    "request_type": "Streetlights",
    "request_reason": "Streetlight Outage/Malfunction",
    "date_created": "2025-05-08T20:29:45.000",
    "date_modified": "2025-05-08T20:29:46.000",
    "request_status": "Pending",
    "responsible_agency": "Department of Public Works",
    "final_address": "6300 BLK Carlson Dr",
    "address_councildis": "D",
    "status": "Pending",
    "contractor": "Legacy Professional Services",
    "rowid": "1190742",
    "final_x": "3679354.63863",
    "final_y": "557021.919208",
    "longitude": "-90.07395955313771",
    "latitude": "30.02568196208606",
    "geocoded_column": {
      "latitude": "30.02568196208606",
      "longitude": "-90.07395955313771"
    }
  },
  {
    "service_request": "2025-1190741",
    "request_type": "Streetlights",
    "request_reason": "Streetlight Outage/Malfunction",
    "date_created": "2025-05-08T20:28:17.000",
    "date_modified": "2025-05-08T20:28:19.000",
    "request_status": "Pending",
    "responsible_agency": "Department of Public Works",
    "final_address": "6300 BLK Carlson Dr",
    "address_councildis": "D",
    "status": "Pending",
    "contractor": "Legacy Professional Services",
    "rowid": "1190741",
    "final_x": "3679354.63863",
    "final_y": "557021.919208",
    "longitude": "-90.07395955313771",
    "latitude": "30.02568196208606",
    "geocoded_column": {
      "latitude": "30.02568196208606",
      "longitude": "-90.07395955313771"
    }
  },
  {
    "service_request": "2025-1190740",
    "request_type": "Trash/Recycling",
    "request_reason": "Request a Large Item Pick Up",
    "date_created": "2025-05-08T19:57:56.000",
    "date_modified": "2025-05-08T19:57:58.000",
    "request_status": "Pending",
    "responsible_agency": "Department of Sanitation",
    "final_address": "1834 Cadiz St",
    "address_councildis": "B",
    "status": "Assigned to Contractor",
    "contractor": "IV Waste",
    "rowid": "1190740",
    "final_x": "3669964.06407",
    "final_y": "521805.78809",
    "longitude": "-90.10482562558167",
    "latitude": "29.92912997096781",
    "geocoded_column": {
      "latitude": "29.92912997096781",
      "longitude": "-90.10482562558167"
    }
  },
  {
    "service_request": "2025-1190739",
    "request_type": "Property Maintenance",
    "request_reason": "Property Maintenance",
    "date_created": "2025-05-08T19:52:13.000",
    "date_modified": "2025-05-08T19:52:15.000",
    "request_status": "Pending",
    "responsible_agency": "Department of Code Enforcement",
    "final_address": "2424 Tulane Ave",
    "address_councildis": "B",
    "status": "Pending",
    "rowid": "1190739",
    "final_x": "3675255.82997",
    "final_y": "533201.61498",
    "longitude": "-90.0877294629103",
    "latitude": "29.96030767169834",
    "geocoded_column": {
      "latitude": "29.96030767169834",
      "longitude": "-90.0877294629103"
    }
  },
  {
    "service_request": "2025-1190738",
    "request_type": "Graffiti Removal",
    "request_reason": "Graffiti Removal",
    "date_created": "2025-05-08T19:50:26.000",
    "date_modified": "2025-05-08T19:50:27.000",
    "request_status": "Pending",
    "responsible_agency": "Department of Code Enforcement",
    "final_address": "2424 Tulane Ave",
    "address_councildis": "B",
    "status": "Pending",
    "rowid": "1190738",
    "final_x": "3675255.82997",
    "final_y": "533201.61498",
    "longitude": "-90.0877294629103",
    "latitude": "29.96030767169834",
    "geocoded_column": {
      "latitude": "29.96030767169834",
      "longitude": "-90.0877294629103"
    }
  },
  {
    "service_request": "2025-1190737",
    "request_type": "Property Maintenance",
    "request_reason": "Property Maintenance",
    "date_created": "2025-05-08T19:49:12.000",
    "date_modified": "2025-05-08T19:49:13.000",
    "request_status": "Pending",
    "responsible_agency": "Department of Code Enforcement",
    "final_address": "2424 Tulane Ave",
    "address_councildis": "B",
    "status": "Pending",
    "rowid": "1190737",
    "final_x": "3675255.82997",
    "final_y": "533201.61498",
    "longitude": "-90.0877294629103",
    "latitude": "29.96030767169834",
    "geocoded_column": {
      "latitude": "29.96030767169834",
      "longitude": "-90.0877294629103"
    }
  },
  {
    "service_request": "2025-1190735",
    "request_type": "Trash/Recycling",
    "request_reason": "Request a Large Item Pick Up",
    "date_created": "2025-05-08T19:48:53.000",
    "date_modified": "2025-05-08T19:48:56.000",
    "request_status": "Pending",
    "responsible_agency": "Department of Sanitation",
    "final_address": "23 Curtis Dr",
    "address_councildis": "E",
    "status": "Assigned to Contractor",
    "contractor": "Waste Pro",
    "rowid": "1190735",
    "final_x": "3698274.42243",
    "final_y": "560869.340894",
    "longitude": "-90.01403601767674",
    "latitude": "30.035675551463157",
    "geocoded_column": {
      "latitude": "30.035675551463157",
      "longitude": "-90.01403601767674"
    }
  },
  {
    "service_request": "2025-1190734",
    "request_type": "Abandoned Vehicles",
    "request_reason": "Abandoned/Junk Vehicles",
    "date_created": "2025-05-08T19:39:58.000",
    "date_modified": "2025-05-08T19:40:00.000",
    "request_status": "Pending",
    "responsible_agency": "Department of Public Works",
    "final_address": "6402 General Diaz St",
    "address_councildis": "A",
    "status": "Pending",
    "rowid": "1190734",
    "final_x": "3669689.717",
    "final_y": "550016.067796",
    "longitude": "-90.104736826043",
    "latitude": "30.006706892235822",
    "geocoded_column": {
      "latitude": "30.006706892235822",
      "longitude": "-90.104736826043"
    }
  },
  {
    "service_request": "2025-1190733",
    "request_type": "Trash/Recycling",
    "request_reason": "Request a Large Item Pick Up",
    "date_created": "2025-05-08T19:34:51.000",
    "date_modified": "2025-05-08T19:34:54.000",
    "request_status": "Pending",
    "responsible_agency": "Department of Sanitation",
    "final_address": "5119 Mandeville St",
    "address_councildis": "D",
    "status": "Assigned to Contractor",
    "contractor": "IV Waste",
    "rowid": "1190733",
    "final_x": "3684698.09417",
    "final_y": "551565.498773",
    "longitude": "-90.05726700806665",
    "latitude": "30.01051624474415",
    "geocoded_column": {
      "latitude": "30.01051624474415",
      "longitude": "-90.05726700806665"
    }
  },
  {
    "service_request": "2025-1190732",
    "request_type": "Safety & Permits",
    "request_reason": "Licenses & Permits",
    "date_created": "2025-05-08T19:25:11.000",
    "date_modified": "2025-05-08T19:25:14.000",
    "request_status": "Pending",
    "responsible_agency": "Safety and Permits",
    "final_address": "2227 St Ann St",
    "address_councildis": "D",
    "status": "Pending",
    "rowid": "1190732",
    "final_x": "3678446.67746",
    "final_y": "536200.996999",
    "longitude": "-90.07754962540244",
    "latitude": "29.968459190383633",
    "geocoded_column": {
      "latitude": "29.968459190383633",
      "longitude": "-90.07754962540244"
    }
  },
  {
    "service_request": "2025-1190731",
    "request_type": "Trash/Recycling",
    "request_reason": "Order Trash Cart",
    "date_created": "2025-05-08T19:09:48.000",
    "date_modified": "2025-05-08T19:09:50.000",
    "request_status": "Pending",
    "responsible_agency": "Department of Sanitation",
    "final_address": "1827 Baronne St",
    "address_councildis": "B",
    "status": "Assigned to Contractor",
    "contractor": "IV Waste",
    "rowid": "1190731",
    "final_x": "3677685.20475",
    "final_y": "525036.660669",
    "longitude": "-90.0803399419708",
    "latitude": "29.93778393082698",
    "geocoded_column": {
      "latitude": "29.93778393082698",
      "longitude": "-90.0803399419708"
    }
  },
  {
    "service_request": "2025-1190730",
    "request_type": "Property Maintenance",
    "request_reason": "Property Maintenance",
    "date_created": "2025-05-08T18:46:59.000",
    "date_modified": "2025-05-08T18:47:00.000",
    "request_status": "Pending",
    "responsible_agency": "Department of Code Enforcement",
    "final_address": "2726 Upperline St",
    "address_councildis": "B",
    "status": "Pending",
    "rowid": "1190730",
    "final_x": "3669163.0178",
    "final_y": "524863.087036",
    "longitude": "-90.10725110894151",
    "latitude": "29.93756015371495",
    "geocoded_column": {
      "latitude": "29.93756015371495",
      "longitude": "-90.10725110894151"
    }
  },
  {
    "service_request": "2025-1190729",
    "request_type": "Trash/Recycling",
    "request_reason": "Order Recycling Cart",
    "date_created": "2025-05-08T18:38:10.000",
    "date_modified": "2025-05-08T18:38:12.000",
    "request_status": "Pending",
    "responsible_agency": "Department of Sanitation",
    "final_address": "820 N Dupre St",
    "address_councildis": "A",
    "status": "Pending",
    "rowid": "1190729",
    "final_x": "3676334.69461",
    "final_y": "537876.044617",
    "longitude": "-90.08416170962262",
    "latitude": "29.97312847587101",
    "geocoded_column": {
      "latitude": "29.97312847587101",
      "longitude": "-90.08416170962262"
    }
  },
  {
    "service_request": "2025-1190728",
    "request_type": "Trash/Recycling",
    "request_reason": "Order Recycling Cart",
    "date_created": "2025-05-08T18:37:08.000",
    "date_modified": "2025-05-08T18:37:10.000",
    "request_status": "Pending",
    "responsible_agency": "Department of Sanitation",
    "final_address": "822 N Dupre St",
    "address_councildis": "A",
    "status": "Pending",
    "rowid": "1190728",
    "final_x": "3676345.11131",
    "final_y": "537887.294601",
    "longitude": "-90.08412842424632",
    "latitude": "29.97315909722591",
    "geocoded_column": {
      "latitude": "29.97315909722591",
      "longitude": "-90.08412842424632"
    }
  },
  {
    "service_request": "2025-1190727",
    "request_type": "Property Maintenance",
    "request_reason": "Property Maintenance",
    "date_created": "2025-05-08T18:33:00.000",
    "date_modified": "2025-05-08T18:33:01.000",
    "request_status": "Pending",
    "responsible_agency": "Department of Code Enforcement",
    "final_address": "3229 N Claiborne Ave",
    "address_councildis": "D",
    "status": "Pending",
    "rowid": "1190727",
    "final_x": "3690229.63696",
    "final_y": "537714.372744",
    "longitude": "-90.04028464078587",
    "latitude": "29.97226010211065",
    "geocoded_column": {
      "latitude": "29.97226010211065",
      "longitude": "-90.04028464078587"
    }
  },
  {
    "service_request": "2025-1190726",
    "request_type": "Drainage",
    "request_reason": "Drainage Manhole Cover Missing or Damaged",
    "date_created": "2025-05-08T18:30:28.000",
    "date_modified": "2025-05-08T18:30:30.000",
    "request_status": "Pending",
    "responsible_agency": "Sewerage & Water Board",
    "final_address": "1538 Piety St",
    "address_councildis": "D",
    "status": "Pending",
    "rowid": "1190726",
    "final_x": "3690254.13776",
    "final_y": "537598.807944",
    "longitude": "-90.040211382196",
    "latitude": "29.971941579441832",
    "geocoded_column": {
      "latitude": "29.971941579441832",
      "longitude": "-90.040211382196"
    }
  },
  {
    "service_request": "2025-1190725",
    "request_type": "Property Maintenance",
    "request_reason": "Property Maintenance",
    "date_created": "2025-05-08T18:28:27.000",
    "date_modified": "2025-05-08T18:28:29.000",
    "request_status": "Pending",
    "responsible_agency": "Department of Code Enforcement",
    "final_address": "1540 Piety St",
    "address_councildis": "D",
    "status": "Pending",
    "rowid": "1190725",
    "final_x": "3690253.92284",
    "final_y": "537621.487304",
    "longitude": "-90.04021125263198",
    "latitude": "29.972003946347012",
    "geocoded_column": {
      "latitude": "29.972003946347012",
      "longitude": "-90.04021125263198"
    }
  },
  {
    "service_request": "2025-1190724",
    "request_type": "Trash/Recycling",
    "request_reason": "Missed Trash Pick-Up",
    "date_created": "2025-05-08T18:15:44.000",
    "date_modified": "2025-05-08T18:15:45.000",
    "request_status": "Pending",
    "responsible_agency": "Department of Sanitation",
    "final_address": "3226 Jack Wyman Rd",
    "address_councildis": "C",
    "status": "Assigned to Contractor",
    "contractor": "Richards Disposal",
    "rowid": "1190724",
    "final_x": "3717118.44229",
    "final_y": "517880.35615",
    "longitude": "-89.9561190904642",
    "latitude": "29.91686208593003",
    "geocoded_column": {
      "latitude": "29.91686208593003",
      "longitude": "-89.9561190904642"
    }
  },
  {
    "service_request": "2025-1190723",
    "request_type": "Mosquito, Termite & Rodent Control",
    "request_reason": "Mosquito Complaint",
    "date_created": "2025-05-08T18:10:47.000",
    "date_modified": "2025-05-08T18:10:49.000",
    "request_status": "Pending",
    "responsible_agency": "Mosquito, Termite & Rodent Control Board",
    "final_address": "1016 Dufossat St",
    "address_councildis": "B",
    "status": "Pending",
    "rowid": "1190723",
    "final_x": "3668007.28065",
    "final_y": "519115.464439",
    "longitude": "-90.11109342269981",
    "latitude": "29.921789975369453",
    "geocoded_column": {
      "latitude": "29.921789975369453",
      "longitude": "-90.11109342269981"
    }
  },
  {
    "service_request": "2025-1190722",
    "request_type": "Property Maintenance",
    "request_reason": "Property Maintenance",
    "date_created": "2025-05-08T18:01:33.000",
    "date_modified": "2025-05-08T18:01:34.000",
    "request_status": "Pending",
    "responsible_agency": "Department of Code Enforcement",
    "final_address": "4324 Freret St",
    "address_councildis": "B",
    "status": "Pending",
    "rowid": "1190722",
    "final_x": "3670751.79534",
    "final_y": "524031.686972",
    "longitude": "-90.10226341063857",
    "latitude": "29.935227231033753",
    "geocoded_column": {
      "latitude": "29.935227231033753",
      "longitude": "-90.10226341063857"
    }
  },
  {
    "service_request": "2025-1190721",
    "request_type": "Trash/Recycling",
    "request_reason": "MIssed Recycling Pick-Up",
    "date_created": "2025-05-08T17:58:21.000",
    "date_modified": "2025-05-08T17:58:22.000",
    "request_status": "Pending",
    "responsible_agency": "Department of Sanitation",
    "final_address": "541 Audubon St",
    "address_councildis": "A",
    "status": "Assigned to Contractor",
    "contractor": "IV Waste",
    "rowid": "1190721",
    "final_x": "3662921.3417",
    "final_y": "524026.812348",
    "longitude": "-90.12698442419376",
    "latitude": "29.935442831917573",
    "geocoded_column": {
      "latitude": "29.935442831917573",
      "longitude": "-90.12698442419376"
    }
  },
  {
    "service_request": "2025-1190720",
    "request_type": "Trash/Recycling",
    "request_reason": "Missed Trash Pick-Up",
    "date_created": "2025-05-08T17:46:32.000",
    "date_modified": "2025-05-08T17:46:35.000",
    "request_status": "Pending",
    "responsible_agency": "Department of Sanitation",
    "final_address": "2016 Dante St",
    "address_councildis": "A",
    "status": "Assigned to Contractor",
    "contractor": "IV Waste",
    "rowid": "1190720",
    "final_x": "3663393.09536",
    "final_y": "531080.036162",
    "longitude": "-90.12526032367981",
    "latitude": "29.954823272719455",
    "geocoded_column": {
      "latitude": "29.954823272719455",
      "longitude": "-90.12526032367981"
    }
  },
  {
    "service_request": "2025-1190719",
    "request_type": "Healthy Homes",
    "request_reason": "Healthy Homes",
    "date_created": "2025-05-08T17:36:41.000",
    "date_modified": "2025-05-08T17:36:42.000",
    "request_status": "Pending",
    "responsible_agency": "Department of Code Enforcement",
    "final_address": "2317 N Claiborne Ave",
    "address_councildis": "D",
    "status": "Pending",
    "rowid": "1190719",
    "final_x": "3685766.82031",
    "final_y": "538250.010313",
    "longitude": "-90.05436006636566",
    "latitude": "29.973870640528183",
    "geocoded_column": {
      "latitude": "29.973870640528183",
      "longitude": "-90.05436006636566"
    }
  },
  {
    "service_request": "2025-1190718",
    "request_type": "Trash/Recycling",
    "request_reason": "Repair Recycling Cart",
    "date_created": "2025-05-08T17:28:16.000",
    "date_modified": "2025-05-08T17:28:18.000",
    "request_status": "Pending",
    "responsible_agency": "Department of Sanitation",
    "final_address": "2034 Prytania St",
    "address_councildis": "B",
    "status": "Pending",
    "rowid": "1190718",
    "final_x": "3678354.09109",
    "final_y": "523559.678011",
    "longitude": "-90.07827928793493",
    "latitude": "29.933702585469398",
    "geocoded_column": {
      "latitude": "29.933702585469398",
      "longitude": "-90.07827928793493"
    }
  },
  {
    "service_request": "2025-1190717",
    "request_type": "Abandoned Vehicles",
    "request_reason": "Abandoned/Junk Vehicles",
    "date_created": "2025-05-08T17:14:23.000",
    "date_modified": "2025-05-08T17:14:25.000",
    "request_status": "Pending",
    "responsible_agency": "Department of Public Works",
    "final_address": "4417 Vixen St",
    "address_councildis": "C",
    "status": "Pending",
    "rowid": "1190717",
    "final_x": "3699964.68925",
    "final_y": "520609.699896",
    "longitude": "-90.01016367580232",
    "latitude": "29.924922616868727",
    "geocoded_column": {
      "latitude": "29.924922616868727",
      "longitude": "-90.01016367580232"
    }
  },
  {
    "service_request": "2025-1190715",
    "request_type": "Trash/Recycling",
    "request_reason": "Request a Large Item Pick Up",
    "date_created": "2025-05-08T17:04:39.000",
    "date_modified": "2025-05-08T17:04:41.000",
    "request_status": "Pending",
    "responsible_agency": "Department of Sanitation",
    "final_address": "133 Morrison Ct",
    "address_councildis": "E",
    "status": "Assigned to Contractor",
    "contractor": "Waste Pro",
    "rowid": "1190715",
    "final_x": "3703944.42212",
    "final_y": "561706.131359",
    "longitude": "-89.99608708125612",
    "latitude": "30.03779567374169",
    "geocoded_column": {
      "latitude": "30.03779567374169",
      "longitude": "-89.99608708125612"
    }
  },
  {
    "service_request": "2025-1190716",
    "request_type": "Trash/Recycling",
    "request_reason": "Request a Large Item Pick Up",
    "date_created": "2025-05-08T17:04:39.000",
    "date_modified": "2025-05-08T17:04:41.000",
    "request_status": "Pending",
    "responsible_agency": "Department of Sanitation",
    "final_address": "4160 Vincennes Pl",
    "address_councildis": "B",
    "status": "Assigned to Contractor",
    "contractor": "IV Waste",
    "rowid": "1190716",
    "final_x": "3668583.3954",
    "final_y": "530932.870658",
    "longitude": "-90.10887624932298",
    "latitude": "29.954267128124634",
    "geocoded_column": {
      "latitude": "29.954267128124634",
      "longitude": "-90.10887624932298"
    }
  },
  {
    "service_request": "2025-1190714",
    "request_type": "Trash/Recycling",
    "request_reason": "Missed Trash Pick-Up",
    "date_created": "2025-05-08T17:00:56.000",
    "date_modified": "2025-05-08T17:00:58.000",
    "request_status": "Pending",
    "responsible_agency": "Department of Sanitation",
    "final_address": "5616 N Dorgenois St",
    "address_councildis": "E",
    "status": "Assigned to Contractor",
    "contractor": "Waste Pro",
    "rowid": "1190714",
    "final_x": "3699599.06621",
    "final_y": "538901.431242",
    "longitude": "-90.01065129834431",
    "latitude": "29.97523003274961",
    "geocoded_column": {
      "latitude": "29.97523003274961",
      "longitude": "-90.01065129834431"
    }
  },
  {
    "service_request": "2025-1190713",
    "request_type": "Trash/Recycling",
    "request_reason": "Request a Large Item Pick Up",
    "date_created": "2025-05-08T16:56:46.000",
    "date_modified": "2025-05-08T16:56:48.000",
    "request_status": "Pending",
    "responsible_agency": "Department of Sanitation",
    "final_address": "112 Verret St",
    "address_councildis": "C",
    "status": "Assigned to Contractor",
    "contractor": "Richards Disposal",
    "rowid": "1190713",
    "final_x": "3686830.83497",
    "final_y": "531263.732098",
    "longitude": "-90.05124655766062",
    "latitude": "29.954628100542816",
    "geocoded_column": {
      "latitude": "29.954628100542816",
      "longitude": "-90.05124655766062"
    }
  },
  {
    "service_request": "2025-1190712",
    "request_type": "Trash/Recycling",
    "request_reason": "Request a Large Item Pick Up",
    "date_created": "2025-05-08T16:54:26.000",
    "date_modified": "2025-05-08T16:54:27.000",
    "request_status": "Pending",
    "responsible_agency": "Department of Sanitation",
    "final_address": "118 Verret St",
    "address_councildis": "C",
    "status": "Assigned to Contractor",
    "contractor": "Richards Disposal",
    "rowid": "1190712",
    "final_x": "3686831.52246",
    "final_y": "531235.139586",
    "longitude": "-90.05124539703193",
    "latitude": "29.954549459797057",
    "geocoded_column": {
      "latitude": "29.954549459797057",
      "longitude": "-90.05124539703193"
    }
  },
  {
    "service_request": "2025-1190711",
    "request_type": "Abandoned Vehicles",
    "request_reason": "Abandoned/Junk Vehicles",
    "date_created": "2025-05-08T16:51:28.000",
    "date_modified": "2025-05-08T16:51:29.000",
    "request_status": "Pending",
    "responsible_agency": "Department of Public Works",
    "final_address": "2420 Ursulines Ave",
    "address_councildis": "D",
    "status": "Pending",
    "rowid": "1190711",
    "final_x": "3678523.08565",
    "final_y": "537359.475272",
    "longitude": "-90.0772682197892",
    "latitude": "29.97164230635432",
    "geocoded_column": {
      "latitude": "29.97164230635432",
      "longitude": "-90.0772682197892"
    }
  },
  {
    "service_request": "2025-1190710",
    "request_type": "Trash/Recycling",
    "request_reason": "Missed Trash Pick-Up",
    "date_created": "2025-05-08T16:50:19.000",
    "date_modified": "2025-05-08T16:50:46.000",
    "request_status": "Pending",
    "responsible_agency": "Department of Sanitation",
    "final_address": "9926 Grant St",
    "address_councildis": "E",
    "status": "Assigned to Contractor",
    "contractor": "Waste Pro",
    "rowid": "1190710",
    "final_x": "3712332.46322",
    "final_y": "555136.612057",
    "longitude": "-89.9698261339445",
    "latitude": "30.019460264110023",
    "geocoded_column": {
      "latitude": "30.019460264110023",
      "longitude": "-89.9698261339445"
    }
  },
  {
    "service_request": "2025-1190709",
    "request_type": "Trash/Recycling",
    "request_reason": "Order Second Trash Cart",
    "date_created": "2025-05-08T16:40:05.000",
    "date_modified": "2025-05-08T16:40:07.000",
    "request_status": "Pending",
    "responsible_agency": "Department of Sanitation",
    "final_address": "3953 Delachaise St",
    "address_councildis": "B",
    "status": "Assigned to Contractor",
    "contractor": "IV Waste",
    "rowid": "1190709",
    "final_x": "3670925.805",
    "final_y": "529364.817729",
    "longitude": "-90.10153306328519",
    "latitude": "29.949886463102782",
    "geocoded_column": {
      "latitude": "29.949886463102782",
      "longitude": "-90.10153306328519"
    }
  },
  {
    "service_request": "2025-1190708",
    "request_type": "Trash/Recycling",
    "request_reason": "Request a Large Item Pick Up",
    "date_created": "2025-05-08T16:37:06.000",
    "date_modified": "2025-05-08T16:37:07.000",
    "request_status": "Pending",
    "responsible_agency": "Department of Sanitation",
    "final_address": "3328 LaSalle St",
    "address_councildis": "B",
    "status": "Assigned to Contractor",
    "contractor": "IV Waste",
    "rowid": "1190708",
    "final_x": "3673206.17038",
    "final_y": "524183.357436",
    "longitude": "-90.09450976103773",
    "latitude": "29.93557154029931",
    "geocoded_column": {
      "latitude": "29.93557154029931",
      "longitude": "-90.09450976103773"
    }
  },
  {
    "service_request": "2025-1190707",
    "request_type": "Trash/Recycling",
    "request_reason": "Order Trash Cart",
    "date_created": "2025-05-08T16:36:19.000",
    "date_modified": "2025-05-08T16:36:21.000",
    "request_status": "Pending",
    "responsible_agency": "Department of Sanitation",
    "final_address": "3328 LaSalle St",
    "address_councildis": "B",
    "status": "Assigned to Contractor",
    "contractor": "IV Waste",
    "rowid": "1190707",
    "final_x": "3673206.17038",
    "final_y": "524183.357436",
    "longitude": "-90.09450976103773",
    "latitude": "29.93557154029931",
    "geocoded_column": {
      "latitude": "29.93557154029931",
      "longitude": "-90.09450976103773"
    }
  },
  {
    "service_request": "2025-1190706",
    "request_type": "Trash/Recycling",
    "request_reason": "Request a Large Item Pick Up",
    "date_created": "2025-05-08T16:34:16.000",
    "date_modified": "2025-05-08T16:34:17.000",
    "request_status": "Pending",
    "responsible_agency": "Department of Sanitation",
    "final_address": "5601 Durham Dr",
    "address_councildis": "C",
    "status": "Assigned to Contractor",
    "contractor": "Richards Disposal",
    "rowid": "1190706",
    "final_x": "3704645.38199",
    "final_y": "518677.718007",
    "longitude": "-89.99545958429145",
    "latitude": "29.91946088512268",
    "geocoded_column": {
      "latitude": "29.91946088512268",
      "longitude": "-89.99545958429145"
    }
  },
  {
    "service_request": "2025-1190705",
    "request_type": "Property Maintenance",
    "request_reason": "Property Maintenance",
    "date_created": "2025-05-08T16:31:56.000",
    "date_modified": "2025-05-08T16:31:58.000",
    "request_status": "Pending",
    "responsible_agency": "Department of Code Enforcement",
    "final_address": "8722 Edinburgh St",
    "address_councildis": "A",
    "status": "Pending",
    "rowid": "1190705",
    "final_x": "3665743.25754",
    "final_y": "535968.531527",
    "longitude": "-90.11767561262175",
    "latitude": "29.96819668865679",
    "geocoded_column": {
      "latitude": "29.96819668865679",
      "longitude": "-90.11767561262175"
    }
  },
  {
    "service_request": "2025-1190704",
    "request_type": "Trash/Recycling",
    "request_reason": "Illegal Dumping",
    "date_created": "2025-05-08T16:31:27.000",
    "date_modified": "2025-05-08T16:31:29.000",
    "request_status": "Pending",
    "responsible_agency": "Department of Sanitation",
    "final_address": "5660 Tullis Dr",
    "address_councildis": "C",
    "status": "Pending",
    "rowid": "1190704",
    "final_x": "3704892.41361",
    "final_y": "512570.118257",
    "longitude": "-89.99490502366227",
    "latitude": "29.90265914759494",
    "geocoded_column": {
      "latitude": "29.90265914759494",
      "longitude": "-89.99490502366227"
    }
  },
  {
    "service_request": "2025-1190703",
    "request_type": "Trash/Recycling",
    "request_reason": "Replace Trash Cart",
    "date_created": "2025-05-08T16:30:42.000",
    "date_modified": "2025-05-08T16:30:44.000",
    "request_status": "Pending",
    "responsible_agency": "Department of Sanitation",
    "final_address": "5500 Samovar Dr",
    "address_councildis": "E",
    "status": "Assigned to Contractor",
    "contractor": "Waste Pro",
    "rowid": "1190703",
    "final_x": "3703738.17066",
    "final_y": "556309.091034",
    "longitude": "-89.99693780526998",
    "latitude": "30.02296253077885",
    "geocoded_column": {
      "latitude": "30.02296253077885",
      "longitude": "-89.99693780526998"
    }
  },
  {
    "service_request": "2025-1190702",
    "request_type": "Streetlights",
    "request_reason": "Streetlight Outage/Malfunction",
    "date_created": "2025-05-08T16:29:48.000",
    "date_modified": "2025-05-08T16:29:49.000",
    "request_status": "Pending",
    "responsible_agency": "Department of Public Works",
    "final_address": "307 Filmore Ave",
    "address_councildis": "A",
    "status": "Pending",
    "contractor": "Legacy Professional Services",
    "rowid": "1190702",
    "final_x": "3667622.03047",
    "final_y": "552192.867542",
    "longitude": "-90.11119586019558",
    "latitude": "30.012753128472422",
    "geocoded_column": {
      "latitude": "30.012753128472422",
      "longitude": "-90.11119586019558"
    }
  },
  {
    "service_request": "2025-1190701",
    "request_type": "Parks & Parkways",
    "request_reason": "Request Grass Cutting Service (City Owned Property)",
    "date_created": "2025-05-08T16:28:59.000",
    "date_modified": "2025-05-08T16:29:00.000",
    "request_status": "Pending",
    "responsible_agency": "Department of Parks & Parkway",
    "final_address": "ADRIAN ST & BAILEY ST",
    "address_councildis": "C",
    "status": "Pending",
    "rowid": "1190701",
    "final_x": "3710720.4",
    "final_y": "518862.28",
    "longitude": "-89.97627707945469",
    "latitude": "29.919771930265433",
    "geocoded_column": {
      "latitude": "29.919771930265433",
      "longitude": "-89.97627707945469"
    }
  },
  {
    "service_request": "2025-1190700",
    "request_type": "Trash/Recycling",
    "request_reason": "Request a Large Item Pick Up",
    "date_created": "2025-05-08T16:28:30.000",
    "date_modified": "2025-05-08T16:28:32.000",
    "request_status": "Pending",
    "responsible_agency": "Department of Sanitation",
    "final_address": "429 Virginia St",
    "address_councildis": "A",
    "status": "Assigned to Contractor",
    "contractor": "IV Waste",
    "rowid": "1190700",
    "final_x": "3668734.93601",
    "final_y": "541875.099532",
    "longitude": "-90.10802826932525",
    "latitude": "29.984350149509687",
    "geocoded_column": {
      "latitude": "29.984350149509687",
      "longitude": "-90.10802826932525"
    }
  },
  {
    "service_request": "2025-1190699",
    "request_type": "Trash/Recycling",
    "request_reason": "Request a Large Item Pick Up",
    "date_created": "2025-05-08T16:26:05.000",
    "date_modified": "2025-05-08T16:26:07.000",
    "request_status": "Pending",
    "responsible_agency": "Department of Sanitation",
    "final_address": "7525 Scottwood Dr",
    "address_councildis": "E",
    "status": "Assigned to Contractor",
    "contractor": "Waste Pro",
    "rowid": "1190699",
    "final_x": "3717698.97676",
    "final_y": "570303.615847",
    "longitude": "-89.95229236412173",
    "latitude": "30.060986680515455",
    "geocoded_column": {
      "latitude": "30.060986680515455",
      "longitude": "-89.95229236412173"
    }
  },
  {
    "service_request": "2025-1190698",
    "request_type": "Abandoned Vehicles",
    "request_reason": "Abandoned/Junk Vehicles",
    "date_created": "2025-05-08T16:23:37.000",
    "date_modified": "2025-05-08T16:27:40.000",
    "request_status": "Pending",
    "responsible_agency": "Department of Public Works",
    "final_address": "5660 Tullis Dr",
    "address_councildis": "C",
    "status": "Pending",
    "rowid": "1190698",
    "final_x": "3704892.41361",
    "final_y": "512570.118257",
    "longitude": "-89.99490502366227",
    "latitude": "29.90265914759494",
    "geocoded_column": {
      "latitude": "29.90265914759494",
      "longitude": "-89.99490502366227"
    }
  },
  {
    "service_request": "2025-1190697",
    "request_type": "Parks & Parkways",
    "request_reason": "Request Tree Service (Right of Way/Public Property)",
    "date_created": "2025-05-08T16:22:02.000",
    "date_modified": "2025-05-08T16:22:04.000",
    "request_status": "Pending",
    "responsible_agency": "Department of Parks & Parkway",
    "final_address": "2724 Camp St Apt 1A",
    "address_councildis": "B",
    "status": "Pending",
    "rowid": "1190697",
    "final_x": "3676923.28194",
    "final_y": "521144.300473",
    "longitude": "-90.08287949873349",
    "latitude": "29.92710409935457",
    "geocoded_column": {
      "latitude": "29.92710409935457",
      "longitude": "-90.08287949873349"
    }
  },
  {
    "service_request": "2025-1190696",
    "request_type": "Trash/Recycling",
    "request_reason": "Request a Large Item Pick Up",
    "date_created": "2025-05-08T16:21:08.000",
    "date_modified": "2025-05-08T16:21:10.000",
    "request_status": "Pending",
    "responsible_agency": "Department of Sanitation",
    "final_address": "7461 Lake Barrington Dr",
    "address_councildis": "E",
    "status": "Assigned to Contractor",
    "contractor": "Waste Pro",
    "rowid": "1190696",
    "final_x": "3712801.7621",
    "final_y": "565200.106914",
    "longitude": "-89.96796443149506",
    "latitude": "30.04711549883253",
    "geocoded_column": {
      "latitude": "30.04711549883253",
      "longitude": "-89.96796443149506"
    }
  },
  {
    "service_request": "2025-1190695",
    "request_type": "Trash/Recycling",
    "request_reason": "Missed Trash Pick-Up",
    "date_created": "2025-05-08T16:19:32.000",
    "date_modified": "2025-05-08T16:19:34.000",
    "request_status": "Pending",
    "responsible_agency": "Department of Sanitation",
    "final_address": "1418 Egania St",
    "address_councildis": "E",
    "status": "Assigned to Contractor",
    "contractor": "Waste Pro",
    "rowid": "1190695",
    "final_x": "3697115.90935",
    "final_y": "535333.602502",
    "longitude": "-90.0186230088138",
    "latitude": "29.965498363830843",
    "geocoded_column": {
      "latitude": "29.965498363830843",
      "longitude": "-90.0186230088138"
    }
  },
  {
    "service_request": "2025-1190694",
    "request_type": "Roads and Streets",
    "request_reason": "Abandoned Service Cut",
    "date_created": "2025-05-08T16:10:52.000",
    "date_modified": "2025-05-08T16:10:54.000",
    "request_status": "Pending",
    "responsible_agency": "Department of Public Works",
    "final_address": "1609 N Broad St",
    "address_councildis": "D",
    "status": "Pending",
    "rowid": "1190694",
    "final_x": "3679102.82715",
    "final_y": "540267.464971",
    "longitude": "-90.07533648062254",
    "latitude": "29.979620787787635",
    "geocoded_column": {
      "latitude": "29.979620787787635",
      "longitude": "-90.07533648062254"
    }
  },
  {
    "service_request": "2025-1190693",
    "request_type": "Trash/Recycling",
    "request_reason": "Repair Trash Cart",
    "date_created": "2025-05-08T16:10:24.000",
    "date_modified": "2025-05-08T16:10:27.000",
    "request_status": "Pending",
    "responsible_agency": "Department of Sanitation",
    "final_address": "711 Jena St",
    "address_councildis": "B",
    "status": "Assigned to Contractor",
    "contractor": "IV Waste",
    "rowid": "1190693",
    "final_x": "3670750.99278",
    "final_y": "518154.161014",
    "longitude": "-90.10246526698398",
    "latitude": "29.91906593737538",
    "geocoded_column": {
      "latitude": "29.91906593737538",
      "longitude": "-90.10246526698398"
    }
  },
  {
    "service_request": "2025-1190692",
    "request_type": "Streetlights",
    "request_reason": "Streetlight Outage/Malfunction",
    "date_created": "2025-05-08T16:09:22.000",
    "date_modified": "2025-05-08T16:09:26.000",
    "request_status": "Pending",
    "responsible_agency": "Department of Public Works",
    "final_address": "8 Versailles Blvd",
    "address_councildis": "A",
    "status": "Pending",
    "contractor": "Legacy Professional Services",
    "rowid": "1190692",
    "final_x": "3666905.26682",
    "final_y": "529000.388864",
    "longitude": "-90.11424005041931",
    "latitude": "29.949002634595903",
    "geocoded_column": {
      "latitude": "29.949002634595903",
      "longitude": "-90.11424005041931"
    }
  },
  {
    "service_request": "2025-1190691",
    "request_type": "Trash/Recycling",
    "request_reason": "Missed Trash Pick-Up",
    "date_created": "2025-05-08T16:08:31.000",
    "date_modified": "2025-05-08T16:49:15.000",
    "case_close_date": "2025-05-08T11:49:13.000",
    "request_status": "Closed",
    "responsible_agency": "Department of Sanitation",
    "final_address": "3807 Tchoupitoulas St",
    "address_councildis": "B",
    "status": "Invalid Request",
    "contractor": "IV Waste",
    "contractor_action": "Invalid",
    "rowid": "1190691",
    "final_x": "3673628.90696",
    "final_y": "517744.956342",
    "longitude": "-90.09339512841447",
    "latitude": "29.917855435852516",
    "geocoded_column": {
      "latitude": "29.917855435852516",
      "longitude": "-90.09339512841447"
    }
  },
  {
    "service_request": "2025-1190690",
    "request_type": "Trash/Recycling",
    "request_reason": "Repair Trash Cart",
    "date_created": "2025-05-08T16:07:38.000",
    "date_modified": "2025-05-08T16:07:40.000",
    "request_status": "Pending",
    "responsible_agency": "Department of Sanitation",
    "final_address": "1923 N Dorgenois St",
    "address_councildis": "D",
    "status": "Assigned to Contractor",
    "contractor": "IV Waste",
    "rowid": "1190690",
    "final_x": "3681373.39714",
    "final_y": "541232.530764",
    "longitude": "-90.0681314534955",
    "latitude": "29.982205642759947",
    "geocoded_column": {
      "latitude": "29.982205642759947",
      "longitude": "-90.0681314534955"
    }
  },
  {
    "service_request": "2025-1190689",
    "request_type": "Drainage",
    "request_reason": "Catch Basin Clogged",
    "date_created": "2025-05-08T16:00:38.000",
    "date_modified": "2025-05-08T16:00:40.000",
    "request_status": "Pending",
    "responsible_agency": "Sewerage & Water Board",
    "final_address": "913 Harmony St",
    "address_councildis": "B",
    "status": "Pending",
    "rowid": "1190689",
    "final_x": "3676103.87374",
    "final_y": "519452.608631",
    "longitude": "-90.08552431593937",
    "latitude": "29.922477056272403",
    "geocoded_column": {
      "latitude": "29.922477056272403",
      "longitude": "-90.08552431593937"
    }
  },
  {
    "service_request": "2025-1190688",
    "request_type": "Trash/Recycling",
    "request_reason": "Request a Large Item Pick Up",
    "date_created": "2025-05-08T15:58:42.000",
    "date_modified": "2025-05-08T15:58:44.000",
    "request_status": "Pending",
    "responsible_agency": "Department of Sanitation",
    "final_address": "7301 Zimple St",
    "address_councildis": "A",
    "status": "Assigned to Contractor",
    "contractor": "IV Waste",
    "rowid": "1190688",
    "final_x": "3663672.08467",
    "final_y": "526438.863486",
    "longitude": "-90.12453398084264",
    "latitude": "29.94205345060541",
    "geocoded_column": {
      "latitude": "29.94205345060541",
      "longitude": "-90.12453398084264"
    }
  },
  {
    "service_request": "2025-1190687",
    "request_type": "Trash/Recycling",
    "request_reason": "Request a Large Item Pick Up",
    "date_created": "2025-05-08T15:56:29.000",
    "date_modified": "2025-05-08T15:56:31.000",
    "request_status": "Pending",
    "responsible_agency": "Department of Sanitation",
    "final_address": "2924 Mandeville St, New Orleans, Louisiana, 70122",
    "address_councildis": "D",
    "status": "Assigned to Contractor",
    "contractor": "IV Waste",
    "rowid": "1190687",
    "final_x": "3685145.89231",
    "final_y": "543619.526734",
    "longitude": "-90.05613206874408",
    "latitude": "29.98865396141444",
    "geocoded_column": {
      "latitude": "29.98865396141444",
      "longitude": "-90.05613206874408"
    }
  },
  {
    "service_request": "2025-1190686",
    "request_type": "Trash/Recycling",
    "request_reason": "Request a Large Item Pick Up",
    "date_created": "2025-05-08T15:55:52.000",
    "date_modified": "2025-05-08T15:55:54.000",
    "request_status": "Pending",
    "responsible_agency": "Department of Sanitation",
    "final_address": "205 Norland Ave",
    "address_councildis": "C",
    "status": "Assigned to Contractor",
    "contractor": "Richards Disposal",
    "rowid": "1190686",
    "final_x": "3706292.04049",
    "final_y": "520327.67244",
    "longitude": "-89.9902009025948",
    "latitude": "29.923944717172876",
    "geocoded_column": {
      "latitude": "29.923944717172876",
      "longitude": "-89.9902009025948"
    }
  },
  {
    "service_request": "2025-1190685",
    "request_type": "Trash/Recycling",
    "request_reason": "Request a Large Item Pick Up",
    "date_created": "2025-05-08T15:51:33.000",
    "date_modified": "2025-05-08T15:51:34.000",
    "request_status": "Pending",
    "responsible_agency": "Department of Sanitation",
    "final_address": "4010 DHemecourt St",
    "address_councildis": "A",
    "status": "Assigned to Contractor",
    "contractor": "IV Waste",
    "rowid": "1190685",
    "final_x": "3670117.78522",
    "final_y": "536555.236359",
    "longitude": "-90.10384075259608",
    "latitude": "29.969681591593506",
    "geocoded_column": {
      "latitude": "29.969681591593506",
      "longitude": "-90.10384075259608"
    }
  },
  {
    "service_request": "2025-1190684",
    "request_type": "Trash/Recycling",
    "request_reason": "Request a Large Item Pick Up",
    "date_created": "2025-05-08T15:48:37.000",
    "date_modified": "2025-05-08T15:48:40.000",
    "request_status": "Pending",
    "responsible_agency": "Department of Sanitation",
    "final_address": "4300 Hollygrove St",
    "address_councildis": "A",
    "status": "Assigned to Contractor",
    "contractor": "IV Waste",
    "rowid": "1190684",
    "final_x": "3667019.66714",
    "final_y": "538699.573193",
    "longitude": "-90.11355283009351",
    "latitude": "29.97566884502796",
    "geocoded_column": {
      "latitude": "29.97566884502796",
      "longitude": "-90.11355283009351"
    }
  },
  {
    "service_request": "2025-1190683",
    "request_type": "Trash/Recycling",
    "request_reason": "Request a Large Item Pick Up",
    "date_created": "2025-05-08T15:44:19.000",
    "date_modified": "2025-05-08T15:44:21.000",
    "request_status": "Pending",
    "responsible_agency": "Department of Sanitation",
    "final_address": "6260 Kuebel Dr",
    "address_councildis": "E",
    "status": "Assigned to Contractor",
    "contractor": "Waste Pro",
    "rowid": "1190683",
    "final_x": "3695973.75318",
    "final_y": "559963.297373",
    "longitude": "-90.02133929091868",
    "latitude": "30.03325691531223",
    "geocoded_column": {
      "latitude": "30.03325691531223",
      "longitude": "-90.02133929091868"
    }
  },
  {
    "service_request": "2025-1190682",
    "request_type": "Abandoned Vehicles",
    "request_reason": "Abandoned/Junk Vehicles",
    "date_created": "2025-05-08T15:42:13.000",
    "date_modified": "2025-05-08T15:43:04.000",
    "request_status": "Pending",
    "responsible_agency": "Department of Public Works",
    "final_address": "300 BLK N Salcedo St",
    "address_councildis": "B",
    "status": "Inspected",
    "rowid": "1190682",
    "final_x": "3674671.47969",
    "final_y": "536856.230537",
    "longitude": "-90.08944944232037",
    "latitude": "29.97037408567569",
    "geocoded_column": {
      "latitude": "29.97037408567569",
      "longitude": "-90.08944944232037"
    }
  },
  {
    "service_request": "2025-1190681",
    "request_type": "Trash/Recycling",
    "request_reason": "Request a Large Item Pick Up",
    "date_created": "2025-05-08T15:40:30.000",
    "date_modified": "2025-05-08T15:40:33.000",
    "request_status": "Pending",
    "responsible_agency": "Department of Sanitation",
    "final_address": "8922 Bunker Hill Rd",
    "address_councildis": "E",
    "status": "Assigned to Contractor",
    "contractor": "Waste Pro",
    "rowid": "1190681",
    "final_x": "3706615.60324",
    "final_y": "560028.890973",
    "longitude": "-89.98770781045639",
    "latitude": "30.033097936835713",
    "geocoded_column": {
      "latitude": "30.033097936835713",
      "longitude": "-89.98770781045639"
    }
  },
  {
    "service_request": "2025-1190680",
    "request_type": "Trash/Recycling",
    "request_reason": "Request a Large Item Pick Up",
    "date_created": "2025-05-08T15:37:20.000",
    "date_modified": "2025-05-08T15:37:22.000",
    "request_status": "Pending",
    "responsible_agency": "Department of Sanitation",
    "final_address": "1035 St Peter St",
    "address_councildis": "C",
    "status": "Assigned to Contractor",
    "contractor": "IV Waste",
    "rowid": "1190680",
    "final_x": "3681432.84604",
    "final_y": "533303.058244",
    "longitude": "-90.06822020624126",
    "latitude": "29.960400525569714",
    "geocoded_column": {
      "latitude": "29.960400525569714",
      "longitude": "-90.06822020624126"
    }
  },
  {
    "service_request": "2025-1190679",
    "request_type": "Trash/Recycling",
    "request_reason": "Repair Recycling Cart",
    "date_created": "2025-05-08T15:37:08.000",
    "date_modified": "2025-05-08T15:37:09.000",
    "request_status": "Pending",
    "responsible_agency": "Department of Sanitation",
    "final_address": "7712 Willow St",
    "address_councildis": "A",
    "status": "Pending",
    "rowid": "1190679",
    "final_x": "3663413.33031",
    "final_y": "527947.933631",
    "longitude": "-90.12530069707486",
    "latitude": "29.946210413904545",
    "geocoded_column": {
      "latitude": "29.946210413904545",
      "longitude": "-90.12530069707486"
    }
  },
  {
    "service_request": "2025-1190678",
    "request_type": "Trash/Recycling",
    "request_reason": "Replace Trash Cart",
    "date_created": "2025-05-08T15:35:05.000",
    "date_modified": "2025-05-08T15:35:08.000",
    "request_status": "Pending",
    "responsible_agency": "Department of Sanitation",
    "final_address": "8321 Nelson St",
    "address_councildis": "A",
    "status": "Assigned to Contractor",
    "contractor": "IV Waste",
    "rowid": "1190678",
    "final_x": "3664465.43367",
    "final_y": "532495.769028",
    "longitude": "-90.12182700807182",
    "latitude": "29.95868494640592",
    "geocoded_column": {
      "latitude": "29.95868494640592",
      "longitude": "-90.12182700807182"
    }
  },
  {
    "service_request": "2025-1190677",
    "request_type": "Trash/Recycling",
    "request_reason": "Order Recycling Cart",
    "date_created": "2025-05-08T15:32:49.000",
    "date_modified": "2025-05-08T15:32:51.000",
    "request_status": "Pending",
    "responsible_agency": "Department of Sanitation",
    "final_address": "1235 Decatur St",
    "address_councildis": "C",
    "status": "Pending",
    "rowid": "1190677",
    "final_x": "3684418.16514",
    "final_y": "533686.487685",
    "longitude": "-90.0587797271726",
    "latitude": "29.9613638565018",
    "geocoded_column": {
      "latitude": "29.9613638565018",
      "longitude": "-90.0587797271726"
    }
  },
  {
    "service_request": "2025-1190676",
    "request_type": "Trash/Recycling",
    "request_reason": "Replace Trash Cart",
    "date_created": "2025-05-08T15:32:37.000",
    "date_modified": "2025-05-08T15:32:38.000",
    "request_status": "Pending",
    "responsible_agency": "Department of Sanitation",
    "final_address": "2666 Clover St",
    "address_councildis": "D",
    "status": "Assigned to Contractor",
    "contractor": "IV Waste",
    "rowid": "1190676",
    "final_x": "3687679.00163",
    "final_y": "546632.413201",
    "longitude": "-90.04802403275175",
    "latitude": "29.996860437406767",
    "geocoded_column": {
      "latitude": "29.996860437406767",
      "longitude": "-90.04802403275175"
    }
  },
  {
    "service_request": "2025-1190675",
    "request_type": "Trash/Recycling",
    "request_reason": "Order Recycling Cart",
    "date_created": "2025-05-08T15:31:53.000",
    "date_modified": "2025-05-08T15:31:54.000",
    "request_status": "Pending",
    "responsible_agency": "Department of Sanitation",
    "final_address": "6448 Orleans Ave",
    "address_councildis": "A",
    "status": "Pending",
    "rowid": "1190675",
    "final_x": "3671115.86145",
    "final_y": "550275.741204",
    "longitude": "-90.10022242381704",
    "latitude": "30.007378779721865",
    "geocoded_column": {
      "latitude": "30.007378779721865",
      "longitude": "-90.10022242381704"
    }
  },
  {
    "service_request": "2025-1190674",
    "request_type": "Trash/Recycling",
    "request_reason": "Repair Trash Cart",
    "date_created": "2025-05-08T15:31:38.000",
    "date_modified": "2025-05-08T15:31:40.000",
    "request_status": "Pending",
    "responsible_agency": "Department of Sanitation",
    "final_address": "1007 Soniat St",
    "address_councildis": "B",
    "status": "Assigned to Contractor",
    "contractor": "IV Waste",
    "rowid": "1190674",
    "final_x": "3668394.41006",
    "final_y": "519051.126647",
    "longitude": "-90.10987358465836",
    "latitude": "29.92160170652402",
    "geocoded_column": {
      "latitude": "29.92160170652402",
      "longitude": "-90.10987358465836"
    }
  },
  {
    "service_request": "2025-1190673",
    "request_type": "Trash/Recycling",
    "request_reason": "Repair Trash Cart",
    "date_created": "2025-05-08T15:30:23.000",
    "date_modified": "2025-05-08T15:30:25.000",
    "request_status": "Pending",
    "responsible_agency": "Department of Sanitation",
    "final_address": "2424 Gladiolus St",
    "address_councildis": "D",
    "status": "Assigned to Contractor",
    "contractor": "IV Waste",
    "rowid": "1190673",
    "final_x": "3685819.14722",
    "final_y": "547358.521873",
    "longitude": "-90.05387359443881",
    "latitude": "29.998914207880503",
    "geocoded_column": {
      "latitude": "29.998914207880503",
      "longitude": "-90.05387359443881"
    }
  },
  {
    "service_request": "2025-1190672",
    "request_type": "Trash/Recycling",
    "request_reason": "Replace Trash Cart",
    "date_created": "2025-05-08T15:29:23.000",
    "date_modified": "2025-05-08T15:29:24.000",
    "request_status": "Pending",
    "responsible_agency": "Department of Sanitation",
    "final_address": "1039 Hendee St",
    "address_councildis": "C",
    "status": "Assigned to Contractor",
    "contractor": "Richards Disposal",
    "rowid": "1190672",
    "final_x": "3690732.6006",
    "final_y": "527522.813503",
    "longitude": "-90.03905976273087",
    "latitude": "29.944221244541254",
    "geocoded_column": {
      "latitude": "29.944221244541254",
      "longitude": "-90.03905976273087"
    }
  },
  {
    "service_request": "2025-1190671",
    "request_type": "Abandoned Vehicles",
    "request_reason": "Abandoned/Junk Vehicles",
    "date_created": "2025-05-08T15:29:03.000",
    "date_modified": "2025-05-08T15:29:05.000",
    "request_status": "Pending",
    "responsible_agency": "Department of Public Works",
    "final_address": "1710 Lapeyrouse St",
    "address_councildis": "D",
    "status": "Pending",
    "rowid": "1190671",
    "final_x": "3681764.65148",
    "final_y": "538036.717577",
    "longitude": "-90.06700723644883",
    "latitude": "29.973406384239873",
    "geocoded_column": {
      "latitude": "29.973406384239873",
      "longitude": "-90.06700723644883"
    }
  },
  {
    "service_request": "2025-1190670",
    "request_type": "Trash/Recycling",
    "request_reason": "Illegal Dumping",
    "date_created": "2025-05-08T15:28:06.000",
    "date_modified": "2025-05-08T15:28:07.000",
    "request_status": "Pending",
    "responsible_agency": "Department of Sanitation",
    "final_address": "13120 Linden St",
    "address_councildis": "E",
    "status": "Pending",
    "rowid": "1190670",
    "final_x": "3716219.934",
    "final_y": "570502.390055",
    "longitude": "-89.95695998841956",
    "latitude": "30.061582159722185",
    "geocoded_column": {
      "latitude": "30.061582159722185",
      "longitude": "-89.95695998841956"
    }
  },
  {
    "service_request": "2025-1190669",
    "request_type": "Trash/Recycling",
    "request_reason": "Repair Trash Cart",
    "date_created": "2025-05-08T15:27:56.000",
    "date_modified": "2025-05-08T15:27:58.000",
    "request_status": "Pending",
    "responsible_agency": "Department of Sanitation",
    "final_address": "6448 Orleans Ave",
    "address_councildis": "A",
    "status": "Assigned to Contractor",
    "contractor": "IV Waste",
    "rowid": "1190669",
    "final_x": "3671115.86145",
    "final_y": "550275.741204",
    "longitude": "-90.10022242381704",
    "latitude": "30.007378779721865",
    "geocoded_column": {
      "latitude": "30.007378779721865",
      "longitude": "-90.10022242381704"
    }
  },
  {
    "service_request": "2025-1190668",
    "request_type": "Trash/Recycling",
    "request_reason": "Order Recycling Cart",
    "date_created": "2025-05-08T15:27:39.000",
    "date_modified": "2025-05-08T15:27:40.000",
    "request_status": "Pending",
    "responsible_agency": "Department of Sanitation",
    "final_address": "816 Hendee St",
    "address_councildis": "C",
    "status": "Pending",
    "rowid": "1190668",
    "final_x": "3690882.37641",
    "final_y": "528414.78272",
    "longitude": "-90.03855505728981",
    "latitude": "29.946669201079825",
    "geocoded_column": {
      "latitude": "29.946669201079825",
      "longitude": "-90.03855505728981"
    }
  },
  {
    "service_request": "2025-1190667",
    "request_type": "Trash/Recycling",
    "request_reason": "Order Trash Cart",
    "date_created": "2025-05-08T15:27:07.000",
    "date_modified": "2025-05-08T15:27:09.000",
    "request_status": "Pending",
    "responsible_agency": "Department of Sanitation",
    "final_address": "816 Hendee St",
    "address_councildis": "C",
    "status": "Assigned to Contractor",
    "contractor": "Richards Disposal",
    "rowid": "1190667",
    "final_x": "3690882.37641",
    "final_y": "528414.78272",
    "longitude": "-90.03855505728981",
    "latitude": "29.946669201079825",
    "geocoded_column": {
      "latitude": "29.946669201079825",
      "longitude": "-90.03855505728981"
    }
  },
  {
    "service_request": "2025-1190666",
    "request_type": "Trash/Recycling",
    "request_reason": "Dead Animal Pick Up",
    "date_created": "2025-05-08T15:25:46.000",
    "date_modified": "2025-05-08T15:25:48.000",
    "request_status": "Pending",
    "responsible_agency": "Department of Sanitation",
    "final_address": "1116 City Park Ave",
    "address_councildis": "A",
    "status": "Assigned to Contractor",
    "contractor": "IV Waste",
    "rowid": "1190666",
    "final_x": "3673132.2178",
    "final_y": "541469.89646",
    "longitude": "-90.0941530367887",
    "latitude": "29.98310595217102",
    "geocoded_column": {
      "latitude": "29.98310595217102",
      "longitude": "-90.0941530367887"
    }
  },
  {
    "service_request": "2025-1190665",
    "request_type": "Trash/Recycling",
    "request_reason": "Repair Trash Cart",
    "date_created": "2025-05-08T15:25:01.000",
    "date_modified": "2025-05-08T15:25:03.000",
    "request_status": "Pending",
    "responsible_agency": "Department of Sanitation",
    "final_address": "4902 Danneel St",
    "address_councildis": "B",
    "status": "Assigned to Contractor",
    "contractor": "IV Waste",
    "rowid": "1190665",
    "final_x": "3669064.0233",
    "final_y": "522089.728954",
    "longitude": "-90.10765730018569",
    "latitude": "29.92993722070154",
    "geocoded_column": {
      "latitude": "29.92993722070154",
      "longitude": "-90.10765730018569"
    }
  },
  {
    "service_request": "2025-1190664",
    "request_type": "Drainage",
    "request_reason": "Catch Basin Clogged",
    "date_created": "2025-05-08T15:24:39.000",
    "date_modified": "2025-05-08T15:24:42.000",
    "request_status": "Pending",
    "responsible_agency": "Sewerage & Water Board",
    "final_address": "9029 Forshey St",
    "address_councildis": "A",
    "status": "Pending",
    "rowid": "1190664",
    "final_x": "3664500.05549",
    "final_y": "536249.548871",
    "longitude": "-90.12159232877778",
    "latitude": "29.969005601690263",
    "geocoded_column": {
      "latitude": "29.969005601690263",
      "longitude": "-90.12159232877778"
    }
  },
  {
    "service_request": "2025-1190663",
    "request_type": "Trash/Recycling",
    "request_reason": "Request a Large Item Pick Up",
    "date_created": "2025-05-08T15:24:20.000",
    "date_modified": "2025-05-08T15:24:21.000",
    "request_status": "Pending",
    "responsible_agency": "Department of Sanitation",
    "final_address": "4635 Dodt Ave",
    "address_councildis": "E",
    "status": "Assigned to Contractor",
    "contractor": "Waste Pro",
    "rowid": "1190663",
    "final_x": "3705539.72606",
    "final_y": "554702.460312",
    "longitude": "-89.99130479828582",
    "latitude": "30.018487020381986",
    "geocoded_column": {
      "latitude": "30.018487020381986",
      "longitude": "-89.99130479828582"
    }
  },
  {
    "service_request": "2025-1190662",
    "request_type": "Trash/Recycling",
    "request_reason": "Request a Large Item Pick Up",
    "date_created": "2025-05-08T15:24:08.000",
    "date_modified": "2025-05-08T15:24:10.000",
    "request_status": "Pending",
    "responsible_agency": "Department of Sanitation",
    "final_address": "2817 Calhoun St",
    "address_councildis": "A",
    "status": "Assigned to Contractor",
    "contractor": "IV Waste",
    "rowid": "1190662",
    "final_x": "3666705.71175",
    "final_y": "527058.54035",
    "longitude": "-90.11493532996897",
    "latitude": "29.943669015673265",
    "geocoded_column": {
      "latitude": "29.943669015673265",
      "longitude": "-90.11493532996897"
    }
  },
  {
    "service_request": "2025-1190661",
    "request_type": "Trash/Recycling",
    "request_reason": "Repair Trash Cart",
    "date_created": "2025-05-08T15:23:24.000",
    "date_modified": "2025-05-08T15:23:26.000",
    "request_status": "Pending",
    "responsible_agency": "Department of Sanitation",
    "final_address": "2831 Mansfield Ave",
    "address_councildis": "C",
    "status": "Assigned to Contractor",
    "contractor": "Richards Disposal",
    "rowid": "1190661",
    "final_x": "3709145.12369",
    "final_y": "519499.504439",
    "longitude": "-89.98122567332881",
    "latitude": "29.921575279548865",
    "geocoded_column": {
      "latitude": "29.921575279548865",
      "longitude": "-89.98122567332881"
    }
  },
  {
    "service_request": "2025-1190660",
    "request_type": "Trash/Recycling",
    "request_reason": "Request a Large Item Pick Up",
    "date_created": "2025-05-08T15:22:23.000",
    "date_modified": "2025-05-08T15:22:25.000",
    "request_status": "Pending",
    "responsible_agency": "Department of Sanitation",
    "final_address": "2831 Mansfield Ave",
    "address_councildis": "C",
    "status": "Assigned to Contractor",
    "contractor": "Richards Disposal",
    "rowid": "1190660",
    "final_x": "3709145.12369",
    "final_y": "519499.504439",
    "longitude": "-89.98122567332881",
    "latitude": "29.921575279548865",
    "geocoded_column": {
      "latitude": "29.921575279548865",
      "longitude": "-89.98122567332881"
    }
  },
  {
    "service_request": "2025-1190659",
    "request_type": "Trash/Recycling",
    "request_reason": "Request a Large Item Pick Up",
    "date_created": "2025-05-08T15:21:07.000",
    "date_modified": "2025-05-08T15:21:08.000",
    "request_status": "Pending",
    "responsible_agency": "Department of Sanitation",
    "final_address": "2322 Burgundy St",
    "address_councildis": "C",
    "status": "Assigned to Contractor",
    "contractor": "IV Waste",
    "rowid": "1190659",
    "final_x": "3685669.05775",
    "final_y": "535602.28807",
    "longitude": "-90.05476212883961",
    "latitude": "29.966593326740465",
    "geocoded_column": {
      "latitude": "29.966593326740465",
      "longitude": "-90.05476212883961"
    }
  },
  {
    "service_request": "2025-1190658",
    "request_type": "Trash/Recycling",
    "request_reason": "Replace Trash Cart",
    "date_created": "2025-05-08T15:20:38.000",
    "date_modified": "2025-05-08T15:20:41.000",
    "request_status": "Pending",
    "responsible_agency": "Department of Sanitation",
    "final_address": "200 Cypress Grove Ct",
    "address_councildis": "C",
    "status": "Assigned to Contractor",
    "contractor": "Richards Disposal",
    "rowid": "1190658",
    "final_x": "3704810.49201",
    "final_y": "511960.429936",
    "longitude": "-89.99518603446042",
    "latitude": "29.90098534279596",
    "geocoded_column": {
      "latitude": "29.90098534279596",
      "longitude": "-89.99518603446042"
    }
  },
  {
    "service_request": "2025-1190657",
    "request_type": "Trash/Recycling",
    "request_reason": "Illegal Dumping",
    "date_created": "2025-05-08T15:20:10.000",
    "date_modified": "2025-05-08T15:20:11.000",
    "request_status": "Pending",
    "responsible_agency": "Department of Sanitation",
    "final_address": "2600 BLK Gallier St",
    "address_councildis": "D",
    "status": "Pending",
    "rowid": "1190657",
    "final_x": "3691896.6808",
    "final_y": "541418.122004",
    "longitude": "-90.03488730386778",
    "latitude": "29.982392260237017",
    "geocoded_column": {
      "latitude": "29.982392260237017",
      "longitude": "-90.03488730386778"
    }
  },
  {
    "service_request": "2025-1190656",
    "request_type": "Trash/Recycling",
    "request_reason": "Request a Large Item Pick Up",
    "date_created": "2025-05-08T15:19:39.000",
    "date_modified": "2025-05-08T15:19:41.000",
    "request_status": "Pending",
    "responsible_agency": "Department of Sanitation",
    "final_address": "2817 Calhoun St",
    "address_councildis": "A",
    "status": "Assigned to Contractor",
    "contractor": "IV Waste",
    "rowid": "1190656",
    "final_x": "3666705.71175",
    "final_y": "527058.54035",
    "longitude": "-90.11493532996897",
    "latitude": "29.943669015673265",
    "geocoded_column": {
      "latitude": "29.943669015673265",
      "longitude": "-90.11493532996897"
    }
  },
  {
    "service_request": "2025-1190655",
    "request_type": "Roads and Streets",
    "request_reason": "Street Subsidence (Sinking)",
    "date_created": "2025-05-08T15:17:00.000",
    "date_modified": "2025-05-08T15:17:02.000",
    "request_status": "Pending",
    "responsible_agency": "Department of Public Works",
    "final_address": "4178 St Peter St",
    "address_councildis": "A",
    "status": "Pending",
    "rowid": "1190655",
    "final_x": "3671979.70958",
    "final_y": "540320.340811",
    "longitude": "-90.09783240779231",
    "latitude": "29.979979287792375",
    "geocoded_column": {
      "latitude": "29.979979287792375",
      "longitude": "-90.09783240779231"
    }
  },
  {
    "service_request": "2025-1190654",
    "request_type": "Roads and Streets",
    "request_reason": "Pothole",
    "date_created": "2025-05-08T15:15:04.000",
    "date_modified": "2025-05-08T15:21:16.000",
    "request_status": "Pending",
    "responsible_agency": "Department of Public Works",
    "final_address": "TREASURE ST & N BROAD ST",
    "address_councildis": "D",
    "status": "Pending",
    "rowid": "1190654",
    "final_x": "3681968.4",
    "final_y": "543846.58",
    "longitude": "-90.06616084032304",
    "latitude": "29.98937528121841",
    "geocoded_column": {
      "latitude": "29.98937528121841",
      "longitude": "-90.06616084032304"
    }
  },
  {
    "service_request": "2025-1190653",
    "request_type": "Trash/Recycling",
    "request_reason": "Replace Trash Cart",
    "date_created": "2025-05-08T15:13:58.000",
    "date_modified": "2025-05-08T15:14:00.000",
    "request_status": "Pending",
    "responsible_agency": "Department of Sanitation",
    "final_address": "300 20Th St",
    "address_councildis": "A",
    "status": "Assigned to Contractor",
    "contractor": "IV Waste",
    "rowid": "1190653",
    "final_x": "3665151.35962",
    "final_y": "548977.975891",
    "longitude": "-90.11910949543508",
    "latitude": "30.00398551912829",
    "geocoded_column": {
      "latitude": "30.00398551912829",
      "longitude": "-90.11910949543508"
    }
  },
  {
    "service_request": "2025-1190652",
    "request_type": "Roads and Streets",
    "request_reason": "Pothole",
    "date_created": "2025-05-08T15:09:21.000",
    "date_modified": "2025-05-08T15:09:24.000",
    "request_status": "Pending",
    "responsible_agency": "Department of Public Works",
    "final_address": "TREASURE ST & N BROAD ST",
    "address_councildis": "D",
    "status": "Pending",
    "rowid": "1190652",
    "final_x": "3681968.4",
    "final_y": "543846.58",
    "longitude": "-90.06616084032304",
    "latitude": "29.98937528121841",
    "geocoded_column": {
      "latitude": "29.98937528121841",
      "longitude": "-90.06616084032304"
    }
  },
  {
    "service_request": "2025-1190651",
    "request_type": "Drainage",
    "request_reason": "Street Flooding",
    "date_created": "2025-05-08T15:05:33.000",
    "date_modified": "2025-05-08T15:05:35.000",
    "request_status": "Pending",
    "responsible_agency": "Sewerage & Water Board",
    "final_address": "1735 Urquhart St",
    "address_councildis": "C",
    "status": "Pending",
    "rowid": "1190651",
    "final_x": "3683385.99663",
    "final_y": "536940.908616",
    "longitude": "-90.061925100226",
    "latitude": "29.97034392112823",
    "geocoded_column": {
      "latitude": "29.97034392112823",
      "longitude": "-90.061925100226"
    }
  },
  {
    "service_request": "2025-1190650",
    "request_type": "Trash/Recycling",
    "request_reason": "Repair Trash Cart",
    "date_created": "2025-05-08T15:03:39.000",
    "date_modified": "2025-05-08T15:03:41.000",
    "request_status": "Pending",
    "responsible_agency": "Department of Sanitation",
    "final_address": "5962 Durbridge Dr",
    "address_councildis": "C",
    "status": "Assigned to Contractor",
    "contractor": "Richards Disposal",
    "rowid": "1190650",
    "final_x": "3705479.41252",
    "final_y": "520970.926585",
    "longitude": "-89.99274230074116",
    "latitude": "29.92573960882954",
    "geocoded_column": {
      "latitude": "29.92573960882954",
      "longitude": "-89.99274230074116"
    }
  },
  {
    "service_request": "2025-1190649",
    "request_type": "Trash/Recycling",
    "request_reason": "Request a Large Item Pick Up",
    "date_created": "2025-05-08T14:57:49.000",
    "date_modified": "2025-05-08T14:57:51.000",
    "request_status": "Pending",
    "responsible_agency": "Department of Sanitation",
    "final_address": "1302 St Andrew St",
    "address_councildis": "B",
    "status": "Assigned to Contractor",
    "contractor": "IV Waste",
    "rowid": "1190649",
    "final_x": "3678980.89269",
    "final_y": "523165.907899",
    "longitude": "-90.07631414347284",
    "latitude": "29.93260095448064",
    "geocoded_column": {
      "latitude": "29.93260095448064",
      "longitude": "-90.07631414347284"
    }
  },
  {
    "service_request": "2025-1190648",
    "request_type": "Property Maintenance",
    "request_reason": "Property Maintenance",
    "date_created": "2025-05-08T14:52:01.000",
    "date_modified": "2025-05-08T14:52:03.000",
    "request_status": "Pending",
    "responsible_agency": "Department of Code Enforcement",
    "final_address": "2000 S Claiborne Ave",
    "address_councildis": "B",
    "status": "Pending",
    "rowid": "1190648",
    "final_x": "3674991.67361",
    "final_y": "527839.434367",
    "longitude": "-90.08874753355181",
    "latitude": "29.945571352231877",
    "geocoded_column": {
      "latitude": "29.945571352231877",
      "longitude": "-90.08874753355181"
    }
  },
  {
    "service_request": "2025-1190647",
    "request_type": "Roads and Streets",
    "request_reason": "Debris in Driving Lanes",
    "date_created": "2025-05-08T14:49:56.000",
    "date_modified": "2025-05-08T14:50:49.000",
    "request_status": "Pending",
    "responsible_agency": "Department of Public Works",
    "final_address": "7800 Chef Menteur Hwy",
    "address_councildis": "E",
    "status": "Pending",
    "rowid": "1190647",
    "final_x": "3704221.34007",
    "final_y": "552575.31919",
    "longitude": "-89.9955488515909",
    "latitude": "30.012680589053282",
    "geocoded_column": {
      "latitude": "30.012680589053282",
      "longitude": "-89.9955488515909"
    }
  },
  {
    "service_request": "2025-1190646",
    "request_type": "Roads and Streets",
    "request_reason": "Street Subsidence (Sinking)",
    "date_created": "2025-05-08T14:45:51.000",
    "date_modified": "2025-05-08T14:45:52.000",
    "request_status": "Pending",
    "responsible_agency": "Department of Public Works",
    "final_address": "2926 Kabel Dr",
    "address_councildis": "C",
    "status": "Pending",
    "rowid": "1190646",
    "final_x": "3700759.11767",
    "final_y": "520387.030136",
    "longitude": "-90.00766407404073",
    "latitude": "29.924285103029217",
    "geocoded_column": {
      "latitude": "29.924285103029217",
      "longitude": "-90.00766407404073"
    }
  },
  {
    "service_request": "2025-1190645",
    "request_type": "Property Maintenance",
    "request_reason": "Property Maintenance",
    "date_created": "2025-05-08T14:45:37.000",
    "date_modified": "2025-05-08T14:45:39.000",
    "request_status": "Pending",
    "responsible_agency": "Department of Code Enforcement",
    "final_address": "1919 Monroe St",
    "address_councildis": "A",
    "status": "Pending",
    "rowid": "1190645",
    "final_x": "3662160.16679",
    "final_y": "531697.075587",
    "longitude": "-90.12913298540694",
    "latitude": "29.956555616695237",
    "geocoded_column": {
      "latitude": "29.956555616695237",
      "longitude": "-90.12913298540694"
    }
  },
  {
    "service_request": "2025-1190644",
    "request_type": "Trash/Recycling",
    "request_reason": "Request a Large Item Pick Up",
    "date_created": "2025-05-08T14:45:35.000",
    "date_modified": "2025-05-08T14:45:37.000",
    "request_status": "Pending",
    "responsible_agency": "Department of Sanitation",
    "final_address": "634 Soraparu St",
    "address_councildis": "B",
    "status": "Assigned to Contractor",
    "contractor": "IV Waste",
    "rowid": "1190644",
    "final_x": "3679163.92872",
    "final_y": "520378.0542",
    "longitude": "-90.07583290076533",
    "latitude": "29.92492974647847",
    "geocoded_column": {
      "latitude": "29.92492974647847",
      "longitude": "-90.07583290076533"
    }
  },
  {
    "service_request": "2025-1190643",
    "request_type": "Trash/Recycling",
    "request_reason": "Repair Trash Cart",
    "date_created": "2025-05-08T14:44:27.000",
    "date_modified": "2025-05-08T14:44:31.000",
    "request_status": "Pending",
    "responsible_agency": "Department of Sanitation",
    "final_address": "729 Marengo St",
    "address_councildis": "B",
    "status": "Assigned to Contractor",
    "contractor": "IV Waste",
    "rowid": "1190643",
    "final_x": "3672262.21902",
    "final_y": "518409.407478",
    "longitude": "-90.09768640181058",
    "latitude": "29.919723060067316",
    "geocoded_column": {
      "latitude": "29.919723060067316",
      "longitude": "-90.09768640181058"
    }
  },
  {
    "service_request": "2025-1190642",
    "request_type": "Trash/Recycling",
    "request_reason": "Request a Large Item Pick Up",
    "date_created": "2025-05-08T14:44:06.000",
    "date_modified": "2025-05-08T14:44:08.000",
    "request_status": "Pending",
    "responsible_agency": "Department of Sanitation",
    "final_address": "5601 Durham Dr",
    "address_councildis": "C",
    "status": "Assigned to Contractor",
    "contractor": "Richards Disposal",
    "rowid": "1190642",
    "final_x": "3704645.38199",
    "final_y": "518677.718007",
    "longitude": "-89.99545958429145",
    "latitude": "29.91946088512268",
    "geocoded_column": {
      "latitude": "29.91946088512268",
      "longitude": "-89.99545958429145"
    }
  },
  {
    "service_request": "2025-1190641",
    "request_type": "Trash/Recycling",
    "request_reason": "Request a Large Item Pick Up",
    "date_created": "2025-05-08T14:43:04.000",
    "date_modified": "2025-05-08T14:43:06.000",
    "request_status": "Pending",
    "responsible_agency": "Department of Sanitation",
    "final_address": "7843 Keats St",
    "address_councildis": "E",
    "status": "Assigned to Contractor",
    "contractor": "Waste Pro",
    "rowid": "1190641",
    "final_x": "3696167.26128",
    "final_y": "559765.300701",
    "longitude": "-90.02073495621127",
    "latitude": "30.032706406751014",
    "geocoded_column": {
      "latitude": "30.032706406751014",
      "longitude": "-90.02073495621127"
    }
  },
  {
    "service_request": "2025-1190640",
    "request_type": "Trash/Recycling",
    "request_reason": "Repair Trash Cart",
    "date_created": "2025-05-08T14:40:57.000",
    "date_modified": "2025-05-08T14:41:00.000",
    "request_status": "Pending",
    "responsible_agency": "Department of Sanitation",
    "final_address": "7810 Duke Ct",
    "address_councildis": "E",
    "status": "Assigned to Contractor",
    "contractor": "Waste Pro",
    "rowid": "1190640",
    "final_x": "3699990.4664",
    "final_y": "561121.932638",
    "longitude": "-90.00860381818379",
    "latitude": "30.03631564140625",
    "geocoded_column": {
      "latitude": "30.03631564140625",
      "longitude": "-90.00860381818379"
    }
  },
  {
    "service_request": "2025-1190639",
    "request_type": "Drainage",
    "request_reason": "Catch Basin Clogged",
    "date_created": "2025-05-08T14:38:15.000",
    "date_modified": "2025-05-08T14:38:17.000",
    "request_status": "Pending",
    "responsible_agency": "Sewerage & Water Board",
    "final_address": "4622 Conti St",
    "address_councildis": "A",
    "status": "Pending",
    "rowid": "1190639",
    "final_x": "3669940.52295",
    "final_y": "540635.219083",
    "longitude": "-90.10426235527699",
    "latitude": "29.980905396650964",
    "geocoded_column": {
      "latitude": "29.980905396650964",
      "longitude": "-90.10426235527699"
    }
  },
  {
    "service_request": "2025-1190638",
    "request_type": "Trash/Recycling",
    "request_reason": "Order Trash Cart",
    "date_created": "2025-05-08T14:36:44.000",
    "date_modified": "2025-05-08T14:36:45.000",
    "request_status": "Pending",
    "responsible_agency": "Department of Sanitation",
    "final_address": "4622 Conti St",
    "address_councildis": "A",
    "status": "Assigned to Contractor",
    "contractor": "IV Waste",
    "rowid": "1190638",
    "final_x": "3669940.52295",
    "final_y": "540635.219083",
    "longitude": "-90.10426235527699",
    "latitude": "29.980905396650964",
    "geocoded_column": {
      "latitude": "29.980905396650964",
      "longitude": "-90.10426235527699"
    }
  },
  {
    "service_request": "2025-1190637",
    "request_type": "Abandoned Vehicles",
    "request_reason": "Abandoned/Junk Vehicles",
    "date_created": "2025-05-08T14:36:08.000",
    "date_modified": "2025-05-08T14:36:10.000",
    "request_status": "Pending",
    "responsible_agency": "Department of Public Works",
    "final_address": "3005 N Claiborne Ave",
    "address_councildis": "D",
    "status": "Pending",
    "rowid": "1190637",
    "final_x": "3688991.55753",
    "final_y": "538054.952393",
    "longitude": "-90.04418259357315",
    "latitude": "29.97323493457048",
    "geocoded_column": {
      "latitude": "29.97323493457048",
      "longitude": "-90.04418259357315"
    }
  },
  {
    "service_request": "2025-1190636",
    "request_type": "Abandoned Vehicles",
    "request_reason": "Abandoned/Junk Vehicles",
    "date_created": "2025-05-08T14:33:50.000",
    "date_modified": "2025-05-08T14:33:53.000",
    "request_status": "Pending",
    "responsible_agency": "Department of Public Works",
    "final_address": "3005 N Claiborne Ave",
    "address_councildis": "D",
    "status": "Pending",
    "rowid": "1190636",
    "final_x": "3688991.55753",
    "final_y": "538054.952393",
    "longitude": "-90.04418259357315",
    "latitude": "29.97323493457048",
    "geocoded_column": {
      "latitude": "29.97323493457048",
      "longitude": "-90.04418259357315"
    }
  },
  {
    "service_request": "2025-1190635",
    "request_type": "Abandoned Vehicles",
    "request_reason": "Abandoned/Junk Vehicles",
    "date_created": "2025-05-08T14:27:34.000",
    "date_modified": "2025-05-08T14:33:05.000",
    "request_status": "Pending",
    "responsible_agency": "Department of Public Works",
    "final_address": "3000 BLK N Claiborne Ave",
    "address_councildis": "D",
    "status": "Inspected",
    "rowid": "1190635",
    "final_x": "3689060.13595",
    "final_y": "538000.330939",
    "longitude": "-90.04396795090193",
    "latitude": "29.973082623131415",
    "geocoded_column": {
      "latitude": "29.973082623131415",
      "longitude": "-90.04396795090193"
    }
  },
  {
    "service_request": "2025-1190634",
    "request_type": "Street and Traffic Signs",
    "request_reason": "Disabled Parking Sign Missing or Damaged",
    "date_created": "2025-05-08T14:26:18.000",
    "date_modified": "2025-05-08T14:26:20.000",
    "request_status": "Pending",
    "responsible_agency": "Department of Public Works",
    "final_address": "7902 Plum St",
    "address_councildis": "A",
    "status": "Pending",
    "rowid": "1190634",
    "final_x": "3662726.68877",
    "final_y": "528112.320191",
    "longitude": "-90.1274632104939",
    "latitude": "29.94668231156975",
    "geocoded_column": {
      "latitude": "29.94668231156975",
      "longitude": "-90.1274632104939"
    }
  },
  {
    "service_request": "2025-1190633",
    "request_type": "Property Maintenance",
    "request_reason": "Property Maintenance",
    "date_created": "2025-05-08T14:23:00.000",
    "date_modified": "2025-05-08T14:23:01.000",
    "request_status": "Pending",
    "responsible_agency": "Department of Code Enforcement",
    "final_address": "7020 Yorktown Dr",
    "address_councildis": "E",
    "status": "Pending",
    "rowid": "1190633",
    "final_x": "3706147.81329",
    "final_y": "560502.181534",
    "longitude": "-89.98916851462484",
    "latitude": "30.034414396719963",
    "geocoded_column": {
      "latitude": "30.034414396719963",
      "longitude": "-89.98916851462484"
    }
  },
  {
    "service_request": "2025-1190632",
    "request_type": "Street and Traffic Signs",
    "request_reason": "Traffic or Parking Sign Damaged or Missing",
    "date_created": "2025-05-08T14:18:49.000",
    "date_modified": "2025-05-08T14:18:51.000",
    "request_status": "Pending",
    "responsible_agency": "Department of Public Works",
    "final_address": "7000 BLK Crowder Blvd",
    "address_councildis": "E",
    "status": "Pending",
    "rowid": "1190632",
    "final_x": "3704471.68649",
    "final_y": "559519.45588",
    "longitude": "-89.99450155242732",
    "latitude": "30.031766243081947",
    "geocoded_column": {
      "latitude": "30.031766243081947",
      "longitude": "-89.99450155242732"
    }
  },
  {
    "service_request": "2025-1190631",
    "request_type": "Trash/Recycling",
    "request_reason": "Request a Large Item Pick Up",
    "date_created": "2025-05-08T14:18:27.000",
    "date_modified": "2025-05-08T14:18:50.000",
    "request_status": "Pending",
    "responsible_agency": "Department of Sanitation",
    "final_address": "6724 Bellaire Dr",
    "address_councildis": "A",
    "status": "Assigned to Contractor",
    "contractor": "IV Waste",
    "rowid": "1190631",
    "final_x": "3664530.27783",
    "final_y": "552938.919959",
    "longitude": "-90.12093920855246",
    "latitude": "30.014894822695673",
    "geocoded_column": {
      "latitude": "30.014894822695673",
      "longitude": "-90.12093920855246"
    }
  },
  {
    "service_request": "2025-1190630",
    "request_type": "Trash/Recycling",
    "request_reason": "Replace Trash Cart",
    "date_created": "2025-05-08T14:14:03.000",
    "date_modified": "2025-05-08T14:14:05.000",
    "request_status": "Pending",
    "responsible_agency": "Department of Sanitation",
    "final_address": "5018 Magazine St",
    "address_councildis": "B",
    "status": "Assigned to Contractor",
    "contractor": "IV Waste",
    "rowid": "1190630",
    "final_x": "3668490.50746",
    "final_y": "518551.120311",
    "longitude": "-90.10958710187387",
    "latitude": "29.920224025203115",
    "geocoded_column": {
      "latitude": "29.920224025203115",
      "longitude": "-90.10958710187387"
    }
  },
  {
    "service_request": "2025-1190629",
    "request_type": "Street and Traffic Signs",
    "request_reason": "Street Name Sign Damaged or Missing",
    "date_created": "2025-05-08T14:13:34.000",
    "date_modified": "2025-05-08T14:13:36.000",
    "request_status": "Pending",
    "responsible_agency": "Department of Public Works",
    "final_address": "5899 Fleur-De-Lis Dr",
    "address_councildis": "A",
    "status": "Pending",
    "rowid": "1190629",
    "final_x": "547284.773265",
    "final_y": "547284.773265",
    "longitude": "-99.95339690402767",
    "latitude": "29.722062771521582",
    "geocoded_column": {
      "latitude": "29.722062771521582",
      "longitude": "-99.95339690402767"
    }
  },
  {
    "service_request": "2025-1190628",
    "request_type": "Trash/Recycling",
    "request_reason": "Request a Large Item Pick Up",
    "date_created": "2025-05-08T14:12:21.000",
    "date_modified": "2025-05-08T14:12:23.000",
    "request_status": "Pending",
    "responsible_agency": "Department of Sanitation",
    "final_address": "2221 Upperline St",
    "address_councildis": "B",
    "status": "Assigned to Contractor",
    "contractor": "IV Waste",
    "rowid": "1190628",
    "final_x": "3669237.22574",
    "final_y": "523048.062395",
    "longitude": "-90.1070781515104",
    "latitude": "29.932567235593005",
    "geocoded_column": {
      "latitude": "29.932567235593005",
      "longitude": "-90.1070781515104"
    }
  },
  {
    "service_request": "2025-1190627",
    "request_type": "Streetlights",
    "request_reason": "Streetlight Outage/Malfunction",
    "date_created": "2025-05-08T14:12:05.000",
    "date_modified": "2025-05-08T14:12:07.000",
    "request_status": "Pending",
    "responsible_agency": "Department of Public Works",
    "final_address": "5210 Constance St",
    "address_councildis": "B",
    "status": "Pending",
    "contractor": "Legacy Professional Services",
    "rowid": "1190627",
    "final_x": "3667927.11559",
    "final_y": "518194.958966",
    "longitude": "-90.11137745709435",
    "latitude": "29.919261226321453",
    "geocoded_column": {
      "latitude": "29.919261226321453",
      "longitude": "-90.11137745709435"
    }
  },
  {
    "service_request": "2025-1190626",
    "request_type": "Trash/Recycling",
    "request_reason": "Replace Trash Cart",
    "date_created": "2025-05-08T14:11:28.000",
    "date_modified": "2025-05-08T14:11:31.000",
    "request_status": "Pending",
    "responsible_agency": "Department of Sanitation",
    "final_address": "3741 Socrates St",
    "address_councildis": "C",
    "status": "Assigned to Contractor",
    "contractor": "Richards Disposal",
    "rowid": "1190626",
    "final_x": "3697812.94775",
    "final_y": "526063.662078",
    "longitude": "-90.01675816407094",
    "latitude": "29.939987281267374",
    "geocoded_column": {
      "latitude": "29.939987281267374",
      "longitude": "-90.01675816407094"
    }
  },
  {
    "service_request": "2025-1190625",
    "request_type": "Trash/Recycling",
    "request_reason": "Missed Trash Pick-Up",
    "date_created": "2025-05-08T14:10:07.000",
    "date_modified": "2025-05-08T14:54:43.000",
    "case_close_date": "2025-05-08T09:54:41.000",
    "request_status": "Closed",
    "responsible_agency": "Department of Sanitation",
    "final_address": "11001 Lake Forest Blvd",
    "address_councildis": "E",
    "status": "Invalid Request",
    "contractor": "Waste Pro",
    "contractor_action": "Invalid",
    "rowid": "1190625",
    "final_x": "3714236.94706",
    "final_y": "560501.17315",
    "longitude": "-89.96360604897423",
    "latitude": "30.034148225549192",
    "geocoded_column": {
      "latitude": "30.034148225549192",
      "longitude": "-89.96360604897423"
    }
  },
  {
    "service_request": "2025-1190624",
    "request_type": "Health Related Request",
    "request_reason": "Noise Ordinance Complaint",
    "date_created": "2025-05-08T14:09:05.000",
    "date_modified": "2025-05-08T14:37:34.000",
    "request_status": "Pending",
    "responsible_agency": "Health Department",
    "final_address": "6500 Magazine St",
    "address_councildis": "A",
    "status": "Pending",
    "rowid": "1190624",
    "final_x": "3662586.74362",
    "final_y": "520120.866808",
    "longitude": "-90.12817045257185",
    "latitude": "29.924712390786677",
    "geocoded_column": {
      "latitude": "29.924712390786677",
      "longitude": "-90.12817045257185"
    }
  },
  {
    "service_request": "2025-1190623",
    "request_type": "Trash/Recycling",
    "request_reason": "Repair Trash Cart",
    "date_created": "2025-05-08T14:08:42.000",
    "date_modified": "2025-05-08T14:08:44.000",
    "request_status": "Pending",
    "responsible_agency": "Department of Sanitation",
    "final_address": "1846 Burgundy St",
    "address_councildis": "C",
    "status": "Assigned to Contractor",
    "contractor": "IV Waste",
    "rowid": "1190623",
    "final_x": "3683760.17609",
    "final_y": "535448.82247",
    "longitude": "-90.06079573405108",
    "latitude": "29.96622977896876",
    "geocoded_column": {
      "latitude": "29.96622977896876",
      "longitude": "-90.06079573405108"
    }
  },
  {
    "service_request": "2025-1190622",
    "request_type": "Trash/Recycling",
    "request_reason": "Illegal Dumping",
    "date_created": "2025-05-08T14:08:37.000",
    "date_modified": "2025-05-08T14:08:39.000",
    "request_status": "Pending",
    "responsible_agency": "Department of Sanitation",
    "final_address": "4021 America St",
    "address_councildis": "E",
    "status": "Pending",
    "rowid": "1190622",
    "final_x": "3700084.12925",
    "final_y": "551629.721109",
    "longitude": "-90.00865461746712",
    "latitude": "30.010212716890795",
    "geocoded_column": {
      "latitude": "30.010212716890795",
      "longitude": "-90.00865461746712"
    }
  },
  {
    "service_request": "2025-1190621",
    "request_type": "Abandoned Vehicles",
    "request_reason": "Abandoned/Junk Vehicles",
    "date_created": "2025-05-08T14:08:32.000",
    "date_modified": "2025-05-08T14:10:08.000",
    "request_status": "Pending",
    "responsible_agency": "Department of Public Works",
    "final_address": "2822 Conti St",
    "address_councildis": "B",
    "status": "Inspected",
    "rowid": "1190621",
    "final_x": "3675414.26465",
    "final_y": "536476.738823",
    "longitude": "-90.08711667712318",
    "latitude": "29.96930841980966",
    "geocoded_column": {
      "latitude": "29.96930841980966",
      "longitude": "-90.08711667712318"
    }
  },
  {
    "service_request": "2025-1190620",
    "request_type": "Trash/Recycling",
    "request_reason": "Missed Trash Pick-Up",
    "date_created": "2025-05-08T14:06:16.000",
    "date_modified": "2025-05-08T14:06:19.000",
    "request_status": "Pending",
    "responsible_agency": "Department of Sanitation",
    "final_address": "7874 S Coronet Ct",
    "address_councildis": "E",
    "status": "Assigned to Contractor",
    "contractor": "Waste Pro",
    "rowid": "1190620",
    "final_x": "3703560.74065",
    "final_y": "557354.224091",
    "longitude": "-89.99745993946529",
    "latitude": "30.02584193156109",
    "geocoded_column": {
      "latitude": "30.02584193156109",
      "longitude": "-89.99745993946529"
    }
  },
  {
    "service_request": "2025-1190619",
    "request_type": "Trash/Recycling",
    "request_reason": "Repair Trash Cart",
    "date_created": "2025-05-08T14:03:04.000",
    "date_modified": "2025-05-08T14:03:06.000",
    "request_status": "Pending",
    "responsible_agency": "Department of Sanitation",
    "final_address": "1718 Fern St",
    "address_councildis": "A",
    "status": "Assigned to Contractor",
    "contractor": "IV Waste",
    "rowid": "1190619",
    "final_x": "3663796.90605",
    "final_y": "529296.560385",
    "longitude": "-90.12404467147047",
    "latitude": "29.94990757843132",
    "geocoded_column": {
      "latitude": "29.94990757843132",
      "longitude": "-90.12404467147047"
    }
  },
  {
    "service_request": "2025-1190618",
    "request_type": "Trash/Recycling",
    "request_reason": "Repair Trash Cart",
    "date_created": "2025-05-08T14:01:35.000",
    "date_modified": "2025-05-08T14:01:37.000",
    "request_status": "Pending",
    "responsible_agency": "Department of Sanitation",
    "final_address": "3800 Utah St",
    "address_councildis": "C",
    "status": "Assigned to Contractor",
    "contractor": "Richards Disposal",
    "rowid": "1190618",
    "final_x": "3695153.89098",
    "final_y": "517661.309302",
    "longitude": "-90.02545594984562",
    "latitude": "29.916967415377695",
    "geocoded_column": {
      "latitude": "29.916967415377695",
      "longitude": "-90.02545594984562"
    }
  },
  {
    "service_request": "2025-1190617",
    "request_type": "Roads and Streets",
    "request_reason": "Sidewalk Damaged or Missing",
    "date_created": "2025-05-08T13:56:23.000",
    "date_modified": "2025-05-08T14:39:45.000",
    "case_close_date": "2025-05-08T09:39:44.000",
    "request_status": "Closed",
    "responsible_agency": "Department of Public Works",
    "final_address": "2226 General Pershing St",
    "address_councildis": "B",
    "status": "Referred to External Agency",
    "rowid": "1190617",
    "final_x": "3670967.96225",
    "final_y": "523265.166779",
    "longitude": "-90.10160698317655",
    "latitude": "29.933113159865265",
    "geocoded_column": {
      "latitude": "29.933113159865265",
      "longitude": "-90.10160698317655"
    }
  },