[
  {
    "service_request": "2026-1251149",
    "request_type": "Roads and Streets",
    "request_reason": "Debris in Driving Lanes",
    "date_created": "2026-01-11T23:57:13.000",
    "date_modified": "2026-01-11T23:57:15.000",
    "request_status": "Pending",
    "responsible_agency": "Department of Public Works",
    "final_address": "1000 Elysian Fields Ave",
    "address_councildis": "C",
    "status": "Pending",
    "rowid": "1251149",
    "final_x": "3684949.99791",
    "final_y": "535971.320263",
    "longitude": "-90.05701992842498",
    "latitude": "29.967630079782495",
    "geocoded_column": {
      "latitude": "29.967630079782495",
      "longitude": "-90.05701992842498"
    }
  },
  {
    "service_request": "2026-1251148",
    "request_type": "Trash/Recycling",
    "request_reason": "Replace Trash Cart",
    "date_created": "2026-01-11T23:11:17.000",
    "date_modified": "2026-01-11T23:11:19.000",
    "request_status": "Pending",
    "responsible_agency": "Department of Sanitation",
    "final_address": "1306 Elysian Fields Ave",
    "address_councildis": "C",
    "status": "Assigned to Contractor",
    "contractor": "IV Waste",
    "rowid": "1251148",
    "final_x": "3684837.99938",
    "final_y": "537098.74452",
    "longitude": "-90.05733397316044",
    "latitude": "29.970733534794547",
    "geocoded_column": {
      "latitude": "29.970733534794547",
      "longitude": "-90.05733397316044"
    }
  },
  {
    "service_request": "2026-1251147",
    "request_type": "Trash/Recycling",
    "request_reason": "Request a Large Item Pick Up",
    "date_created": "2026-01-11T21:48:23.000",
    "date_modified": "2026-01-11T21:48:25.000",
    "request_status": "Pending",
    "responsible_agency": "Department of Sanitation",
    "final_address": "5442 Hawthorne Pl",
    "address_councildis": "A",
    "status": "Assigned to Contractor",
    "contractor": "IV Waste",
    "rowid": "1251147",
    "final_x": "3667643.77543",
    "final_y": "543400.966222",
    "longitude": "-90.11142337495292",
    "latitude": "29.98857780293107",
    "geocoded_column": {
      "latitude": "29.98857780293107",
      "longitude": "-90.11142337495292"
    }
  },
  {
    "service_request": "2026-1251146",
    "request_type": "Trash/Recycling",
    "request_reason": "Request a Large Item Pick Up",
    "date_created": "2026-01-11T21:41:45.000",
    "date_modified": "2026-01-11T21:41:46.000",
    "request_status": "Pending",
    "responsible_agency": "Department of Sanitation",
    "final_address": "4524 Laurel St",
    "address_councildis": "B",
    "status": "Assigned to Contractor",
    "contractor": "IV Waste",
    "rowid": "1251146",
    "final_x": "3670516.8251",
    "final_y": "517954.816822",
    "longitude": "-90.10321117139962",
    "latitude": "29.91852471852496",
    "geocoded_column": {
      "latitude": "29.91852471852496",
      "longitude": "-90.10321117139962"
    }
  },
  {
    "service_request": "2026-1251145",
    "request_type": "Trash/Recycling",
    "request_reason": "Return Recycling Cart",
    "date_created": "2026-01-11T21:40:43.000",
    "date_modified": "2026-01-11T21:40:45.000",
    "request_status": "Pending",
    "responsible_agency": "Department of Sanitation",
    "final_address": "4524 Laurel St",
    "address_councildis": "B",
    "status": "Pending",
    "rowid": "1251145",
    "final_x": "3670516.8251",
    "final_y": "517954.816822",
    "longitude": "-90.10321117139962",
    "latitude": "29.91852471852496",
    "geocoded_column": {
      "latitude": "29.91852471852496",
      "longitude": "-90.10321117139962"
    }
  },
  {
    "service_request": "2026-1251144",
    "request_type": "Trash/Recycling",
    "request_reason": "Return Recycling Cart",
    "date_created": "2026-01-11T20:42:24.000",
    "date_modified": "2026-01-11T20:42:26.000",
    "request_status": "Pending",
    "responsible_agency": "Department of Sanitation",
    "final_address": "929 Second St",
    "address_councildis": "B",
    "status": "Pending",
    "rowid": "1251144",
    "final_x": "3678131.07112",
    "final_y": "520933.758841",
    "longitude": "-90.0790740940037",
    "latitude": "29.926488880865296",
    "geocoded_column": {
      "latitude": "29.926488880865296",
      "longitude": "-90.0790740940037"
    }
  },
  {
    "service_request": "2026-1251143",
    "request_type": "Trash/Recycling",
    "request_reason": "Replace Trash Cart",
    "date_created": "2026-01-11T20:40:53.000",
    "date_modified": "2026-01-11T20:40:54.000",
    "request_status": "Pending",
    "responsible_agency": "Department of Sanitation",
    "final_address": "929 Second St",
    "address_councildis": "B",
    "status": "Assigned to Contractor",
    "contractor": "IV Waste",
    "rowid": "1251143",
    "final_x": "3678131.07112",
    "final_y": "520933.758841",
    "longitude": "-90.0790740940037",
    "latitude": "29.926488880865296",
    "geocoded_column": {
      "latitude": "29.926488880865296",
      "longitude": "-90.0790740940037"
    }
  },
  {
    "service_request": "2026-1251142",
    "request_type": "Trash/Recycling",
    "request_reason": "Request a Large Item Pick Up",
    "date_created": "2026-01-11T19:48:48.000",
    "date_modified": "2026-01-11T19:48:51.000",
    "request_status": "Pending",
    "responsible_agency": "Department of Sanitation",
    "final_address": "8008 Spruce St",
    "address_councildis": "A",
    "status": "Assigned to Contractor",
    "contractor": "IV Waste",
    "rowid": "1251142",
    "final_x": "3664095.41556",
    "final_y": "530177.727425",
    "longitude": "-90.12307274771044",
    "latitude": "29.952321837131482",
    "geocoded_column": {
      "latitude": "29.952321837131482",
      "longitude": "-90.12307274771044"
    }
  },
  {
    "service_request": "2026-1251141",
    "request_type": "Streetlights",
    "request_reason": "Streetlight Outage/Malfunction",
    "date_created": "2026-01-11T19:38:21.000",
    "date_modified": "2026-01-11T19:38:23.000",
    "request_status": "Pending",
    "responsible_agency": "Department of Public Works",
    "final_address": "7230 Sardonyx St",
    "address_councildis": "D",
    "status": "Pending",
    "rowid": "1251141",
    "final_x": "3669493.15822",
    "final_y": "555335.654873",
    "longitude": "-90.10517767540836",
    "latitude": "30.021339672142325",
    "geocoded_column": {
      "latitude": "30.021339672142325",
      "longitude": "-90.10517767540836"
    }
  },
  {
    "service_request": "2026-1251140",
    "request_type": "Trash/Recycling",
    "request_reason": "Request a Large Item Pick Up",
    "date_created": "2026-01-11T18:59:40.000",
    "date_modified": "2026-01-11T18:59:42.000",
    "request_status": "Pending",
    "responsible_agency": "Department of Sanitation",
    "final_address": "2039 Dauphine St",
    "address_councildis": "C",
    "status": "Assigned to Contractor",
    "contractor": "IV Waste",
    "rowid": "1251140",
    "final_x": "3684633.66383",
    "final_y": "535212.992902",
    "longitude": "-90.0580455709621",
    "latitude": "29.96555462666905",
    "geocoded_column": {
      "latitude": "29.96555462666905",
      "longitude": "-90.0580455709621"
    }
  },
  {
    "service_request": "2026-1251139",
    "request_type": "Streetlights",
    "request_reason": "Streetlight Knocked Down/Leaning",
    "date_created": "2026-01-11T18:00:50.000",
    "date_modified": "2026-01-11T18:00:51.000",
    "request_status": "Pending",
    "responsible_agency": "Department of Public Works",
    "final_address": "1100 Jackson Ave",
    "address_councildis": "B",
    "status": "Pending",
    "rowid": "1251139",
    "final_x": "3678777.83534",
    "final_y": "522093.612602",
    "longitude": "-90.0769922944518",
    "latitude": "29.929658617428146",
    "geocoded_column": {
      "latitude": "29.929658617428146",
      "longitude": "-90.0769922944518"
    }
  },
  {
    "service_request": "2026-1251138",
    "request_type": "Trash/Recycling",
    "request_reason": "Request a Large Item Pick Up",
    "date_created": "2026-01-11T17:57:41.000",
    "date_modified": "2026-01-11T17:57:43.000",
    "request_status": "Pending",
    "responsible_agency": "Department of Sanitation",
    "final_address": "117 Mary Jane Ln",
    "address_councildis": "E",
    "status": "Assigned to Contractor",
    "contractor": "Waste Pro",
    "rowid": "1251138",
    "final_x": "3718050.72511",
    "final_y": "571574.47204",
    "longitude": "-89.95113205009822",
    "latitude": "30.064469343373524",
    "geocoded_column": {
      "latitude": "30.064469343373524",
      "longitude": "-89.95113205009822"
    }
  },
  {
    "service_request": "2026-1251137",
    "request_type": "Streetlights",
    "request_reason": "Streetlight Outage/Malfunction",
    "date_created": "2026-01-11T17:45:06.000",
    "date_modified": "2026-01-11T17:45:08.000",
    "request_status": "Pending",
    "responsible_agency": "Department of Public Works",
    "final_address": "920 Taft Pl",
    "address_councildis": "A",
    "status": "Pending",
    "rowid": "1251137",
    "final_x": "3673913.11944",
    "final_y": "540236.999883",
    "longitude": "-90.09172874003461",
    "latitude": "29.979692665151838",
    "geocoded_column": {
      "latitude": "29.979692665151838",
      "longitude": "-90.09172874003461"
    }
  },
  {
    "service_request": "2026-1251136",
    "request_type": "Roads and Streets",
    "request_reason": "Sidewalk Damaged or Missing",
    "date_created": "2026-01-11T17:42:04.000",
    "date_modified": "2026-01-11T17:42:06.000",
    "request_status": "Pending",
    "responsible_agency": "Department of Public Works",
    "final_address": "6734 Memphis St",
    "address_councildis": "A",
    "status": "Pending",
    "rowid": "1251136",
    "final_x": "3669591.509",
    "final_y": "552297.690902",
    "longitude": "-90.10496981778806",
    "latitude": "30.012983449213557",
    "geocoded_column": {
      "latitude": "30.012983449213557",
      "longitude": "-90.10496981778806"
    }
  },
  {
    "service_request": "2026-1251135",
    "request_type": "Traffic Signals",
    "request_reason": "Traffic Signal Malfunctioning or Damaged",
    "date_created": "2026-01-11T17:28:56.000",
    "date_modified": "2026-01-11T17:28:58.000",
    "request_status": "Pending",
    "responsible_agency": "Department of Public Works",
    "final_address": "5075 Canal St",
    "address_councildis": "A",
    "status": "Pending",
    "rowid": "1251135",
    "final_x": "3667802.19681",
    "final_y": "540944.864203",
    "longitude": "-90.11100572902114",
    "latitude": "29.981819710206775",
    "geocoded_column": {
      "latitude": "29.981819710206775",
      "longitude": "-90.11100572902114"
    }
  },
  {
    "service_request": "2026-1251134",
    "request_type": "Roads and Streets",
    "request_reason": "Abandoned Service Cut",
    "date_created": "2026-01-11T17:05:48.000",
    "date_modified": "2026-01-11T17:05:49.000",
    "request_status": "Pending",
    "responsible_agency": "Department of Public Works",
    "final_address": "500 BLK Webster St",
    "address_councildis": "A",
    "status": "Pending",
    "rowid": "1251134",
    "final_x": "3663819.37902",
    "final_y": "518611.721423",
    "longitude": "-90.12432968109948",
    "latitude": "29.920527006751712",
    "geocoded_column": {
      "latitude": "29.920527006751712",
      "longitude": "-90.12432968109948"
    }
  },
  {
    "service_request": "2026-1251133",
    "request_type": "Road Striping",
    "request_reason": "Lane Striping or other Pavement Markings",
    "date_created": "2026-01-11T16:57:28.000",
    "date_modified": "2026-01-11T16:57:30.000",
    "request_status": "Pending",
    "responsible_agency": "Department of Public Works",
    "final_address": "5300 BLK Paris Ave",
    "address_councildis": "D",
    "status": "Pending",
    "rowid": "1251133",
    "final_x": "3679191.22557",
    "final_y": "552075.654495",
    "longitude": "-90.07464760341037",
    "latitude": "30.01208646778702",
    "geocoded_column": {
      "latitude": "30.01208646778702",
      "longitude": "-90.07464760341037"
    }
  },
  {
    "service_request": "2026-1251132",
    "request_type": "Road Striping",
    "request_reason": "Crosswalks",
    "date_created": "2026-01-11T16:52:38.000",
    "date_modified": "2026-01-11T16:52:39.000",
    "request_status": "Pending",
    "responsible_agency": "Department of Public Works",
    "final_address": "5351 Paris Ave",
    "address_councildis": "D",
    "status": "Pending",
    "rowid": "1251132",
    "final_x": "3679282.89832",
    "final_y": "551992.204374",
    "longitude": "-90.07436086650455",
    "latitude": "30.011854240783084",
    "geocoded_column": {
      "latitude": "30.011854240783084",
      "longitude": "-90.07436086650455"
    }
  },
  {
    "service_request": "2026-1251131",
    "request_type": "Roads and Streets",
    "request_reason": "Sidewalk Damaged or Missing",
    "date_created": "2026-01-11T16:49:09.000",
    "date_modified": "2026-01-11T16:49:11.000",
    "request_status": "Pending",
    "responsible_agency": "Department of Public Works",
    "final_address": "619 Toulouse St Apt 1B",
    "address_councildis": "C",
    "status": "Pending",
    "rowid": "1251131",
    "final_x": "3682547.55125",
    "final_y": "532134.802243",
    "longitude": "-90.06474104234502",
    "latitude": "29.957154332030825",
    "geocoded_column": {
      "latitude": "29.957154332030825",
      "longitude": "-90.06474104234502"
    }
  },
  {
    "service_request": "2026-1251130",
    "request_type": "Roads and Streets",
    "request_reason": "Abandoned Service Cut",
    "date_created": "2026-01-11T16:43:20.000",
    "date_modified": "2026-01-11T16:43:21.000",
    "request_status": "Pending",
    "responsible_agency": "Department of Public Works",
    "final_address": "1416 Filmore Ave",
    "address_councildis": "D",
    "status": "Pending",
    "rowid": "1251130",
    "final_x": "3677832.10638",
    "final_y": "551660.344405",
    "longitude": "-90.0789560135442",
    "latitude": "30.010985495306983",
    "geocoded_column": {
      "latitude": "30.010985495306983",
      "longitude": "-90.0789560135442"
    }
  },
  {
    "service_request": "2026-1251129",
    "request_type": "Trash/Recycling",
    "request_reason": "Request a Large Item Pick Up",
    "date_created": "2026-01-11T16:32:19.000",
    "date_modified": "2026-01-11T16:32:20.000",
    "request_status": "Pending",
    "responsible_agency": "Department of Sanitation",
    "final_address": "1662 Abundance St",
    "address_councildis": "D",
    "status": "Assigned to Contractor",
    "contractor": "IV Waste",
    "rowid": "1251129",
    "final_x": "3680434.6525",
    "final_y": "543303.392334",
    "longitude": "-90.07102440727711",
    "latitude": "29.987928255139828",
    "geocoded_column": {
      "latitude": "29.987928255139828",
      "longitude": "-90.07102440727711"
    }
  },
  {
    "service_request": "2026-1251128",
    "request_type": "Street and Traffic Signs",
    "request_reason": "Traffic or Parking Sign Damaged or Missing",
    "date_created": "2026-01-11T16:31:03.000",
    "date_modified": "2026-01-11T16:31:05.000",
    "request_status": "Pending",
    "responsible_agency": "Department of Public Works",
    "final_address": "4141 Piedmont Dr",
    "address_councildis": "D",
    "status": "Pending",
    "rowid": "1251128",
    "final_x": "3684983.20802",
    "final_y": "548023.23509",
    "longitude": "-90.0564909345959",
    "latitude": "30.00076756927908",
    "geocoded_column": {
      "latitude": "30.00076756927908",
      "longitude": "-90.0564909345959"
    }
  },
  {
    "service_request": "2026-1251127",
    "request_type": "Trash/Recycling",
    "request_reason": "Request a Large Item Pick Up",
    "date_created": "2026-01-11T16:23:53.000",
    "date_modified": "2026-01-11T16:23:54.000",
    "request_status": "Pending",
    "responsible_agency": "Department of Sanitation",
    "final_address": "3506 Baudin St",
    "address_councildis": "B",
    "status": "Assigned to Contractor",
    "contractor": "IV Waste",
    "rowid": "1251127",
    "final_x": "3671814.94612",
    "final_y": "535732.010503",
    "longitude": "-90.09850897303042",
    "latitude": "29.967367815044554",
    "geocoded_column": {
      "latitude": "29.967367815044554",
      "longitude": "-90.09850897303042"
    }
  },
  {
    "service_request": "2026-1251126",
    "request_type": "Trash/Recycling",
    "request_reason": "Order Recycling Cart",
    "date_created": "2026-01-11T16:13:56.000",
    "date_modified": "2026-01-11T16:13:58.000",
    "request_status": "Pending",
    "responsible_agency": "Department of Sanitation",
    "final_address": "2132 Cadiz St",
    "address_councildis": "B",
    "status": "Pending",
    "rowid": "1251126",
    "final_x": "3669861.59258",
    "final_y": "522843.451003",
    "longitude": "-90.10511399702398",
    "latitude": "29.931986232239865",
    "geocoded_column": {
      "latitude": "29.931986232239865",
      "longitude": "-90.10511399702398"
    }
  },
  {
    "service_request": "2026-1251125",
    "request_type": "Trash/Recycling",
    "request_reason": "Request a Large Item Pick Up",
    "date_created": "2026-01-11T16:01:31.000",
    "date_modified": "2026-01-11T16:01:33.000",
    "request_status": "Pending",
    "responsible_agency": "Department of Sanitation",
    "final_address": "1131 Arabella St",
    "address_councildis": "A",
    "status": "Assigned to Contractor",
    "contractor": "IV Waste",
    "rowid": "1251125",
    "final_x": "3666140.17108",
    "final_y": "520162.461624",
    "longitude": "-90.1169520308149",
    "latitude": "29.924723518831083",
    "geocoded_column": {
      "latitude": "29.924723518831083",
      "longitude": "-90.1169520308149"
    }
  },
  {
    "service_request": "2026-1251124",
    "request_type": "Property Maintenance",
    "request_reason": "Property Maintenance",
    "date_created": "2026-01-11T15:59:09.000",
    "date_modified": "2026-01-11T15:59:11.000",
    "request_status": "Pending",
    "responsible_agency": "Department of Code Enforcement",
    "final_address": "5414 Canal Blvd",
    "address_councildis": "A",
    "status": "Pending",
    "rowid": "1251124",
    "final_x": "3667984.53434",
    "final_y": "543161.681293",
    "longitude": "-90.11035508769763",
    "latitude": "29.987909854843654",
    "geocoded_column": {
      "latitude": "29.987909854843654",
      "longitude": "-90.11035508769763"
    }
  },
  {
    "service_request": "2026-1251123",
    "request_type": "Trash/Recycling",
    "request_reason": "Replace Trash Cart",
    "date_created": "2026-01-11T15:50:57.000",
    "date_modified": "2026-01-11T15:50:59.000",
    "request_status": "Pending",
    "responsible_agency": "Department of Sanitation",
    "final_address": "330 Crystal St",
    "address_councildis": "D",
    "status": "Assigned to Contractor",
    "contractor": "IV Waste",
    "rowid": "1251123",
    "final_x": "3667663.79546",
    "final_y": "556019.226713",
    "longitude": "-90.11093493582415",
    "latitude": "30.023273039430794",
    "geocoded_column": {
      "latitude": "30.023273039430794",
      "longitude": "-90.11093493582415"
    }
  },
  {
    "service_request": "2026-1251122",
    "request_type": "Roads and Streets",
    "request_reason": "Sidewalk Damaged or Missing",
    "date_created": "2026-01-11T15:44:03.000",
    "date_modified": "2026-01-11T15:44:05.000",
    "request_status": "Pending",
    "responsible_agency": "Department of Public Works",
    "final_address": "330 Crystal St",
    "address_councildis": "D",
    "status": "Pending",
    "rowid": "1251122",
    "final_x": "3667663.79546",
    "final_y": "556019.226713",
    "longitude": "-90.11093493582415",
    "latitude": "30.023273039430794",
    "geocoded_column": {
      "latitude": "30.023273039430794",
      "longitude": "-90.11093493582415"
    }
  },
  {
    "service_request": "2026-1251121",
    "request_type": "Roads and Streets",
    "request_reason": "Curb Damage",
    "date_created": "2026-01-11T15:37:25.000",
    "date_modified": "2026-01-11T15:37:27.000",
    "request_status": "Pending",
    "responsible_agency": "Department of Public Works",
    "final_address": "2601 Octavia St",
    "address_councildis": "A",
    "status": "Pending",
    "rowid": "1251121",
    "final_x": "3667861.62593",
    "final_y": "525058.337597",
    "longitude": "-90.11135313751238",
    "latitude": "29.93813525580303",
    "geocoded_column": {
      "latitude": "29.93813525580303",
      "longitude": "-90.11135313751238"
    }
  },
  {
    "service_request": "2026-1251120",
    "request_type": "Trash/Recycling",
    "request_reason": "Replace Trash Cart",
    "date_created": "2026-01-11T15:22:49.000",
    "date_modified": "2026-01-11T15:22:52.000",
    "request_status": "Pending",
    "responsible_agency": "Department of Sanitation",
    "final_address": "5654 Evelyn Ct",
    "address_councildis": "A",
    "status": "Assigned to Contractor",
    "contractor": "IV Waste",
    "rowid": "1251120",
    "final_x": "3664333.18285",
    "final_y": "545268.124559",
    "longitude": "-90.1218181887493",
    "latitude": "29.993808512604538",
    "geocoded_column": {
      "latitude": "29.993808512604538",
      "longitude": "-90.1218181887493"
    }
  },
  {
    "service_request": "2026-1251119",
    "request_type": "Graffiti Removal",
    "request_reason": "Graffiti Removal",
    "date_created": "2026-01-11T15:16:07.000",
    "date_modified": "2026-01-11T15:16:09.000",
    "request_status": "Pending",
    "responsible_agency": "Department of Code Enforcement",
    "final_address": "2601 Octavia St",
    "address_councildis": "A",
    "status": "Pending",
    "rowid": "1251119",
    "final_x": "3667861.62593",
    "final_y": "525058.337597",
    "longitude": "-90.11135313751238",
    "latitude": "29.93813525580303",
    "geocoded_column": {
      "latitude": "29.93813525580303",
      "longitude": "-90.11135313751238"
    }
  },
  {
    "service_request": "2026-1251118",
    "request_type": "Street and Traffic Signs",
    "request_reason": "Stop Sign Missing or Damaged",
    "date_created": "2026-01-11T15:09:27.000",
    "date_modified": "2026-01-11T15:09:29.000",
    "request_status": "Pending",
    "responsible_agency": "Department of Public Works",
    "final_address": "3100 Law St",
    "address_councildis": "D",
    "status": "Pending",
    "rowid": "1251118",
    "final_x": "3690451.72905",
    "final_y": "541606.992396",
    "longitude": "-90.0394444192367",
    "latitude": "29.98295652976496",
    "geocoded_column": {
      "latitude": "29.98295652976496",
      "longitude": "-90.0394444192367"
    }
  },
  {
    "service_request": "2026-1251117",
    "request_type": "Roads and Streets",
    "request_reason": "Debris in Driving Lanes",
    "date_created": "2026-01-11T14:24:37.000",
    "date_modified": "2026-01-11T14:24:40.000",
    "request_status": "Pending",
    "responsible_agency": "Department of Public Works",
    "final_address": "5100 Marconi Dr GATE",
    "address_councildis": "A",
    "status": "Pending",
    "rowid": "1251117",
    "final_x": "3670832.24065",
    "final_y": "543623.905934",
    "longitude": "-90.10134441460728",
    "latitude": "29.989096933243882",
    "geocoded_column": {
      "latitude": "29.989096933243882",
      "longitude": "-90.10134441460728"
    }
  },
  {
    "service_request": "2026-1251116",
    "request_type": "Streetlights",
    "request_reason": "Streetlight Knocked Down/Leaning",
    "date_created": "2026-01-11T14:15:29.000",
    "date_modified": "2026-01-11T14:15:30.000",
    "request_status": "Pending",
    "responsible_agency": "Department of Public Works",
    "final_address": "5101 Canal Blvd",
    "address_councildis": "A",
    "status": "Pending",
    "rowid": "1251116",
    "final_x": "3668047.66221",
    "final_y": "541296.987276",
    "longitude": "-90.11021855882808",
    "latitude": "29.982780727159295",
    "geocoded_column": {
      "latitude": "29.982780727159295",
      "longitude": "-90.11021855882808"
    }
  },
  {
    "service_request": "2026-1251115",
    "request_type": "Trash/Recycling",
    "request_reason": "Request a Large Item Pick Up",
    "date_created": "2026-01-11T14:13:26.000",
    "date_modified": "2026-01-11T14:13:28.000",
    "request_status": "Pending",
    "responsible_agency": "Department of Sanitation",
    "final_address": "2515 Jefferson Ave",
    "address_councildis": "B",
    "status": "Assigned to Contractor",
    "contractor": "IV Waste",
    "rowid": "1251115",
    "final_x": "3668160.13517",
    "final_y": "524798.527292",
    "longitude": "-90.11041946784589",
    "latitude": "29.93741210416453",
    "geocoded_column": {
      "latitude": "29.93741210416453",
      "longitude": "-90.11041946784589"
    }
  },
  {
    "service_request": "2026-1251114",
    "request_type": "Trash/Recycling",
    "request_reason": "Request a Large Item Pick Up",
    "date_created": "2026-01-11T14:11:29.000",
    "date_modified": "2026-01-11T14:11:31.000",
    "request_status": "Pending",
    "responsible_agency": "Department of Sanitation",
    "final_address": "1321 Sere St",
    "address_councildis": "D",
    "status": "Assigned to Contractor",
    "contractor": "IV Waste",
    "rowid": "1251114",
    "final_x": "3677635.33966",
    "final_y": "545386.768848",
    "longitude": "-90.0797945147756",
    "latitude": "29.9937413095196",
    "geocoded_column": {
      "latitude": "29.9937413095196",
      "longitude": "-90.0797945147756"
    }
  },
  {
    "service_request": "2026-1251113",
    "request_type": "Road Striping",
    "request_reason": "Bike Lane",
    "date_created": "2026-01-11T14:06:06.000",
    "date_modified": "2026-01-11T14:06:09.000",
    "request_status": "Pending",
    "responsible_agency": "Department of Public Works",
    "final_address": "3134 N Rampart St",
    "address_councildis": "C",
    "status": "Pending",
    "rowid": "1251113",
    "final_x": "3689186.62486",
    "final_y": "535453.673734",
    "longitude": "-90.04365899957524",
    "latitude": "29.96607629558546",
    "geocoded_column": {
      "latitude": "29.96607629558546",
      "longitude": "-90.04365899957524"
    }
  },
  {
    "service_request": "2026-1251112",
    "request_type": "Abandoned Vehicles",
    "request_reason": "Abandoned/Junk Vehicles",
    "date_created": "2026-01-11T13:54:53.000",
    "date_modified": "2026-01-11T13:54:55.000",
    "request_status": "Pending",
    "responsible_agency": "Department of Public Works",
    "final_address": "1304 Soniat St",
    "address_councildis": "B",
    "status": "Pending",
    "rowid": "1251112",
    "final_x": "3668343.83246",
    "final_y": "519958.412664",
    "longitude": "-90.11000266088175",
    "latitude": "29.924097941020662",
    "geocoded_column": {
      "latitude": "29.924097941020662",
      "longitude": "-90.11000266088175"
    }
  },
  {
    "service_request": "2026-1251111",
    "request_type": "Property Maintenance",
    "request_reason": "Property Maintenance",
    "date_created": "2026-01-11T13:46:31.000",
    "date_modified": "2026-01-11T13:46:33.000",
    "request_status": "Pending",
    "responsible_agency": "Department of Code Enforcement",
    "final_address": "6823 Catina St",
    "address_councildis": "A",
    "status": "Pending",
    "rowid": "1251111",
    "final_x": "3667129.10061",
    "final_y": "553106.046679",
    "longitude": "-90.11272252018301",
    "latitude": "30.015278497549318",
    "geocoded_column": {
      "latitude": "30.015278497549318",
      "longitude": "-90.11272252018301"
    }
  },
  {
    "service_request": "2026-1251110",
    "request_type": "Traffic Signals",
    "request_reason": "Traffic Signal Malfunctioning or Damaged",
    "date_created": "2026-01-11T13:28:46.000",
    "date_modified": "2026-01-11T13:28:49.000",
    "request_status": "Pending",
    "responsible_agency": "Department of Public Works",
    "final_address": "5414 Canal Blvd",
    "address_councildis": "A",
    "status": "Pending",
    "rowid": "1251110",
    "final_x": "3667984.53434",
    "final_y": "543161.681293",
    "longitude": "-90.11035508769763",
    "latitude": "29.987909854843654",
    "geocoded_column": {
      "latitude": "29.987909854843654",
      "longitude": "-90.11035508769763"
    }
  },
  {
    "service_request": "2026-1251109",
    "request_type": "Trash/Recycling",
    "request_reason": "Illegal Dumping",
    "date_created": "2026-01-11T13:27:41.000",
    "date_modified": "2026-01-11T13:27:43.000",
    "request_status": "Pending",
    "responsible_agency": "Department of Sanitation",
    "final_address": "3114 Urquhart St",
    "address_councildis": "C",
    "status": "Pending",
    "rowid": "1251109",
    "final_x": "3689302.7382",
    "final_y": "536662.775111",
    "longitude": "-90.04324932798569",
    "latitude": "29.969397306666934",
    "geocoded_column": {
      "latitude": "29.969397306666934",
      "longitude": "-90.04324932798569"
    }
  },
  {
    "service_request": "2026-1251108",
    "request_type": "Trash/Recycling",
    "request_reason": "Request a Large Item Pick Up",
    "date_created": "2026-01-11T13:23:41.000",
    "date_modified": "2026-01-11T13:23:42.000",
    "request_status": "Pending",
    "responsible_agency": "Department of Sanitation",
    "final_address": "11231 N Parkwood Ct",
    "address_councildis": "E",
    "status": "Assigned to Contractor",
    "contractor": "Waste Pro",
    "rowid": "1251108",
    "final_x": "3716576.15788",
    "final_y": "559340.547613",
    "longitude": "-89.95625800376892",
    "latitude": "30.030879877314895",
    "geocoded_column": {
      "latitude": "30.030879877314895",
      "longitude": "-89.95625800376892"
    }
  },
  {
    "service_request": "2026-1251107",
    "request_type": "Trash/Recycling",
    "request_reason": "Replace Trash Cart",
    "date_created": "2026-01-11T13:20:43.000",
    "date_modified": "2026-01-11T13:20:44.000",
    "request_status": "Pending",
    "responsible_agency": "Department of Sanitation",
    "final_address": "5201 Coliseum St",
    "address_councildis": "B",
    "status": "Assigned to Contractor",
    "contractor": "IV Waste",
    "rowid": "1251107",
    "final_x": "3668038.53146",
    "final_y": "519696.398968",
    "longitude": "-90.11097521467458",
    "latitude": "29.923386445203892",
    "geocoded_column": {
      "latitude": "29.923386445203892",
      "longitude": "-90.11097521467458"
    }
  },
  {
    "service_request": "2026-1251106",
    "request_type": "Trash/Recycling",
    "request_reason": "Repair Trash Cart",
    "date_created": "2026-01-11T13:18:39.000",
    "date_modified": "2026-01-11T13:18:41.000",
    "request_status": "Pending",
    "responsible_agency": "Department of Sanitation",
    "final_address": "5205 Coliseum St",
    "address_councildis": "B",
    "status": "Assigned to Contractor",
    "contractor": "IV Waste",
    "rowid": "1251106",
    "final_x": "3668009.81319",
    "final_y": "519699.960568",
    "longitude": "-90.11106574783963",
    "latitude": "29.92339708083902",
    "geocoded_column": {
      "latitude": "29.92339708083902",
      "longitude": "-90.11106574783963"
    }
  },
  {
    "service_request": "2026-1251105",
    "request_type": "Roads and Streets",
    "request_reason": "Pothole",
    "date_created": "2026-01-11T12:53:42.000",
    "date_modified": "2026-01-11T12:53:44.000",
    "request_status": "Pending",
    "responsible_agency": "Department of Public Works",
    "final_address": "8321 Jeannette St",
    "address_councildis": "A",
    "status": "Pending",
    "rowid": "1251105",
    "final_x": "3662023.69306",
    "final_y": "529793.388801",
    "longitude": "-90.12962707510407",
    "latitude": "29.951325035132285",
    "geocoded_column": {
      "latitude": "29.951325035132285",
      "longitude": "-90.12962707510407"
    }
  },
  {
    "service_request": "2026-1251104",
    "request_type": "Roads and Streets",
    "request_reason": "Pothole",
    "date_created": "2026-01-11T12:41:10.000",
    "date_modified": "2026-01-11T12:41:13.000",
    "request_status": "Pending",
    "responsible_agency": "Department of Public Works",
    "final_address": "6003 St Charles Ave",
    "address_councildis": "A",
    "status": "Pending",
    "rowid": "1251104",
    "final_x": "3665720.59981",
    "final_y": "522606.912186",
    "longitude": "-90.1181946527644",
    "latitude": "29.931457225952755",
    "geocoded_column": {
      "latitude": "29.931457225952755",
      "longitude": "-90.1181946527644"
    }
  },
  {
    "service_request": "2026-1251103",
    "request_type": "Trash/Recycling",
    "request_reason": "Request a Large Item Pick Up",
    "date_created": "2026-01-11T12:35:02.000",
    "date_modified": "2026-01-11T12:35:04.000",
    "request_status": "Pending",
    "responsible_agency": "Department of Sanitation",
    "final_address": "915 Franklin Ave",
    "address_councildis": "C",
    "status": "Assigned to Contractor",
    "contractor": "IV Waste",
    "rowid": "1251103",
    "final_x": "3686985.40169",
    "final_y": "535799.561223",
    "longitude": "-90.0505981621494",
    "latitude": "29.967095305933835",
    "geocoded_column": {
      "latitude": "29.967095305933835",
      "longitude": "-90.0505981621494"
    }
  },
  {
    "service_request": "2026-1251102",
    "request_type": "Roads and Streets",
    "request_reason": "Street Subsidence (Sinking)",
    "date_created": "2026-01-11T12:34:52.000",
    "date_modified": "2026-01-11T12:34:54.000",
    "request_status": "Pending",
    "responsible_agency": "Sewerage & Water Board",
    "final_address": "316 Spencer Ave",
    "address_councildis": "A",
    "status": "Pending",
    "rowid": "1251102",
    "final_x": "3665263.07687",
    "final_y": "553593.835863",
    "longitude": "-90.11860196906964",
    "latitude": "30.016674271916123",
    "geocoded_column": {
      "latitude": "30.016674271916123",
      "longitude": "-90.11860196906964"
    }
  },
  {
    "service_request": "2026-1251101",
    "request_type": "Trash/Recycling",
    "request_reason": "Repair Recycling Cart",
    "date_created": "2026-01-11T12:15:00.000",
    "date_modified": "2026-01-11T12:15:02.000",
    "request_status": "Pending",
    "responsible_agency": "Department of Sanitation",
    "final_address": "3626 Dumaine St",
    "address_councildis": "A",
    "status": "Pending",
    "rowid": "1251101",
    "final_x": "3674219.11099",
    "final_y": "539706.149322",
    "longitude": "-90.090780474685",
    "latitude": "29.97822388736047",
    "geocoded_column": {
      "latitude": "29.97822388736047",
      "longitude": "-90.090780474685"
    }
  },
  {
    "service_request": "2026-1251100",
    "request_type": "Healthy Homes",
    "request_reason": "Healthy Homes",
    "date_created": "2026-01-11T12:08:53.000",
    "date_modified": "2026-01-11T12:08:54.000",
    "request_status": "Pending",
    "responsible_agency": "Department of Code Enforcement",
    "final_address": "1924 Toledano St",
    "address_councildis": "B",
    "status": "Pending",
    "rowid": "1251100",
    "final_x": "3674015.61256",
    "final_y": "522870.508731",
    "longitude": "-90.09199924123321",
    "latitude": "29.93193754475675",
    "geocoded_column": {
      "latitude": "29.93193754475675",
      "longitude": "-90.09199924123321"
    }
  },
  {
    "service_request": "2026-1251099",
    "request_type": "Streetlights",
    "request_reason": "Streetlight Knocked Down/Leaning",
    "date_created": "2026-01-11T11:56:22.000",
    "date_modified": "2026-01-11T11:56:24.000",
    "request_status": "Pending",
    "responsible_agency": "Department of Public Works",
    "final_address": "3800 BLK Almonaster Ave",
    "address_councildis": "D",
    "status": "Pending",
    "rowid": "1251099",
    "final_x": "3689910.39967",
    "final_y": "547243.726822",
    "longitude": "-90.04095340197564",
    "latitude": "29.998472315647984",
    "geocoded_column": {
      "latitude": "29.998472315647984",
      "longitude": "-90.04095340197564"
    }
  },
  {
    "service_request": "2026-1251097",
    "request_type": "Health Related Request",
    "request_reason": "Noise Ordinance Complaint",
    "date_created": "2026-01-11T11:37:30.000",
    "date_modified": "2026-01-11T11:37:32.000",
    "request_status": "Pending",
    "responsible_agency": "Health Department",
    "final_address": "5345 Baccich St",
    "address_councildis": "D",
    "status": "Pending",
    "rowid": "1251097",
    "final_x": "3687737.78761",
    "final_y": "552679.790294",
    "longitude": "-90.04762397909339",
    "latitude": "30.01348670726616",
    "geocoded_column": {
      "latitude": "30.01348670726616",
      "longitude": "-90.04762397909339"
    }
  },
  {
    "service_request": "2026-1251096",
    "request_type": "Roads and Streets",
    "request_reason": "Pothole",
    "date_created": "2026-01-11T11:25:55.000",
    "date_modified": "2026-01-11T11:25:56.000",
    "request_status": "Pending",
    "responsible_agency": "Department of Public Works",
    "final_address": "5410 Garfield St",
    "address_councildis": "A",
    "status": "Pending",
    "rowid": "1251096",
    "final_x": "3667095.53255",
    "final_y": "521016.120057",
    "longitude": "-90.11390758464746",
    "latitude": "29.92704288839983",
    "geocoded_column": {
      "latitude": "29.92704288839983",
      "longitude": "-90.11390758464746"
    }
  },
  {
    "service_request": "2026-1251095",
    "request_type": "Trash/Recycling",
    "request_reason": "Replace Trash Cart",
    "date_created": "2026-01-11T11:24:18.000",
    "date_modified": "2026-01-11T11:24:21.000",
    "request_status": "Pending",
    "responsible_agency": "Department of Sanitation",
    "final_address": "1818 Franklin Ave",
    "address_councildis": "D",
    "status": "Assigned to Contractor",
    "contractor": "IV Waste",
    "rowid": "1251095",
    "final_x": "3687621.72643",
    "final_y": "539271.042954",
    "longitude": "-90.04846571826678",
    "latitude": "29.976621061059923",
    "geocoded_column": {
      "latitude": "29.976621061059923",
      "longitude": "-90.04846571826678"
    }
  },
  {
    "service_request": "2026-1251094",
    "request_type": "Trash/Recycling",
    "request_reason": "Request a Large Item Pick Up",
    "date_created": "2026-01-11T10:47:35.000",
    "date_modified": "2026-01-11T10:47:37.000",
    "request_status": "Pending",
    "responsible_agency": "Department of Sanitation",
    "final_address": "2326 Jackson Ave Apt A",
    "address_councildis": "B",
    "status": "Assigned to Contractor",
    "contractor": "IV Waste",
    "rowid": "1251094",
    "final_x": "3675633.49857",
    "final_y": "526204.218046",
    "longitude": "-90.08677724793903",
    "latitude": "29.941055861798294",
    "geocoded_column": {
      "latitude": "29.941055861798294",
      "longitude": "-90.08677724793903"
    }
  },
  {
    "service_request": "2026-1251093",
    "request_type": "Drainage",
    "request_reason": "Ditch and Culvert Maintenance",
    "date_created": "2026-01-11T10:43:54.000",
    "date_modified": "2026-01-11T10:43:56.000",
    "request_status": "Pending",
    "responsible_agency": "Department of Public Works",
    "final_address": "1000 BLK Sister St",
    "address_councildis": "E",
    "status": "Pending",
    "rowid": "1251093",
    "final_x": "3694596.93557",
    "final_y": "534372.85952",
    "longitude": "-90.02661238014336",
    "latitude": "29.96293589074982",
    "geocoded_column": {
      "latitude": "29.96293589074982",
      "longitude": "-90.02661238014336"
    }
  },
  {
    "service_request": "2026-1251092",
    "request_type": "Streetlights",
    "request_reason": "Streetlight Outage/Malfunction",
    "date_created": "2026-01-11T10:38:50.000",
    "date_modified": "2026-01-11T10:38:51.000",
    "request_status": "Pending",
    "responsible_agency": "Department of Public Works",
    "final_address": "54 N Wren St",
    "address_councildis": "D",
    "status": "Pending",
    "rowid": "1251092",
    "final_x": "3672678.52052",
    "final_y": "556159.914586",
    "longitude": "-90.0950846431118",
    "latitude": "30.02351182757769",
    "geocoded_column": {
      "latitude": "30.02351182757769",
      "longitude": "-90.0950846431118"
    }
  },
  {
    "service_request": "2026-1251091",
    "request_type": "Trash/Recycling",
    "request_reason": "Order Recycling Cart",
    "date_created": "2026-01-11T10:36:02.000",
    "date_modified": "2026-01-11T10:36:04.000",
    "request_status": "Pending",
    "responsible_agency": "Department of Sanitation",
    "final_address": "4 Audubon Pl",
    "address_councildis": "A",
    "status": "Pending",
    "rowid": "1251091",
    "final_x": "3663660.53491",
    "final_y": "524443.224444",
    "longitude": "-90.12463690906718",
    "latitude": "29.936566413674548",
    "geocoded_column": {
      "latitude": "29.936566413674548",
      "longitude": "-90.12463690906718"
    }
  },
  {
    "service_request": "2026-1251090",
    "request_type": "Traffic Signals",
    "request_reason": "Traffic Signal Malfunctioning or Damaged",
    "date_created": "2026-01-11T10:31:39.000",
    "date_modified": "2026-01-11T10:31:40.000",
    "request_status": "Pending",
    "responsible_agency": "Department of Public Works",
    "final_address": "100 BLK City Park Ave",
    "address_councildis": "A",
    "status": "Pending",
    "rowid": "1251090",
    "final_x": "3667667.35164",
    "final_y": "540976.849592",
    "longitude": "-90.11143055800902",
    "latitude": "29.98191161380258",
    "geocoded_column": {
      "latitude": "29.98191161380258",
      "longitude": "-90.11143055800902"
    }
  },
  {
    "service_request": "2026-1251089",
    "request_type": "Streetlights",
    "request_reason": "Streetlight Outage/Malfunction",
    "date_created": "2026-01-11T10:22:37.000",
    "date_modified": "2026-01-11T10:22:40.000",
    "request_status": "Pending",
    "responsible_agency": "Department of Public Works",
    "final_address": "1330 Arts St",
    "address_councildis": "C",
    "status": "Pending",
    "rowid": "1251089",
    "final_x": "3687040.88924",
    "final_y": "537477.361352",
    "longitude": "-90.0503636064802",
    "latitude": "29.971706962352016",
    "geocoded_column": {
      "latitude": "29.971706962352016",
      "longitude": "-90.0503636064802"
    }
  },
  {
    "service_request": "2026-1251088",
    "request_type": "Abandoned Vehicles",
    "request_reason": "Abandoned/Junk Vehicles",
    "date_created": "2026-01-11T09:45:06.000",
    "date_modified": "2026-01-11T09:45:08.000",
    "request_status": "Pending",
    "responsible_agency": "Department of Public Works",
    "final_address": "5821 Louis Xiv St",
    "address_councildis": "A",
    "status": "Pending",
    "rowid": "1251088",
    "final_x": "3668031.38324",
    "final_y": "546202.425232",
    "longitude": "-90.11010457326609",
    "latitude": "29.99626948398471",
    "geocoded_column": {
      "latitude": "29.99626948398471",
      "longitude": "-90.11010457326609"
    }
  },
  {
    "service_request": "2026-1251087",
    "request_type": "Trash/Recycling",
    "request_reason": "Order Recycling Cart",
    "date_created": "2026-01-11T09:43:10.000",
    "date_modified": "2026-01-11T09:43:12.000",
    "request_status": "Pending",
    "responsible_agency": "Department of Sanitation",
    "final_address": "6000 BLK Colbert St",
    "address_councildis": "A",
    "status": "Pending",
    "rowid": "1251087",
    "final_x": "3667443.01613",
    "final_y": "547701.913898",
    "longitude": "-90.11191269835602",
    "latitude": "30.000409818478463",
    "geocoded_column": {
      "latitude": "30.000409818478463",
      "longitude": "-90.11191269835602"
    }
  },
  {
    "service_request": "2026-1251086",
    "request_type": "Streetlights",
    "request_reason": "Streetlight Outage/Malfunction",
    "date_created": "2026-01-11T09:15:31.000",
    "date_modified": "2026-01-11T09:15:33.000",
    "request_status": "Pending",
    "responsible_agency": "Department of Public Works",
    "final_address": "839 State St",
    "address_councildis": "A",
    "status": "Pending",
    "rowid": "1251086",
    "final_x": "3664854.04775",
    "final_y": "519483.727479",
    "longitude": "-90.12103457867269",
    "latitude": "29.922894691586528",
    "geocoded_column": {
      "latitude": "29.922894691586528",
      "longitude": "-90.12103457867269"
    }
  },
  {
    "service_request": "2026-1251085",
    "request_type": "Trash/Recycling",
    "request_reason": "Repair Recycling Cart",
    "date_created": "2026-01-11T09:09:27.000",
    "date_modified": "2026-01-11T09:09:28.000",
    "request_status": "Pending",
    "responsible_agency": "Department of Sanitation",
    "final_address": "617 Napoleon Ave",
    "address_councildis": "B",
    "status": "Pending",
    "rowid": "1251085",
    "final_x": "3671232.00148",
    "final_y": "517919.29759",
    "longitude": "-90.10095493866949",
    "latitude": "29.918405921020227",
    "geocoded_column": {
      "latitude": "29.918405921020227",
      "longitude": "-90.10095493866949"
    }
  },
  {
    "service_request": "2026-1251084",
    "request_type": "Property Maintenance",
    "request_reason": "Property Maintenance",
    "date_created": "2026-01-11T08:25:24.000",
    "date_modified": "2026-01-11T08:25:28.000",
    "request_status": "Pending",
    "responsible_agency": "Department of Code Enforcement",
    "final_address": "618 Spain St",
    "address_councildis": "C",
    "status": "Pending",
    "rowid": "1251084",
    "final_x": "3686235.27689",
    "final_y": "534776.223686",
    "longitude": "-90.05300316658703",
    "latitude": "29.964304551557163",
    "geocoded_column": {
      "latitude": "29.964304551557163",
      "longitude": "-90.05300316658703"
    }
  },
  {
    "service_request": "2026-1251083",
    "request_type": "Trash/Recycling",
    "request_reason": "Order Recycling Cart",
    "date_created": "2026-01-11T08:14:58.000",
    "date_modified": "2026-01-11T08:15:00.000",
    "request_status": "Pending",
    "responsible_agency": "Department of Sanitation",
    "final_address": "8301 Birch St",
    "address_councildis": "A",
    "status": "Pending",
    "rowid": "1251083",
    "final_x": "3662370.03431",
    "final_y": "529958.386497",
    "longitude": "-90.12852801648327",
    "latitude": "29.95176871696243",
    "geocoded_column": {
      "latitude": "29.95176871696243",
      "longitude": "-90.12852801648327"
    }
  },
  {
    "service_request": "2026-1251082",
    "request_type": "Trash/Recycling",
    "request_reason": "Repair Trash Cart",
    "date_created": "2026-01-11T08:04:27.000",
    "date_modified": "2026-01-11T08:04:28.000",
    "request_status": "Pending",
    "responsible_agency": "Department of Sanitation",
    "final_address": "1401 State St",
    "address_councildis": "A",
    "status": "Assigned to Contractor",
    "contractor": "IV Waste",
    "rowid": "1251082",
    "final_x": "3665428.29716",
    "final_y": "521162.099129",
    "longitude": "-90.11916575166714",
    "latitude": "29.92749296715368",
    "geocoded_column": {
      "latitude": "29.92749296715368",
      "longitude": "-90.11916575166714"
    }
  },
  {
    "service_request": "2026-1251081",
    "request_type": "Trash/Recycling",
    "request_reason": "Missed Trash Pick-Up",
    "date_created": "2026-01-11T05:44:26.000",
    "date_modified": "2026-01-11T05:44:29.000",
    "request_status": "Pending",
    "responsible_agency": "Department of Sanitation",
    "final_address": "7433 Woodbine Dr",
    "address_councildis": "E",
    "status": "Assigned to Contractor",
    "contractor": "Waste Pro",
    "rowid": "1251081",
    "final_x": "3702213.53636",
    "final_y": "560866.665822",
    "longitude": "-90.00158790034071",
    "latitude": "30.035542900873217",
    "geocoded_column": {
      "latitude": "30.035542900873217",
      "longitude": "-90.00158790034071"
    }
  },
  {
    "service_request": "2026-1251080",
    "request_type": "Roads and Streets",
    "request_reason": "Abandoned Service Cut",
    "date_created": "2026-01-11T03:09:16.000",
    "date_modified": "2026-01-11T03:09:17.000",
    "request_status": "Pending",
    "responsible_agency": "Department of Public Works",
    "final_address": "1443 Filmore Ave",
    "address_councildis": "D",
    "status": "Pending",
    "rowid": "1251080",
    "final_x": "3677769.9933",
    "final_y": "551897.673302",
    "longitude": "-90.07914404630904",
    "latitude": "30.011639934165597",
    "geocoded_column": {
      "latitude": "30.011639934165597",
      "longitude": "-90.07914404630904"
    }
  },
  {
    "service_request": "2026-1251079",
    "request_type": "Drainage",
    "request_reason": "Catch Basin Not Draining",
    "date_created": "2026-01-11T03:03:35.000",
    "date_modified": "2026-01-11T03:03:36.000",
    "request_status": "Pending",
    "responsible_agency": "Sewerage & Water Board",
    "final_address": "1443 Filmore Ave",
    "address_councildis": "D",
    "status": "Pending",
    "rowid": "1251079",
    "final_x": "3677769.9933",
    "final_y": "551897.673302",
    "longitude": "-90.07914404630904",
    "latitude": "30.011639934165597",
    "geocoded_column": {
      "latitude": "30.011639934165597",
      "longitude": "-90.07914404630904"
    }
  },
  {
    "service_request": "2026-1251078",
    "request_type": "Streetlights",
    "request_reason": "Streetlight Outage/Malfunction",
    "date_created": "2026-01-11T01:07:00.000",
    "date_modified": "2026-01-11T01:07:02.000",
    "request_status": "Pending",
    "responsible_agency": "Department of Public Works",
    "final_address": "WEST END BLVD & JEWEL ST",
    "address_councildis": "D",
    "status": "Pending",
    "rowid": "1251078",
    "final_x": "3667066.5",
    "final_y": "555845.58",
    "longitude": "-90.1128281128501",
    "latitude": "30.02281307987026",
    "geocoded_column": {
      "latitude": "30.02281307987026",
      "longitude": "-90.1128281128501"
    }
  },
  {
    "service_request": "2026-1251077",
    "request_type": "Streetlights",
    "request_reason": "Streetlight Outage/Malfunction",
    "date_created": "2026-01-11T01:01:24.000",
    "date_modified": "2026-01-11T01:01:26.000",
    "request_status": "Pending",
    "responsible_agency": "Department of Public Works",
    "final_address": "CAMEO ST & TURQUOISE ST",
    "address_councildis": "D",
    "status": "Pending",
    "rowid": "1251077",
    "final_x": "3667848.4",
    "final_y": "555475.68",
    "longitude": "-90.11036995394169",
    "latitude": "30.021773062761824",
    "geocoded_column": {
      "latitude": "30.021773062761824",
      "longitude": "-90.11036995394169"
    }
  },
  {
    "service_request": "2026-1251076",
    "request_type": "Street and Traffic Signs",
    "request_reason": "Street Name Sign Damaged or Missing",
    "date_created": "2026-01-11T00:51:42.000",
    "date_modified": "2026-01-11T00:51:44.000",
    "request_status": "Pending",
    "responsible_agency": "Department of Public Works",
    "final_address": "MILNE BLVD & MOUTON ST",
    "address_councildis": "A",
    "status": "Pending",
    "rowid": "1251076",
    "final_x": "3667588.27",
    "final_y": "553462.58",
    "longitude": "-90.1112597402284",
    "latitude": "30.016245381225204",
    "geocoded_column": {
      "latitude": "30.016245381225204",
      "longitude": "-90.1112597402284"
    }
  },
  {
    "service_request": "2026-1251075",
    "request_type": "Drainage",
    "request_reason": "Catch Basin Not Draining",
    "date_created": "2026-01-11T00:33:32.000",
    "date_modified": "2026-01-11T00:33:34.000",
    "request_status": "Pending",
    "responsible_agency": "Sewerage & Water Board",
    "final_address": "CAMEO ST & OPAL ST",
    "address_councildis": "D",
    "status": "Pending",
    "rowid": "1251075",
    "final_x": "3667645.3",
    "final_y": "555314.88",
    "longitude": "-90.11101711899795",
    "latitude": "30.021336878647052",
    "geocoded_column": {
      "latitude": "30.021336878647052",
      "longitude": "-90.11101711899795"
    }
  },
  {
    "service_request": "2026-1251074",
    "request_type": "Abandoned Vehicles",
    "request_reason": "Abandoned/Junk Vehicles",
    "date_created": "2026-01-11T00:24:53.000",
    "date_modified": "2026-01-11T00:24:56.000",
    "request_status": "Pending",
    "responsible_agency": "Department of Public Works",
    "final_address": "301 Jewel St",
    "address_councildis": "D",
    "status": "Pending",
    "rowid": "1251074",
    "final_x": "3667473.44647",
    "final_y": "555895.968281",
    "longitude": "-90.11154055285837",
    "latitude": "30.02293970477739",
    "geocoded_column": {
      "latitude": "30.02293970477739",
      "longitude": "-90.11154055285837"
    }
  },
  {
    "service_request": "2026-1251073",
    "request_type": "Abandoned Vehicles",
    "request_reason": "Abandoned/Junk Vehicles",
    "date_created": "2026-01-11T00:08:20.000",
    "date_modified": "2026-01-11T00:08:23.000",
    "request_status": "Pending",
    "responsible_agency": "Department of Public Works",
    "final_address": "221 Jewel St",
    "address_councildis": "D",
    "status": "Pending",
    "rowid": "1251073",
    "final_x": "3667274.70957",
    "final_y": "555915.699225",
    "longitude": "-90.11216785461505",
    "latitude": "30.022999783133542",
    "geocoded_column": {
      "latitude": "30.022999783133542",
      "longitude": "-90.11216785461505"
    }
  },
  {
    "service_request": "2026-1251072",
    "request_type": "Abandoned Vehicles",
    "request_reason": "Abandoned/Junk Vehicles",
    "date_created": "2026-01-10T23:59:32.000",
    "date_modified": "2026-01-10T23:59:34.000",
    "request_status": "Pending",
    "responsible_agency": "Department of Public Works",
    "final_address": "215 Opal St",
    "address_councildis": "D",
    "status": "Pending",
    "rowid": "1251072",
    "final_x": "3667201.15245",
    "final_y": "555620.371737",
    "longitude": "-90.11241022273717",
    "latitude": "30.022189892668543",
    "geocoded_column": {
      "latitude": "30.022189892668543",
      "longitude": "-90.11241022273717"
    }
  },
  {
    "service_request": "2026-1251071",
    "request_type": "Abandoned Vehicles",
    "request_reason": "Abandoned/Junk Vehicles",
    "date_created": "2026-01-10T23:32:41.000",
    "date_modified": "2026-01-10T23:32:44.000",
    "request_status": "Pending",
    "responsible_agency": "Department of Public Works",
    "final_address": "209 Opal St Unit D",
    "address_councildis": "D",
    "status": "Pending",
    "rowid": "1251071",
    "final_x": "3667161.08461",
    "final_y": "555632.615065",
    "longitude": "-90.11253641544774",
    "latitude": "30.022224731329242",
    "geocoded_column": {
      "latitude": "30.022224731329242",
      "longitude": "-90.11253641544774"
    }
  },
  {
    "service_request": "2026-1251070",
    "request_type": "Roads and Streets",
    "request_reason": "Pothole",
    "date_created": "2026-01-10T22:28:50.000",
    "date_modified": "2026-01-10T22:28:52.000",
    "request_status": "Pending",
    "responsible_agency": "Department of Public Works",
    "final_address": "4319 S Carrollton Ave",
    "address_councildis": "A",
    "status": "Pending",
    "rowid": "1251070",
    "final_x": "3669824.05486",
    "final_y": "537035.100104",
    "longitude": "-90.1047521329232",
    "latitude": "29.97100971897239",
    "geocoded_column": {
      "latitude": "29.97100971897239",
      "longitude": "-90.1047521329232"
    }
  },
  {
    "service_request": "2026-1251069",
    "request_type": "Streetlights",
    "request_reason": "Streetlight Outage/Malfunction",
    "date_created": "2026-01-10T22:27:19.000",
    "date_modified": "2026-01-10T22:27:21.000",
    "request_status": "Pending",
    "responsible_agency": "Department of Public Works",
    "final_address": "3800 S Carrollton Ave",
    "address_councildis": "A",
    "status": "Pending",
    "rowid": "1251069",
    "final_x": "3668219.71425",
    "final_y": "535411.318918",
    "longitude": "-90.10987362213439",
    "latitude": "29.966592063794067",
    "geocoded_column": {
      "latitude": "29.966592063794067",
      "longitude": "-90.10987362213439"
    }
  },
  {
    "service_request": "2026-1251068",
    "request_type": "Trash/Recycling",
    "request_reason": "MIssed Recycling Pick-Up",
    "date_created": "2026-01-10T21:24:02.000",
    "date_modified": "2026-01-10T21:24:05.000",
    "request_status": "Pending",
    "responsible_agency": "Department of Sanitation",
    "final_address": "622 N Alexander St",
    "address_councildis": "A",
    "status": "Assigned to Contractor",
    "contractor": "IV Waste",
    "rowid": "1251068",
    "final_x": "3671238.69972",
    "final_y": "540749.152715",
    "longitude": "-90.10015825391989",
    "latitude": "29.981180323266695",
    "geocoded_column": {
      "latitude": "29.981180323266695",
      "longitude": "-90.10015825391989"
    }
  },
  {
    "service_request": "2026-1251067",
    "request_type": "Trash/Recycling",
    "request_reason": "Request a Large Item Pick Up",
    "date_created": "2026-01-10T20:37:12.000",
    "date_modified": "2026-01-10T20:37:15.000",
    "request_status": "Pending",
    "responsible_agency": "Department of Sanitation",
    "final_address": "244 West Robert E Lee Blvd",
    "address_councildis": "A",
    "status": "Assigned to Contractor",
    "contractor": "IV Waste",
    "rowid": "1251067",
    "final_x": "3665827.08122",
    "final_y": "554854.992792",
    "longitude": "-90.11677764044373",
    "latitude": "30.020125557028265",
    "geocoded_column": {
      "latitude": "30.020125557028265",
      "longitude": "-90.11677764044373"
    }
  },
  {
    "service_request": "2026-1251066",
    "request_type": "Trash/Recycling",
    "request_reason": "Replace Trash Cart",
    "date_created": "2026-01-10T20:27:53.000",
    "date_modified": "2026-01-10T20:27:54.000",
    "request_status": "Pending",
    "responsible_agency": "Department of Sanitation",
    "final_address": "4432 Eve St",
    "address_councildis": "B",
    "status": "Assigned to Contractor",
    "contractor": "IV Waste",
    "rowid": "1251066",
    "final_x": "3669884.47662",
    "final_y": "530994.208322",
    "longitude": "-90.10476586584019",
    "latitude": "29.95439749242937",
    "geocoded_column": {
      "latitude": "29.95439749242937",
      "longitude": "-90.10476586584019"
    }
  },
  {
    "service_request": "2026-1251065",
    "request_type": "Trash/Recycling",
    "request_reason": "Replace Trash Cart",
    "date_created": "2026-01-10T20:23:34.000",
    "date_modified": "2026-01-10T20:23:35.000",
    "request_status": "Pending",
    "responsible_agency": "Department of Sanitation",
    "final_address": "3643 Pleasure St",
    "address_councildis": "D",
    "status": "Assigned to Contractor",
    "contractor": "IV Waste",
    "rowid": "1251065",
    "final_x": "3693396.59997",
    "final_y": "544572.893839",
    "longitude": "-90.03003650762594",
    "latitude": "29.991019921631164",
    "geocoded_column": {
      "latitude": "29.991019921631164",
      "longitude": "-90.03003650762594"
    }
  },
  {
    "service_request": "2026-1251064",
    "request_type": "Trash/Recycling",
    "request_reason": "Illegal Dumping",
    "date_created": "2026-01-10T20:22:36.000",
    "date_modified": "2026-01-10T20:22:39.000",
    "request_status": "Pending",
    "responsible_agency": "Department of Sanitation",
    "final_address": "3215 Cherry St",
    "address_councildis": "A",
    "status": "Pending",
    "rowid": "1251064",
    "final_x": "3663758.11635",
    "final_y": "536570.515207",
    "longitude": "-90.12392473466345",
    "latitude": "29.9699097064629",
    "geocoded_column": {
      "latitude": "29.9699097064629",
      "longitude": "-90.12392473466345"
    }
  },
  {
    "service_request": "2026-1251063",
    "request_type": "Trash/Recycling",
    "request_reason": "Replace Trash Cart",
    "date_created": "2026-01-10T19:44:55.000",
    "date_modified": "2026-01-10T19:44:57.000",
    "request_status": "Pending",
    "responsible_agency": "Department of Sanitation",
    "final_address": "4401 Fields St",
    "address_councildis": "C",
    "status": "Assigned to Contractor",
    "contractor": "Richards Disposal",
    "rowid": "1251063",
    "final_x": "3707691.78628",
    "final_y": "514776.252275",
    "longitude": "-89.98598850048916",
    "latitude": "29.908635050320758",
    "geocoded_column": {
      "latitude": "29.908635050320758",
      "longitude": "-89.98598850048916"
    }
  },
  {
    "service_request": "2026-1251062",
    "request_type": "Streetlights",
    "request_reason": "Streetlight Outage/Malfunction",
    "date_created": "2026-01-10T19:39:17.000",
    "date_modified": "2026-01-10T19:39:18.000",
    "request_status": "Pending",
    "responsible_agency": "Department of Public Works",
    "final_address": "1726 Lakeshore Dr",
    "address_councildis": "D",
    "status": "Pending",
    "rowid": "1251062",
    "final_x": "3678331.73333",
    "final_y": "558211.815003",
    "longitude": "-90.07715057402663",
    "latitude": "30.02898461315226",
    "geocoded_column": {
      "latitude": "30.02898461315226",
      "longitude": "-90.07715057402663"
    }
  },
  {
    "service_request": "2026-1251061",
    "request_type": "Streetlights",
    "request_reason": "Streetlight Outage/Malfunction",
    "date_created": "2026-01-10T19:38:14.000",
    "date_modified": "2026-01-10T19:38:15.000",
    "request_status": "Pending",
    "responsible_agency": "Department of Public Works",
    "final_address": "1726 Lakeshore Dr",
    "address_councildis": "D",
    "status": "Pending",
    "rowid": "1251061",
    "final_x": "3678331.73333",
    "final_y": "558211.815003",
    "longitude": "-90.07715057402663",
    "latitude": "30.02898461315226",
    "geocoded_column": {
      "latitude": "30.02898461315226",
      "longitude": "-90.07715057402663"
    }
  },
  {
    "service_request": "2026-1251060",
    "request_type": "Streetlights",
    "request_reason": "Streetlight Outage/Malfunction",
    "date_created": "2026-01-10T19:36:59.000",
    "date_modified": "2026-01-10T19:37:01.000",
    "request_status": "Pending",
    "responsible_agency": "Department of Public Works",
    "final_address": "1726 Lakeshore Dr",
    "address_councildis": "D",
    "status": "Pending",
    "rowid": "1251060",
    "final_x": "3678331.73333",
    "final_y": "558211.815003",
    "longitude": "-90.07715057402663",
    "latitude": "30.02898461315226",
    "geocoded_column": {
      "latitude": "30.02898461315226",
      "longitude": "-90.07715057402663"
    }
  },
  {
    "service_request": "2026-1251059",
    "request_type": "Streetlights",
    "request_reason": "Streetlight Outage/Malfunction",
    "date_created": "2026-01-10T19:35:10.000",
    "date_modified": "2026-01-10T19:35:12.000",
    "request_status": "Pending",
    "responsible_agency": "Department of Public Works",
    "final_address": "1726 Lakeshore Dr",
    "address_councildis": "D",
    "status": "Pending",
    "rowid": "1251059",
    "final_x": "3678331.73333",
    "final_y": "558211.815003",
    "longitude": "-90.07715057402663",
    "latitude": "30.02898461315226",
    "geocoded_column": {
      "latitude": "30.02898461315226",
      "longitude": "-90.07715057402663"
    }
  },
  {
    "service_request": "2026-1251058",
    "request_type": "Trash/Recycling",
    "request_reason": "Order Second Trash Cart",
    "date_created": "2026-01-10T19:20:02.000",
    "date_modified": "2026-01-10T19:20:04.000",
    "request_status": "Pending",
    "responsible_agency": "Department of Sanitation",
    "final_address": "6714 Milne Blvd",
    "address_councildis": "A",
    "status": "Assigned to Contractor",
    "contractor": "IV Waste",
    "rowid": "1251058",
    "final_x": "3667399.45876",
    "final_y": "552378.382614",
    "longitude": "-90.11189281946749",
    "latitude": "30.01326975537184",
    "geocoded_column": {
      "latitude": "30.01326975537184",
      "longitude": "-90.11189281946749"
    }
  },
  {
    "service_request": "2026-1251057",
    "request_type": "Trash/Recycling",
    "request_reason": "Illegal Dumping",
    "date_created": "2026-01-10T19:19:13.000",
    "date_modified": "2026-01-10T19:19:15.000",
    "request_status": "Pending",
    "responsible_agency": "Department of Sanitation",
    "final_address": "4725 Baronne St",
    "address_councildis": "B",
    "status": "Pending",
    "rowid": "1251057",
    "final_x": "3669409.81895",
    "final_y": "521499.979769",
    "longitude": "-90.10658561039124",
    "latitude": "29.928305423486645",
    "geocoded_column": {
      "latitude": "29.928305423486645",
      "longitude": "-90.10658561039124"
    }
  },
  {
    "service_request": "2026-1251056",
    "request_type": "Trash/Recycling",
    "request_reason": "Replace Recycling Cart",
    "date_created": "2026-01-10T19:17:41.000",
    "date_modified": "2026-01-10T19:17:43.000",
    "request_status": "Pending",
    "responsible_agency": "Department of Sanitation",
    "final_address": "6714 Milne Blvd",
    "address_councildis": "A",
    "status": "Pending",
    "rowid": "1251056",
    "final_x": "3667399.45876",
    "final_y": "552378.382614",
    "longitude": "-90.11189281946749",
    "latitude": "30.01326975537184",
    "geocoded_column": {
      "latitude": "30.01326975537184",
      "longitude": "-90.11189281946749"
    }
  },
  {
    "service_request": "2026-1251055",
    "request_type": "Property Maintenance",
    "request_reason": "Property Maintenance",
    "date_created": "2026-01-10T18:53:11.000",
    "date_modified": "2026-01-10T18:53:12.000",
    "request_status": "Pending",
    "responsible_agency": "Department of Code Enforcement",
    "final_address": "7070 Boston Dr",
    "address_councildis": "E",
    "status": "Pending",
    "rowid": "1251055",
    "final_x": "3706282.94391",
    "final_y": "560849.44547",
    "longitude": "-89.98872860910454",
    "latitude": "30.035364876495724",
    "geocoded_column": {
      "latitude": "30.035364876495724",
      "longitude": "-89.98872860910454"
    }
  },
  {
    "service_request": "2026-1251054",
    "request_type": "Property Maintenance",
    "request_reason": "Property Maintenance",
    "date_created": "2026-01-10T18:51:48.000",
    "date_modified": "2026-01-10T18:51:49.000",
    "request_status": "Pending",
    "responsible_agency": "Department of Code Enforcement",
    "final_address": "7133 Yorktown Dr",
    "address_councildis": "E",
    "status": "Pending",
    "rowid": "1251054",
    "final_x": "3705975.57329",
    "final_y": "561037.043678",
    "longitude": "-89.98969299230029",
    "latitude": "30.03589061172258",
    "geocoded_column": {
      "latitude": "30.03589061172258",
      "longitude": "-89.98969299230029"
    }
  },
  {
    "service_request": "2026-1251053",
    "request_type": "Abandoned Vehicles",
    "request_reason": "Abandoned/Junk Vehicles",
    "date_created": "2026-01-10T18:49:08.000",
    "date_modified": "2026-01-10T18:49:10.000",
    "request_status": "Pending",
    "responsible_agency": "Department of Public Works",
    "final_address": "7133 Yorktown Dr",
    "address_councildis": "E",
    "status": "Pending",
    "rowid": "1251053",
    "final_x": "3705975.57329",
    "final_y": "561037.043678",
    "longitude": "-89.98969299230029",
    "latitude": "30.03589061172258",
    "geocoded_column": {
      "latitude": "30.03589061172258",
      "longitude": "-89.98969299230029"
    }
  },
  {
    "service_request": "2026-1251052",
    "request_type": "Abandoned Vehicles",
    "request_reason": "Abandoned/Junk Vehicles",
    "date_created": "2026-01-10T18:47:35.000",
    "date_modified": "2026-01-10T18:47:37.000",
    "request_status": "Pending",
    "responsible_agency": "Department of Public Works",
    "final_address": "7113 Yorktown Dr",
    "address_councildis": "E",
    "status": "Pending",
    "rowid": "1251052",
    "final_x": "3706027.05886",
    "final_y": "560931.521822",
    "longitude": "-89.98953420048848",
    "latitude": "30.035598808029956",
    "geocoded_column": {
      "latitude": "30.035598808029956",
      "longitude": "-89.98953420048848"
    }
  },
  {
    "service_request": "2026-1251051",
    "request_type": "Property Maintenance",
    "request_reason": "Property Maintenance",
    "date_created": "2026-01-10T18:44:18.000",
    "date_modified": "2026-01-10T18:44:20.000",
    "request_status": "Pending",
    "responsible_agency": "Department of Code Enforcement",
    "final_address": "7201 Yorktown Dr",
    "address_councildis": "E",
    "status": "Pending",
    "rowid": "1251051",
    "final_x": "3705888.71006",
    "final_y": "561236.17667",
    "longitude": "-89.98996011614264",
    "latitude": "30.036440949453876",
    "geocoded_column": {
      "latitude": "30.036440949453876",
      "longitude": "-89.98996011614264"
    }
  },
  {
    "service_request": "2026-1251050",
    "request_type": "Trash/Recycling",
    "request_reason": "Request a Large Item Pick Up",
    "date_created": "2026-01-10T18:37:23.000",
    "date_modified": "2026-01-10T18:37:26.000",
    "request_status": "Pending",
    "responsible_agency": "Department of Sanitation",
    "final_address": "6167 Catina St",
    "address_councildis": "A",
    "status": "Assigned to Contractor",
    "contractor": "IV Waste",
    "rowid": "1251050",
    "final_x": "3666934.58433",
    "final_y": "548888.354771",
    "longitude": "-90.11347897020205",
    "latitude": "30.003687012956757",
    "geocoded_column": {
      "latitude": "30.003687012956757",
      "longitude": "-90.11347897020205"
    }
  },
  {
    "service_request": "2026-1251049",
    "request_type": "Roads and Streets",
    "request_reason": "Street Subsidence (Sinking)",
    "date_created": "2026-01-10T18:25:38.000",
    "date_modified": "2026-01-10T18:25:39.000",
    "request_status": "Pending",
    "responsible_agency": "Sewerage & Water Board",
    "final_address": "1350 Filmore Ave",
    "address_councildis": "D",
    "status": "Pending",
    "rowid": "1251049",
    "final_x": "3677576.20962",
    "final_y": "551670.056469",
    "longitude": "-90.07976415761607",
    "latitude": "30.01101990025206",
    "geocoded_column": {
      "latitude": "30.01101990025206",
      "longitude": "-90.07976415761607"
    }
  },
  {
    "service_request": "2026-1251048",
    "request_type": "Streetlights",
    "request_reason": "Streetlight Outage/Malfunction",
    "date_created": "2026-01-10T18:21:13.000",
    "date_modified": "2026-01-10T18:21:15.000",
    "request_status": "Pending",
    "responsible_agency": "Department of Public Works",
    "final_address": "5351 Paris Ave",
    "address_councildis": "D",
    "status": "Pending",
    "rowid": "1251048",
    "final_x": "3679282.89832",
    "final_y": "551992.204374",
    "longitude": "-90.07436086650455",
    "latitude": "30.011854240783084",
    "geocoded_column": {
      "latitude": "30.011854240783084",
      "longitude": "-90.07436086650455"
    }
  },
  {
    "service_request": "2026-1251047",
    "request_type": "Streetlights",
    "request_reason": "Streetlight Outage/Malfunction",
    "date_created": "2026-01-10T18:21:03.000",
    "date_modified": "2026-01-10T18:21:05.000",
    "request_status": "Pending",
    "responsible_agency": "Department of Public Works",
    "final_address": "1465 Steeple Chase Ln",
    "address_councildis": "C",
    "status": "Pending",
    "rowid": "1251047",
    "final_x": "3699946.37648",
    "final_y": "525877.212285",
    "longitude": "-90.01002945261389",
    "latitude": "29.939407033991635",
    "geocoded_column": {
      "latitude": "29.939407033991635",
      "longitude": "-90.01002945261389"
    }
  },
  {
    "service_request": "2026-1251046",
    "request_type": "Street and Traffic Signs",
    "request_reason": "Street Name Sign Damaged or Missing",
    "date_created": "2026-01-10T18:15:52.000",
    "date_modified": "2026-01-10T18:15:55.000",
    "request_status": "Pending",
    "responsible_agency": "Department of Public Works",
    "final_address": "7000 BLK Canal Blvd",
    "address_councildis": "A",
    "status": "Pending",
    "rowid": "1251046",
    "final_x": "3669075.05814",
    "final_y": "554478.1428",
    "longitude": "-90.10652777013544",
    "latitude": "30.018994134168437",
    "geocoded_column": {
      "latitude": "30.018994134168437",
      "longitude": "-90.10652777013544"
    }
  },
  {
    "service_request": "2026-1251045",
    "request_type": "Trash/Recycling",
    "request_reason": "Request a Large Item Pick Up",
    "date_created": "2026-01-10T18:10:09.000",
    "date_modified": "2026-01-10T18:10:11.000",
    "request_status": "Pending",
    "responsible_agency": "Department of Sanitation",
    "final_address": "4281 Trieste St",
    "address_councildis": "E",
    "status": "Assigned to Contractor",
    "contractor": "Waste Pro",
    "rowid": "1251045",
    "final_x": "3760176.14448",
    "final_y": "573217.789033",
    "longitude": "-89.8179046057761",
    "latitude": "30.067523202112675",
    "geocoded_column": {
      "latitude": "30.067523202112675",
      "longitude": "-89.8179046057761"
    }
  },
  {
    "service_request": "2026-1251044",
    "request_type": "Traffic Signals",
    "request_reason": "Traffic Signal Malfunctioning or Damaged",
    "date_created": "2026-01-10T18:04:37.000",
    "date_modified": "2026-01-10T18:04:39.000",
    "request_status": "Pending",
    "responsible_agency": "Department of Public Works",
    "final_address": "2200 Magazine St",
    "address_councildis": "B",
    "status": "Pending",
    "rowid": "1251044",
    "final_x": "3678837.56206",
    "final_y": "522018.315386",
    "longitude": "-90.07680635438547",
    "latitude": "29.929449773921082",
    "geocoded_column": {
      "latitude": "29.929449773921082",
      "longitude": "-90.07680635438547"
    }
  },
  {
    "service_request": "2026-1251043",
    "request_type": "Streetlights",
    "request_reason": "Streetlight Outage/Malfunction",
    "date_created": "2026-01-10T18:02:49.000",
    "date_modified": "2026-01-10T18:02:53.000",
    "request_status": "Pending",
    "responsible_agency": "Department of Public Works",
    "final_address": "1476 Henry Clay Ave",
    "address_councildis": "A",
    "status": "Pending",
    "rowid": "1251043",
    "final_x": "3664722.89882",
    "final_y": "522079.700986",
    "longitude": "-90.12136189210325",
    "latitude": "29.930036616779102",
    "geocoded_column": {
      "latitude": "29.930036616779102",
      "longitude": "-90.12136189210325"
    }
  },
  {
    "service_request": "2026-1251042",
    "request_type": "Roads and Streets",
    "request_reason": "Sidewalk Damaged or Missing",
    "date_created": "2026-01-10T17:13:03.000",
    "date_modified": "2026-01-10T17:13:05.000",
    "request_status": "Pending",
    "responsible_agency": "Department of Public Works",
    "final_address": "5551 New England Dr",
    "address_councildis": "E",
    "status": "Pending",
    "rowid": "1251042",
    "final_x": "3723766.96454",
    "final_y": "563869.154849",
    "longitude": "-89.93336034188842",
    "latitude": "30.04309210798505",
    "geocoded_column": {
      "latitude": "30.04309210798505",
      "longitude": "-89.93336034188842"
    }
  },
  {
    "service_request": "2026-1251041",
    "request_type": "Streetlights",
    "request_reason": "Streetlight Outage/Malfunction",
    "date_created": "2026-01-10T16:51:40.000",
    "date_modified": "2026-01-10T16:51:42.000",
    "request_status": "Pending",
    "responsible_agency": "Department of Public Works",
    "final_address": "1000 BLK Bourbon St",
    "address_councildis": "C",
    "status": "Pending",
    "rowid": "1251041",
    "final_x": "3683043.94391",
    "final_y": "533704.036054",
    "longitude": "-90.06311865877531",
    "latitude": "29.96145406792814",
    "geocoded_column": {
      "latitude": "29.96145406792814",
      "longitude": "-90.06311865877531"
    }
  },
  {
    "service_request": "2026-1251040",
    "request_type": "Trash/Recycling",
    "request_reason": "Replace Trash Cart",
    "date_created": "2026-01-10T16:44:05.000",
    "date_modified": "2026-01-10T16:44:08.000",
    "request_status": "Pending",
    "responsible_agency": "Department of Sanitation",
    "final_address": "6020 St Charles Ave",
    "address_councildis": "A",
    "status": "Assigned to Contractor",
    "contractor": "IV Waste",
    "rowid": "1251040",
    "final_x": "3665483.34176",
    "final_y": "522487.533242",
    "longitude": "-90.11894764498817",
    "latitude": "29.931135887933674",
    "geocoded_column": {
      "latitude": "29.931135887933674",
      "longitude": "-90.11894764498817"
    }
  },
  {
    "service_request": "2026-1251039",
    "request_type": "Trash/Recycling",
    "request_reason": "Repair Trash Cart",
    "date_created": "2026-01-10T16:35:50.000",
    "date_modified": "2026-01-10T16:35:52.000",
    "request_status": "Pending",
    "responsible_agency": "Department of Sanitation",
    "final_address": "7038 Prytania St",
    "address_councildis": "A",
    "status": "Assigned to Contractor",
    "contractor": "IV Waste",
    "rowid": "1251039",
    "final_x": "3661948.55584",
    "final_y": "522533.462714",
    "longitude": "-90.13010503664674",
    "latitude": "29.931364715746383",
    "geocoded_column": {
      "latitude": "29.931364715746383",
      "longitude": "-90.13010503664674"
    }
  },
  {
    "service_request": "2026-1251038",
    "request_type": "Trash/Recycling",
    "request_reason": "Replace Recycling Cart",
    "date_created": "2026-01-10T16:26:54.000",
    "date_modified": "2026-01-10T16:26:57.000",
    "request_status": "Pending",
    "responsible_agency": "Department of Sanitation",
    "final_address": "4721 Walmsley Ave",
    "address_councildis": "B",
    "status": "Pending",
    "rowid": "1251038",
    "final_x": "3668361.06862",
    "final_y": "530544.933506",
    "longitude": "-90.10959135318605",
    "latitude": "29.953206958847456",
    "geocoded_column": {
      "latitude": "29.953206958847456",
      "longitude": "-90.10959135318605"
    }
  },
  {
    "service_request": "2026-1251037",
    "request_type": "Trash/Recycling",
    "request_reason": "Request a Large Item Pick Up",
    "date_created": "2026-01-10T16:02:21.000",
    "date_modified": "2026-01-10T16:02:23.000",
    "request_status": "Pending",
    "responsible_agency": "Department of Sanitation",
    "final_address": "1716 Cambronne St",
    "address_councildis": "A",
    "status": "Assigned to Contractor",
    "contractor": "IV Waste",
    "rowid": "1251037",
    "final_x": "3662424.83821",
    "final_y": "530543.421378",
    "longitude": "-90.12833554476613",
    "latitude": "29.95337578969376",
    "geocoded_column": {
      "latitude": "29.95337578969376",
      "longitude": "-90.12833554476613"
    }
  },
  {
    "service_request": "2026-1251036",
    "request_type": "Abandoned Vehicles",
    "request_reason": "Abandoned/Junk Vehicles",
    "date_created": "2026-01-10T16:00:10.000",
    "date_modified": "2026-01-10T16:00:22.000",
    "request_status": "Pending",
    "responsible_agency": "Department of Public Works",
    "final_address": "3900 BLK Saint Claude Ave",
    "address_councildis": "C",
    "status": "Pending",
    "rowid": "1251036",
    "final_x": "3691661.52346",
    "final_y": "535409.563483",
    "longitude": "-90.03584493962522",
    "latitude": "29.965878182379576",
    "geocoded_column": {
      "latitude": "29.965878182379576",
      "longitude": "-90.03584493962522"
    }
  },
  {
    "service_request": "2026-1251035",
    "request_type": "Trash/Recycling",
    "request_reason": "Return Trash Cart",
    "date_created": "2026-01-10T15:55:46.000",
    "date_modified": "2026-01-10T15:55:48.000",
    "request_status": "Pending",
    "responsible_agency": "Department of Sanitation",
    "final_address": "616 Bellecastle St",
    "address_councildis": "B",
    "status": "Assigned to Contractor",
    "contractor": "IV Waste",
    "rowid": "1251035",
    "final_x": "3667627.83508",
    "final_y": "517723.556918",
    "longitude": "-90.1123379931836",
    "latitude": "29.91797379127887",
    "geocoded_column": {
      "latitude": "29.91797379127887",
      "longitude": "-90.1123379931836"
    }
  },
  {
    "service_request": "2026-1251034",
    "request_type": "Trash/Recycling",
    "request_reason": "Request a Large Item Pick Up",
    "date_created": "2026-01-10T15:38:31.000",
    "date_modified": "2026-01-10T15:38:33.000",
    "request_status": "Pending",
    "responsible_agency": "Department of Sanitation",
    "final_address": "3905 Royal St",
    "address_councildis": "C",
    "status": "Assigned to Contractor",
    "contractor": "IV Waste",
    "rowid": "1251034",
    "final_x": "3691218.62889",
    "final_y": "533890.000709",
    "longitude": "-90.03729785889931",
    "latitude": "29.961713699765667",
    "geocoded_column": {
      "latitude": "29.961713699765667",
      "longitude": "-90.03729785889931"
    }
  },
  {
    "service_request": "2026-1251033",
    "request_type": "Roads and Streets",
    "request_reason": "Sidewalk Damaged or Missing",
    "date_created": "2026-01-10T15:35:45.000",
    "date_modified": "2026-01-10T15:35:46.000",
    "request_status": "Pending",
    "responsible_agency": "Department of Public Works",
    "final_address": "7330 Bullard Ave",
    "address_councildis": "E",
    "status": "Pending",
    "rowid": "1251033",
    "final_x": "3713929.41618",
    "final_y": "566149.740515",
    "longitude": "-89.96436461515344",
    "latitude": "30.04968961037439",
    "geocoded_column": {
      "latitude": "30.04968961037439",
      "longitude": "-89.96436461515344"
    }
  },
  {
    "service_request": "2026-1251032",
    "request_type": "Roads and Streets",
    "request_reason": "Sidewalk Damaged or Missing",
    "date_created": "2026-01-10T15:33:45.000",
    "date_modified": "2026-01-10T15:33:46.000",
    "request_status": "Pending",
    "responsible_agency": "Department of Public Works",
    "final_address": "7350 Bullard Ave",
    "address_councildis": "E",
    "status": "Pending",
    "rowid": "1251032",
    "final_x": "3713862.04223",
    "final_y": "566252.264099",
    "longitude": "-89.96457368570867",
    "latitude": "30.049973721572616",
    "geocoded_column": {
      "latitude": "30.049973721572616",
      "longitude": "-89.96457368570867"
    }
  },
  {
    "service_request": "2026-1251031",
    "request_type": "Roads and Streets",
    "request_reason": "Sidewalk Damaged or Missing",
    "date_created": "2026-01-10T15:28:53.000",
    "date_modified": "2026-01-10T15:28:54.000",
    "request_status": "Pending",
    "responsible_agency": "Department of Public Works",
    "final_address": "7400 Bullard Ave",
    "address_councildis": "E",
    "status": "Pending",
    "rowid": "1251031",
    "final_x": "3713827.28184",
    "final_y": "566297.496931",
    "longitude": "-89.96468184167705",
    "latitude": "30.05009923511188",
    "geocoded_column": {
      "latitude": "30.05009923511188",
      "longitude": "-89.96468184167705"
    }
  },
  {
    "service_request": "2026-1251030",
    "request_type": "Trash/Recycling",
    "request_reason": "Request a Large Item Pick Up",
    "date_created": "2026-01-10T15:25:33.000",
    "date_modified": "2026-01-10T15:25:34.000",
    "request_status": "Pending",
    "responsible_agency": "Department of Sanitation",
    "final_address": "20 Maryland Dr",
    "address_councildis": "A",
    "status": "Assigned to Contractor",
    "contractor": "IV Waste",
    "rowid": "1251030",
    "final_x": "3663580.32064",
    "final_y": "540743.645387",
    "longitude": "-90.12434717866776",
    "latitude": "29.98138958645688",
    "geocoded_column": {
      "latitude": "29.98138958645688",
      "longitude": "-90.12434717866776"
    }
  },
  {
    "service_request": "2026-1251029",
    "request_type": "Roads and Streets",
    "request_reason": "Push-up/Pavement Expansion",
    "date_created": "2026-01-10T15:24:57.000",
    "date_modified": "2026-01-10T15:24:58.000",
    "request_status": "Pending",
    "responsible_agency": "Department of Public Works",
    "final_address": "7251 Bullard Ave",
    "address_councildis": "E",
    "status": "Pending",
    "rowid": "1251029",
    "final_x": "3714160.14872",
    "final_y": "566136.857251",
    "longitude": "-89.96363585135587",
    "latitude": "30.049646604966807",
    "geocoded_column": {
      "latitude": "30.049646604966807",
      "longitude": "-89.96363585135587"
    }
  },
  {
    "service_request": "2026-1251028",
    "request_type": "Roads and Streets",
    "request_reason": "Push-up/Pavement Expansion",
    "date_created": "2026-01-10T15:22:20.000",
    "date_modified": "2026-01-10T15:22:22.000",
    "request_status": "Pending",
    "responsible_agency": "Department of Public Works",
    "final_address": "7231 Bullard Ave",
    "address_councildis": "E",
    "status": "Pending",
    "rowid": "1251028",
    "final_x": "3714229.70514",
    "final_y": "566038.006179",
    "longitude": "-89.9634197475214",
    "latitude": "30.04937251843217",
    "geocoded_column": {
      "latitude": "30.04937251843217",
      "longitude": "-89.9634197475214"
    }
  },
  {
    "service_request": "2026-1251027",
    "request_type": "Traffic Signals",
    "request_reason": "Traffic Signal Malfunctioning or Damaged",
    "date_created": "2026-01-10T15:22:03.000",
    "date_modified": "2026-01-10T15:22:05.000",
    "request_status": "Pending",
    "responsible_agency": "Department of Public Works",
    "final_address": "1118 Orange St",
    "address_councildis": "B",
    "status": "Pending",
    "rowid": "1251027",
    "final_x": "3679919.82043",
    "final_y": "523495.636923",
    "longitude": "-90.073338582148",
    "latitude": "29.933479244861044",
    "geocoded_column": {
      "latitude": "29.933479244861044",
      "longitude": "-90.073338582148"
    }
  },
  {
    "service_request": "2026-1251026",
    "request_type": "Roads and Streets",
    "request_reason": "Push-up/Pavement Expansion",
    "date_created": "2026-01-10T15:19:33.000",
    "date_modified": "2026-01-10T15:19:35.000",
    "request_status": "Pending",
    "responsible_agency": "Department of Public Works",
    "final_address": "7221 Bullard Ave",
    "address_councildis": "E",
    "status": "Pending",
    "rowid": "1251026",
    "final_x": "3714266.96965",
    "final_y": "565986.758755",
    "longitude": "-89.9633039067643",
    "latitude": "30.04923038383819",
    "geocoded_column": {
      "latitude": "30.04923038383819",
      "longitude": "-89.9633039067643"
    }
  },
  {
    "service_request": "2026-1251025",
    "request_type": "Roads and Streets",
    "request_reason": "Pothole",
    "date_created": "2026-01-10T15:18:42.000",
    "date_modified": "2026-01-10T15:18:43.000",
    "request_status": "Pending",
    "responsible_agency": "Department of Public Works",
    "final_address": "3627 Magazine St",
    "address_councildis": "B",
    "status": "Pending",
    "rowid": "1251025",
    "final_x": "3673919.02881",
    "final_y": "519269.709431",
    "longitude": "-90.09242725096338",
    "latitude": "29.922039383650088",
    "geocoded_column": {
      "latitude": "29.922039383650088",
      "longitude": "-90.09242725096338"
    }
  },
  {
    "service_request": "2026-1251024",
    "request_type": "Roads and Streets",
    "request_reason": "Push-up/Pavement Expansion",
    "date_created": "2026-01-10T15:18:28.000",
    "date_modified": "2026-01-10T15:18:29.000",
    "request_status": "Pending",
    "responsible_agency": "Department of Public Works",
    "final_address": "11041 Kinneil Rd",
    "address_councildis": "E",
    "status": "Pending",
    "rowid": "1251024",
    "final_x": "3711680.70629",
    "final_y": "564566.614113",
    "longitude": "-89.97153133397583",
    "latitude": "30.04541033198751",
    "geocoded_column": {
      "latitude": "30.04541033198751",
      "longitude": "-89.97153133397583"
    }
  },
  {
    "service_request": "2026-1251023",
    "request_type": "Trash/Recycling",
    "request_reason": "Request a Large Item Pick Up",
    "date_created": "2026-01-10T15:15:48.000",
    "date_modified": "2026-01-10T15:15:49.000",
    "request_status": "Pending",
    "responsible_agency": "Department of Sanitation",
    "final_address": "7823 Mill St",
    "address_councildis": "E",
    "status": "Assigned to Contractor",
    "contractor": "Waste Pro",
    "rowid": "1251023",
    "final_x": "3696431.85181",
    "final_y": "559724.241053",
    "longitude": "-90.01990031944237",
    "latitude": "30.032585171786295",
    "geocoded_column": {
      "latitude": "30.032585171786295",
      "longitude": "-90.01990031944237"
    }
  },
  {
    "service_request": "2026-1251022",
    "request_type": "Roads and Streets",
    "request_reason": "Push-up/Pavement Expansion",
    "date_created": "2026-01-10T15:15:14.000",
    "date_modified": "2026-01-10T15:15:15.000",
    "request_status": "Pending",
    "responsible_agency": "Department of Public Works",
    "final_address": "11041 Kinneil Rd",
    "address_councildis": "E",
    "status": "Pending",
    "rowid": "1251022",
    "final_x": "3711680.70629",
    "final_y": "564566.614113",
    "longitude": "-89.97153133397583",
    "latitude": "30.04541033198751",
    "geocoded_column": {
      "latitude": "30.04541033198751",
      "longitude": "-89.97153133397583"
    }
  },
  {
    "service_request": "2026-1251021",
    "request_type": "Roads and Streets",
    "request_reason": "Push-up/Pavement Expansion",
    "date_created": "2026-01-10T15:14:03.000",
    "date_modified": "2026-01-10T15:14:05.000",
    "request_status": "Pending",
    "responsible_agency": "Department of Public Works",
    "final_address": "7211 Bullard Ave",
    "address_councildis": "E",
    "status": "Pending",
    "rowid": "1251021",
    "final_x": "3714302.26123",
    "final_y": "565939.537315",
    "longitude": "-89.96319414976566",
    "latitude": "30.049099383822444",
    "geocoded_column": {
      "latitude": "30.049099383822444",
      "longitude": "-89.96319414976566"
    }
  },
  {
    "service_request": "2026-1251020",
    "request_type": "Trash/Recycling",
    "request_reason": "Dead Animal Pick Up",
    "date_created": "2026-01-10T15:10:20.000",
    "date_modified": "2026-01-10T15:10:22.000",
    "request_status": "Pending",
    "responsible_agency": "Department of Sanitation",
    "final_address": "4427 Painters St",
    "address_councildis": "D",
    "status": "Assigned to Contractor",
    "contractor": "IV Waste",
    "rowid": "1251020",
    "final_x": "3686403.56809",
    "final_y": "549125.702995",
    "longitude": "-90.05196497621907",
    "latitude": "30.00375536050429",
    "geocoded_column": {
      "latitude": "30.00375536050429",
      "longitude": "-90.05196497621907"
    }
  },
  {
    "service_request": "2026-1251019",
    "request_type": "Abandoned Vehicles",
    "request_reason": "Abandoned/Junk Vehicles",
    "date_created": "2026-01-10T14:48:58.000",
    "date_modified": "2026-01-10T14:48:59.000",
    "request_status": "Pending",
    "responsible_agency": "Department of Public Works",
    "final_address": "4307 Canal St",
    "address_councildis": "A",
    "status": "Pending",
    "rowid": "1251019",
    "final_x": "3670302.06446",
    "final_y": "539076.347658",
    "longitude": "-90.103173302871",
    "latitude": "29.97660836046145",
    "geocoded_column": {
      "latitude": "29.97660836046145",
      "longitude": "-90.103173302871"
    }
  },
  {
    "service_request": "2026-1251018",
    "request_type": "Abandoned Vehicles",
    "request_reason": "Abandoned/Junk Vehicles",
    "date_created": "2026-01-10T14:46:28.000",
    "date_modified": "2026-01-10T14:46:30.000",
    "request_status": "Pending",
    "responsible_agency": "Department of Public Works",
    "final_address": "3 Flowerdale Ct",
    "address_councildis": "A",
    "status": "Pending",
    "rowid": "1251018",
    "final_x": "3673558.76417",
    "final_y": "541219.868812",
    "longitude": "-90.09281433160923",
    "latitude": "29.982405771115737",
    "geocoded_column": {
      "latitude": "29.982405771115737",
      "longitude": "-90.09281433160923"
    }
  },
  {
    "service_request": "2026-1251017",
    "request_type": "Trash/Recycling",
    "request_reason": "Repair Recycling Cart",
    "date_created": "2026-01-10T14:46:12.000",
    "date_modified": "2026-01-10T14:46:14.000",
    "request_status": "Pending",
    "responsible_agency": "Department of Sanitation",
    "final_address": "2821 Dumaine St",
    "address_councildis": "A",
    "status": "Pending",
    "rowid": "1251017",
    "final_x": "3676575.04277",
    "final_y": "538005.616009",
    "longitude": "-90.08339817808734",
    "latitude": "29.97347754598216",
    "geocoded_column": {
      "latitude": "29.97347754598216",
      "longitude": "-90.08339817808734"
    }
  },
  {
    "service_request": "2026-1251016",
    "request_type": "Trash/Recycling",
    "request_reason": "Request a Large Item Pick Up",
    "date_created": "2026-01-10T14:26:40.000",
    "date_modified": "2026-01-10T14:26:42.000",
    "request_status": "Pending",
    "responsible_agency": "Department of Sanitation",
    "final_address": "2535 Allen St",
    "address_councildis": "D",
    "status": "Assigned to Contractor",
    "contractor": "IV Waste",
    "rowid": "1251016",
    "final_x": "3682377.06396",
    "final_y": "541575.884108",
    "longitude": "-90.0649493851264",
    "latitude": "29.98311923378746",
    "geocoded_column": {
      "latitude": "29.98311923378746",
      "longitude": "-90.0649493851264"
    }
  },
  {
    "service_request": "2026-1251015",
    "request_type": "Trash/Recycling",
    "request_reason": "Order Recycling Cart",
    "date_created": "2026-01-10T14:24:48.000",
    "date_modified": "2026-01-10T14:24:50.000",
    "request_status": "Pending",
    "responsible_agency": "Department of Sanitation",
    "final_address": "906 Cherokee St",
    "address_councildis": "A",
    "status": "Pending",
    "rowid": "1251015",
    "final_x": "3662852.17203",
    "final_y": "526242.327614",
    "longitude": "-90.12712916552726",
    "latitude": "29.94153679777587",
    "geocoded_column": {
      "latitude": "29.94153679777587",
      "longitude": "-90.12712916552726"
    }
  },
  {
    "service_request": "2026-1251014",
    "request_type": "Trash/Recycling",
    "request_reason": "Missed Trash Pick-Up",
    "date_created": "2026-01-10T14:14:27.000",
    "date_modified": "2026-01-10T14:14:29.000",
    "request_status": "Pending",
    "responsible_agency": "Department of Sanitation",
    "final_address": "5334 Constance St",
    "address_councildis": "B",
    "status": "Assigned to Contractor",
    "contractor": "IV Waste",
    "rowid": "1251014",
    "final_x": "3667145.55258",
    "final_y": "518266.61439",
    "longitude": "-90.11384205758269",
    "latitude": "29.919481151139163",
    "geocoded_column": {
      "latitude": "29.919481151139163",
      "longitude": "-90.11384205758269"
    }
  },
  {
    "service_request": "2026-1251013",
    "request_type": "Streetlights",
    "request_reason": "Streetlight Outage/Malfunction",
    "date_created": "2026-01-10T14:02:52.000",
    "date_modified": "2026-01-10T14:02:53.000",
    "request_status": "Pending",
    "responsible_agency": "Department of Public Works",
    "final_address": "2200 BLK Magazine St",
    "address_councildis": "B",
    "status": "Pending",
    "rowid": "1251013",
    "final_x": "3678693.6616",
    "final_y": "521953.885998",
    "longitude": "-90.07726285131018",
    "latitude": "29.929276952400937",
    "geocoded_column": {
      "latitude": "29.929276952400937",
      "longitude": "-90.07726285131018"
    }
  },
  {
    "service_request": "2026-1251012",
    "request_type": "General Services",
    "request_reason": "General Service Request",
    "date_created": "2026-01-10T13:39:16.000",
    "date_modified": "2026-01-10T13:39:17.000",
    "request_status": "Pending",
    "responsible_agency": "Orleans Parish Communication District",
    "final_address": "0 BLK Acadiana Pl",
    "address_councildis": "E",
    "status": "Pending",
    "rowid": "1251012",
    "final_x": "3725131.4083",
    "final_y": "564393.680055",
    "longitude": "-89.92902788187175",
    "latitude": "30.04448842646984",
    "geocoded_column": {
      "latitude": "30.04448842646984",
      "longitude": "-89.92902788187175"
    }
  },
  {
    "service_request": "2026-1251011",
    "request_type": "Trash/Recycling",
    "request_reason": "Request a Large Item Pick Up",
    "date_created": "2026-01-10T13:36:47.000",
    "date_modified": "2026-01-10T13:36:50.000",
    "request_status": "Pending",
    "responsible_agency": "Department of Sanitation",
    "final_address": "5472 Grand Bayou Dr",
    "address_councildis": "E",
    "status": "Assigned to Contractor",
    "contractor": "Waste Pro",
    "rowid": "1251011",
    "final_x": "3725513.15852",
    "final_y": "563428.62672",
    "longitude": "-89.92785880504294",
    "latitude": "30.04182206024453",
    "geocoded_column": {
      "latitude": "30.04182206024453",
      "longitude": "-89.92785880504294"
    }
  },
  {
    "service_request": "2026-1251010",
    "request_type": "Graffiti Removal",
    "request_reason": "Graffiti Removal",
    "date_created": "2026-01-10T13:14:36.000",
    "date_modified": "2026-01-10T13:14:38.000",
    "request_status": "Pending",
    "responsible_agency": "Department of Code Enforcement",
    "final_address": "2131 Urquhart St",
    "address_councildis": "C",
    "status": "Pending",
    "rowid": "1251010",
    "final_x": "3684806.43369",
    "final_y": "537058.068104",
    "longitude": "-90.05743509171292",
    "latitude": "29.970622655299117",
    "geocoded_column": {
      "latitude": "29.970622655299117",
      "longitude": "-90.05743509171292"
    }
  },
  {
    "service_request": "2026-1251009",
    "request_type": "Property Maintenance",
    "request_reason": "Property Maintenance",
    "date_created": "2026-01-10T13:10:05.000",
    "date_modified": "2026-01-10T13:10:07.000",
    "request_status": "Pending",
    "responsible_agency": "Department of Code Enforcement",
    "final_address": "4807 St Claude Ave",
    "address_councildis": "E",
    "status": "Pending",
    "rowid": "1251009",
    "final_x": "3695153.97546",
    "final_y": "534632.945286",
    "longitude": "-90.02484394726747",
    "latitude": "29.96363355565473",
    "geocoded_column": {
      "latitude": "29.96363355565473",
      "longitude": "-90.02484394726747"
    }
  },
  {
    "service_request": "2026-1251008",
    "request_type": "Drainage",
    "request_reason": "Ditch and Culvert Maintenance",
    "date_created": "2026-01-10T12:38:04.000",
    "date_modified": "2026-01-10T12:38:08.000",
    "request_status": "Pending",
    "responsible_agency": "Department of Public Works",
    "final_address": "4518 Urquhart St",
    "address_councildis": "D",
    "status": "Pending",
    "rowid": "1251008",
    "final_x": "3693658.94557",
    "final_y": "535570.872966",
    "longitude": "-90.02953137536501",
    "latitude": "29.96625938428497",
    "geocoded_column": {
      "latitude": "29.96625938428497",
      "longitude": "-90.02953137536501"
    }
  },