[
  {
    "service_request": "2026-1252224",
    "request_type": "Traffic Signals",
    "request_reason": "Traffic Signal Malfunctioning or Damaged",
    "date_created": "2026-01-14T23:02:02.000",
    "date_modified": "2026-01-14T23:02:05.000",
    "request_status": "Pending",
    "responsible_agency": "Department of Public Works",
    "final_address": "1901 Tchoupitoulas St",
    "address_councildis": "B",
    "status": "Pending",
    "rowid": "1252224",
    "final_x": "3681069.68866",
    "final_y": "520552.67212",
    "longitude": "-90.06981096487615",
    "latitude": "29.925352242341845",
    "geocoded_column": {
      "latitude": "29.925352242341845",
      "longitude": "-90.06981096487615"
    }
  },
  {
    "service_request": "2026-1252223",
    "request_type": "Trash/Recycling",
    "request_reason": "Request a Large Item Pick Up",
    "date_created": "2026-01-14T21:56:56.000",
    "date_modified": "2026-01-14T21:56:58.000",
    "request_status": "Pending",
    "responsible_agency": "Department of Sanitation",
    "final_address": "3401 Annunciation St",
    "address_councildis": "B",
    "status": "Assigned to Contractor",
    "contractor": "IV Waste",
    "rowid": "1252223",
    "final_x": "3675348.05326",
    "final_y": "518605.898231",
    "longitude": "-90.08793918760863",
    "latitude": "29.920171485210638",
    "geocoded_column": {
      "latitude": "29.920171485210638",
      "longitude": "-90.08793918760863"
    }
  },
  {
    "service_request": "2026-1252222",
    "request_type": "Trash/Recycling",
    "request_reason": "Replace Trash Cart",
    "date_created": "2026-01-14T21:55:40.000",
    "date_modified": "2026-01-14T21:55:42.000",
    "request_status": "Pending",
    "responsible_agency": "Department of Sanitation",
    "final_address": "2013 N Derbigny St",
    "address_councildis": "D",
    "status": "Assigned to Contractor",
    "contractor": "IV Waste",
    "rowid": "1252222",
    "final_x": "3684194.3686",
    "final_y": "538493.396873",
    "longitude": "-90.05931766295308",
    "latitude": "29.974588035604548",
    "geocoded_column": {
      "latitude": "29.974588035604548",
      "longitude": "-90.05931766295308"
    }
  },
  {
    "service_request": "2026-1252221",
    "request_type": "Trash/Recycling",
    "request_reason": "Replace Trash Cart",
    "date_created": "2026-01-14T21:54:15.000",
    "date_modified": "2026-01-14T21:54:18.000",
    "request_status": "Pending",
    "responsible_agency": "Department of Sanitation",
    "final_address": "422 Nashville Ave",
    "address_councildis": "A",
    "status": "Assigned to Contractor",
    "contractor": "IV Waste",
    "rowid": "1252221",
    "final_x": "3665211.66138",
    "final_y": "517867.52127",
    "longitude": "-90.11995975189367",
    "latitude": "29.918440221829414",
    "geocoded_column": {
      "latitude": "29.918440221829414",
      "longitude": "-90.11995975189367"
    }
  },
  {
    "service_request": "2026-1252220",
    "request_type": "Trash/Recycling",
    "request_reason": "Request a Large Item Pick Up",
    "date_created": "2026-01-14T21:53:36.000",
    "date_modified": "2026-01-14T21:53:37.000",
    "request_status": "Pending",
    "responsible_agency": "Department of Sanitation",
    "final_address": "504 Passera Ct",
    "address_councildis": "A",
    "status": "Assigned to Contractor",
    "contractor": "IV Waste",
    "rowid": "1252220",
    "final_x": "3670541.25876",
    "final_y": "540710.457803",
    "longitude": "-90.10236240695231",
    "latitude": "29.98109454587228",
    "geocoded_column": {
      "latitude": "29.98109454587228",
      "longitude": "-90.10236240695231"
    }
  },
  {
    "service_request": "2026-1252219",
    "request_type": "Trash/Recycling",
    "request_reason": "Request a Large Item Pick Up",
    "date_created": "2026-01-14T21:28:29.000",
    "date_modified": "2026-01-14T21:28:32.000",
    "request_status": "Pending",
    "responsible_agency": "Department of Sanitation",
    "final_address": "1014 N Robertson St",
    "address_councildis": "C",
    "status": "Assigned to Contractor",
    "contractor": "IV Waste",
    "rowid": "1252219",
    "final_x": "3680855.82203",
    "final_y": "535335.723014",
    "longitude": "-90.06997155825611",
    "latitude": "29.966007164606612",
    "geocoded_column": {
      "latitude": "29.966007164606612",
      "longitude": "-90.06997155825611"
    }
  },
  {
    "service_request": "2026-1252218",
    "request_type": "Trash/Recycling",
    "request_reason": "Return Recycling Cart",
    "date_created": "2026-01-14T20:59:06.000",
    "date_modified": "2026-01-14T20:59:07.000",
    "request_status": "Pending",
    "responsible_agency": "Department of Sanitation",
    "final_address": "922 Austerlitz St",
    "address_councildis": "B",
    "status": "Pending",
    "rowid": "1252218",
    "final_x": "3672798.8178",
    "final_y": "519166.737527",
    "longitude": "-90.09596680531865",
    "latitude": "29.921789553995563",
    "geocoded_column": {
      "latitude": "29.921789553995563",
      "longitude": "-90.09596680531865"
    }
  },
  {
    "service_request": "2026-1252217",
    "request_type": "Trash/Recycling",
    "request_reason": "Missed Trash Pick-Up",
    "date_created": "2026-01-14T20:57:51.000",
    "date_modified": "2026-01-14T20:57:52.000",
    "request_status": "Pending",
    "responsible_agency": "Department of Sanitation",
    "final_address": "7220 Camberley Dr",
    "address_councildis": "E",
    "status": "Assigned to Contractor",
    "contractor": "Waste Pro",
    "rowid": "1252217",
    "final_x": "3713079.49387",
    "final_y": "565054.625506",
    "longitude": "-89.96709214049548",
    "latitude": "30.04670638135721",
    "geocoded_column": {
      "latitude": "30.04670638135721",
      "longitude": "-89.96709214049548"
    }
  },
  {
    "service_request": "2026-1252216",
    "request_type": "Trash/Recycling",
    "request_reason": "Request a Large Item Pick Up",
    "date_created": "2026-01-14T20:43:34.000",
    "date_modified": "2026-01-14T20:43:36.000",
    "request_status": "Pending",
    "responsible_agency": "Department of Sanitation",
    "final_address": "5518 Royal St",
    "address_councildis": "E",
    "status": "Assigned to Contractor",
    "contractor": "Waste Pro",
    "rowid": "1252216",
    "final_x": "3697454.19728",
    "final_y": "532282.502147",
    "longitude": "-90.01766534910855",
    "latitude": "29.957098243862255",
    "geocoded_column": {
      "latitude": "29.957098243862255",
      "longitude": "-90.01766534910855"
    }
  },
  {
    "service_request": "2026-1252215",
    "request_type": "Trash/Recycling",
    "request_reason": "Replace Trash Cart",
    "date_created": "2026-01-14T20:27:17.000",
    "date_modified": "2026-01-14T20:27:19.000",
    "request_status": "Pending",
    "responsible_agency": "Department of Sanitation",
    "final_address": "1582 Maura Pl",
    "address_councildis": "C",
    "status": "Assigned to Contractor",
    "contractor": "Richards Disposal",
    "rowid": "1252215",
    "final_x": "3699299.71607",
    "final_y": "525094.149181",
    "longitude": "-90.01209953797773",
    "latitude": "29.937274401840494",
    "geocoded_column": {
      "latitude": "29.937274401840494",
      "longitude": "-90.01209953797773"
    }
  },
  {
    "service_request": "2026-1252214",
    "request_type": "Trash/Recycling",
    "request_reason": "Repair Recycling Cart",
    "date_created": "2026-01-14T20:25:20.000",
    "date_modified": "2026-01-14T20:25:24.000",
    "request_status": "Pending",
    "responsible_agency": "Department of Sanitation",
    "final_address": "121 Turnberry Dr",
    "address_councildis": "E",
    "status": "Pending",
    "rowid": "1252214",
    "final_x": "3719946.78143",
    "final_y": "563902.686625",
    "longitude": "-89.94543226177039",
    "latitude": "30.043312090096343",
    "geocoded_column": {
      "latitude": "30.043312090096343",
      "longitude": "-89.94543226177039"
    }
  },
  {
    "service_request": "2026-1252213",
    "request_type": "Streetlights",
    "request_reason": "Streetlight Outage/Malfunction",
    "date_created": "2026-01-14T20:11:49.000",
    "date_modified": "2026-01-14T20:11:50.000",
    "request_status": "Pending",
    "responsible_agency": "Department of Public Works",
    "final_address": "3015 Carondelet St",
    "address_councildis": "B",
    "status": "Pending",
    "rowid": "1252213",
    "final_x": "3674871.98971",
    "final_y": "522343.308602",
    "longitude": "-90.08931381443753",
    "latitude": "29.93046237769801",
    "geocoded_column": {
      "latitude": "29.93046237769801",
      "longitude": "-90.08931381443753"
    }
  },
  {
    "service_request": "2026-1252212",
    "request_type": "Trash/Recycling",
    "request_reason": "Request a Large Item Pick Up",
    "date_created": "2026-01-14T20:11:40.000",
    "date_modified": "2026-01-14T20:11:41.000",
    "request_status": "Pending",
    "responsible_agency": "Department of Sanitation",
    "final_address": "4519 Shalimar Dr",
    "address_councildis": "D",
    "status": "Assigned to Contractor",
    "contractor": "Waste Pro",
    "rowid": "1252212",
    "final_x": "3697355.65866",
    "final_y": "553047.744407",
    "longitude": "-90.0172233651743",
    "latitude": "30.014198198239253",
    "geocoded_column": {
      "latitude": "30.014198198239253",
      "longitude": "-90.0172233651743"
    }
  },
  {
    "service_request": "2026-1252211",
    "request_type": "Trash/Recycling",
    "request_reason": "Replace Recycling Cart",
    "date_created": "2026-01-14T19:44:03.000",
    "date_modified": "2026-01-14T19:44:04.000",
    "request_status": "Pending",
    "responsible_agency": "Department of Sanitation",
    "final_address": "4916 Chestnut St",
    "address_councildis": "B",
    "status": "Pending",
    "rowid": "1252211",
    "final_x": "3668854.76378",
    "final_y": "519238.244663",
    "longitude": "-90.10841412828637",
    "latitude": "29.922102698148866",
    "geocoded_column": {
      "latitude": "29.922102698148866",
      "longitude": "-90.10841412828637"
    }
  },
  {
    "service_request": "2026-1252210",
    "request_type": "Trash/Recycling",
    "request_reason": "Request a Large Item Pick Up",
    "date_created": "2026-01-14T19:41:29.000",
    "date_modified": "2026-01-14T19:41:32.000",
    "request_status": "Pending",
    "responsible_agency": "Department of Sanitation",
    "final_address": "3823 Cleveland Ave",
    "address_councildis": "A",
    "status": "Assigned to Contractor",
    "contractor": "IV Waste",
    "rowid": "1252210",
    "final_x": "3671679.53979",
    "final_y": "537415.542856",
    "longitude": "-90.09887931142859",
    "latitude": "29.972000974187385",
    "geocoded_column": {
      "latitude": "29.972000974187385",
      "longitude": "-90.09887931142859"
    }
  },
  {
    "service_request": "2026-1252209",
    "request_type": "Abandoned Vehicles",
    "request_reason": "Abandoned/Junk Vehicles",
    "date_created": "2026-01-14T19:37:53.000",
    "date_modified": "2026-01-14T19:37:54.000",
    "request_status": "Pending",
    "responsible_agency": "Department of Public Works",
    "final_address": "2110 Conti St",
    "address_councildis": "B",
    "status": "Pending",
    "rowid": "1252209",
    "final_x": "3677854.32878",
    "final_y": "534613.34727",
    "longitude": "-90.07947515833973",
    "latitude": "29.96411153085604",
    "geocoded_column": {
      "latitude": "29.96411153085604",
      "longitude": "-90.07947515833973"
    }
  },
  {
    "service_request": "2026-1252208",
    "request_type": "Streetlights",
    "request_reason": "Streetlight Outage/Malfunction",
    "date_created": "2026-01-14T19:37:29.000",
    "date_modified": "2026-01-14T19:37:31.000",
    "request_status": "Pending",
    "responsible_agency": "Department of Public Works",
    "final_address": "905 St Ferdinand St",
    "address_councildis": "C",
    "status": "Pending",
    "rowid": "1252208",
    "final_x": "3687560.1279",
    "final_y": "535584.291014",
    "longitude": "-90.04879079856713",
    "latitude": "29.966485684386438",
    "geocoded_column": {
      "latitude": "29.966485684386438",
      "longitude": "-90.04879079856713"
    }
  },
  {
    "service_request": "2026-1252207",
    "request_type": "Drainage",
    "request_reason": "Ditch and Culvert Maintenance",
    "date_created": "2026-01-14T18:43:40.000",
    "date_modified": "2026-01-14T18:43:42.000",
    "request_status": "Pending",
    "responsible_agency": "Department of Public Works",
    "final_address": "11137 Winchester Park Dr",
    "address_councildis": "E",
    "status": "Pending",
    "rowid": "1252207",
    "final_x": "3715060.88197",
    "final_y": "561412.072478",
    "longitude": "-89.96096786048174",
    "latitude": "30.03662572539122",
    "geocoded_column": {
      "latitude": "30.03662572539122",
      "longitude": "-89.96096786048174"
    }
  },
  {
    "service_request": "2026-1252206",
    "request_type": "Trash/Recycling",
    "request_reason": "Request a Large Item Pick Up",
    "date_created": "2026-01-14T18:15:51.000",
    "date_modified": "2026-01-14T18:15:53.000",
    "request_status": "Pending",
    "responsible_agency": "Department of Sanitation",
    "final_address": "3915 N Rocheblave St",
    "address_councildis": "D",
    "status": "Assigned to Contractor",
    "contractor": "IV Waste",
    "rowid": "1252206",
    "final_x": "3692852.12067",
    "final_y": "540287.793867",
    "longitude": "-90.03191011694295",
    "latitude": "29.97925445860382",
    "geocoded_column": {
      "latitude": "29.97925445860382",
      "longitude": "-90.03191011694295"
    }
  },
  {
    "service_request": "2026-1252205",
    "request_type": "Trash/Recycling",
    "request_reason": "Request a Large Item Pick Up",
    "date_created": "2026-01-14T18:12:35.000",
    "date_modified": "2026-01-14T18:12:37.000",
    "request_status": "Pending",
    "responsible_agency": "Department of Sanitation",
    "final_address": "2301 Napoleon Ave",
    "address_councildis": "B",
    "status": "Assigned to Contractor",
    "contractor": "IV Waste",
    "rowid": "1252205",
    "final_x": "3670685.14126",
    "final_y": "523408.568827",
    "longitude": "-90.10249496911689",
    "latitude": "29.93351582585998",
    "geocoded_column": {
      "latitude": "29.93351582585998",
      "longitude": "-90.10249496911689"
    }
  },
  {
    "service_request": "2026-1252204",
    "request_type": "Trash/Recycling",
    "request_reason": "Illegal Dumping",
    "date_created": "2026-01-14T18:01:21.000",
    "date_modified": "2026-01-14T18:01:22.000",
    "request_status": "Pending",
    "responsible_agency": "Department of Sanitation",
    "final_address": "1910 France St",
    "address_councildis": "D",
    "status": "Pending",
    "rowid": "1252204",
    "final_x": "3693121.58269",
    "final_y": "538280.737481",
    "longitude": "-90.03113109486094",
    "latitude": "29.973727352381232",
    "geocoded_column": {
      "latitude": "29.973727352381232",
      "longitude": "-90.03113109486094"
    }
  },
  {
    "service_request": "2026-1252203",
    "request_type": "Trash/Recycling",
    "request_reason": "Repair Recycling Cart",
    "date_created": "2026-01-14T17:59:20.000",
    "date_modified": "2026-01-14T17:59:22.000",
    "request_status": "Pending",
    "responsible_agency": "Department of Sanitation",
    "final_address": "5535 Chamberlain Dr",
    "address_councildis": "D",
    "status": "Pending",
    "rowid": "1252203",
    "final_x": "3679520.10709",
    "final_y": "552844.894166",
    "longitude": "-90.07358180518474",
    "latitude": "30.01419166151176",
    "geocoded_column": {
      "latitude": "30.01419166151176",
      "longitude": "-90.07358180518474"
    }
  },
  {
    "service_request": "2026-1252202",
    "request_type": "Alley Ways",
    "request_reason": "Alley Way Issues",
    "date_created": "2026-01-14T17:44:47.000",
    "date_modified": "2026-01-14T17:44:50.000",
    "request_status": "Pending",
    "responsible_agency": "Department of Public Works",
    "final_address": "13312 Granville St",
    "address_councildis": "E",
    "status": "Pending",
    "rowid": "1252202",
    "final_x": "3725232.65222",
    "final_y": "562006.080415",
    "longitude": "-89.92880040418825",
    "latitude": "30.03792010301529",
    "geocoded_column": {
      "latitude": "30.03792010301529",
      "longitude": "-89.92880040418825"
    }
  },
  {
    "service_request": "2026-1252201",
    "request_type": "General Services",
    "request_reason": "General Service Request",
    "date_created": "2026-01-14T17:26:18.000",
    "date_modified": "2026-01-14T17:26:20.000",
    "request_status": "Pending",
    "responsible_agency": "Orleans Parish Communication District",
    "final_address": "1323 S Derbigny St",
    "address_councildis": "B",
    "status": "Pending",
    "rowid": "1252201",
    "final_x": "3674920.98037",
    "final_y": "528685.855808",
    "longitude": "-90.08894171264667",
    "latitude": "29.947900842776853",
    "geocoded_column": {
      "latitude": "29.947900842776853",
      "longitude": "-90.08894171264667"
    }
  },
  {
    "service_request": "2026-1252200",
    "request_type": "Trash/Recycling",
    "request_reason": "Illegal Dumping",
    "date_created": "2026-01-14T17:19:53.000",
    "date_modified": "2026-01-14T17:19:54.000",
    "request_status": "Pending",
    "responsible_agency": "Department of Sanitation",
    "final_address": "1541 Clouet St",
    "address_councildis": "D",
    "status": "Pending",
    "rowid": "1252200",
    "final_x": "3689489.44278",
    "final_y": "537796.533192",
    "longitude": "-90.04261936995944",
    "latitude": "29.97250896115757",
    "geocoded_column": {
      "latitude": "29.97250896115757",
      "longitude": "-90.04261936995944"
    }
  },
  {
    "service_request": "2026-1252199",
    "request_type": "Trash/Recycling",
    "request_reason": "Illegal Dumping",
    "date_created": "2026-01-14T17:15:00.000",
    "date_modified": "2026-01-14T17:15:03.000",
    "request_status": "Pending",
    "responsible_agency": "Department of Sanitation",
    "final_address": "4025 Loyola Ave",
    "address_councildis": "B",
    "status": "Pending",
    "rowid": "1252199",
    "final_x": "3671906.70241",
    "final_y": "523170.336955",
    "longitude": "-90.09864666382238",
    "latitude": "29.93282462803971",
    "geocoded_column": {
      "latitude": "29.93282462803971",
      "longitude": "-90.09864666382238"
    }
  },
  {
    "service_request": "2026-1252198",
    "request_type": "Trash/Recycling",
    "request_reason": "Request a Large Item Pick Up",
    "date_created": "2026-01-14T17:03:34.000",
    "date_modified": "2026-01-14T17:03:36.000",
    "request_status": "Pending",
    "responsible_agency": "Department of Sanitation",
    "final_address": "3314 Dryades St",
    "address_councildis": "B",
    "status": "Assigned to Contractor",
    "contractor": "IV Waste",
    "rowid": "1252198",
    "final_x": "3674018.1483",
    "final_y": "522620.78425",
    "longitude": "-90.09199977670522",
    "latitude": "29.931250807799735",
    "geocoded_column": {
      "latitude": "29.931250807799735",
      "longitude": "-90.09199977670522"
    }
  },
  {
    "service_request": "2026-1252197",
    "request_type": "General Services",
    "request_reason": "General Service Request",
    "date_created": "2026-01-14T17:02:37.000",
    "date_modified": "2026-01-14T17:02:40.000",
    "request_status": "Pending",
    "responsible_agency": "Orleans Parish Communication District",
    "final_address": "1490 Athis St",
    "address_councildis": "D",
    "status": "Pending",
    "rowid": "1252197",
    "final_x": "3678211.27874",
    "final_y": "553679.752087",
    "longitude": "-90.07768814220746",
    "latitude": "30.01652672036657",
    "geocoded_column": {
      "latitude": "30.01652672036657",
      "longitude": "-90.07768814220746"
    }
  },
  {
    "service_request": "2026-1252196",
    "request_type": "Property Maintenance",
    "request_reason": "Property Maintenance",
    "date_created": "2026-01-14T16:52:34.000",
    "date_modified": "2026-01-14T16:52:36.000",
    "request_status": "Pending",
    "responsible_agency": "Department of Code Enforcement",
    "final_address": "2039 Deslonde St",
    "address_councildis": "E",
    "status": "Pending",
    "rowid": "1252196",
    "final_x": "3696452.74371",
    "final_y": "538049.094153",
    "longitude": "-90.0206190032088",
    "latitude": "29.972985901410624",
    "geocoded_column": {
      "latitude": "29.972985901410624",
      "longitude": "-90.0206190032088"
    }
  },
  {
    "service_request": "2026-1252195",
    "request_type": "Property Maintenance",
    "request_reason": "Property Maintenance",
    "date_created": "2026-01-14T16:51:50.000",
    "date_modified": "2026-01-14T16:51:52.000",
    "request_status": "Pending",
    "responsible_agency": "Department of Code Enforcement",
    "final_address": "2040 Deslonde St",
    "address_councildis": "E",
    "status": "Pending",
    "rowid": "1252195",
    "final_x": "3696387.33309",
    "final_y": "538128.921417",
    "longitude": "-90.02082269369505",
    "latitude": "29.97320745809112",
    "geocoded_column": {
      "latitude": "29.97320745809112",
      "longitude": "-90.02082269369505"
    }
  },
  {
    "service_request": "2026-1252194",
    "request_type": "Trash/Recycling",
    "request_reason": "Request a Large Item Pick Up",
    "date_created": "2026-01-14T16:50:18.000",
    "date_modified": "2026-01-14T16:50:19.000",
    "request_status": "Pending",
    "responsible_agency": "Department of Sanitation",
    "final_address": "2034 Deslonde St",
    "address_councildis": "E",
    "status": "Assigned to Contractor",
    "contractor": "Waste Pro",
    "rowid": "1252194",
    "final_x": "3696369.31165",
    "final_y": "538060.129161",
    "longitude": "-90.02088209721155",
    "latitude": "29.97301887165099",
    "geocoded_column": {
      "latitude": "29.97301887165099",
      "longitude": "-90.02088209721155"
    }
  },
  {
    "service_request": "2026-1252193",
    "request_type": "Trash/Recycling",
    "request_reason": "Request a Large Item Pick Up",
    "date_created": "2026-01-14T16:48:16.000",
    "date_modified": "2026-01-14T16:48:18.000",
    "request_status": "Pending",
    "responsible_agency": "Department of Sanitation",
    "final_address": "2715 Octavia St",
    "address_councildis": "A",
    "status": "Assigned to Contractor",
    "contractor": "IV Waste",
    "rowid": "1252193",
    "final_x": "3667958.14689",
    "final_y": "525478.882621",
    "longitude": "-90.11103424812778",
    "latitude": "29.939288788639846",
    "geocoded_column": {
      "latitude": "29.939288788639846",
      "longitude": "-90.11103424812778"
    }
  },
  {
    "service_request": "2026-1252192",
    "request_type": "Trash/Recycling",
    "request_reason": "Request a Large Item Pick Up",
    "date_created": "2026-01-14T16:47:06.000",
    "date_modified": "2026-01-14T16:47:08.000",
    "request_status": "Pending",
    "responsible_agency": "Department of Sanitation",
    "final_address": "7814 Star St",
    "address_councildis": "E",
    "status": "Assigned to Contractor",
    "contractor": "Waste Pro",
    "rowid": "1252192",
    "final_x": "3720642.63346",
    "final_y": "574431.241259",
    "longitude": "-89.9428293115408",
    "latitude": "30.072238030031734",
    "geocoded_column": {
      "latitude": "30.072238030031734",
      "longitude": "-89.9428293115408"
    }
  },
  {
    "service_request": "2026-1252191",
    "request_type": "Trash/Recycling",
    "request_reason": "Request a Large Item Pick Up",
    "date_created": "2026-01-14T16:41:24.000",
    "date_modified": "2026-01-14T16:41:26.000",
    "request_status": "Pending",
    "responsible_agency": "Department of Sanitation",
    "final_address": "329 Crystal St",
    "address_councildis": "D",
    "status": "Assigned to Contractor",
    "contractor": "IV Waste",
    "rowid": "1252191",
    "final_x": "3667641.46202",
    "final_y": "556174.278938",
    "longitude": "-90.1110002785698",
    "latitude": "30.02370003300121",
    "geocoded_column": {
      "latitude": "30.02370003300121",
      "longitude": "-90.1110002785698"
    }
  },
  {
    "service_request": "2026-1252190",
    "request_type": "Trash/Recycling",
    "request_reason": "Request a Large Item Pick Up",
    "date_created": "2026-01-14T16:35:10.000",
    "date_modified": "2026-01-14T16:35:12.000",
    "request_status": "Pending",
    "responsible_agency": "Department of Sanitation",
    "final_address": "155 Lakewood Estates Dr",
    "address_councildis": "C",
    "status": "Assigned to Contractor",
    "contractor": "Richards Disposal",
    "rowid": "1252190",
    "final_x": "3701175.07031",
    "final_y": "512410.703793",
    "longitude": "-90.00664258891598",
    "latitude": "29.902339682930975",
    "geocoded_column": {
      "latitude": "29.902339682930975",
      "longitude": "-90.00664258891598"
    }
  },
  {
    "service_request": "2026-1252189",
    "request_type": "Trash/Recycling",
    "request_reason": "Request a Large Item Pick Up",
    "date_created": "2026-01-14T16:34:48.000",
    "date_modified": "2026-01-14T16:34:51.000",
    "request_status": "Pending",
    "responsible_agency": "Department of Sanitation",
    "final_address": "1510 Pauger St",
    "address_councildis": "C",
    "status": "Assigned to Contractor",
    "contractor": "IV Waste",
    "rowid": "1252189",
    "final_x": "3683922.55522",
    "final_y": "535247.97607",
    "longitude": "-90.060289991615",
    "latitude": "29.965672561138778",
    "geocoded_column": {
      "latitude": "29.965672561138778",
      "longitude": "-90.060289991615"
    }
  },
  {
    "service_request": "2026-1252188",
    "request_type": "Trash/Recycling",
    "request_reason": "Request a Large Item Pick Up",
    "date_created": "2026-01-14T16:31:16.000",
    "date_modified": "2026-01-14T16:31:18.000",
    "request_status": "Pending",
    "responsible_agency": "Department of Sanitation",
    "final_address": "1834 Marigny St",
    "address_councildis": "D",
    "status": "Assigned to Contractor",
    "contractor": "IV Waste",
    "rowid": "1252188",
    "final_x": "3685155.64169",
    "final_y": "539201.37409",
    "longitude": "-90.05625681284168",
    "latitude": "29.976505301776147",
    "geocoded_column": {
      "latitude": "29.976505301776147",
      "longitude": "-90.05625681284168"
    }
  },
  {
    "service_request": "2026-1252187",
    "request_type": "Trash/Recycling",
    "request_reason": "Request a Large Item Pick Up",
    "date_created": "2026-01-14T16:28:14.000",
    "date_modified": "2026-01-14T16:28:15.000",
    "request_status": "Pending",
    "responsible_agency": "Department of Sanitation",
    "final_address": "5614 N Dorgenois St",
    "address_councildis": "E",
    "status": "Assigned to Contractor",
    "contractor": "Waste Pro",
    "rowid": "1252187",
    "final_x": "3699586.97104",
    "final_y": "538904.671498",
    "longitude": "-90.0106893797219",
    "latitude": "29.975239326176325",
    "geocoded_column": {
      "latitude": "29.975239326176325",
      "longitude": "-90.0106893797219"
    }
  },
  {
    "service_request": "2026-1252186",
    "request_type": "Abandoned Vehicles",
    "request_reason": "Abandoned/Junk Vehicles",
    "date_created": "2026-01-14T16:26:29.000",
    "date_modified": "2026-01-14T16:26:30.000",
    "request_status": "Pending",
    "responsible_agency": "Department of Public Works",
    "final_address": "4007 Magnolia St",
    "address_councildis": "B",
    "status": "Pending",
    "rowid": "1252186",
    "final_x": "3671617.66151",
    "final_y": "524887.450236",
    "longitude": "-90.09950077492587",
    "latitude": "29.937554695164096",
    "geocoded_column": {
      "latitude": "29.937554695164096",
      "longitude": "-90.09950077492587"
    }
  },
  {
    "service_request": "2026-1252185",
    "request_type": "Trash/Recycling",
    "request_reason": "Order Trash Cart",
    "date_created": "2026-01-14T16:23:40.000",
    "date_modified": "2026-01-14T16:23:41.000",
    "request_status": "Pending",
    "responsible_agency": "Department of Sanitation",
    "final_address": "2237 Allen St",
    "address_councildis": "D",
    "status": "Assigned to Contractor",
    "contractor": "IV Waste",
    "rowid": "1252185",
    "final_x": "3682461.92911",
    "final_y": "540482.111755",
    "longitude": "-90.06471958615366",
    "latitude": "29.98010915951112",
    "geocoded_column": {
      "latitude": "29.98010915951112",
      "longitude": "-90.06471958615366"
    }
  },
  {
    "service_request": "2026-1252184",
    "request_type": "Abandoned Vehicles",
    "request_reason": "Abandoned/Junk Vehicles",
    "date_created": "2026-01-14T16:21:33.000",
    "date_modified": "2026-01-14T16:22:27.000",
    "request_status": "Pending",
    "responsible_agency": "Department of Public Works",
    "final_address": "600 Thayer St",
    "address_councildis": "C",
    "status": "Pending",
    "rowid": "1252184",
    "final_x": "3689549.53667",
    "final_y": "529371.720961",
    "longitude": "-90.0427292685382",
    "latitude": "29.949341797905674",
    "geocoded_column": {
      "latitude": "29.949341797905674",
      "longitude": "-90.0427292685382"
    }
  },
  {
    "service_request": "2026-1252183",
    "request_type": "Trash/Recycling",
    "request_reason": "Replace Trash Cart",
    "date_created": "2026-01-14T16:20:01.000",
    "date_modified": "2026-01-14T16:20:17.000",
    "request_status": "Pending",
    "responsible_agency": "Department of Sanitation",
    "final_address": "8830 Lake Forest Blvd",
    "address_councildis": "E",
    "status": "Assigned to Contractor",
    "contractor": "Waste Pro",
    "rowid": "1252183",
    "final_x": "3707067.0611",
    "final_y": "558237.613084",
    "longitude": "-89.98634771495844",
    "latitude": "30.02815803998893",
    "geocoded_column": {
      "latitude": "30.02815803998893",
      "longitude": "-89.98634771495844"
    }
  },
  {
    "service_request": "2026-1252182",
    "request_type": "Trash/Recycling",
    "request_reason": "Request a Large Item Pick Up",
    "date_created": "2026-01-14T16:17:46.000",
    "date_modified": "2026-01-14T16:17:55.000",
    "request_status": "Pending",
    "responsible_agency": "Department of Sanitation",
    "final_address": "5161 Carlisle Ct",
    "address_councildis": "C",
    "status": "Assigned to Contractor",
    "contractor": "Richards Disposal",
    "rowid": "1252182",
    "final_x": "3703284.67281",
    "final_y": "516532.970421",
    "longitude": "-89.99983341694458",
    "latitude": "29.913607181312706",
    "geocoded_column": {
      "latitude": "29.913607181312706",
      "longitude": "-89.99983341694458"
    }
  },
  {
    "service_request": "2026-1252181",
    "request_type": "Property Maintenance",
    "request_reason": "Property Maintenance",
    "date_created": "2026-01-14T16:14:31.000",
    "date_modified": "2026-01-14T16:14:33.000",
    "request_status": "Pending",
    "responsible_agency": "Department of Code Enforcement",
    "final_address": "12345 N Interstate 10 Service Rd",
    "address_councildis": "E",
    "status": "Pending",
    "rowid": "1252181",
    "final_x": "3716593.31205",
    "final_y": "566491.532899",
    "longitude": "-89.95593215830806",
    "latitude": "30.050541620166843",
    "geocoded_column": {
      "latitude": "30.050541620166843",
      "longitude": "-89.95593215830806"
    }
  },
  {
    "service_request": "2026-1252180",
    "request_type": "Trash/Recycling",
    "request_reason": "Request a Large Item Pick Up",
    "date_created": "2026-01-14T16:13:49.000",
    "date_modified": "2026-01-14T16:13:50.000",
    "request_status": "Pending",
    "responsible_agency": "Department of Sanitation",
    "final_address": "14060 Intrepid St",
    "address_councildis": "E",
    "status": "Assigned to Contractor",
    "contractor": "Waste Pro",
    "rowid": "1252180",
    "final_x": "3726446.22137",
    "final_y": "570842.851111",
    "longitude": "-89.92462195130916",
    "latitude": "30.062176563020078",
    "geocoded_column": {
      "latitude": "30.062176563020078",
      "longitude": "-89.92462195130916"
    }
  },
  {
    "service_request": "2026-1252179",
    "request_type": "Streetlights",
    "request_reason": "Streetlight Outage/Malfunction",
    "date_created": "2026-01-14T16:13:04.000",
    "date_modified": "2026-01-14T16:14:48.000",
    "request_status": "Pending",
    "responsible_agency": "Department of Public Works",
    "final_address": "5711 Argonne Blvd",
    "address_councildis": "A",
    "status": "Pending",
    "rowid": "1252179",
    "final_x": "3670068.3833",
    "final_y": "545552.687184",
    "longitude": "-90.10369183978061",
    "latitude": "29.994422978401616",
    "geocoded_column": {
      "latitude": "29.994422978401616",
      "longitude": "-90.10369183978061"
    }
  },
  {
    "service_request": "2026-1252178",
    "request_type": "Trash/Recycling",
    "request_reason": "Request a Large Item Pick Up",
    "date_created": "2026-01-14T16:11:13.000",
    "date_modified": "2026-01-14T16:11:15.000",
    "request_status": "Pending",
    "responsible_agency": "Department of Sanitation",
    "final_address": "1911 Almonaster Ave",
    "address_councildis": "D",
    "status": "Assigned to Contractor",
    "contractor": "IV Waste",
    "rowid": "1252178",
    "final_x": "3687952.5919",
    "final_y": "539567.451018",
    "longitude": "-90.04741023990492",
    "latitude": "29.977425872978525",
    "geocoded_column": {
      "latitude": "29.977425872978525",
      "longitude": "-90.04741023990492"
    }
  },
  {
    "service_request": "2026-1252177",
    "request_type": "Trash/Recycling",
    "request_reason": "Request a Large Item Pick Up",
    "date_created": "2026-01-14T16:10:05.000",
    "date_modified": "2026-01-14T16:10:07.000",
    "request_status": "Pending",
    "responsible_agency": "Department of Sanitation",
    "final_address": "1501 Shirley Dr",
    "address_councildis": "C",
    "status": "Assigned to Contractor",
    "contractor": "Richards Disposal",
    "rowid": "1252177",
    "final_x": "3692978.92445",
    "final_y": "525395.751229",
    "longitude": "-90.03204378026496",
    "latitude": "29.938302595042455",
    "geocoded_column": {
      "latitude": "29.938302595042455",
      "longitude": "-90.03204378026496"
    }
  },
  {
    "service_request": "2026-1252176",
    "request_type": "Trash/Recycling",
    "request_reason": "Request a Large Item Pick Up",
    "date_created": "2026-01-14T16:09:38.000",
    "date_modified": "2026-01-14T16:09:39.000",
    "request_status": "Pending",
    "responsible_agency": "Department of Sanitation",
    "final_address": "6631 Wales St",
    "address_councildis": "E",
    "status": "Assigned to Contractor",
    "contractor": "Waste Pro",
    "rowid": "1252176",
    "final_x": "3697415.24637",
    "final_y": "560364.121246",
    "longitude": "-90.01676949706949",
    "latitude": "30.03431356468654",
    "geocoded_column": {
      "latitude": "30.03431356468654",
      "longitude": "-90.01676949706949"
    }
  },
  {
    "service_request": "2026-1252175",
    "request_type": "Streetlights",
    "request_reason": "Streetlight Outage/Malfunction",
    "date_created": "2026-01-14T16:07:58.000",
    "date_modified": "2026-01-14T16:08:01.000",
    "request_status": "Pending",
    "responsible_agency": "Department of Public Works",
    "final_address": "10101 Deerfield Dr",
    "address_councildis": "E",
    "status": "Pending",
    "rowid": "1252175",
    "final_x": "3709554.35185",
    "final_y": "563314.76784",
    "longitude": "-89.97829837395467",
    "latitude": "30.04203757071828",
    "geocoded_column": {
      "latitude": "30.04203757071828",
      "longitude": "-89.97829837395467"
    }
  },
  {
    "service_request": "2026-1252174",
    "request_type": "Trash/Recycling",
    "request_reason": "Return Trash Cart",
    "date_created": "2026-01-14T16:03:42.000",
    "date_modified": "2026-01-14T16:03:44.000",
    "request_status": "Pending",
    "responsible_agency": "Department of Sanitation",
    "final_address": "1614 State St",
    "address_councildis": "A",
    "status": "Assigned to Contractor",
    "contractor": "IV Waste",
    "rowid": "1252174",
    "final_x": "3665762.42842",
    "final_y": "522719.192634",
    "longitude": "-90.1180588450045",
    "latitude": "29.931764741786097",
    "geocoded_column": {
      "latitude": "29.931764741786097",
      "longitude": "-90.1180588450045"
    }
  },
  {
    "service_request": "2026-1252173",
    "request_type": "Trash/Recycling",
    "request_reason": "Request a Large Item Pick Up",
    "date_created": "2026-01-14T16:03:25.000",
    "date_modified": "2026-01-14T16:03:27.000",
    "request_status": "Pending",
    "responsible_agency": "Department of Sanitation",
    "final_address": "6025 Chartres St",
    "address_councildis": "E",
    "status": "Assigned to Contractor",
    "contractor": "Waste Pro",
    "rowid": "1252173",
    "final_x": "3698646.99178",
    "final_y": "531644.308739",
    "longitude": "-90.01392210056378",
    "latitude": "29.95530572522395",
    "geocoded_column": {
      "latitude": "29.95530572522395",
      "longitude": "-90.01392210056378"
    }
  },
  {
    "service_request": "2026-1252172",
    "request_type": "Abandoned Vehicles",
    "request_reason": "Abandoned/Junk Vehicles",
    "date_created": "2026-01-14T15:59:21.000",
    "date_modified": "2026-01-14T15:59:23.000",
    "request_status": "Pending",
    "responsible_agency": "Department of Public Works",
    "final_address": "3122 Dauphine St",
    "address_councildis": "C",
    "status": "Pending",
    "rowid": "1252172",
    "final_x": "3688899.49967",
    "final_y": "534769.838726",
    "longitude": "-90.0445900195391",
    "latitude": "29.964204870879776",
    "geocoded_column": {
      "latitude": "29.964204870879776",
      "longitude": "-90.0445900195391"
    }
  },
  {
    "service_request": "2026-1252171",
    "request_type": "Street and Traffic Signs",
    "request_reason": "Street Name Sign Damaged or Missing",
    "date_created": "2026-01-14T15:58:49.000",
    "date_modified": "2026-01-14T15:58:51.000",
    "request_status": "Pending",
    "responsible_agency": "Department of Public Works",
    "final_address": "7001 W Renaissance Ct",
    "address_councildis": "E",
    "status": "Pending",
    "rowid": "1252171",
    "final_x": "3717226.01048",
    "final_y": "567115.089444",
    "longitude": "-89.95390871808394",
    "latitude": "30.052235216786286",
    "geocoded_column": {
      "latitude": "30.052235216786286",
      "longitude": "-89.95390871808394"
    }
  },
  {
    "service_request": "2026-1252170",
    "request_type": "Streetlights",
    "request_reason": "Streetlight Outage/Malfunction",
    "date_created": "2026-01-14T15:57:42.000",
    "date_modified": "2026-01-14T15:57:43.000",
    "request_status": "Pending",
    "responsible_agency": "Department of Public Works",
    "final_address": "6124 Providence Pl",
    "address_councildis": "D",
    "status": "Pending",
    "rowid": "1252170",
    "final_x": "3688328.3071",
    "final_y": "556008.284313",
    "longitude": "-90.04564007041843",
    "latitude": "30.02262060033185",
    "geocoded_column": {
      "latitude": "30.02262060033185",
      "longitude": "-90.04564007041843"
    }
  },
  {
    "service_request": "2026-1252169",
    "request_type": "Trash/Recycling",
    "request_reason": "Request a Large Item Pick Up",
    "date_created": "2026-01-14T15:55:47.000",
    "date_modified": "2026-01-14T15:55:49.000",
    "request_status": "Pending",
    "responsible_agency": "Department of Sanitation",
    "final_address": "6600 Peony St",
    "address_councildis": "C",
    "status": "Assigned to Contractor",
    "contractor": "Richards Disposal",
    "rowid": "1252169",
    "final_x": "3708071.22411",
    "final_y": "516465.260981",
    "longitude": "-89.98472820484612",
    "latitude": "29.9132669666957",
    "geocoded_column": {
      "latitude": "29.9132669666957",
      "longitude": "-89.98472820484612"
    }
  },
  {
    "service_request": "2026-1252168",
    "request_type": "Trash/Recycling",
    "request_reason": "Illegal Dumping",
    "date_created": "2026-01-14T15:52:54.000",
    "date_modified": "2026-01-14T15:52:55.000",
    "request_status": "Pending",
    "responsible_agency": "Department of Sanitation",
    "final_address": "2313 Franklin Ave",
    "address_councildis": "D",
    "status": "Pending",
    "rowid": "1252168",
    "final_x": "3687638.2255",
    "final_y": "541058.954828",
    "longitude": "-90.04835028449243",
    "latitude": "29.981536677907215",
    "geocoded_column": {
      "latitude": "29.981536677907215",
      "longitude": "-90.04835028449243"
    }
  },
  {
    "service_request": "2026-1252167",
    "request_type": "Trash/Recycling",
    "request_reason": "Order Trash Cart",
    "date_created": "2026-01-14T15:50:37.000",
    "date_modified": "2026-01-14T15:50:39.000",
    "request_status": "Pending",
    "responsible_agency": "Department of Sanitation",
    "final_address": "27 Yellowstone Dr",
    "address_councildis": "C",
    "status": "Assigned to Contractor",
    "contractor": "Richards Disposal",
    "rowid": "1252167",
    "final_x": "3700064.0874",
    "final_y": "517663.548534",
    "longitude": "-90.0099573199119",
    "latitude": "29.916818552329676",
    "geocoded_column": {
      "latitude": "29.916818552329676",
      "longitude": "-90.0099573199119"
    }
  },
  {
    "service_request": "2026-1252166",
    "request_type": "Trash/Recycling",
    "request_reason": "Illegal Dumping",
    "date_created": "2026-01-14T15:48:32.000",
    "date_modified": "2026-01-14T15:48:34.000",
    "request_status": "Pending",
    "responsible_agency": "Department of Sanitation",
    "final_address": "3016 N Johnson St",
    "address_councildis": "D",
    "status": "Pending",
    "rowid": "1252166",
    "final_x": "3689415.84681",
    "final_y": "539405.18433",
    "longitude": "-90.04279457880779",
    "latitude": "29.976934462739326",
    "geocoded_column": {
      "latitude": "29.976934462739326",
      "longitude": "-90.04279457880779"
    }
  },
  {
    "service_request": "2026-1252165",
    "request_type": "Drainage",
    "request_reason": "Catch Basin Not Draining",
    "date_created": "2026-01-14T15:47:28.000",
    "date_modified": "2026-01-14T15:55:18.000",
    "request_status": "Pending",
    "responsible_agency": "Sewerage & Water Board",
    "final_address": "7300 Edward St",
    "address_councildis": "E",
    "status": "Pending",
    "rowid": "1252165",
    "final_x": "3701332.91652",
    "final_y": "559890.600221",
    "longitude": "-90.00440656761589",
    "latitude": "30.03288721289897",
    "geocoded_column": {
      "latitude": "30.03288721289897",
      "longitude": "-90.00440656761589"
    }
  },
  {
    "service_request": "2026-1252164",
    "request_type": "Trash/Recycling",
    "request_reason": "Repair Trash Cart",
    "date_created": "2026-01-14T15:45:59.000",
    "date_modified": "2026-01-14T15:46:01.000",
    "request_status": "Pending",
    "responsible_agency": "Department of Sanitation",
    "final_address": "5933 Camp St",
    "address_councildis": "A",
    "status": "Assigned to Contractor",
    "contractor": "IV Waste",
    "rowid": "1252164",
    "final_x": "3665037.81581",
    "final_y": "519507.049463",
    "longitude": "-90.12045371311692",
    "latitude": "29.922953472345682",
    "geocoded_column": {
      "latitude": "29.922953472345682",
      "longitude": "-90.12045371311692"
    }
  },
  {
    "service_request": "2026-1252163",
    "request_type": "Trash/Recycling",
    "request_reason": "Illegal Dumping",
    "date_created": "2026-01-14T15:44:39.000",
    "date_modified": "2026-01-14T15:44:40.000",
    "request_status": "Pending",
    "responsible_agency": "Department of Sanitation",
    "final_address": "1809 Montegut St",
    "address_councildis": "D",
    "status": "Pending",
    "rowid": "1252163",
    "final_x": "3689150.96995",
    "final_y": "538842.902857",
    "longitude": "-90.04365112964783",
    "latitude": "29.975396587803036",
    "geocoded_column": {
      "latitude": "29.975396587803036",
      "longitude": "-90.04365112964783"
    }
  },
  {
    "service_request": "2026-1252162",
    "request_type": "Trash/Recycling",
    "request_reason": "Request a Large Item Pick Up",
    "date_created": "2026-01-14T15:43:13.000",
    "date_modified": "2026-01-14T15:43:15.000",
    "request_status": "Pending",
    "responsible_agency": "Department of Sanitation",
    "final_address": "920 Jena St",
    "address_councildis": "B",
    "status": "Assigned to Contractor",
    "contractor": "IV Waste",
    "rowid": "1252162",
    "final_x": "3670575.67124",
    "final_y": "518927.914359",
    "longitude": "-90.10299244412109",
    "latitude": "29.92119869110157",
    "geocoded_column": {
      "latitude": "29.92119869110157",
      "longitude": "-90.10299244412109"
    }
  },
  {
    "service_request": "2026-1252161",
    "request_type": "Trash/Recycling",
    "request_reason": "Request a Large Item Pick Up",
    "date_created": "2026-01-14T15:42:44.000",
    "date_modified": "2026-01-14T15:42:46.000",
    "request_status": "Pending",
    "responsible_agency": "Department of Sanitation",
    "final_address": "6121 Dorothea St",
    "address_councildis": "D",
    "status": "Assigned to Contractor",
    "contractor": "Waste Pro",
    "rowid": "1252161",
    "final_x": "3696138.69917",
    "final_y": "557498.598811",
    "longitude": "-90.02090725772818",
    "latitude": "30.02647474268597",
    "geocoded_column": {
      "latitude": "30.02647474268597",
      "longitude": "-90.02090725772818"
    }
  },
  {
    "service_request": "2026-1252160",
    "request_type": "Trash/Recycling",
    "request_reason": "Order Recycling Cart",
    "date_created": "2026-01-14T15:40:42.000",
    "date_modified": "2026-01-14T15:40:45.000",
    "request_status": "Pending",
    "responsible_agency": "Department of Sanitation",
    "final_address": "6560 General Diaz St",
    "address_councildis": "A",
    "status": "Pending",
    "rowid": "1252160",
    "final_x": "3669808.07886",
    "final_y": "551069.523733",
    "longitude": "-90.1043271919292",
    "latitude": "30.009600036420164",
    "geocoded_column": {
      "latitude": "30.009600036420164",
      "longitude": "-90.1043271919292"
    }
  },
  {
    "service_request": "2026-1252159",
    "request_type": "Trash/Recycling",
    "request_reason": "Replace Trash Cart",
    "date_created": "2026-01-14T15:39:12.000",
    "date_modified": "2026-01-14T15:39:13.000",
    "request_status": "Pending",
    "responsible_agency": "Department of Sanitation",
    "final_address": "6560 General Diaz St",
    "address_councildis": "A",
    "status": "Assigned to Contractor",
    "contractor": "IV Waste",
    "rowid": "1252159",
    "final_x": "3669808.07886",
    "final_y": "551069.523733",
    "longitude": "-90.1043271919292",
    "latitude": "30.009600036420164",
    "geocoded_column": {
      "latitude": "30.009600036420164",
      "longitude": "-90.1043271919292"
    }
  },
  {
    "service_request": "2026-1252158",
    "request_type": "Trash/Recycling",
    "request_reason": "Missed Trash Pick-Up",
    "date_created": "2026-01-14T15:36:35.000",
    "date_modified": "2026-01-14T15:37:13.000",
    "request_status": "Pending",
    "responsible_agency": "Department of Sanitation",
    "final_address": "10924 S Hardy St",
    "address_councildis": "E",
    "status": "Assigned to Contractor",
    "contractor": "Waste Pro",
    "rowid": "1252158",
    "final_x": "3712984.70136",
    "final_y": "561533.897887",
    "longitude": "-89.96752436621772",
    "latitude": "30.03702890582446",
    "geocoded_column": {
      "latitude": "30.03702890582446",
      "longitude": "-89.96752436621772"
    }
  },
  {
    "service_request": "2026-1252157",
    "request_type": "Trash/Recycling",
    "request_reason": "Request a Large Item Pick Up",
    "date_created": "2026-01-14T15:36:13.000",
    "date_modified": "2026-01-14T15:36:16.000",
    "request_status": "Pending",
    "responsible_agency": "Department of Sanitation",
    "final_address": "2244 Killdeer St",
    "address_councildis": "D",
    "status": "Assigned to Contractor",
    "contractor": "IV Waste",
    "rowid": "1252157",
    "final_x": "3684063.82626",
    "final_y": "557452.551451",
    "longitude": "-90.05906405841488",
    "latitude": "30.026722885274488",
    "geocoded_column": {
      "latitude": "30.026722885274488",
      "longitude": "-90.05906405841488"
    }
  },
  {
    "service_request": "2026-1252156",
    "request_type": "Roads and Streets",
    "request_reason": "Sidewalk Damaged or Missing",
    "date_created": "2026-01-14T15:30:45.000",
    "date_modified": "2026-01-14T15:50:37.000",
    "request_status": "Pending",
    "responsible_agency": "Department of Public Works",
    "final_address": "7903 Jeannette St",
    "address_councildis": "A",
    "status": "Pending",
    "rowid": "1252156",
    "final_x": "3663235.31104",
    "final_y": "528700.043328",
    "longitude": "-90.12583774368527",
    "latitude": "29.948283633554407",
    "geocoded_column": {
      "latitude": "29.948283633554407",
      "longitude": "-90.12583774368527"
    }
  },
  {
    "service_request": "2026-1252155",
    "request_type": "Trash/Recycling",
    "request_reason": "Repair Trash Cart",
    "date_created": "2026-01-14T15:29:40.000",
    "date_modified": "2026-01-14T15:29:42.000",
    "request_status": "Pending",
    "responsible_agency": "Department of Sanitation",
    "final_address": "2112 Feliciana St",
    "address_councildis": "D",
    "status": "Assigned to Contractor",
    "contractor": "IV Waste",
    "rowid": "1252155",
    "final_x": "3689687.41199",
    "final_y": "539981.344587",
    "longitude": "-90.04191638342442",
    "latitude": "29.978510286218945",
    "geocoded_column": {
      "latitude": "29.978510286218945",
      "longitude": "-90.04191638342442"
    }
  },
  {
    "service_request": "2026-1252154",
    "request_type": "Roads and Streets",
    "request_reason": "Debris in Driving Lanes",
    "date_created": "2026-01-14T15:28:43.000",
    "date_modified": "2026-01-14T15:28:46.000",
    "request_status": "Pending",
    "responsible_agency": "Department of Public Works",
    "final_address": "3339 Feliciana St",
    "address_councildis": "D",
    "status": "Pending",
    "rowid": "1252154",
    "final_x": "3691027.30108",
    "final_y": "545056.725839",
    "longitude": "-90.03750325361358",
    "latitude": "29.992424171488153",
    "geocoded_column": {
      "latitude": "29.992424171488153",
      "longitude": "-90.03750325361358"
    }
  },
  {
    "service_request": "2026-1252152",
    "request_type": "Trash/Recycling",
    "request_reason": "Request a Large Item Pick Up",
    "date_created": "2026-01-14T15:26:18.000",
    "date_modified": "2026-01-14T15:26:20.000",
    "request_status": "Pending",
    "responsible_agency": "Department of Sanitation",
    "final_address": "4243 Dale St",
    "address_councildis": "E",
    "status": "Assigned to Contractor",
    "contractor": "Waste Pro",
    "rowid": "1252152",
    "final_x": "3699736.24567",
    "final_y": "552363.635286",
    "longitude": "-90.00972691987916",
    "latitude": "30.012241757807733",
    "geocoded_column": {
      "latitude": "30.012241757807733",
      "longitude": "-90.00972691987916"
    }
  },
  {
    "service_request": "2026-1252151",
    "request_type": "Streetlights",
    "request_reason": "Streetlight Outage/Malfunction",
    "date_created": "2026-01-14T15:25:38.000",
    "date_modified": "2026-01-14T15:25:40.000",
    "request_status": "Pending",
    "responsible_agency": "Department of Public Works",
    "final_address": "6564 Memphis St",
    "address_councildis": "A",
    "status": "Pending",
    "rowid": "1252151",
    "final_x": "3669452.39713",
    "final_y": "551150.233877",
    "longitude": "-90.10544818676222",
    "latitude": "30.00983244599412",
    "geocoded_column": {
      "latitude": "30.00983244599412",
      "longitude": "-90.10544818676222"
    }
  },
  {
    "service_request": "2026-1252150",
    "request_type": "Trash/Recycling",
    "request_reason": "Return Trash Cart",
    "date_created": "2026-01-14T15:25:12.000",
    "date_modified": "2026-01-14T15:25:13.000",
    "request_status": "Pending",
    "responsible_agency": "Department of Sanitation",
    "final_address": "5107 Basinview Dr",
    "address_councildis": "E",
    "status": "Assigned to Contractor",
    "contractor": "Waste Pro",
    "rowid": "1252150",
    "final_x": "3698624.57738",
    "final_y": "556156.783706",
    "longitude": "-90.01310106269415",
    "latitude": "30.02270674002605",
    "geocoded_column": {
      "latitude": "30.02270674002605",
      "longitude": "-90.01310106269415"
    }
  },
  {
    "service_request": "2026-1252149",
    "request_type": "Trash/Recycling",
    "request_reason": "Order Recycling Cart",
    "date_created": "2026-01-14T15:24:50.000",
    "date_modified": "2026-01-14T15:24:52.000",
    "request_status": "Pending",
    "responsible_agency": "Department of Sanitation",
    "final_address": "3200 Banks St",
    "address_councildis": "B",
    "status": "Pending",
    "rowid": "1252149",
    "final_x": "3673077.26459",
    "final_y": "535245.009734",
    "longitude": "-90.09453917147644",
    "latitude": "29.965991261455468",
    "geocoded_column": {
      "latitude": "29.965991261455468",
      "longitude": "-90.09453917147644"
    }
  },
  {
    "service_request": "2026-1252148",
    "request_type": "Trash/Recycling",
    "request_reason": "Order Trash Cart",
    "date_created": "2026-01-14T15:23:48.000",
    "date_modified": "2026-01-14T15:23:49.000",
    "request_status": "Pending",
    "responsible_agency": "Department of Sanitation",
    "final_address": "3200 Banks St",
    "address_councildis": "B",
    "status": "Assigned to Contractor",
    "contractor": "IV Waste",
    "rowid": "1252148",
    "final_x": "3673077.26459",
    "final_y": "535245.009734",
    "longitude": "-90.09453917147644",
    "latitude": "29.965991261455468",
    "geocoded_column": {
      "latitude": "29.965991261455468",
      "longitude": "-90.09453917147644"
    }
  },
  {
    "service_request": "2026-1252147",
    "request_type": "Streetlights",
    "request_reason": "Streetlight Outage/Malfunction",
    "date_created": "2026-01-14T15:21:57.000",
    "date_modified": "2026-01-14T15:22:01.000",
    "request_status": "Pending",
    "responsible_agency": "Department of Public Works",
    "final_address": "3700 Erato St",
    "address_councildis": "B",
    "status": "Pending",
    "rowid": "1252147",
    "final_x": "3672949.4628",
    "final_y": "530141.648065",
    "longitude": "-90.09511692226253",
    "latitude": "29.951962516638098",
    "geocoded_column": {
      "latitude": "29.951962516638098",
      "longitude": "-90.09511692226253"
    }
  },
  {
    "service_request": "2026-1252146",
    "request_type": "Trash/Recycling",
    "request_reason": "Missed Trash Pick-Up",
    "date_created": "2026-01-14T15:15:05.000",
    "date_modified": "2026-01-14T15:15:07.000",
    "request_status": "Pending",
    "responsible_agency": "Department of Sanitation",
    "final_address": "4666 Wright Rd",
    "address_councildis": "E",
    "status": "Assigned to Contractor",
    "contractor": "Waste Pro",
    "rowid": "1252146",
    "final_x": "3716642.70572",
    "final_y": "556596.133658",
    "longitude": "-89.95615194640757",
    "latitude": "30.023331635882133",
    "geocoded_column": {
      "latitude": "30.023331635882133",
      "longitude": "-89.95615194640757"
    }
  },
  {
    "service_request": "2026-1252145",
    "request_type": "Parks & Parkways",
    "request_reason": "Tree Stump (removal, grind)",
    "date_created": "2026-01-14T15:14:42.000",
    "date_modified": "2026-01-14T15:15:34.000",
    "request_status": "Pending",
    "responsible_agency": "Department of Parks & Parkway",
    "final_address": "1232 Elysian Fields Ave",
    "address_councildis": "C",
    "status": "Pending",
    "rowid": "1252145",
    "final_x": "3684820.78505",
    "final_y": "536924.85428",
    "longitude": "-90.0573944532087",
    "latitude": "29.97025592418966",
    "geocoded_column": {
      "latitude": "29.97025592418966",
      "longitude": "-90.0573944532087"
    }
  },
  {
    "service_request": "2026-1252144",
    "request_type": "Trash/Recycling",
    "request_reason": "Request a Large Item Pick Up",
    "date_created": "2026-01-14T15:14:11.000",
    "date_modified": "2026-01-14T15:14:13.000",
    "request_status": "Pending",
    "responsible_agency": "Department of Sanitation",
    "final_address": "5630 Royal St",
    "address_councildis": "E",
    "status": "Assigned to Contractor",
    "contractor": "Waste Pro",
    "rowid": "1252144",
    "final_x": "3697897.46736",
    "final_y": "532160.025347",
    "longitude": "-90.01627009278215",
    "latitude": "29.95674747365214",
    "geocoded_column": {
      "latitude": "29.95674747365214",
      "longitude": "-90.01627009278215"
    }
  },
  {
    "service_request": "2026-1252143",
    "request_type": "Abandoned Vehicles",
    "request_reason": "Abandoned/Junk Vehicles",
    "date_created": "2026-01-14T15:13:25.000",
    "date_modified": "2026-01-14T15:13:27.000",
    "request_status": "Pending",
    "responsible_agency": "Department of Public Works",
    "final_address": "1100 BLK Ninth St",
    "address_councildis": "B",
    "status": "Pending",
    "rowid": "1252143",
    "final_x": "3675758.6222",
    "final_y": "520194.506315",
    "longitude": "-90.08658865552702",
    "latitude": "29.924527369245766",
    "geocoded_column": {
      "latitude": "29.924527369245766",
      "longitude": "-90.08658865552702"
    }
  },
  {
    "service_request": "2026-1252142",
    "request_type": "Trash/Recycling",
    "request_reason": "Request a Large Item Pick Up",
    "date_created": "2026-01-14T15:10:50.000",
    "date_modified": "2026-01-14T15:10:52.000",
    "request_status": "Pending",
    "responsible_agency": "Department of Sanitation",
    "final_address": "5037 St Ferdinand Dr",
    "address_councildis": "D",
    "status": "Assigned to Contractor",
    "contractor": "IV Waste",
    "rowid": "1252142",
    "final_x": "3689244.7919",
    "final_y": "551606.873365",
    "longitude": "-90.04290082616272",
    "latitude": "30.010489999877326",
    "geocoded_column": {
      "latitude": "30.010489999877326",
      "longitude": "-90.04290082616272"
    }
  },
  {
    "service_request": "2026-1252141",
    "request_type": "Trash/Recycling",
    "request_reason": "Repair Recycling Cart",
    "date_created": "2026-01-14T15:09:50.000",
    "date_modified": "2026-01-14T15:09:51.000",
    "request_status": "Pending",
    "responsible_agency": "Department of Sanitation",
    "final_address": "2713 Robert St",
    "address_councildis": "B",
    "status": "Pending",
    "rowid": "1252141",
    "final_x": "3668920.99495",
    "final_y": "525422.798077",
    "longitude": "-90.10799629851924",
    "latitude": "29.93910629734451",
    "geocoded_column": {
      "latitude": "29.93910629734451",
      "longitude": "-90.10799629851924"
    }
  },
  {
    "service_request": "2026-1252140",
    "request_type": "Trash/Recycling",
    "request_reason": "Request a Large Item Pick Up",
    "date_created": "2026-01-14T15:08:25.000",
    "date_modified": "2026-01-14T15:08:27.000",
    "request_status": "Pending",
    "responsible_agency": "Department of Sanitation",
    "final_address": "7621 Symmes Ave",
    "address_councildis": "E",
    "status": "Assigned to Contractor",
    "contractor": "Waste Pro",
    "rowid": "1252140",
    "final_x": "3707866.3203",
    "final_y": "564670.988194",
    "longitude": "-89.98358265892485",
    "latitude": "30.045821415607065",
    "geocoded_column": {
      "latitude": "30.045821415607065",
      "longitude": "-89.98358265892485"
    }
  },
  {
    "service_request": "2026-1252139",
    "request_type": "Trash/Recycling",
    "request_reason": "Request a Large Item Pick Up",
    "date_created": "2026-01-14T15:07:05.000",
    "date_modified": "2026-01-14T15:07:08.000",
    "request_status": "Pending",
    "responsible_agency": "Department of Sanitation",
    "final_address": "4114 Baronne St",
    "address_councildis": "B",
    "status": "Assigned to Contractor",
    "contractor": "IV Waste",
    "rowid": "1252139",
    "final_x": "3671739.22651",
    "final_y": "521658.522425",
    "longitude": "-90.09922677681637",
    "latitude": "29.928672585615775",
    "geocoded_column": {
      "latitude": "29.928672585615775",
      "longitude": "-90.09922677681637"
    }
  },
  {
    "service_request": "2026-1252138",
    "request_type": "Trash/Recycling",
    "request_reason": "Repair Recycling Cart",
    "date_created": "2026-01-14T15:05:53.000",
    "date_modified": "2026-01-14T15:05:55.000",
    "request_status": "Pending",
    "responsible_agency": "Department of Sanitation",
    "final_address": "818 Austerlitz St",
    "address_councildis": "B",
    "status": "Pending",
    "rowid": "1252138",
    "final_x": "3672850.76609",
    "final_y": "518766.783287",
    "longitude": "-90.0958164613445",
    "latitude": "29.920688264928444",
    "geocoded_column": {
      "latitude": "29.920688264928444",
      "longitude": "-90.0958164613445"
    }
  },
  {
    "service_request": "2026-1252137",
    "request_type": "Streetlights",
    "request_reason": "Streetlight Outage/Malfunction",
    "date_created": "2026-01-14T15:03:37.000",
    "date_modified": "2026-01-14T15:03:39.000",
    "request_status": "Pending",
    "responsible_agency": "Department of Public Works",
    "final_address": "613 N Galvez St",
    "address_councildis": "D",
    "status": "Pending",
    "rowid": "1252137",
    "final_x": "3678133.47803",
    "final_y": "535506.249798",
    "longitude": "-90.07856275148039",
    "latitude": "29.966558306957822",
    "geocoded_column": {
      "latitude": "29.966558306957822",
      "longitude": "-90.07856275148039"
    }
  },
  {
    "service_request": "2026-1252136",
    "request_type": "Trash/Recycling",
    "request_reason": "Order Recycling Cart",
    "date_created": "2026-01-14T15:02:34.000",
    "date_modified": "2026-01-14T15:03:56.000",
    "request_status": "Pending",
    "responsible_agency": "Department of Sanitation",
    "final_address": "4321 Alba Rd",
    "address_councildis": "E",
    "status": "Pending",
    "rowid": "1252136",
    "final_x": "3761681.03446",
    "final_y": "572579.119401",
    "longitude": "-89.81317428077861",
    "latitude": "30.065712344265126",
    "geocoded_column": {
      "latitude": "30.065712344265126",
      "longitude": "-89.81317428077861"
    }
  },
  {
    "service_request": "2026-1252135",
    "request_type": "Trash/Recycling",
    "request_reason": "Request a Large Item Pick Up",
    "date_created": "2026-01-14T15:00:22.000",
    "date_modified": "2026-01-14T15:00:23.000",
    "request_status": "Pending",
    "responsible_agency": "Department of Sanitation",
    "final_address": "2616 Joseph St",
    "address_councildis": "A",
    "status": "Assigned to Contractor",
    "contractor": "IV Waste",
    "rowid": "1252135",
    "final_x": "3667572.31757",
    "final_y": "525579.725437",
    "longitude": "-90.11224897177817",
    "latitude": "29.93957738526633",
    "geocoded_column": {
      "latitude": "29.93957738526633",
      "longitude": "-90.11224897177817"
    }
  },
  {
    "service_request": "2026-1252133",
    "request_type": "Trash/Recycling",
    "request_reason": "Order Trash Cart",
    "date_created": "2026-01-14T14:59:44.000",
    "date_modified": "2026-01-14T15:01:25.000",
    "request_status": "Pending",
    "responsible_agency": "Department of Sanitation",
    "final_address": "4321 Alba Rd",
    "address_councildis": "E",
    "status": "Assigned to Contractor",
    "contractor": "Waste Pro",
    "rowid": "1252133",
    "final_x": "3761681.03446",
    "final_y": "572579.119401",
    "longitude": "-89.81317428077861",
    "latitude": "30.065712344265126",
    "geocoded_column": {
      "latitude": "30.065712344265126",
      "longitude": "-89.81317428077861"
    }
  },
  {
    "service_request": "2026-1252134",
    "request_type": "Trash/Recycling",
    "request_reason": "Request a Large Item Pick Up",
    "date_created": "2026-01-14T14:59:44.000",
    "date_modified": "2026-01-14T14:59:46.000",
    "request_status": "Pending",
    "responsible_agency": "Department of Sanitation",
    "final_address": "4744 Francis Dr",
    "address_councildis": "D",
    "status": "Assigned to Contractor",
    "contractor": "Waste Pro",
    "rowid": "1252134",
    "final_x": "3698194.13655",
    "final_y": "554421.178648",
    "longitude": "-90.01452426726782",
    "latitude": "30.01794811542994",
    "geocoded_column": {
      "latitude": "30.01794811542994",
      "longitude": "-90.01452426726782"
    }
  },
  {
    "service_request": "2026-1252132",
    "request_type": "Trash/Recycling",
    "request_reason": "Repair Recycling Cart",
    "date_created": "2026-01-14T14:57:32.000",
    "date_modified": "2026-01-14T14:57:55.000",
    "request_status": "Pending",
    "responsible_agency": "Department of Sanitation",
    "final_address": "1614 Pine St",
    "address_councildis": "A",
    "status": "Pending",
    "rowid": "1252132",
    "final_x": "3664778.49786",
    "final_y": "528002.664063",
    "longitude": "-90.12098854379279",
    "latitude": "29.946321259356004",
    "geocoded_column": {
      "latitude": "29.946321259356004",
      "longitude": "-90.12098854379279"
    }
  },
  {
    "service_request": "2026-1252131",
    "request_type": "Healthy Homes",
    "request_reason": "Healthy Homes",
    "date_created": "2026-01-14T14:56:37.000",
    "date_modified": "2026-01-14T15:00:35.000",
    "request_status": "Pending",
    "responsible_agency": "Department of Code Enforcement",
    "final_address": "914 Dante St",
    "address_councildis": "A",
    "status": "Pending",
    "rowid": "1252131",
    "final_x": "3660773.46394",
    "final_y": "528202.99872",
    "longitude": "-90.13362728246382",
    "latitude": "29.94698802500998",
    "geocoded_column": {
      "latitude": "29.94698802500998",
      "longitude": "-90.13362728246382"
    }
  },
  {
    "service_request": "2026-1252130",
    "request_type": "Trash/Recycling",
    "request_reason": "Request a Large Item Pick Up",
    "date_created": "2026-01-14T14:56:19.000",
    "date_modified": "2026-01-14T14:56:21.000",
    "request_status": "Pending",
    "responsible_agency": "Department of Sanitation",
    "final_address": "1917 Industry St",
    "address_councildis": "D",
    "status": "Assigned to Contractor",
    "contractor": "IV Waste",
    "rowid": "1252130",
    "final_x": "3682410.37935",
    "final_y": "542801.016525",
    "longitude": "-90.0648013187343",
    "latitude": "29.986486903308347",
    "geocoded_column": {
      "latitude": "29.986486903308347",
      "longitude": "-90.0648013187343"
    }
  },
  {
    "service_request": "2026-1252129",
    "request_type": "Property Maintenance",
    "request_reason": "Property Maintenance",
    "date_created": "2026-01-14T14:56:10.000",
    "date_modified": "2026-01-14T14:56:14.000",
    "request_status": "Pending",
    "responsible_agency": "Department of Code Enforcement",
    "final_address": "2031 Conti St",
    "address_councildis": "B",
    "status": "Pending",
    "rowid": "1252129",
    "final_x": "3678077.65166",
    "final_y": "534548.946373",
    "longitude": "-90.078772150666",
    "latitude": "29.963927728873163",
    "geocoded_column": {
      "latitude": "29.963927728873163",
      "longitude": "-90.078772150666"
    }
  },
  {
    "service_request": "2026-1252128",
    "request_type": "Trash/Recycling",
    "request_reason": "Repair Trash Cart",
    "date_created": "2026-01-14T14:51:39.000",
    "date_modified": "2026-01-14T14:52:23.000",
    "request_status": "Pending",
    "responsible_agency": "Department of Sanitation",
    "final_address": "5725 Wingate Dr",
    "address_councildis": "D",
    "status": "Assigned to Contractor",
    "contractor": "IV Waste",
    "rowid": "1252128",
    "final_x": "3681338.3348",
    "final_y": "553996.387992",
    "longitude": "-90.06779693986495",
    "latitude": "30.01730276078145",
    "geocoded_column": {
      "latitude": "30.01730276078145",
      "longitude": "-90.06779693986495"
    }
  },
  {
    "service_request": "2026-1252127",
    "request_type": "Trash/Recycling",
    "request_reason": "Request a Large Item Pick Up",
    "date_created": "2026-01-14T14:50:08.000",
    "date_modified": "2026-01-14T14:50:09.000",
    "request_status": "Pending",
    "responsible_agency": "Department of Sanitation",
    "final_address": "9531 Palm St",
    "address_councildis": "A",
    "status": "Assigned to Contractor",
    "contractor": "IV Waste",
    "rowid": "1252127",
    "final_x": "3663916.94611",
    "final_y": "538218.338441",
    "longitude": "-90.12336818052273",
    "latitude": "29.97443606408486",
    "geocoded_column": {
      "latitude": "29.97443606408486",
      "longitude": "-90.12336818052273"
    }
  },
  {
    "service_request": "2026-1252126",
    "request_type": "Abandoned Vehicles",
    "request_reason": "Abandoned/Junk Vehicles",
    "date_created": "2026-01-14T14:45:40.000",
    "date_modified": "2026-01-14T14:45:42.000",
    "request_status": "Pending",
    "responsible_agency": "Department of Public Works",
    "final_address": "1406 Josephine St",
    "address_councildis": "B",
    "status": "Pending",
    "rowid": "1252126",
    "final_x": "3678415.44635",
    "final_y": "523137.181307",
    "longitude": "-90.07810020375419",
    "latitude": "29.932539010164174",
    "geocoded_column": {
      "latitude": "29.932539010164174",
      "longitude": "-90.07810020375419"
    }
  },
  {
    "service_request": "2026-1252125",
    "request_type": "Trash/Recycling",
    "request_reason": "Request a Large Item Pick Up",
    "date_created": "2026-01-14T14:37:52.000",
    "date_modified": "2026-01-14T14:37:53.000",
    "request_status": "Pending",
    "responsible_agency": "Department of Sanitation",
    "final_address": "1451 N Rocheblave St",
    "address_councildis": "D",
    "status": "Assigned to Contractor",
    "contractor": "IV Waste",
    "rowid": "1252125",
    "final_x": "3679317.13711",
    "final_y": "538782.485897",
    "longitude": "-90.07471112135028",
    "latitude": "29.975531137711343",
    "geocoded_column": {
      "latitude": "29.975531137711343",
      "longitude": "-90.07471112135028"
    }
  },
  {
    "service_request": "2026-1252124",
    "request_type": "Property Maintenance",
    "request_reason": "Property Maintenance",
    "date_created": "2026-01-14T14:36:15.000",
    "date_modified": "2026-01-14T14:36:17.000",
    "request_status": "Pending",
    "responsible_agency": "Department of Code Enforcement",
    "final_address": "102 Neil Ave",
    "address_councildis": "C",
    "status": "Pending",
    "rowid": "1252124",
    "final_x": "3705698.10916",
    "final_y": "518839.246967",
    "longitude": "-89.99213071039154",
    "latitude": "29.919871194082823",
    "geocoded_column": {
      "latitude": "29.919871194082823",
      "longitude": "-89.99213071039154"
    }
  },
  {
    "service_request": "2026-1252123",
    "request_type": "Trash/Recycling",
    "request_reason": "Request a Large Item Pick Up",
    "date_created": "2026-01-14T14:31:19.000",
    "date_modified": "2026-01-14T14:31:21.000",
    "request_status": "Pending",
    "responsible_agency": "Department of Sanitation",
    "final_address": "4828 Nottingham Dr",
    "address_councildis": "E",
    "status": "Assigned to Contractor",
    "contractor": "Waste Pro",
    "rowid": "1252123",
    "final_x": "3716275.78815",
    "final_y": "557317.851099",
    "longitude": "-89.95728392813248",
    "latitude": "30.02532819235304",
    "geocoded_column": {
      "latitude": "30.02532819235304",
      "longitude": "-89.95728392813248"
    }
  },
  {
    "service_request": "2026-1252121",
    "request_type": "Trash/Recycling",
    "request_reason": "Request a Large Item Pick Up",
    "date_created": "2026-01-14T14:28:55.000",
    "date_modified": "2026-01-14T14:29:01.000",
    "request_status": "Pending",
    "responsible_agency": "Department of Sanitation",
    "final_address": "7554 Lehigh St",
    "address_councildis": "E",
    "status": "Assigned to Contractor",
    "contractor": "Waste Pro",
    "rowid": "1252121",
    "final_x": "3710719.57131",
    "final_y": "565312.973858",
    "longitude": "-89.97454098647248",
    "latitude": "30.047493894040308",
    "geocoded_column": {
      "latitude": "30.047493894040308",
      "longitude": "-89.97454098647248"
    }
  },
  {
    "service_request": "2026-1252120",
    "request_type": "Trash/Recycling",
    "request_reason": "Request a Large Item Pick Up",
    "date_created": "2026-01-14T14:28:07.000",
    "date_modified": "2026-01-14T14:28:09.000",
    "request_status": "Pending",
    "responsible_agency": "Department of Sanitation",
    "final_address": "2600 Marengo St",
    "address_councildis": "B",
    "status": "Assigned to Contractor",
    "contractor": "IV Waste",
    "rowid": "1252120",
    "final_x": "3671555.99649",
    "final_y": "524532.102652",
    "longitude": "-90.09970753436976",
    "latitude": "29.936579430071976",
    "geocoded_column": {
      "latitude": "29.936579430071976",
      "longitude": "-90.09970753436976"
    }
  },
  {
    "service_request": "2026-1252119",
    "request_type": "Trash/Recycling",
    "request_reason": "Request a Large Item Pick Up",
    "date_created": "2026-01-14T14:27:56.000",
    "date_modified": "2026-01-14T14:31:53.000",
    "request_status": "Pending",
    "responsible_agency": "Department of Sanitation",
    "final_address": "1816 Alabo St",
    "address_councildis": "E",
    "status": "Assigned to Contractor",
    "contractor": "Waste Pro",
    "rowid": "1252119",
    "final_x": "3699616.03927",
    "final_y": "536358.036167",
    "longitude": "-90.0106904146462",
    "latitude": "29.968236075526548",
    "geocoded_column": {
      "latitude": "29.968236075526548",
      "longitude": "-90.0106904146462"
    }
  },
  {
    "service_request": "2026-1252118",
    "request_type": "Trash/Recycling",
    "request_reason": "Request a Large Item Pick Up",
    "date_created": "2026-01-14T14:26:48.000",
    "date_modified": "2026-01-14T14:34:35.000",
    "case_close_date": "2026-01-14T08:34:33.000",
    "request_status": "Closed",
    "responsible_agency": "Department of Sanitation",
    "final_address": "6968 Queensway Dr",
    "address_councildis": "E",
    "status": "Invalid Request",
    "contractor": "Waste Pro",
    "contractor_action": "Invalid",
    "rowid": "1252118",
    "final_x": "3719414.58687",
    "final_y": "569072.659942",
    "longitude": "-89.9469165015976",
    "latitude": "30.057545097669134",
    "geocoded_column": {
      "latitude": "30.057545097669134",
      "longitude": "-89.9469165015976"
    }
  },
  {
    "service_request": "2026-1252117",
    "request_type": "Trash/Recycling",
    "request_reason": "Order Trash Cart",
    "date_created": "2026-01-14T14:23:56.000",
    "date_modified": "2026-01-14T14:23:58.000",
    "request_status": "Pending",
    "responsible_agency": "Department of Sanitation",
    "final_address": "914 N Roman St",
    "address_councildis": "D",
    "status": "Assigned to Contractor",
    "contractor": "IV Waste",
    "rowid": "1252117",
    "final_x": "3679751.77947",
    "final_y": "535713.391623",
    "longitude": "-90.07344497999655",
    "latitude": "29.967079048924305",
    "geocoded_column": {
      "latitude": "29.967079048924305",
      "longitude": "-90.07344497999655"
    }
  },
  {
    "service_request": "2026-1252116",
    "request_type": "Streetlights",
    "request_reason": "Streetlight Outage/Malfunction",
    "date_created": "2026-01-14T14:22:44.000",
    "date_modified": "2026-01-14T14:22:47.000",
    "request_status": "Pending",
    "responsible_agency": "Department of Public Works",
    "final_address": "4711 Lennox Blvd",
    "address_councildis": "C",
    "status": "Pending",
    "rowid": "1252116",
    "final_x": "3700652.44055",
    "final_y": "513356.747698",
    "longitude": "-90.00825744901417",
    "latitude": "29.90495761352562",
    "geocoded_column": {
      "latitude": "29.90495761352562",
      "longitude": "-90.00825744901417"
    }
  },
  {
    "service_request": "2026-1252115",
    "request_type": "Trash/Recycling",
    "request_reason": "Repair Recycling Cart",
    "date_created": "2026-01-14T14:19:00.000",
    "date_modified": "2026-01-14T14:25:13.000",
    "request_status": "Pending",
    "responsible_agency": "Department of Sanitation",
    "final_address": "806 S Carrollton Ave",
    "address_councildis": "A",
    "status": "Pending",
    "rowid": "1252115",
    "final_x": "3661050.76326",
    "final_y": "527413.445695",
    "longitude": "-90.13277786055791",
    "latitude": "29.944809019704113",
    "geocoded_column": {
      "latitude": "29.944809019704113",
      "longitude": "-90.13277786055791"
    }
  },
  {
    "service_request": "2026-1252114",
    "request_type": "Trash/Recycling",
    "request_reason": "Request a Large Item Pick Up",
    "date_created": "2026-01-14T14:18:55.000",
    "date_modified": "2026-01-14T14:18:57.000",
    "request_status": "Pending",
    "responsible_agency": "Department of Sanitation",
    "final_address": "5441 Urquhart St",
    "address_councildis": "E",
    "status": "Assigned to Contractor",
    "contractor": "Waste Pro",
    "rowid": "1252114",
    "final_x": "3697705.59242",
    "final_y": "534643.904646",
    "longitude": "-90.01678585117743",
    "latitude": "29.963583323530717",
    "geocoded_column": {
      "latitude": "29.963583323530717",
      "longitude": "-90.01678585117743"
    }
  },
  {
    "service_request": "2026-1252113",
    "request_type": "Health Related Request",
    "request_reason": "Noise Ordinance Complaint",
    "date_created": "2026-01-14T14:12:12.000",
    "date_modified": "2026-01-14T14:12:14.000",
    "request_status": "Pending",
    "responsible_agency": "Health Department",
    "final_address": "3710 Dumaine St",
    "address_councildis": "A",
    "status": "Pending",
    "rowid": "1252113",
    "final_x": "3673978.86824",
    "final_y": "539883.159754",
    "longitude": "-90.09153318995807",
    "latitude": "29.97871776674738",
    "geocoded_column": {
      "latitude": "29.97871776674738",
      "longitude": "-90.09153318995807"
    }
  },
  {
    "service_request": "2026-1252112",
    "request_type": "Trash/Recycling",
    "request_reason": "Request a Large Item Pick Up",
    "date_created": "2026-01-14T14:09:47.000",
    "date_modified": "2026-01-14T14:09:48.000",
    "request_status": "Pending",
    "responsible_agency": "Department of Sanitation",
    "final_address": "6250 Erin Dr",
    "address_councildis": "E",
    "status": "Assigned to Contractor",
    "contractor": "Waste Pro",
    "rowid": "1252112",
    "final_x": "3696496.06557",
    "final_y": "558701.619292",
    "longitude": "-90.0197344466802",
    "latitude": "30.029771329873533",
    "geocoded_column": {
      "latitude": "30.029771329873533",
      "longitude": "-90.0197344466802"
    }
  },
  {
    "service_request": "2026-1252111",
    "request_type": "Streetlights",
    "request_reason": "Streetlight Outage/Malfunction",
    "date_created": "2026-01-14T14:08:22.000",
    "date_modified": "2026-01-14T14:08:24.000",
    "request_status": "Pending",
    "responsible_agency": "Department of Public Works",
    "final_address": "109 Lark St",
    "address_councildis": "D",
    "status": "Pending",
    "rowid": "1252111",
    "final_x": "3674864.29409",
    "final_y": "556196.748954",
    "longitude": "-90.08817677621316",
    "latitude": "30.023547979881883",
    "geocoded_column": {
      "latitude": "30.023547979881883",
      "longitude": "-90.08817677621316"
    }
  },
  {
    "service_request": "2026-1252110",
    "request_type": "Trash/Recycling",
    "request_reason": "Request a Large Item Pick Up",
    "date_created": "2026-01-14T14:04:36.000",
    "date_modified": "2026-01-14T14:04:38.000",
    "request_status": "Pending",
    "responsible_agency": "Department of Sanitation",
    "final_address": "1227 St Ferdinand St",
    "address_councildis": "C",
    "status": "Assigned to Contractor",
    "contractor": "IV Waste",
    "rowid": "1252110",
    "final_x": "3687890.18332",
    "final_y": "536880.189",
    "longitude": "-90.04770257345012",
    "latitude": "29.970038772941823",
    "geocoded_column": {
      "latitude": "29.970038772941823",
      "longitude": "-90.04770257345012"
    }
  },
  {
    "service_request": "2026-1252109",
    "request_type": "Streetlights",
    "request_reason": "Streetlight Outage/Malfunction",
    "date_created": "2026-01-14T14:04:16.000",
    "date_modified": "2026-01-14T14:04:17.000",
    "request_status": "Pending",
    "responsible_agency": "Department of Public Works",
    "final_address": "11400 S Easterlyn Cir",
    "address_councildis": "E",
    "status": "Pending",
    "rowid": "1252109",
    "final_x": "3718534.43231",
    "final_y": "560209.175709",
    "longitude": "-89.95003674412662",
    "latitude": "30.03320339757007",
    "geocoded_column": {
      "latitude": "30.03320339757007",
      "longitude": "-89.95003674412662"
    }
  },
  {
    "service_request": "2026-1252108",
    "request_type": "Trash/Recycling",
    "request_reason": "Request a Large Item Pick Up",
    "date_created": "2026-01-14T13:58:29.000",
    "date_modified": "2026-01-14T13:58:32.000",
    "request_status": "Pending",
    "responsible_agency": "Department of Sanitation",
    "final_address": "7016 Derbes St",
    "address_councildis": "A",
    "status": "Assigned to Contractor",
    "contractor": "IV Waste",
    "rowid": "1252108",
    "final_x": "3665767.34176",
    "final_y": "554397.56988",
    "longitude": "-90.11698174169292",
    "latitude": "30.018869549079913",
    "geocoded_column": {
      "latitude": "30.018869549079913",
      "longitude": "-90.11698174169292"
    }
  },
  {
    "service_request": "2026-1252107",
    "request_type": "Trash/Recycling",
    "request_reason": "Request a Large Item Pick Up",
    "date_created": "2026-01-14T13:54:09.000",
    "date_modified": "2026-01-14T13:54:11.000",
    "request_status": "Pending",
    "responsible_agency": "Department of Sanitation",
    "final_address": "1224 Eighth St",
    "address_councildis": "B",
    "status": "Assigned to Contractor",
    "contractor": "IV Waste",
    "rowid": "1252107",
    "final_x": "3675758.6948",
    "final_y": "520665.170169",
    "longitude": "-90.08657226052667",
    "latitude": "29.92582154060968",
    "geocoded_column": {
      "latitude": "29.92582154060968",
      "longitude": "-90.08657226052667"
    }
  },
  {
    "service_request": "2026-1252106",
    "request_type": "Trash/Recycling",
    "request_reason": "Illegal Dumping",
    "date_created": "2026-01-14T13:53:50.000",
    "date_modified": "2026-01-14T13:53:51.000",
    "request_status": "Pending",
    "responsible_agency": "Department of Sanitation",
    "final_address": "4936 Elysian Fields Ave",
    "address_councildis": "D",
    "status": "Pending",
    "rowid": "1252106",
    "final_x": "3683726.20898",
    "final_y": "551012.352277",
    "longitude": "-90.06035697524523",
    "latitude": "30.009025017333936",
    "geocoded_column": {
      "latitude": "30.009025017333936",
      "longitude": "-90.06035697524523"
    }
  },
  {
    "service_request": "2026-1252105",
    "request_type": "Trash/Recycling",
    "request_reason": "Repair Trash Cart",
    "date_created": "2026-01-14T13:52:59.000",
    "date_modified": "2026-01-14T13:53:32.000",
    "request_status": "Pending",
    "responsible_agency": "Department of Sanitation",
    "final_address": "2133 S Liberty St",
    "address_councildis": "B",
    "status": "Assigned to Contractor",
    "contractor": "IV Waste",
    "rowid": "1252105",
    "final_x": "3676047.70625",
    "final_y": "525919.966909",
    "longitude": "-90.08547929052807",
    "latitude": "29.940261867751722",
    "geocoded_column": {
      "latitude": "29.940261867751722",
      "longitude": "-90.08547929052807"
    }
  },
  {
    "service_request": "2026-1252104",
    "request_type": "Trash/Recycling",
    "request_reason": "Repair Trash Cart",
    "date_created": "2026-01-14T13:52:37.000",
    "date_modified": "2026-01-14T13:52:39.000",
    "request_status": "Pending",
    "responsible_agency": "Department of Sanitation",
    "final_address": "8924 Olive St",
    "address_councildis": "A",
    "status": "Assigned to Contractor",
    "contractor": "IV Waste",
    "rowid": "1252104",
    "final_x": "3664975.27725",
    "final_y": "536196.320199",
    "longitude": "-90.12009331994568",
    "latitude": "29.968845413380883",
    "geocoded_column": {
      "latitude": "29.968845413380883",
      "longitude": "-90.12009331994568"
    }
  },
  {
    "service_request": "2026-1252103",
    "request_type": "Abandoned Vehicles",
    "request_reason": "Abandoned/Junk Vehicles",
    "date_created": "2026-01-14T13:52:25.000",
    "date_modified": "2026-01-14T14:27:27.000",
    "request_status": "Pending",
    "responsible_agency": "Department of Public Works",
    "final_address": "2000 Second St",
    "address_councildis": "B",
    "status": "Inspected",
    "rowid": "1252103",
    "final_x": "3675853.04046",
    "final_y": "524256.878844",
    "longitude": "-90.08615103196456",
    "latitude": "29.935694748522696",
    "geocoded_column": {
      "latitude": "29.935694748522696",
      "longitude": "-90.08615103196456"
    }
  },
  {
    "service_request": "2026-1252102",
    "request_type": "Roads and Streets",
    "request_reason": "Pothole",
    "date_created": "2026-01-14T13:49:01.000",
    "date_modified": "2026-01-14T13:49:03.000",
    "request_status": "Pending",
    "responsible_agency": "Department of Public Works",
    "final_address": "3204 Memorial Park Dr",
    "address_councildis": "C",
    "status": "Pending",
    "rowid": "1252102",
    "final_x": "3695699.18198",
    "final_y": "518762.595767",
    "longitude": "-90.02369506019915",
    "latitude": "29.91997845613219",
    "geocoded_column": {
      "latitude": "29.91997845613219",
      "longitude": "-90.02369506019915"
    }
  },
  {
    "service_request": "2026-1252101",
    "request_type": "Trash/Recycling",
    "request_reason": "Request a Large Item Pick Up",
    "date_created": "2026-01-14T13:45:15.000",
    "date_modified": "2026-01-14T13:45:16.000",
    "request_status": "Pending",
    "responsible_agency": "Department of Sanitation",
    "final_address": "10930 N Hardy St",
    "address_councildis": "E",
    "status": "Assigned to Contractor",
    "contractor": "Waste Pro",
    "rowid": "1252101",
    "final_x": "3712689.01221",
    "final_y": "562037.253599",
    "longitude": "-89.96843985154072",
    "latitude": "30.038422620187077",
    "geocoded_column": {
      "latitude": "30.038422620187077",
      "longitude": "-89.96843985154072"
    }
  },
  {
    "service_request": "2026-1252100",
    "request_type": "Trash/Recycling",
    "request_reason": "Missed Trash Pick-Up",
    "date_created": "2026-01-14T13:38:17.000",
    "date_modified": "2026-01-14T16:03:51.000",
    "case_close_date": "2026-01-14T10:03:50.000",
    "request_status": "Closed",
    "responsible_agency": "Department of Sanitation",
    "final_address": "857 French St",
    "address_councildis": "A",
    "status": "Assigned to Contractor",
    "contractor": "IV Waste",
    "contractor_action": "Completed",
    "rowid": "1252100",
    "final_x": "3669719.8281",
    "final_y": "548562.260819",
    "longitude": "-90.10469094556187",
    "latitude": "30.002708542995528",
    "geocoded_column": {
      "latitude": "30.002708542995528",
      "longitude": "-90.10469094556187"
    }
  },
  {
    "service_request": "2026-1252099",
    "request_type": "Streetlights",
    "request_reason": "Streetlight Outage/Malfunction",
    "date_created": "2026-01-14T13:30:23.000",
    "date_modified": "2026-01-14T13:30:25.000",
    "request_status": "Pending",
    "responsible_agency": "Department of Public Works",
    "final_address": "5800 Bullard Ave",
    "address_councildis": "E",
    "status": "Pending",
    "rowid": "1252099",
    "final_x": "3716213.62988",
    "final_y": "562551.723936",
    "longitude": "-89.95728172781727",
    "latitude": "30.039721293814864",
    "geocoded_column": {
      "latitude": "30.039721293814864",
      "longitude": "-89.95728172781727"
    }
  },
  {
    "service_request": "2026-1252098",
    "request_type": "Trash/Recycling",
    "request_reason": "Replace Recycling Cart",
    "date_created": "2026-01-14T13:29:53.000",
    "date_modified": "2026-01-14T13:29:54.000",
    "request_status": "Pending",
    "responsible_agency": "Department of Sanitation",
    "final_address": "636 State St",
    "address_councildis": "A",
    "status": "Pending",
    "rowid": "1252098",
    "final_x": "3664529.68775",
    "final_y": "518875.585079",
    "longitude": "-90.1220787533461",
    "latitude": "29.92123192240745",
    "geocoded_column": {
      "latitude": "29.92123192240745",
      "longitude": "-90.1220787533461"
    }
  },
  {
    "service_request": "2026-1252097",
    "request_type": "Trash/Recycling",
    "request_reason": "Missed Trash Pick-Up",
    "date_created": "2026-01-14T13:25:37.000",
    "date_modified": "2026-01-14T13:25:39.000",
    "request_status": "Pending",
    "responsible_agency": "Department of Sanitation",
    "final_address": "434 Opelousas Ave",
    "address_councildis": "C",
    "status": "Assigned to Contractor",
    "contractor": "Richards Disposal",
    "rowid": "1252097",
    "final_x": "3686866.0623",
    "final_y": "529200.493888",
    "longitude": "-90.05120822141183",
    "latitude": "29.948953817626442",
    "geocoded_column": {
      "latitude": "29.948953817626442",
      "longitude": "-90.05120822141183"
    }
  },
  {
    "service_request": "2026-1252096",
    "request_type": "Trash/Recycling",
    "request_reason": "Replace Trash Cart",
    "date_created": "2026-01-14T13:24:55.000",
    "date_modified": "2026-01-14T13:24:57.000",
    "request_status": "Pending",
    "responsible_agency": "Department of Sanitation",
    "final_address": "1928 Burgundy St",
    "address_councildis": "C",
    "status": "Assigned to Contractor",
    "contractor": "IV Waste",
    "rowid": "1252096",
    "final_x": "3684196.68527",
    "final_y": "535490.535174",
    "longitude": "-90.05941578455345",
    "latitude": "29.966331137632043",
    "geocoded_column": {
      "latitude": "29.966331137632043",
      "longitude": "-90.05941578455345"
    }
  },
  {
    "service_request": "2026-1252095",
    "request_type": "Trash/Recycling",
    "request_reason": "Request a Large Item Pick Up",
    "date_created": "2026-01-14T13:23:41.000",
    "date_modified": "2026-01-14T13:23:43.000",
    "request_status": "Pending",
    "responsible_agency": "Department of Sanitation",
    "final_address": "1232 Merrill St",
    "address_councildis": "C",
    "status": "Assigned to Contractor",
    "contractor": "Richards Disposal",
    "rowid": "1252095",
    "final_x": "3694992.5585",
    "final_y": "527030.326782",
    "longitude": "-90.02562768034743",
    "latitude": "29.942734080799323",
    "geocoded_column": {
      "latitude": "29.942734080799323",
      "longitude": "-90.02562768034743"
    }
  },
  {
    "service_request": "2026-1252094",
    "request_type": "Trash/Recycling",
    "request_reason": "Request a Large Item Pick Up",
    "date_created": "2026-01-14T13:22:03.000",
    "date_modified": "2026-01-14T13:22:06.000",
    "request_status": "Pending",
    "responsible_agency": "Department of Sanitation",
    "final_address": "1704 Robert St",
    "address_councildis": "B",
    "status": "Assigned to Contractor",
    "contractor": "IV Waste",
    "rowid": "1252094",
    "final_x": "3668664.63252",
    "final_y": "521874.684218",
    "longitude": "-90.10892536759722",
    "latitude": "29.92935765732026",
    "geocoded_column": {
      "latitude": "29.92935765732026",
      "longitude": "-90.10892536759722"
    }
  },
  {
    "service_request": "2026-1252093",
    "request_type": "Streetlights",
    "request_reason": "Streetlight Outage/Malfunction",
    "date_created": "2026-01-14T13:21:20.000",
    "date_modified": "2026-01-14T13:22:23.000",
    "request_status": "Pending",
    "responsible_agency": "Department of Public Works",
    "final_address": "6027 Chamberlain Dr",
    "address_councildis": "D",
    "status": "Pending",
    "rowid": "1252093",
    "final_x": "3679376.19208",
    "final_y": "554660.791128",
    "longitude": "-90.07397344712479",
    "latitude": "30.019189069939113",
    "geocoded_column": {
      "latitude": "30.019189069939113",
      "longitude": "-90.07397344712479"
    }
  },
  {
    "service_request": "2026-1252092",
    "request_type": "Trash/Recycling",
    "request_reason": "Order Trash Cart",
    "date_created": "2026-01-14T13:20:56.000",
    "date_modified": "2026-01-14T13:20:57.000",
    "request_status": "Pending",
    "responsible_agency": "Department of Sanitation",
    "final_address": "926 St Louis St Apt 2A",
    "address_councildis": "C",
    "status": "Assigned to Contractor",
    "contractor": "IV Waste",
    "rowid": "1252092",
    "final_x": "3681300.96962",
    "final_y": "532404.980803",
    "longitude": "-90.06866794503576",
    "latitude": "29.957935121196304",
    "geocoded_column": {
      "latitude": "29.957935121196304",
      "longitude": "-90.06866794503576"
    }
  },
  {
    "service_request": "2026-1252091",
    "request_type": "Trash/Recycling",
    "request_reason": "Request a Large Item Pick Up",
    "date_created": "2026-01-14T13:11:34.000",
    "date_modified": "2026-01-14T13:11:36.000",
    "request_status": "Pending",
    "responsible_agency": "Department of Sanitation",
    "final_address": "619 France St",
    "address_councildis": "C",
    "status": "Assigned to Contractor",
    "contractor": "IV Waste",
    "rowid": "1252091",
    "final_x": "3691998.15101",
    "final_y": "533471.067268",
    "longitude": "-90.03485125658023",
    "latitude": "29.960537512724287",
    "geocoded_column": {
      "latitude": "29.960537512724287",
      "longitude": "-90.03485125658023"
    }
  },
  {
    "service_request": "2026-1252090",
    "request_type": "Trash/Recycling",
    "request_reason": "Order Second Trash Cart",
    "date_created": "2026-01-14T13:09:07.000",
    "date_modified": "2026-01-14T13:09:08.000",
    "request_status": "Pending",
    "responsible_agency": "Department of Sanitation",
    "final_address": "3605 Iberville St",
    "address_councildis": "B",
    "status": "Assigned to Contractor",
    "contractor": "IV Waste",
    "rowid": "1252090",
    "final_x": "3672830.83028",
    "final_y": "537614.691912",
    "longitude": "-90.09523654648098",
    "latitude": "29.972514411751387",
    "geocoded_column": {
      "latitude": "29.972514411751387",
      "longitude": "-90.09523654648098"
    }
  },
  {
    "service_request": "2026-1252089",
    "request_type": "Streetlights",
    "request_reason": "Streetlight Outage/Malfunction",
    "date_created": "2026-01-14T13:08:50.000",
    "date_modified": "2026-01-14T13:08:51.000",
    "request_status": "Pending",
    "responsible_agency": "Department of Public Works",
    "final_address": "959 Bragg St",
    "address_councildis": "A",
    "status": "Pending",
    "rowid": "1252089",
    "final_x": "3670705.949",
    "final_y": "549911.09026",
    "longitude": "-90.10152984094768",
    "latitude": "30.006388240813163",
    "geocoded_column": {
      "latitude": "30.006388240813163",
      "longitude": "-90.10152984094768"
    }
  },
  {
    "service_request": "2026-1252088",
    "request_type": "Trash/Recycling",
    "request_reason": "Request a Large Item Pick Up",
    "date_created": "2026-01-14T13:02:03.000",
    "date_modified": "2026-01-14T13:02:05.000",
    "request_status": "Pending",
    "responsible_agency": "Department of Sanitation",
    "final_address": "4832 Lafon Dr",
    "address_councildis": "E",
    "status": "Assigned to Contractor",
    "contractor": "Waste Pro",
    "rowid": "1252088",
    "final_x": "3701033.65041",
    "final_y": "554676.756888",
    "longitude": "-90.00554319379505",
    "latitude": "30.01856069037734",
    "geocoded_column": {
      "latitude": "30.01856069037734",
      "longitude": "-90.00554319379505"
    }
  },
  {
    "service_request": "2026-1252087",
    "request_type": "Trash/Recycling",
    "request_reason": "Missed Trash Pick-Up",
    "date_created": "2026-01-14T13:01:42.000",
    "date_modified": "2026-01-14T14:07:28.000",
    "case_close_date": "2026-01-14T08:07:27.000",
    "request_status": "Closed",
    "responsible_agency": "Department of Sanitation",
    "final_address": "7810 Lake Forest Blvd",
    "address_councildis": "E",
    "status": "Invalid Request",
    "contractor": "Waste Pro",
    "contractor_action": "Invalid",
    "rowid": "1252087",
    "final_x": "3703214.37233",
    "final_y": "556710.640986",
    "longitude": "-89.9985780983725",
    "latitude": "30.024083425497064",
    "geocoded_column": {
      "latitude": "30.024083425497064",
      "longitude": "-89.9985780983725"
    }
  },
  {
    "service_request": "2026-1252086",
    "request_type": "Trash/Recycling",
    "request_reason": "Request a Large Item Pick Up",
    "date_created": "2026-01-14T13:00:48.000",
    "date_modified": "2026-01-14T13:00:50.000",
    "request_status": "Pending",
    "responsible_agency": "Department of Sanitation",
    "final_address": "10954 Chaucer St",
    "address_councildis": "E",
    "status": "Assigned to Contractor",
    "contractor": "Waste Pro",
    "rowid": "1252086",
    "final_x": "3713053.66245",
    "final_y": "561944.849311",
    "longitude": "-89.96729095351196",
    "latitude": "30.03815659714558",
    "geocoded_column": {
      "latitude": "30.03815659714558",
      "longitude": "-89.96729095351196"
    }
  },
  {
    "service_request": "2026-1252085",
    "request_type": "Trash/Recycling",
    "request_reason": "Repair Trash Cart",
    "date_created": "2026-01-14T12:45:50.000",
    "date_modified": "2026-01-14T12:45:51.000",
    "request_status": "Pending",
    "responsible_agency": "Department of Sanitation",
    "final_address": "283 English Turn Dr",
    "address_councildis": "C",
    "status": "Assigned to Contractor",
    "contractor": "Richards Disposal",
    "rowid": "1252085",
    "final_x": "3717328.17656",
    "final_y": "512509.413809",
    "longitude": "-89.95566091799083",
    "latitude": "29.902086960681505",
    "geocoded_column": {
      "latitude": "29.902086960681505",
      "longitude": "-89.95566091799083"
    }
  },