[
  {
    "service_request": "2024-1096391",
    "request_type": "Health Related Request",
    "request_reason": "Noise Ordinance Complaint",
    "date_created": "2024-05-23T23:34:46.000",
    "date_modified": "2024-05-23T23:34:46.000",
    "request_status": "Pending",
    "responsible_agency": "Health Department",
    "final_address": "315 Decatur St, New Orleans, Louisiana, 70130",
    "address_councildis": "C",
    "status": "Pending",
    "rowid": "1096391",
    "final_x": "3682332.13967",
    "final_y": "530970.484162",
    "longitude": "-90.06546192627788",
    "latitude": "29.953959408807965",
    "geocoded_column": {
      "latitude": "29.953959408807965",
      "longitude": "-90.06546192627788"
    }
  },
  {
    "service_request": "2024-1096390",
    "request_type": "Traffic Signals/Signs/Striping/Streetlights",
    "request_reason": "Street Light Outage/Malfunction",
    "date_created": "2024-05-23T23:01:58.000",
    "date_modified": "2024-05-23T23:01:59.000",
    "request_status": "Pending",
    "responsible_agency": "Department of Public Works",
    "final_address": "961 Emerald St",
    "address_councildis": "D",
    "status": "Assigned to Contractor",
    "contractor": "Legacy Professional Services",
    "rowid": "1096390",
    "final_x": "3671166.00878",
    "final_y": "554903.983704",
    "longitude": "-90.09990659770511",
    "latitude": "30.020103322865896",
    "geocoded_column": {
      "latitude": "30.020103322865896",
      "longitude": "-90.09990659770511"
    }
  },
  {
    "service_request": "2024-1096389",
    "request_type": "Abandoned Vehicles",
    "request_reason": "Abandoned/Junk Vehicles",
    "date_created": "2024-05-23T22:25:07.000",
    "date_modified": "2024-05-23T22:25:07.000",
    "request_status": "Pending",
    "responsible_agency": "Department of Public Works",
    "final_address": "1329 Pacific Ave",
    "address_councildis": "C",
    "status": "Pending",
    "rowid": "1096389",
    "final_x": "3688308.61884",
    "final_y": "526550.687422",
    "longitude": "-90.0467474011326",
    "latitude": "29.941623291269842",
    "geocoded_column": {
      "latitude": "29.941623291269842",
      "longitude": "-90.0467474011326"
    }
  },
  {
    "service_request": "2024-1096388",
    "request_type": "Roads/Drainage",
    "request_reason": "Pothole",
    "date_created": "2024-05-23T22:21:42.000",
    "date_modified": "2024-05-23T22:21:42.000",
    "request_status": "Pending",
    "responsible_agency": "Department of Public Works",
    "final_address": "1400 BLK Peniston St",
    "address_councildis": "B",
    "status": "Pending",
    "rowid": "1096388",
    "final_x": "3672988.82853",
    "final_y": "520686.648703",
    "longitude": "-90.09531518462774",
    "latitude": "29.925963179458968",
    "geocoded_column": {
      "latitude": "29.925963179458968",
      "longitude": "-90.09531518462774"
    }
  },
  {
    "service_request": "2024-1096387",
    "request_type": "Roads/Drainage",
    "request_reason": "Pothole",
    "date_created": "2024-05-23T21:56:04.000",
    "date_modified": "2024-05-23T21:56:04.000",
    "request_status": "Pending",
    "responsible_agency": "Department of Public Works",
    "final_address": "1467 Calhoun St",
    "address_councildis": "A",
    "status": "Pending",
    "rowid": "1096387",
    "final_x": "3664513.96282",
    "final_y": "522111.427002",
    "longitude": "-90.1220204125977",
    "latitude": "29.93012992828717",
    "geocoded_column": {
      "latitude": "29.93012992828717",
      "longitude": "-90.1220204125977"
    }
  },
  {
    "service_request": "2024-1096386",
    "request_type": "Roads/Drainage",
    "request_reason": "Pothole",
    "date_created": "2024-05-23T21:54:56.000",
    "date_modified": "2024-05-23T21:54:56.000",
    "request_status": "Pending",
    "responsible_agency": "Department of Public Works",
    "final_address": "6215 Hurst St",
    "address_councildis": "A",
    "status": "Pending",
    "rowid": "1096386",
    "final_x": "3664668.32039",
    "final_y": "522243.373626",
    "longitude": "-90.12152872358996",
    "latitude": "29.93048825206563",
    "geocoded_column": {
      "latitude": "29.93048825206563",
      "longitude": "-90.12152872358996"
    }
  },
  {
    "service_request": "2024-1096385",
    "request_type": "Roads/Drainage",
    "request_reason": "Pothole",
    "date_created": "2024-05-23T21:53:26.000",
    "date_modified": "2024-05-23T21:53:26.000",
    "request_status": "Pending",
    "responsible_agency": "Department of Public Works",
    "final_address": "6024 Benjamin St",
    "address_councildis": "A",
    "status": "Pending",
    "rowid": "1096385",
    "final_x": "3665395.13933",
    "final_y": "522178.833594",
    "longitude": "-90.11923641544821",
    "latitude": "29.93028963171796",
    "geocoded_column": {
      "latitude": "29.93028963171796",
      "longitude": "-90.11923641544821"
    }
  },
  {
    "service_request": "2024-1096383",
    "request_type": "Trash/Recycling",
    "request_reason": "Request a Large Item Pick Up",
    "date_created": "2024-05-23T21:38:06.000",
    "date_modified": "2024-05-23T21:38:07.000",
    "request_status": "Pending",
    "responsible_agency": "Department of Sanitation",
    "final_address": "4613 Erickson Ave",
    "address_councildis": "C",
    "status": "Assigned to Contractor",
    "contractor": "Richards Disposal",
    "rowid": "1096383",
    "final_x": "3701958.55383",
    "final_y": "519430.691383",
    "longitude": "-90.00391292226163",
    "latitude": "29.92161729002681",
    "geocoded_column": {
      "latitude": "29.92161729002681",
      "longitude": "-90.00391292226163"
    }
  },
  {
    "service_request": "2024-1096382",
    "request_type": "Trash/Recycling",
    "request_reason": "Replace Trash Cart",
    "date_created": "2024-05-23T20:50:02.000",
    "date_modified": "2024-05-23T20:50:03.000",
    "request_status": "Pending",
    "responsible_agency": "Department of Sanitation",
    "final_address": "308 West Robert E Lee Blvd",
    "address_councildis": "A",
    "status": "Assigned to Contractor",
    "contractor": "IV Waste",
    "rowid": "1096382",
    "final_x": "3665433.48743",
    "final_y": "554860.390872",
    "longitude": "-90.11802109750485",
    "latitude": "30.02015188428789",
    "geocoded_column": {
      "latitude": "30.02015188428789",
      "longitude": "-90.11802109750485"
    }
  },
  {
    "service_request": "2024-1096381",
    "request_type": "Trash/Recycling",
    "request_reason": "Missed Trash Pick-Up",
    "date_created": "2024-05-23T20:12:46.000",
    "date_modified": "2024-05-23T20:12:46.000",
    "request_status": "Pending",
    "responsible_agency": "Department of Sanitation",
    "final_address": "2726 Pauger St",
    "address_councildis": "D",
    "status": "Assigned to Contractor",
    "contractor": "IV Waste",
    "rowid": "1096381",
    "final_x": "3683558.10492",
    "final_y": "539751.134794",
    "longitude": "-90.06128303862418",
    "latitude": "29.978065812691963",
    "geocoded_column": {
      "latitude": "29.978065812691963",
      "longitude": "-90.06128303862418"
    }
  },
  {
    "service_request": "2024-1096380",
    "request_type": "Roads/Drainage",
    "request_reason": "Pothole",
    "date_created": "2024-05-23T20:06:57.000",
    "date_modified": "2024-05-23T20:06:57.000",
    "request_status": "Pending",
    "responsible_agency": "Department of Public Works",
    "final_address": "5880 Louis Xiv St",
    "address_councildis": "A",
    "status": "Pending",
    "rowid": "1096380",
    "final_x": "3667918.00961",
    "final_y": "546612.118353",
    "longitude": "-90.11044890177165",
    "latitude": "29.997399326376968",
    "geocoded_column": {
      "latitude": "29.997399326376968",
      "longitude": "-90.11044890177165"
    }
  },
  {
    "service_request": "2024-1096378",
    "request_type": "Abandoned Vehicles",
    "request_reason": "Abandoned/Junk Vehicles",
    "date_created": "2024-05-23T20:00:12.000",
    "date_modified": "2024-05-23T20:00:12.000",
    "request_status": "Pending",
    "responsible_agency": "Department of Public Works",
    "final_address": "1422 Japonica St",
    "address_councildis": "D",
    "status": "Pending",
    "rowid": "1096378",
    "final_x": "3693993.44112",
    "final_y": "536116.170183",
    "longitude": "-90.0284554392933",
    "latitude": "29.96774828886409",
    "geocoded_column": {
      "latitude": "29.96774828886409",
      "longitude": "-90.0284554392933"
    }
  },
  {
    "service_request": "2024-1096377",
    "request_type": "Roads/Drainage",
    "request_reason": "Pothole",
    "date_created": "2024-05-23T20:00:08.000",
    "date_modified": "2024-05-23T20:00:08.000",
    "request_status": "Pending",
    "responsible_agency": "Department of Public Works",
    "final_address": "1400 BLK Prytania St",
    "address_councildis": "B",
    "status": "Pending",
    "rowid": "1096377",
    "final_x": "3679729.28289",
    "final_y": "525385.287928",
    "longitude": "-90.07387452783159",
    "latitude": "29.9386809206597",
    "geocoded_column": {
      "latitude": "29.9386809206597",
      "longitude": "-90.07387452783159"
    }
  },
  {
    "service_request": "2024-1096376",
    "request_type": "Abandoned Vehicles",
    "request_reason": "Abandoned/Junk Vehicles",
    "date_created": "2024-05-23T19:57:26.000",
    "date_modified": "2024-05-23T19:57:26.000",
    "request_status": "Pending",
    "responsible_agency": "Department of Public Works",
    "final_address": "1422 Japonica St",
    "address_councildis": "D",
    "status": "Pending",
    "rowid": "1096376",
    "final_x": "3693993.44112",
    "final_y": "536116.170183",
    "longitude": "-90.0284554392933",
    "latitude": "29.96774828886409",
    "geocoded_column": {
      "latitude": "29.96774828886409",
      "longitude": "-90.0284554392933"
    }
  },
  {
    "service_request": "2024-1096375",
    "request_type": "Abandoned Vehicles",
    "request_reason": "Abandoned/Junk Vehicles",
    "date_created": "2024-05-23T19:53:11.000",
    "date_modified": "2024-05-23T19:53:11.000",
    "request_status": "Pending",
    "responsible_agency": "Department of Public Works",
    "final_address": "1422 Japonica St",
    "address_councildis": "D",
    "status": "Pending",
    "rowid": "1096375",
    "final_x": "3693993.44112",
    "final_y": "536116.170183",
    "longitude": "-90.0284554392933",
    "latitude": "29.96774828886409",
    "geocoded_column": {
      "latitude": "29.96774828886409",
      "longitude": "-90.0284554392933"
    }
  },
  {
    "service_request": "2024-1096374",
    "request_type": "Trash/Recycling",
    "request_reason": "Request a Large Item Pick Up",
    "date_created": "2024-05-23T19:26:42.000",
    "date_modified": "2024-05-23T19:26:42.000",
    "request_status": "Pending",
    "responsible_agency": "Department of Sanitation",
    "final_address": "New Orleans,LA",
    "status": "Assigned to Contractor",
    "rowid": "1096374",
    "longitude": "0.0",
    "latitude": "0.0",
    "geocoded_column": {
      "latitude": "0.0",
      "longitude": "0.0"
    }
  },
  {
    "service_request": "2024-1096373",
    "request_type": "Trash/Recycling",
    "request_reason": "Replace Trash Cart",
    "date_created": "2024-05-23T19:13:29.000",
    "date_modified": "2024-05-23T19:13:30.000",
    "request_status": "Pending",
    "responsible_agency": "Department of Sanitation",
    "final_address": "508 Fern St",
    "address_councildis": "A",
    "status": "Assigned to Contractor",
    "contractor": "IV Waste",
    "rowid": "1096373",
    "final_x": "3660894.98189",
    "final_y": "526109.124542",
    "longitude": "-90.13331284067704",
    "latitude": "29.941227037846375",
    "geocoded_column": {
      "latitude": "29.941227037846375",
      "longitude": "-90.13331284067704"
    }
  },
  {
    "service_request": "2024-1096372",
    "request_type": "Roads/Drainage",
    "request_reason": "Catch Basin - Clogged",
    "date_created": "2024-05-23T19:12:33.000",
    "date_modified": "2024-05-23T19:12:33.000",
    "request_status": "Pending",
    "responsible_agency": "Department of Public Works",
    "final_address": "4401 Werner Dr",
    "address_councildis": "E",
    "status": "Pending",
    "rowid": "1096372",
    "final_x": "3705017.31863",
    "final_y": "553280.312535",
    "longitude": "-89.9930079627416",
    "latitude": "30.014593473908292",
    "geocoded_column": {
      "latitude": "30.014593473908292",
      "longitude": "-89.9930079627416"
    }
  },
  {
    "service_request": "2024-1096370",
    "request_type": "Parks & Parkways",
    "request_reason": "Request Grass Cutting Service (City Owned Property)",
    "date_created": "2024-05-23T19:03:16.000",
    "date_modified": "2024-05-23T19:03:16.000",
    "request_status": "Pending",
    "responsible_agency": "Department of Parks & Parkway",
    "final_address": "8700 BLK Pritchard Pl",
    "address_councildis": "A",
    "status": "Pending",
    "rowid": "1096370",
    "final_x": "3664360.1883",
    "final_y": "534431.095296",
    "longitude": "-90.12209474649097",
    "latitude": "29.96400951952471",
    "geocoded_column": {
      "latitude": "29.96400951952471",
      "longitude": "-90.12209474649097"
    }
  },
  {
    "service_request": "2024-1096369",
    "request_type": "Trash/Recycling",
    "request_reason": "Replace Trash Cart",
    "date_created": "2024-05-23T18:57:05.000",
    "date_modified": "2024-05-23T18:57:06.000",
    "request_status": "Pending",
    "responsible_agency": "Department of Sanitation",
    "final_address": "4525 Coliseum St",
    "address_councildis": "B",
    "status": "Assigned to Contractor",
    "contractor": "IV Waste",
    "rowid": "1096369",
    "final_x": "3670337.06068",
    "final_y": "519802.584056",
    "longitude": "-90.10371600540275",
    "latitude": "29.923610797633543",
    "geocoded_column": {
      "latitude": "29.923610797633543",
      "longitude": "-90.10371600540275"
    }
  },
  {
    "service_request": "2024-1096368",
    "request_type": "Abandoned Vehicles",
    "request_reason": "Abandoned/Junk Vehicles",
    "date_created": "2024-05-23T18:28:47.000",
    "date_modified": "2024-05-23T18:28:47.000",
    "request_status": "Pending",
    "responsible_agency": "Department of Public Works",
    "final_address": "1219 Marengo St",
    "address_councildis": "B",
    "status": "Pending",
    "rowid": "1096368",
    "final_x": "3672088.42292",
    "final_y": "520129.883704",
    "longitude": "-90.09817645167335",
    "latitude": "29.924458973138773",
    "geocoded_column": {
      "latitude": "29.924458973138773",
      "longitude": "-90.09817645167335"
    }
  },
  {
    "service_request": "2024-1096367",
    "request_type": "Trash/Recycling",
    "request_reason": "Request a Large Item Pick Up",
    "date_created": "2024-05-23T18:23:50.000",
    "date_modified": "2024-05-23T18:23:51.000",
    "request_status": "Pending",
    "responsible_agency": "Department of Sanitation",
    "final_address": "326 Pelican Ave",
    "address_councildis": "C",
    "status": "Assigned to Contractor",
    "contractor": "Richards Disposal",
    "rowid": "1096367",
    "final_x": "3686340.87714",
    "final_y": "530404.326786",
    "longitude": "-90.05282397724002",
    "latitude": "29.952280095173037",
    "geocoded_column": {
      "latitude": "29.952280095173037",
      "longitude": "-90.05282397724002"
    }
  },
  {
    "service_request": "2024-1096366",
    "request_type": "Roads/Drainage",
    "request_reason": "Road Shoulder Repair",
    "date_created": "2024-05-23T18:22:16.000",
    "date_modified": "2024-05-23T18:22:16.000",
    "request_status": "Pending",
    "responsible_agency": "Department of Public Works",
    "final_address": "1305 Milan St",
    "address_councildis": "B",
    "status": "Pending",
    "rowid": "1096366",
    "final_x": "3671727.29249",
    "final_y": "520209.107256",
    "longitude": "-90.09931372627864",
    "latitude": "29.92468751158915",
    "geocoded_column": {
      "latitude": "29.92468751158915",
      "longitude": "-90.09931372627864"
    }
  },
  {
    "service_request": "2024-1096365",
    "request_type": "Trash/Recycling",
    "request_reason": "Replace Recycling Cart",
    "date_created": "2024-05-23T18:19:00.000",
    "date_modified": "2024-05-23T18:19:00.000",
    "request_status": "Pending",
    "responsible_agency": "Department of Sanitation",
    "final_address": "326 Pelican Ave",
    "address_councildis": "C",
    "status": "Pending",
    "rowid": "1096365",
    "final_x": "3686340.87714",
    "final_y": "530404.326786",
    "longitude": "-90.05282397724002",
    "latitude": "29.952280095173037",
    "geocoded_column": {
      "latitude": "29.952280095173037",
      "longitude": "-90.05282397724002"
    }
  },
  {
    "service_request": "2024-1096364",
    "request_type": "Trash/Recycling",
    "request_reason": "Request a Large Item Pick Up",
    "date_created": "2024-05-23T18:15:58.000",
    "date_modified": "2024-05-23T18:15:59.000",
    "request_status": "Pending",
    "responsible_agency": "Department of Sanitation",
    "final_address": "935 Washington Ave",
    "address_councildis": "B",
    "status": "Assigned to Contractor",
    "contractor": "IV Waste",
    "rowid": "1096364",
    "final_x": "3677325.57198",
    "final_y": "520486.486584",
    "longitude": "-90.0816322561667",
    "latitude": "29.925283247071093",
    "geocoded_column": {
      "latitude": "29.925283247071093",
      "longitude": "-90.0816322561667"
    }
  },
  {
    "service_request": "2024-1096362",
    "request_type": "Trash/Recycling",
    "request_reason": "Request a Large Item Pick Up",
    "date_created": "2024-05-23T17:59:55.000",
    "date_modified": "2024-05-23T17:59:55.000",
    "request_status": "Pending",
    "responsible_agency": "Department of Sanitation",
    "final_address": "1229 Governor Nicholls St",
    "address_councildis": "C",
    "status": "Assigned to Contractor",
    "contractor": "IV Waste",
    "rowid": "1096362",
    "final_x": "3682014.20962",
    "final_y": "535274.299718",
    "longitude": "-90.06631555004992",
    "latitude": "29.965803102282084",
    "geocoded_column": {
      "latitude": "29.965803102282084",
      "longitude": "-90.06631555004992"
    }
  },
  {
    "service_request": "2024-1096361",
    "request_type": "Roads/Drainage",
    "request_reason": "Damaged Sidewalk",
    "date_created": "2024-05-23T17:48:21.000",
    "date_modified": "2024-05-23T17:48:21.000",
    "request_status": "Pending",
    "responsible_agency": "Department of Public Works",
    "final_address": "1725 Dufossat St",
    "address_councildis": "B",
    "status": "Pending",
    "rowid": "1096361",
    "final_x": "3668192.68743",
    "final_y": "522036.060218",
    "longitude": "-90.11040977787289",
    "latitude": "29.92981524824353",
    "geocoded_column": {
      "latitude": "29.92981524824353",
      "longitude": "-90.11040977787289"
    }
  },
  {
    "service_request": "2024-1096360",
    "request_type": "Trash/Recycling",
    "request_reason": "Request a Large Item Pick Up",
    "date_created": "2024-05-23T17:47:50.000",
    "date_modified": "2024-05-23T20:17:33.000",
    "case_close_date": "2024-05-23T15:17:33.000",
    "request_status": "Closed",
    "responsible_agency": "Department of Sanitation",
    "final_address": "7231 Queensway Dr",
    "address_councildis": "E",
    "status": "Assigned to Contractor",
    "contractor": "Waste Pro",
    "contractor_action": "Completed",
    "rowid": "1096360",
    "final_x": "3718634.65765",
    "final_y": "570269.282663",
    "longitude": "-89.9493360422512",
    "latitude": "30.06086123686576",
    "geocoded_column": {
      "latitude": "30.06086123686576",
      "longitude": "-89.9493360422512"
    }
  },
  {
    "service_request": "2024-1096359",
    "request_type": "Roads/Drainage",
    "request_reason": "Street Flooding / Drainage",
    "date_created": "2024-05-23T17:47:00.000",
    "date_modified": "2024-05-23T17:47:00.000",
    "request_status": "Pending",
    "responsible_agency": "Department of Public Works",
    "final_address": "2530 St Ann St",
    "address_councildis": "D",
    "status": "Pending",
    "rowid": "1096359",
    "final_x": "3677505.06107",
    "final_y": "536731.992135",
    "longitude": "-90.08050496385428",
    "latitude": "29.969947587785015",
    "geocoded_column": {
      "latitude": "29.969947587785015",
      "longitude": "-90.08050496385428"
    }
  },
  {
    "service_request": "2024-1096358",
    "request_type": "Trash/Recycling",
    "request_reason": "Request a Large Item Pick Up",
    "date_created": "2024-05-23T17:45:42.000",
    "date_modified": "2024-05-23T17:45:42.000",
    "request_status": "Pending",
    "responsible_agency": "Department of Sanitation",
    "final_address": "7231 Queensway Dr",
    "address_councildis": "E",
    "status": "Assigned to Contractor",
    "contractor": "Waste Pro",
    "rowid": "1096358",
    "final_x": "3718634.65765",
    "final_y": "570269.282663",
    "longitude": "-89.9493360422512",
    "latitude": "30.06086123686576",
    "geocoded_column": {
      "latitude": "30.06086123686576",
      "longitude": "-89.9493360422512"
    }
  },
  {
    "service_request": "2024-1096356",
    "request_type": "Abandoned Vehicles",
    "request_reason": "Vehicle Blocking Your Driveway",
    "date_created": "2024-05-23T17:43:31.000",
    "date_modified": "2024-05-23T17:43:31.000",
    "request_status": "Pending",
    "responsible_agency": "Department of Public Works",
    "final_address": "2415 Magazine St",
    "address_councildis": "B",
    "status": "Pending",
    "rowid": "1096356",
    "final_x": "3677887.76859",
    "final_y": "521444.104377",
    "longitude": "-90.07982450886504",
    "latitude": "29.927899485728492",
    "geocoded_column": {
      "latitude": "29.927899485728492",
      "longitude": "-90.07982450886504"
    }
  },
  {
    "service_request": "2024-1096355",
    "request_type": "Trash/Recycling",
    "request_reason": "Order Recycling Cart",
    "date_created": "2024-05-23T17:42:21.000",
    "date_modified": "2024-05-23T17:42:21.000",
    "request_status": "Pending",
    "responsible_agency": "Department of Sanitation",
    "final_address": "2705 Burgundy St",
    "address_councildis": "C",
    "status": "Pending",
    "rowid": "1096355",
    "final_x": "3687301.60271",
    "final_y": "535660.273862",
    "longitude": "-90.0496045276283",
    "latitude": "29.966702577255425",
    "geocoded_column": {
      "latitude": "29.966702577255425",
      "longitude": "-90.0496045276283"
    }
  },
  {
    "service_request": "2024-1096353",
    "request_type": "Trash/Recycling",
    "request_reason": "Replace Trash Cart",
    "date_created": "2024-05-23T17:40:35.000",
    "date_modified": "2024-05-23T17:40:36.000",
    "request_status": "Pending",
    "responsible_agency": "Department of Sanitation",
    "final_address": "2705 Burgundy St",
    "address_councildis": "C",
    "status": "Assigned to Contractor",
    "contractor": "IV Waste",
    "rowid": "1096353",
    "final_x": "3687301.60271",
    "final_y": "535660.273862",
    "longitude": "-90.0496045276283",
    "latitude": "29.966702577255425",
    "geocoded_column": {
      "latitude": "29.966702577255425",
      "longitude": "-90.0496045276283"
    }
  },
  {
    "service_request": "2024-1096352",
    "request_type": "Trash/Recycling",
    "request_reason": "Repair Trash Cart",
    "date_created": "2024-05-23T17:33:04.000",
    "date_modified": "2024-05-23T17:33:04.000",
    "request_status": "Pending",
    "responsible_agency": "Department of Sanitation",
    "final_address": "1016 Elysian Fields Ave",
    "address_councildis": "C",
    "status": "Assigned to Contractor",
    "contractor": "IV Waste",
    "rowid": "1096352",
    "final_x": "3684922.66729",
    "final_y": "536110.300167",
    "longitude": "-90.0571013505591",
    "latitude": "29.96801306336815",
    "geocoded_column": {
      "latitude": "29.96801306336815",
      "longitude": "-90.0571013505591"
    }
  },
  {
    "service_request": "2024-1096351",
    "request_type": "Abandoned Vehicles",
    "request_reason": "Abandoned/Junk Vehicles",
    "date_created": "2024-05-23T17:29:45.000",
    "date_modified": "2024-05-23T17:29:45.000",
    "request_status": "Pending",
    "responsible_agency": "Department of Public Works",
    "final_address": "1462 N Prieur St",
    "address_councildis": "D",
    "status": "Pending",
    "rowid": "1096351",
    "final_x": "3680816.20399",
    "final_y": "537636.472712",
    "longitude": "-90.070016564745",
    "latitude": "29.97233463623756",
    "geocoded_column": {
      "latitude": "29.97233463623756",
      "longitude": "-90.070016564745"
    }
  },
  {
    "service_request": "2024-1096349",
    "request_type": "Trash/Recycling",
    "request_reason": "Request a Large Item Pick Up",
    "date_created": "2024-05-23T17:19:53.000",
    "date_modified": "2024-05-23T17:19:53.000",
    "request_status": "Pending",
    "responsible_agency": "Department of Sanitation",
    "final_address": "933 Toledano St",
    "address_councildis": "B",
    "status": "Assigned to Contractor",
    "contractor": "IV Waste",
    "rowid": "1096349",
    "final_x": "3675604.82126",
    "final_y": "519376.607287",
    "longitude": "-90.08710223370564",
    "latitude": "29.922283011090915",
    "geocoded_column": {
      "latitude": "29.922283011090915",
      "longitude": "-90.08710223370564"
    }
  },
  {
    "service_request": "2024-1096348",
    "request_type": "Trash/Recycling",
    "request_reason": "Request a Large Item Pick Up",
    "date_created": "2024-05-23T17:08:05.000",
    "date_modified": "2024-05-23T17:08:06.000",
    "request_status": "Pending",
    "responsible_agency": "Department of Sanitation",
    "final_address": "436 Hillary St",
    "address_councildis": "A",
    "status": "Assigned to Contractor",
    "contractor": "IV Waste",
    "rowid": "1096348",
    "final_x": "3661579.62746",
    "final_y": "525337.631677",
    "longitude": "-90.13117682894404",
    "latitude": "29.93908594364971",
    "geocoded_column": {
      "latitude": "29.93908594364971",
      "longitude": "-90.13117682894404"
    }
  },
  {
    "service_request": "2024-1096347",
    "request_type": "Property Maintenance",
    "request_reason": "Property Maintenance",
    "date_created": "2024-05-23T17:07:12.000",
    "date_modified": "2024-05-23T17:07:12.000",
    "request_status": "Pending",
    "responsible_agency": "Department of Code Enforcement",
    "final_address": "3727 Coliseum St",
    "address_councildis": "B",
    "status": "Pending",
    "rowid": "1096347",
    "final_x": "3673174.89992",
    "final_y": "520136.978104",
    "longitude": "-90.09474656689223",
    "latitude": "29.924446232479852",
    "geocoded_column": {
      "latitude": "29.924446232479852",
      "longitude": "-90.09474656689223"
    }
  },
  {
    "service_request": "2024-1096345",
    "request_type": "Trash/Recycling",
    "request_reason": "Request a Large Item Pick Up",
    "date_created": "2024-05-23T17:00:46.000",
    "date_modified": "2024-05-23T17:00:47.000",
    "request_status": "Pending",
    "responsible_agency": "Department of Sanitation",
    "final_address": "4931 Elysian Fields Ave",
    "address_councildis": "D",
    "status": "Assigned to Contractor",
    "contractor": "IV Waste",
    "rowid": "1096345",
    "final_x": "3683948.46607",
    "final_y": "550959.632597",
    "longitude": "-90.0596566431704",
    "latitude": "30.00887326612827",
    "geocoded_column": {
      "latitude": "30.00887326612827",
      "longitude": "-90.0596566431704"
    }
  },
  {
    "service_request": "2024-1096344",
    "request_type": "Trash/Recycling",
    "request_reason": "Request a Large Item Pick Up",
    "date_created": "2024-05-23T16:56:10.000",
    "date_modified": "2024-05-23T16:56:11.000",
    "request_status": "Pending",
    "responsible_agency": "Department of Sanitation",
    "final_address": "1403 France St",
    "address_councildis": "D",
    "status": "Assigned to Contractor",
    "contractor": "IV Waste",
    "rowid": "1096344",
    "final_x": "3692704.36989",
    "final_y": "536303.629831",
    "longitude": "-90.03251962425257",
    "latitude": "29.968304038275473",
    "geocoded_column": {
      "latitude": "29.968304038275473",
      "longitude": "-90.03251962425257"
    }
  },
  {
    "service_request": "2024-1096343",
    "request_type": "Utility Poles",
    "request_reason": "Utility Pole Leaning",
    "date_created": "2024-05-23T16:55:58.000",
    "date_modified": "2024-05-23T16:56:04.000",
    "request_status": "Pending",
    "responsible_agency": "Utility Company Collective",
    "final_address": "422 Burdette St",
    "address_councildis": "A",
    "status": "Pending",
    "rowid": "1096343",
    "final_x": "3660996.82637",
    "final_y": "525706.529853",
    "longitude": "-90.1330046118547",
    "latitude": "29.9401170967883",
    "geocoded_column": {
      "latitude": "29.9401170967883",
      "longitude": "-90.1330046118547"
    }
  },
  {
    "service_request": "2024-1096342",
    "request_type": "Traffic Signals/Signs/Striping/Streetlights",
    "request_reason": "Traffic Sign Missing/Damaged",
    "date_created": "2024-05-23T16:51:58.000",
    "date_modified": "2024-05-23T16:51:58.000",
    "request_status": "Pending",
    "responsible_agency": "Department of Public Works",
    "final_address": "1400 BLK Magazine St",
    "address_councildis": "B",
    "status": "Pending",
    "rowid": "1096342",
    "final_x": "3680328.50709",
    "final_y": "524368.924475",
    "longitude": "-90.07201803438208",
    "latitude": "29.935868133776005",
    "geocoded_column": {
      "latitude": "29.935868133776005",
      "longitude": "-90.07201803438208"
    }
  },
  {
    "service_request": "2024-1096341",
    "request_type": "Trash/Recycling",
    "request_reason": "Missed Trash Pick-Up",
    "date_created": "2024-05-23T16:50:27.000",
    "date_modified": "2024-05-23T17:39:43.000",
    "case_close_date": "2024-05-23T12:39:43.000",
    "request_status": "Closed",
    "responsible_agency": "Department of Sanitation",
    "final_address": "222 Arabella St",
    "address_councildis": "A",
    "status": "Invalid Request",
    "contractor": "IV Waste",
    "contractor_action": "Invalid Request",
    "rowid": "1096341",
    "final_x": "3665372.11783",
    "final_y": "517061.585269",
    "longitude": "-90.1194802232968",
    "latitude": "29.91621947611089",
    "geocoded_column": {
      "latitude": "29.91621947611089",
      "longitude": "-90.1194802232968"
    }
  },
  {
    "service_request": "2024-1096340",
    "request_type": "Abandoned Vehicles",
    "request_reason": "Abandoned/Junk Vehicles",
    "date_created": "2024-05-23T16:48:59.000",
    "date_modified": "2024-05-23T16:48:59.000",
    "request_status": "Pending",
    "responsible_agency": "Department of Public Works",
    "final_address": "3026 Leonidas St",
    "address_councildis": "A",
    "status": "Pending",
    "rowid": "1096340",
    "final_x": "3665109.34119",
    "final_y": "534524.622725",
    "longitude": "-90.11972585149927",
    "latitude": "29.964244893051863",
    "geocoded_column": {
      "latitude": "29.964244893051863",
      "longitude": "-90.11972585149927"
    }
  },
  {
    "service_request": "2024-1096339",
    "request_type": "Trash/Recycling",
    "request_reason": "Request a Large Item Pick Up",
    "date_created": "2024-05-23T16:48:02.000",
    "date_modified": "2024-05-23T16:48:02.000",
    "request_status": "Pending",
    "responsible_agency": "Department of Sanitation",
    "final_address": "7511 Eastmore Rd",
    "address_councildis": "E",
    "status": "Assigned to Contractor",
    "contractor": "Waste Pro",
    "rowid": "1096339",
    "final_x": "3700407.11415",
    "final_y": "560251.502173",
    "longitude": "-90.00731896953855",
    "latitude": "30.033909044392352",
    "geocoded_column": {
      "latitude": "30.033909044392352",
      "longitude": "-90.00731896953855"
    }
  },
  {
    "service_request": "2024-1096338",
    "request_type": "Parks & Parkways",
    "request_reason": "Tree Stump (removal, grind)",
    "date_created": "2024-05-23T16:47:04.000",
    "date_modified": "2024-05-23T16:47:04.000",
    "request_status": "Pending",
    "responsible_agency": "Department of Parks & Parkway",
    "final_address": "HARMONY ST & COLISEUM ST",
    "address_councildis": "B",
    "status": "Pending",
    "rowid": "1096338",
    "final_x": "3675329.8",
    "final_y": "520923.38",
    "longitude": "-90.08791729561472",
    "latitude": "29.926544359158942",
    "geocoded_column": {
      "latitude": "29.926544359158942",
      "longitude": "-90.08791729561472"
    }
  },
  {
    "service_request": "2024-1096337",
    "request_type": "Property Maintenance",
    "request_reason": "Property Maintenance",
    "date_created": "2024-05-23T16:43:04.000",
    "date_modified": "2024-05-23T16:43:04.000",
    "request_status": "Pending",
    "responsible_agency": "Department of Code Enforcement",
    "final_address": "1568 N Rocheblave St",
    "address_councildis": "D",
    "status": "Pending",
    "rowid": "1096337",
    "final_x": "3679875.85563",
    "final_y": "539373.957706",
    "longitude": "-90.07292598750266",
    "latitude": "29.977140593822085",
    "geocoded_column": {
      "latitude": "29.977140593822085",
      "longitude": "-90.07292598750266"
    }
  },
  {
    "service_request": "2024-1096336",
    "request_type": "Trash/Recycling",
    "request_reason": "Order Recycling Cart",
    "date_created": "2024-05-23T16:42:49.000",
    "date_modified": "2024-05-23T16:42:49.000",
    "request_status": "Pending",
    "responsible_agency": "Department of Sanitation",
    "final_address": "6000 Eads St",
    "address_councildis": "D",
    "status": "Pending",
    "rowid": "1096336",
    "final_x": "3686732.07311",
    "final_y": "555257.280729",
    "longitude": "-90.0507103461607",
    "latitude": "30.020604846406144",
    "geocoded_column": {
      "latitude": "30.020604846406144",
      "longitude": "-90.0507103461607"
    }
  },
  {
    "service_request": "2024-1096335",
    "request_type": "Trash/Recycling",
    "request_reason": "Order Recycling Cart",
    "date_created": "2024-05-23T16:40:42.000",
    "date_modified": "2024-05-23T16:40:42.000",
    "request_status": "Pending",
    "responsible_agency": "Department of Sanitation",
    "final_address": "6000 Eads St",
    "address_councildis": "D",
    "status": "Pending",
    "rowid": "1096335",
    "final_x": "3686732.07311",
    "final_y": "555257.280729",
    "longitude": "-90.0507103461607",
    "latitude": "30.020604846406144",
    "geocoded_column": {
      "latitude": "30.020604846406144",
      "longitude": "-90.0507103461607"
    }
  },
  {
    "service_request": "2024-1096334",
    "request_type": "Trash/Recycling",
    "request_reason": "Replace Recycling Cart",
    "date_created": "2024-05-23T16:40:06.000",
    "date_modified": "2024-05-23T16:40:06.000",
    "request_status": "Pending",
    "responsible_agency": "Department of Sanitation",
    "final_address": "2219 Valence St",
    "address_councildis": "B",
    "status": "Pending",
    "rowid": "1096334",
    "final_x": "3669605.04199",
    "final_y": "523058.114811",
    "longitude": "-90.10591664375508",
    "latitude": "29.932584047861074",
    "geocoded_column": {
      "latitude": "29.932584047861074",
      "longitude": "-90.10591664375508"
    }
  },
  {
    "service_request": "2024-1096333",
    "request_type": "Trash/Recycling",
    "request_reason": "Replace Trash Cart",
    "date_created": "2024-05-23T16:37:04.000",
    "date_modified": "2024-05-23T16:37:04.000",
    "request_status": "Pending",
    "responsible_agency": "Department of Sanitation",
    "final_address": "2219 Valence St",
    "address_councildis": "B",
    "status": "Assigned to Contractor",
    "contractor": "IV Waste",
    "rowid": "1096333",
    "final_x": "3669605.04199",
    "final_y": "523058.114811",
    "longitude": "-90.10591664375508",
    "latitude": "29.932584047861074",
    "geocoded_column": {
      "latitude": "29.932584047861074",
      "longitude": "-90.10591664375508"
    }
  },
  {
    "service_request": "2024-1096332",
    "request_type": "Trash/Recycling",
    "request_reason": "Order Trash Cart",
    "date_created": "2024-05-23T16:32:49.000",
    "date_modified": "2024-05-23T16:32:49.000",
    "request_status": "Pending",
    "responsible_agency": "Department of Sanitation",
    "final_address": "2622 Touro St",
    "address_councildis": "D",
    "status": "Assigned to Contractor",
    "contractor": "IV Waste",
    "rowid": "1096332",
    "final_x": "3683735.87644",
    "final_y": "541994.370444",
    "longitude": "-90.06064288132501",
    "latitude": "29.98422849550307",
    "geocoded_column": {
      "latitude": "29.98422849550307",
      "longitude": "-90.06064288132501"
    }
  },
  {
    "service_request": "2024-1096331",
    "request_type": "Traffic Signals/Signs/Striping/Streetlights",
    "request_reason": "Street Light Outage/Malfunction",
    "date_created": "2024-05-23T16:32:45.000",
    "date_modified": "2024-05-23T16:32:46.000",
    "request_status": "Pending",
    "responsible_agency": "Department of Public Works",
    "final_address": "4100 BLK Vendome Pl",
    "address_councildis": "B",
    "status": "Assigned to Contractor",
    "contractor": "Legacy Professional Services",
    "rowid": "1096331",
    "final_x": "3668887.99519",
    "final_y": "530720.296615",
    "longitude": "-90.1079216201178",
    "latitude": "29.95367366561618",
    "geocoded_column": {
      "latitude": "29.95367366561618",
      "longitude": "-90.1079216201178"
    }
  },
  {
    "service_request": "2024-1096330",
    "request_type": "Trash/Recycling",
    "request_reason": "Request a Large Item Pick Up",
    "date_created": "2024-05-23T16:27:53.000",
    "date_modified": "2024-05-23T16:49:10.000",
    "request_status": "Pending",
    "responsible_agency": "Department of Sanitation",
    "final_address": "2720 S Carrollton Ave, New Orleans, Louisiana, 70118",
    "address_councildis": "A",
    "contractor": "IV Waste",
    "rowid": "1096330",
    "final_x": "3665710.68135",
    "final_y": "532507.302404",
    "longitude": "-90.11789443654493",
    "latitude": "29.95868039828293",
    "geocoded_column": {
      "latitude": "29.95868039828293",
      "longitude": "-90.11789443654493"
    }
  },
  {
    "service_request": "2024-1096329",
    "request_type": "Trash/Recycling",
    "request_reason": "Request a Large Item Pick Up",
    "date_created": "2024-05-23T16:26:20.000",
    "date_modified": "2024-05-23T16:26:20.000",
    "request_status": "Pending",
    "responsible_agency": "Department of Sanitation",
    "final_address": "2034 Elysian Fields Ave",
    "address_councildis": "D",
    "status": "Assigned to Contractor",
    "contractor": "IV Waste",
    "rowid": "1096329",
    "final_x": "3684626.76073",
    "final_y": "539885.680458",
    "longitude": "-90.05790312060894",
    "latitude": "29.978403101923764",
    "geocoded_column": {
      "latitude": "29.978403101923764",
      "longitude": "-90.05790312060894"
    }
  },
  {
    "service_request": "2024-1096328",
    "request_type": "Roads/Drainage",
    "request_reason": "Pothole",
    "date_created": "2024-05-23T16:21:03.000",
    "date_modified": "2024-05-23T16:21:03.000",
    "request_status": "Pending",
    "responsible_agency": "Department of Public Works",
    "final_address": "6470 General Diaz St, New Orleans, Louisiana, 70124",
    "address_councildis": "A",
    "status": "Pending",
    "rowid": "1096328",
    "final_x": "3669730.02209",
    "final_y": "550509.549844",
    "longitude": "-90.10459277303093",
    "latitude": "30.008062606609293",
    "geocoded_column": {
      "latitude": "30.008062606609293",
      "longitude": "-90.10459277303093"
    }
  },
  {
    "service_request": "2024-1096327",
    "request_type": "Roads/Drainage",
    "request_reason": "Pothole",
    "date_created": "2024-05-23T16:19:40.000",
    "date_modified": "2024-05-23T16:19:41.000",
    "request_status": "Pending",
    "responsible_agency": "Department of Public Works",
    "final_address": "2318 S Salcedo St",
    "address_councildis": "B",
    "status": "Pending",
    "rowid": "1096327",
    "final_x": "3669065.67092",
    "final_y": "528548.981888",
    "longitude": "-90.10743394410896",
    "latitude": "29.947698034197632",
    "geocoded_column": {
      "latitude": "29.947698034197632",
      "longitude": "-90.10743394410896"
    }
  },
  {
    "service_request": "2024-1096326",
    "request_type": "Abandoned Vehicles",
    "request_reason": "Vehicle Blocking Your Driveway",
    "date_created": "2024-05-23T16:16:51.000",
    "date_modified": "2024-05-23T16:16:51.000",
    "request_status": "Pending",
    "responsible_agency": "Department of Public Works",
    "final_address": "3616 State Street Dr",
    "address_councildis": "A",
    "status": "Pending",
    "rowid": "1096326",
    "final_x": "3667876.00468",
    "final_y": "529135.954944",
    "longitude": "-90.11117043336019",
    "latitude": "29.949346963014328",
    "geocoded_column": {
      "latitude": "29.949346963014328",
      "longitude": "-90.11117043336019"
    }
  },
  {
    "service_request": "2024-1096325",
    "request_type": "Trash/Recycling",
    "request_reason": "MIssed Recycling Pick-Up",
    "date_created": "2024-05-23T16:10:12.000",
    "date_modified": "2024-05-23T16:10:12.000",
    "request_status": "Pending",
    "responsible_agency": "Department of Sanitation",
    "final_address": "4826 Gabriel Dr",
    "address_councildis": "E",
    "status": "Assigned to Contractor",
    "contractor": "Waste Pro",
    "rowid": "1096325",
    "final_x": "3708773.30968",
    "final_y": "556264.952154",
    "longitude": "-89.98102968717605",
    "latitude": "30.022678733318873",
    "geocoded_column": {
      "latitude": "30.022678733318873",
      "longitude": "-89.98102968717605"
    }
  },
  {
    "service_request": "2024-1096324",
    "request_type": "Trash/Recycling",
    "request_reason": "Missed Trash Pick-Up",
    "date_created": "2024-05-23T16:07:39.000",
    "date_modified": "2024-05-23T16:56:24.000",
    "case_close_date": "2024-05-23T11:56:24.000",
    "request_status": "Closed",
    "responsible_agency": "Department of Sanitation",
    "final_address": "4410 Fontainebleau Dr",
    "address_councildis": "A",
    "status": "Assigned to Contractor",
    "contractor": "IV Waste",
    "contractor_action": "Invalid Request",
    "rowid": "1096324",
    "final_x": "3669118.86881",
    "final_y": "529501.212609",
    "longitude": "-90.10723380533294",
    "latitude": "29.950314792784642",
    "geocoded_column": {
      "latitude": "29.950314792784642",
      "longitude": "-90.10723380533294"
    }
  },
  {
    "service_request": "2024-1096323",
    "request_type": "Traffic Signals/Signs/Striping/Streetlights",
    "request_reason": "Traffic Sign Missing/Damaged",
    "date_created": "2024-05-23T16:07:30.000",
    "date_modified": "2024-05-23T16:07:30.000",
    "request_status": "Pending",
    "responsible_agency": "Department of Public Works",
    "final_address": "MARAIS ST & ST BERNARD AVE",
    "address_councildis": "C",
    "status": "Pending",
    "rowid": "1096323",
    "final_x": "3682894.3",
    "final_y": "536500.98",
    "longitude": "-90.06349332735539",
    "latitude": "29.969149261961793",
    "geocoded_column": {
      "latitude": "29.969149261961793",
      "longitude": "-90.06349332735539"
    }
  },
  {
    "service_request": "2024-1096322",
    "request_type": "Parks & Parkways",
    "request_reason": "Request Tree Service (Right of Way/Public Property)",
    "date_created": "2024-05-23T16:05:29.000",
    "date_modified": "2024-05-23T16:05:30.000",
    "request_status": "Pending",
    "responsible_agency": "Department of Parks & Parkway",
    "final_address": "3328 St Anthony Ave",
    "address_councildis": "D",
    "status": "Pending",
    "rowid": "1096322",
    "final_x": "3682732.93775",
    "final_y": "544860.459663",
    "longitude": "-90.06371040298717",
    "latitude": "29.99213982096269",
    "geocoded_column": {
      "latitude": "29.99213982096269",
      "longitude": "-90.06371040298717"
    }
  },
  {
    "service_request": "2024-1096321",
    "request_type": "Roads/Drainage",
    "request_reason": "Pothole",
    "date_created": "2024-05-23T16:04:42.000",
    "date_modified": "2024-05-23T16:04:42.000",
    "request_status": "Pending",
    "responsible_agency": "Department of Public Works",
    "final_address": "3818 Camp St",
    "address_councildis": "B",
    "status": "Pending",
    "rowid": "1096321",
    "final_x": "3673147.79368",
    "final_y": "519317.373943",
    "longitude": "-90.09486009585449",
    "latitude": "29.922193389169887",
    "geocoded_column": {
      "latitude": "29.922193389169887",
      "longitude": "-90.09486009585449"
    }
  },
  {
    "service_request": "2024-1096320",
    "request_type": "Property Maintenance",
    "request_reason": "Property Maintenance",
    "date_created": "2024-05-23T16:03:05.000",
    "date_modified": "2024-05-23T16:03:05.000",
    "request_status": "Pending",
    "responsible_agency": "Department of Code Enforcement",
    "final_address": "5700 BLK Vicksburg St",
    "address_councildis": "A",
    "status": "Pending",
    "rowid": "1096320",
    "final_x": "3668705.61564",
    "final_y": "545500.366464",
    "longitude": "-90.1079984294209",
    "latitude": "29.994319255843447",
    "geocoded_column": {
      "latitude": "29.994319255843447",
      "longitude": "-90.1079984294209"
    }
  },
  {
    "service_request": "2024-1096319",
    "request_type": "Roads/Drainage",
    "request_reason": "Catch Basin - Broken/Damage",
    "date_created": "2024-05-23T16:00:12.000",
    "date_modified": "2024-05-23T16:00:13.000",
    "request_status": "Pending",
    "responsible_agency": "Department of Public Works",
    "final_address": "7670 Sandy Cove Dr",
    "address_councildis": "E",
    "status": "Pending",
    "rowid": "1096319",
    "final_x": "3715345.41842",
    "final_y": "569467.873574",
    "longitude": "-89.95976350075755",
    "latitude": "30.05876652159072",
    "geocoded_column": {
      "latitude": "30.05876652159072",
      "longitude": "-89.95976350075755"
    }
  },
  {
    "service_request": "2024-1096318",
    "request_type": "Trash/Recycling",
    "request_reason": "Missed Trash Pick-Up",
    "date_created": "2024-05-23T15:58:10.000",
    "date_modified": "2024-05-23T16:03:08.000",
    "case_close_date": "2024-05-23T11:03:08.000",
    "request_status": "Closed",
    "responsible_agency": "Department of Sanitation",
    "final_address": "11251 S Parkwood Ct",
    "address_councildis": "E",
    "status": "Invalid Request",
    "contractor": "Waste Pro",
    "contractor_action": "Invalid Request",
    "rowid": "1096318",
    "final_x": "3716809.82904",
    "final_y": "559174.723612",
    "longitude": "-89.95552590628999",
    "latitude": "30.03041620408868",
    "geocoded_column": {
      "latitude": "30.03041620408868",
      "longitude": "-89.95552590628999"
    }
  },
  {
    "service_request": "2024-1096317",
    "request_type": "Trash/Recycling",
    "request_reason": "Missed Trash Pick-Up",
    "date_created": "2024-05-23T15:57:42.000",
    "date_modified": "2024-05-23T15:57:42.000",
    "request_status": "Pending",
    "responsible_agency": "Department of Sanitation",
    "final_address": "1020 Gordon St",
    "address_councildis": "E",
    "status": "Assigned to Contractor",
    "contractor": "Waste Pro",
    "rowid": "1096317",
    "final_x": "3699035.32144",
    "final_y": "533238.212612",
    "longitude": "-90.01263789539456",
    "latitude": "29.95967609439176",
    "geocoded_column": {
      "latitude": "29.95967609439176",
      "longitude": "-90.01263789539456"
    }
  },
  {
    "service_request": "2024-1096316",
    "request_type": "Roads/Drainage",
    "request_reason": "Catch Basin - Clogged",
    "date_created": "2024-05-23T15:57:38.000",
    "date_modified": "2024-05-23T16:00:26.000",
    "request_status": "Pending",
    "responsible_agency": "Department of Public Works",
    "final_address": "8401 Curran Rd",
    "address_councildis": "E",
    "rowid": "1096316",
    "final_x": "3703397.79127",
    "final_y": "562257.090143",
    "longitude": "-89.99779426205508",
    "latitude": "30.039328123715922",
    "geocoded_column": {
      "latitude": "30.039328123715922",
      "longitude": "-89.99779426205508"
    }
  },
  {
    "service_request": "2024-1096315",
    "request_type": "Roads/Drainage",
    "request_reason": "Catch Basin - Clogged",
    "date_created": "2024-05-23T15:56:52.000",
    "date_modified": "2024-05-23T15:59:56.000",
    "request_status": "Pending",
    "responsible_agency": "Department of Public Works",
    "final_address": "8409 Curran Rd",
    "address_councildis": "E",
    "rowid": "1096315",
    "final_x": "3703437.70238",
    "final_y": "562272.324447",
    "longitude": "-89.99766757093363",
    "latitude": "30.03936873291937",
    "geocoded_column": {
      "latitude": "30.03936873291937",
      "longitude": "-89.99766757093363"
    }
  },
  {
    "service_request": "2024-1096314",
    "request_type": "Trash/Recycling",
    "request_reason": "Request a Large Item Pick Up",
    "date_created": "2024-05-23T15:53:50.000",
    "date_modified": "2024-05-23T15:53:51.000",
    "request_status": "Pending",
    "responsible_agency": "Department of Sanitation",
    "final_address": "1410 Jackson Ave",
    "address_councildis": "B",
    "status": "Assigned to Contractor",
    "contractor": "IV Waste",
    "rowid": "1096314",
    "final_x": "3678103.46293",
    "final_y": "522922.013179",
    "longitude": "-90.0790925440959",
    "latitude": "29.93195676211378",
    "geocoded_column": {
      "latitude": "29.93195676211378",
      "longitude": "-90.0790925440959"
    }
  },
  {
    "service_request": "2024-1096313",
    "request_type": "Traffic Signals/Signs/Striping/Streetlights",
    "request_reason": "Street Light Outage/Malfunction",
    "date_created": "2024-05-23T15:52:43.000",
    "date_modified": "2024-05-23T15:52:43.000",
    "request_status": "Pending",
    "responsible_agency": "Department of Public Works",
    "final_address": "3629 Touro St",
    "address_councildis": "D",
    "status": "Assigned to Contractor",
    "contractor": "Legacy Professional Services",
    "rowid": "1096313",
    "final_x": "3683482.47612",
    "final_y": "546019.935696",
    "longitude": "-90.06130210537383",
    "latitude": "29.995305109905683",
    "geocoded_column": {
      "latitude": "29.995305109905683",
      "longitude": "-90.06130210537383"
    }
  },
  {
    "service_request": "2024-1096312",
    "request_type": "Traffic Signals/Signs/Striping/Streetlights",
    "request_reason": "Street Light Outage/Malfunction",
    "date_created": "2024-05-23T15:51:47.000",
    "date_modified": "2024-05-23T15:51:48.000",
    "request_status": "Pending",
    "responsible_agency": "Department of Public Works",
    "final_address": "1265 Harrison Ave",
    "address_councildis": "D",
    "status": "Assigned to Contractor",
    "contractor": "Legacy Professional Services",
    "rowid": "1096312",
    "final_x": "3677036.55022",
    "final_y": "547591.845778",
    "longitude": "-90.08160991064881",
    "latitude": "29.999822493623423",
    "geocoded_column": {
      "latitude": "29.999822493623423",
      "longitude": "-90.08160991064881"
    }
  },
  {
    "service_request": "2024-1096311",
    "request_type": "Roads/Drainage",
    "request_reason": "Pothole",
    "date_created": "2024-05-23T15:49:03.000",
    "date_modified": "2024-05-23T15:49:03.000",
    "request_status": "Pending",
    "responsible_agency": "Department of Public Works",
    "final_address": "1900 BLK Treasure St",
    "address_councildis": "D",
    "status": "Pending",
    "rowid": "1096311",
    "final_x": "3682341.46533",
    "final_y": "543874.929754",
    "longitude": "-90.06498144418538",
    "latitude": "29.98944188355755",
    "geocoded_column": {
      "latitude": "29.98944188355755",
      "longitude": "-90.06498144418538"
    }
  },
  {
    "service_request": "2024-1096310",
    "request_type": "Trash/Recycling",
    "request_reason": "Repair Trash Cart",
    "date_created": "2024-05-23T15:47:58.000",
    "date_modified": "2024-05-23T15:47:58.000",
    "request_status": "Pending",
    "responsible_agency": "Department of Sanitation",
    "final_address": "1435 N Prieur St",
    "address_councildis": "D",
    "status": "Assigned to Contractor",
    "contractor": "IV Waste",
    "rowid": "1096310",
    "final_x": "3680582.93813",
    "final_y": "537497.280392",
    "longitude": "-90.07075810210851",
    "latitude": "29.97195897489021",
    "geocoded_column": {
      "latitude": "29.97195897489021",
      "longitude": "-90.07075810210851"
    }
  },
  {
    "service_request": "2024-1096309",
    "request_type": "Roads/Drainage",
    "request_reason": "Pothole",
    "date_created": "2024-05-23T15:46:52.000",
    "date_modified": "2024-05-23T15:46:52.000",
    "request_status": "Pending",
    "responsible_agency": "Department of Public Works",
    "final_address": "6500 BLK Orleans Ave",
    "address_councildis": "A",
    "status": "Pending",
    "rowid": "1096309",
    "final_x": "3671226.12798",
    "final_y": "550810.598298",
    "longitude": "-90.09985586983738",
    "latitude": "30.00884618518713",
    "geocoded_column": {
      "latitude": "30.00884618518713",
      "longitude": "-90.09985586983738"
    }
  },
  {
    "service_request": "2024-1096308",
    "request_type": "Trash/Recycling",
    "request_reason": "Missed Trash Pick-Up",
    "date_created": "2024-05-23T15:46:28.000",
    "date_modified": "2024-05-23T15:46:28.000",
    "request_status": "Pending",
    "responsible_agency": "Department of Sanitation",
    "final_address": "4926 Cardenas Dr",
    "address_councildis": "E",
    "status": "Assigned to Contractor",
    "contractor": "Waste Pro",
    "rowid": "1096308",
    "final_x": "3713504.53631",
    "final_y": "557459.336219",
    "longitude": "-89.96603524145429",
    "latitude": "30.02580843727325",
    "geocoded_column": {
      "latitude": "30.02580843727325",
      "longitude": "-89.96603524145429"
    }
  },
  {
    "service_request": "2024-1096307",
    "request_type": "Trash/Recycling",
    "request_reason": "Missed Trash Pick-Up",
    "date_created": "2024-05-23T15:46:24.000",
    "date_modified": "2024-05-23T15:58:32.000",
    "case_close_date": "2024-05-23T10:58:32.000",
    "request_status": "Closed",
    "responsible_agency": "Department of Sanitation",
    "final_address": "2720 S Carrollton Ave, New Orleans, Louisiana, 70118",
    "address_councildis": "A",
    "status": "Invalid Request",
    "contractor": "IV Waste",
    "contractor_action": "Invalid Request",
    "rowid": "1096307",
    "final_x": "3665710.68135",
    "final_y": "532507.302404",
    "longitude": "-90.11789443654493",
    "latitude": "29.95868039828293",
    "geocoded_column": {
      "latitude": "29.95868039828293",
      "longitude": "-90.11789443654493"
    }
  },
  {
    "service_request": "2024-1096306",
    "request_type": "Trash/Recycling",
    "request_reason": "Request a Large Item Pick Up",
    "date_created": "2024-05-23T15:44:34.000",
    "date_modified": "2024-05-23T15:44:34.000",
    "request_status": "Pending",
    "responsible_agency": "Department of Sanitation",
    "final_address": "2124 Mirabeau Ave",
    "address_councildis": "D",
    "status": "Assigned to Contractor",
    "contractor": "IV Waste",
    "rowid": "1096306",
    "final_x": "3683285.34082",
    "final_y": "550567.60706",
    "longitude": "-90.0617654162542",
    "latitude": "30.007815588944013",
    "geocoded_column": {
      "latitude": "30.007815588944013",
      "longitude": "-90.0617654162542"
    }
  },
  {
    "service_request": "2024-1096305",
    "request_type": "Trash/Recycling",
    "request_reason": "Request a Large Item Pick Up",
    "date_created": "2024-05-23T15:44:20.000",
    "date_modified": "2024-05-23T15:44:21.000",
    "request_status": "Pending",
    "responsible_agency": "Department of Sanitation",
    "final_address": "2400 St Ann St",
    "address_councildis": "D",
    "status": "Assigned to Contractor",
    "contractor": "IV Waste",
    "rowid": "1096305",
    "final_x": "3677955.68066",
    "final_y": "536374.623623",
    "longitude": "-90.07909421655839",
    "latitude": "29.96895139133858",
    "geocoded_column": {
      "latitude": "29.96895139133858",
      "longitude": "-90.07909421655839"
    }
  },
  {
    "service_request": "2024-1096304",
    "request_type": "Trash/Recycling",
    "request_reason": "Illegal Dumping",
    "date_created": "2024-05-23T15:40:35.000",
    "date_modified": "2024-05-23T15:40:35.000",
    "request_status": "Pending",
    "responsible_agency": "Department of Sanitation",
    "final_address": "MONTICELLO AVE & PRITCHARD PL",
    "address_councildis": "A",
    "status": "Pending",
    "rowid": "1096304",
    "final_x": "3662609.3",
    "final_y": "536032.98",
    "longitude": "-90.12757068855134",
    "latitude": "29.968464952479756",
    "geocoded_column": {
      "latitude": "29.968464952479756",
      "longitude": "-90.12757068855134"
    }
  },
  {
    "service_request": "2024-1096303",
    "request_type": "Trash/Recycling",
    "request_reason": "Return Trash Cart",
    "date_created": "2024-05-23T15:38:48.000",
    "date_modified": "2024-05-23T15:38:48.000",
    "request_status": "Pending",
    "responsible_agency": "Department of Sanitation",
    "final_address": "1829 Terpsichore St",
    "address_councildis": "B",
    "status": "Assigned to Contractor",
    "contractor": "IV Waste",
    "rowid": "1096303",
    "final_x": "3678064.18843",
    "final_y": "525917.940989",
    "longitude": "-90.07911300557477",
    "latitude": "29.940195760140192",
    "geocoded_column": {
      "latitude": "29.940195760140192",
      "longitude": "-90.07911300557477"
    }
  },
  {
    "service_request": "2024-1096302",
    "request_type": "Property Maintenance",
    "request_reason": "Property Maintenance",
    "date_created": "2024-05-23T15:38:26.000",
    "date_modified": "2024-05-23T15:57:26.000",
    "case_close_date": "2024-05-23T10:57:26.000",
    "request_status": "Closed",
    "responsible_agency": "Department of Code Enforcement",
    "final_address": "8363 Curran Rd",
    "address_councildis": "E",
    "status": "Referred to Code Enforcement",
    "rowid": "1096302",
    "final_x": "3703046.00068",
    "final_y": "562130.780511",
    "longitude": "-89.99891066442669",
    "latitude": "30.03899209142723",
    "geocoded_column": {
      "latitude": "30.03899209142723",
      "longitude": "-89.99891066442669"
    }
  },
  {
    "service_request": "2024-1096301",
    "request_type": "Trash/Recycling",
    "request_reason": "Illegal Dumping",
    "date_created": "2024-05-23T15:34:23.000",
    "date_modified": "2024-05-23T15:34:23.000",
    "request_status": "Pending",
    "responsible_agency": "Department of Sanitation",
    "final_address": "LAKE FOREST BLVD & PARC BRITTANY BLVD",
    "address_councildis": "E",
    "status": "Pending",
    "rowid": "1096301",
    "final_x": "3703013.1",
    "final_y": "556785.28",
    "longitude": "-89.99921133030972",
    "latitude": "30.024295099116646",
    "geocoded_column": {
      "latitude": "30.024295099116646",
      "longitude": "-89.99921133030972"
    }
  },
  {
    "service_request": "2024-1096300",
    "request_type": "Parks & Parkways",
    "request_reason": "Request Tree Service (Right of Way/Public Property)",
    "date_created": "2024-05-23T15:33:42.000",
    "date_modified": "2024-05-23T15:33:42.000",
    "request_status": "Pending",
    "responsible_agency": "Department of Parks & Parkway",
    "final_address": "3043 Elmwood Park Dr",
    "address_councildis": "C",
    "status": "Pending",
    "rowid": "1096300",
    "final_x": "3693997.12944",
    "final_y": "519103.263799",
    "longitude": "-90.02905535254935",
    "latitude": "29.92096855979572",
    "geocoded_column": {
      "latitude": "29.92096855979572",
      "longitude": "-90.02905535254935"
    }
  },
  {
    "service_request": "2024-1096299",
    "request_type": "Trash/Recycling",
    "request_reason": "Request a Large Item Pick Up",
    "date_created": "2024-05-23T15:32:37.000",
    "date_modified": "2024-05-23T15:32:37.000",
    "request_status": "Pending",
    "responsible_agency": "Department of Sanitation",
    "final_address": "5892 Macarthur Blvd",
    "address_councildis": "C",
    "status": "Assigned to Contractor",
    "contractor": "Richards Disposal",
    "rowid": "1096299",
    "final_x": "3705451.85476",
    "final_y": "519216.714615",
    "longitude": "-89.99289407098216",
    "latitude": "29.92091702256523",
    "geocoded_column": {
      "latitude": "29.92091702256523",
      "longitude": "-89.99289407098216"
    }
  },
  {
    "service_request": "2024-1096298",
    "request_type": "Trash/Recycling",
    "request_reason": "Request a Large Item Pick Up",
    "date_created": "2024-05-23T15:31:05.000",
    "date_modified": "2024-05-23T15:31:06.000",
    "request_status": "Pending",
    "responsible_agency": "Department of Sanitation",
    "final_address": "3203 Martin Luther King, Jr. Blvd",
    "address_councildis": "B",
    "status": "Assigned to Contractor",
    "contractor": "IV Waste",
    "rowid": "1096298",
    "final_x": "3674454.03572",
    "final_y": "528610.530304",
    "longitude": "-90.09041862542703",
    "latitude": "29.947707657974526",
    "geocoded_column": {
      "latitude": "29.947707657974526",
      "longitude": "-90.09041862542703"
    }
  },
  {
    "service_request": "2024-1096297",
    "request_type": "Trash/Recycling",
    "request_reason": "Request a Large Item Pick Up",
    "date_created": "2024-05-23T15:29:30.000",
    "date_modified": "2024-05-23T15:29:30.000",
    "request_status": "Pending",
    "responsible_agency": "Department of Sanitation",
    "final_address": "1222 Port St",
    "address_councildis": "C",
    "status": "Assigned to Contractor",
    "contractor": "IV Waste",
    "rowid": "1096297",
    "final_x": "3687530.59887",
    "final_y": "536934.906248",
    "longitude": "-90.04883623712632",
    "latitude": "29.970200314896893",
    "geocoded_column": {
      "latitude": "29.970200314896893",
      "longitude": "-90.04883623712632"
    }
  },
  {
    "service_request": "2024-1096296",
    "request_type": "Trash/Recycling",
    "request_reason": "Request a Large Item Pick Up",
    "date_created": "2024-05-23T15:29:14.000",
    "date_modified": "2024-05-23T15:29:14.000",
    "request_status": "Pending",
    "responsible_agency": "Department of Sanitation",
    "final_address": "1400 Aviators St",
    "address_councildis": "D",
    "status": "Assigned to Contractor",
    "contractor": "IV Waste",
    "rowid": "1096296",
    "final_x": "3677589.0877",
    "final_y": "554767.759832",
    "longitude": "-90.0796163878597",
    "latitude": "30.01953708118912",
    "geocoded_column": {
      "latitude": "30.01953708118912",
      "longitude": "-90.0796163878597"
    }
  },
  {
    "service_request": "2024-1096295",
    "request_type": "Trash/Recycling",
    "request_reason": "Request a Large Item Pick Up",
    "date_created": "2024-05-23T15:29:04.000",
    "date_modified": "2024-05-23T15:29:04.000",
    "request_status": "Pending",
    "responsible_agency": "Department of Sanitation",
    "final_address": "7712 Plum St",
    "address_councildis": "A",
    "status": "Assigned to Contractor",
    "contractor": "IV Waste",
    "rowid": "1096295",
    "final_x": "3663178.95699",
    "final_y": "527691.281407",
    "longitude": "-90.12604923622912",
    "latitude": "29.94551149473105",
    "geocoded_column": {
      "latitude": "29.94551149473105",
      "longitude": "-90.12604923622912"
    }
  },
  {
    "service_request": "2024-1096294",
    "request_type": "Trash/Recycling",
    "request_reason": "Repair Trash Cart",
    "date_created": "2024-05-23T15:28:10.000",
    "date_modified": "2024-05-23T15:28:10.000",
    "request_status": "Pending",
    "responsible_agency": "Department of Sanitation",
    "final_address": "4117 Annunciation St",
    "address_councildis": "B",
    "status": "Assigned to Contractor",
    "contractor": "IV Waste",
    "rowid": "1096294",
    "final_x": "3672098.2539",
    "final_y": "517887.497718",
    "longitude": "-90.09822171781445",
    "latitude": "29.9182928349908",
    "geocoded_column": {
      "latitude": "29.9182928349908",
      "longitude": "-90.09822171781445"
    }
  },
  {
    "service_request": "2024-1096293",
    "request_type": "Trash/Recycling",
    "request_reason": "Request a Large Item Pick Up",
    "date_created": "2024-05-23T15:27:31.000",
    "date_modified": "2024-05-23T15:27:32.000",
    "request_status": "Pending",
    "responsible_agency": "Department of Sanitation",
    "final_address": "2343 Annunciation St",
    "address_councildis": "B",
    "status": "Assigned to Contractor",
    "contractor": "IV Waste",
    "rowid": "1096293",
    "final_x": "3678915.48917",
    "final_y": "520777.026617",
    "longitude": "-90.07660333019439",
    "latitude": "29.92603428527334",
    "geocoded_column": {
      "latitude": "29.92603428527334",
      "longitude": "-90.07660333019439"
    }
  },
  {
    "service_request": "2024-1096292",
    "request_type": "Trash/Recycling",
    "request_reason": "Request a Large Item Pick Up",
    "date_created": "2024-05-23T15:26:45.000",
    "date_modified": "2024-05-23T15:26:46.000",
    "request_status": "Pending",
    "responsible_agency": "Department of Sanitation",
    "final_address": "2024 Bayou Rd",
    "address_councildis": "D",
    "status": "Assigned to Contractor",
    "contractor": "IV Waste",
    "rowid": "1096292",
    "final_x": "3680078.56725",
    "final_y": "537224.6002",
    "longitude": "-90.07236046305083",
    "latitude": "29.97122446991422",
    "geocoded_column": {
      "latitude": "29.97122446991422",
      "longitude": "-90.07236046305083"
    }
  },
  {
    "service_request": "2024-1096291",
    "request_type": "Trash/Recycling",
    "request_reason": "Illegal Dumping",
    "date_created": "2024-05-23T15:26:10.000",
    "date_modified": "2024-05-23T15:26:11.000",
    "request_status": "Pending",
    "responsible_agency": "Department of Sanitation",
    "final_address": "1139 St Andrew St",
    "address_councildis": "B",
    "status": "Pending",
    "rowid": "1096291",
    "final_x": "3679356.38197",
    "final_y": "522929.281019",
    "longitude": "-90.07513695813607",
    "latitude": "29.93193897647055",
    "geocoded_column": {
      "latitude": "29.93193897647055",
      "longitude": "-90.07513695813607"
    }
  },
  {
    "service_request": "2024-1096290",
    "request_type": "Roads/Drainage",
    "request_reason": "Street Subsidence (Sinking)",
    "date_created": "2024-05-23T15:24:04.000",
    "date_modified": "2024-05-23T15:24:04.000",
    "request_status": "Pending",
    "responsible_agency": "Department of Public Works",
    "final_address": "5780 Winchester Park Dr",
    "address_councildis": "E",
    "status": "Pending",
    "rowid": "1096290",
    "final_x": "3715360.65714",
    "final_y": "561970.646175",
    "longitude": "-89.95999936249173",
    "latitude": "30.038151702424578",
    "geocoded_column": {
      "latitude": "30.038151702424578",
      "longitude": "-89.95999936249173"
    }
  },
  {
    "service_request": "2024-1096289",
    "request_type": "Trash/Recycling",
    "request_reason": "Order Trash Cart",
    "date_created": "2024-05-23T15:22:37.000",
    "date_modified": "2024-05-23T15:22:38.000",
    "request_status": "Pending",
    "responsible_agency": "Department of Sanitation",
    "final_address": "2716 N Miro St",
    "address_councildis": "D",
    "status": "Assigned to Contractor",
    "contractor": "IV Waste",
    "rowid": "1096289",
    "final_x": "3688604.92521",
    "final_y": "540457.960715",
    "longitude": "-90.04531834441232",
    "latitude": "29.979854313388387",
    "geocoded_column": {
      "latitude": "29.979854313388387",
      "longitude": "-90.04531834441232"
    }
  },
  {
    "service_request": "2024-1096288",
    "request_type": "Trash/Recycling",
    "request_reason": "Order Trash Cart",
    "date_created": "2024-05-23T15:22:09.000",
    "date_modified": "2024-05-23T15:22:09.000",
    "request_status": "Pending",
    "responsible_agency": "Department of Sanitation",
    "final_address": "2714 N Miro St",
    "address_councildis": "D",
    "status": "Assigned to Contractor",
    "contractor": "IV Waste",
    "rowid": "1096288",
    "final_x": "3688592.9366",
    "final_y": "540461.568459",
    "longitude": "-90.04535608117709",
    "latitude": "29.979864603946282",
    "geocoded_column": {
      "latitude": "29.979864603946282",
      "longitude": "-90.04535608117709"
    }
  },
  {
    "service_request": "2024-1096287",
    "request_type": "Traffic Signals/Signs/Striping/Streetlights",
    "request_reason": "Disabled Parking Sign ",
    "date_created": "2024-05-23T15:21:53.000",
    "date_modified": "2024-05-23T15:21:56.000",
    "request_status": "Pending",
    "responsible_agency": "Department of Public Works",
    "final_address": "2135 Third St",
    "address_councildis": "B",
    "status": "Pending",
    "rowid": "1096287",
    "final_x": "3675323.51848",
    "final_y": "524622.868092",
    "longitude": "-90.08781018245006",
    "latitude": "29.936716936613802",
    "geocoded_column": {
      "latitude": "29.936716936613802",
      "longitude": "-90.08781018245006"
    }
  },
  {
    "service_request": "2024-1096286",
    "request_type": "Trash/Recycling",
    "request_reason": "Request a Large Item Pick Up",
    "date_created": "2024-05-23T15:20:51.000",
    "date_modified": "2024-05-23T15:20:52.000",
    "request_status": "Pending",
    "responsible_agency": "Department of Sanitation",
    "final_address": "7821 Allison Rd",
    "address_councildis": "E",
    "status": "Assigned to Contractor",
    "contractor": "Waste Pro",
    "rowid": "1096286",
    "final_x": "3699884.65335",
    "final_y": "561122.84963",
    "longitude": "-90.0089381728576",
    "latitude": "30.036321526039824",
    "geocoded_column": {
      "latitude": "30.036321526039824",
      "longitude": "-90.0089381728576"
    }
  },
  {
    "service_request": "2024-1096285",
    "request_type": "Trash/Recycling",
    "request_reason": "Request a Large Item Pick Up",
    "date_created": "2024-05-23T15:17:39.000",
    "date_modified": "2024-05-23T15:17:40.000",
    "request_status": "Pending",
    "responsible_agency": "Department of Sanitation",
    "final_address": "5570 Red Maple Dr",
    "address_councildis": "E",
    "status": "Assigned to Contractor",
    "contractor": "Waste Pro",
    "rowid": "1096285",
    "final_x": "3723350.5431",
    "final_y": "563929.053857",
    "longitude": "-89.93467407672138",
    "latitude": "30.043270788388522",
    "geocoded_column": {
      "latitude": "30.043270788388522",
      "longitude": "-89.93467407672138"
    }
  },
  {
    "service_request": "2024-1096284",
    "request_type": "Mosquito, Termite & Rodent Control",
    "request_reason": "Rodent Complaint (Rats)",
    "date_created": "2024-05-23T15:16:28.000",
    "date_modified": "2024-05-23T15:16:28.000",
    "request_status": "Pending",
    "responsible_agency": "Mosquito, Termite & Rodent Control Board",
    "final_address": "219 Loyola Ave",
    "address_councildis": "B",
    "status": "Pending",
    "rowid": "1096284",
    "final_x": "3679187.08405",
    "final_y": "531134.900674",
    "longitude": "-90.07538702704547",
    "latitude": "29.95450681241384",
    "geocoded_column": {
      "latitude": "29.95450681241384",
      "longitude": "-90.07538702704547"
    }
  },
  {
    "service_request": "2024-1096283",
    "request_type": "Health Related Request",
    "request_reason": "Noise Ordinance Complaint",
    "date_created": "2024-05-23T15:14:48.000",
    "date_modified": "2024-05-23T15:14:50.000",
    "request_status": "Pending",
    "responsible_agency": "Health Department",
    "final_address": "600 BLK Jackson Ave",
    "address_councildis": "B",
    "status": "Pending",
    "rowid": "1096283",
    "final_x": "3679838.24659",
    "final_y": "520767.081941",
    "longitude": "-90.07369080013693",
    "latitude": "29.92597908012308",
    "geocoded_column": {
      "latitude": "29.92597908012308",
      "longitude": "-90.07369080013693"
    }
  },
  {
    "service_request": "2024-1096282",
    "request_type": "Abandoned Vehicles",
    "request_reason": "Abandoned/Junk Vehicles",
    "date_created": "2024-05-23T15:10:14.000",
    "date_modified": "2024-05-23T15:10:14.000",
    "request_status": "Pending",
    "responsible_agency": "Department of Public Works",
    "final_address": "4420 San Marco Rd",
    "address_councildis": "E",
    "status": "Inspected",
    "rowid": "1096282",
    "final_x": "3762399.14761",
    "final_y": "572841.416681",
    "longitude": "-89.81089327755419",
    "latitude": "30.066407325789843",
    "geocoded_column": {
      "latitude": "30.066407325789843",
      "longitude": "-89.81089327755419"
    }
  },
  {
    "service_request": "2024-1096281",
    "request_type": "Property Maintenance",
    "request_reason": "Property Maintenance",
    "date_created": "2024-05-23T15:09:51.000",
    "date_modified": "2024-05-23T15:42:26.000",
    "case_close_date": "2024-05-23T10:42:26.000",
    "request_status": "Closed",
    "responsible_agency": "Department of Code Enforcement",
    "final_address": "5198 Bayouview Ct",
    "address_councildis": "E",
    "status": "Referred to Code Enforcement",
    "rowid": "1096281",
    "final_x": "3699292.54602",
    "final_y": "556549.15305",
    "longitude": "-90.01097614210998",
    "latitude": "30.023764426851404",
    "geocoded_column": {
      "latitude": "30.023764426851404",
      "longitude": "-90.01097614210998"
    }
  },
  {
    "service_request": "2024-1096280",
    "request_type": "Trash/Recycling",
    "request_reason": "Illegal Dumping",
    "date_created": "2024-05-23T15:09:48.000",
    "date_modified": "2024-05-23T15:09:49.000",
    "request_status": "Pending",
    "responsible_agency": "Department of Sanitation",
    "final_address": "1901 St Andrew St",
    "address_councildis": "B",
    "status": "Pending",
    "rowid": "1096280",
    "final_x": "3677327.08238",
    "final_y": "525342.035773",
    "longitude": "-90.08146003035083",
    "latitude": "29.93863437504161",
    "geocoded_column": {
      "latitude": "29.93863437504161",
      "longitude": "-90.08146003035083"
    }
  },
  {
    "service_request": "2024-1096279",
    "request_type": "Trash/Recycling",
    "request_reason": "Damaged Caused By Contractor",
    "date_created": "2024-05-23T15:09:35.000",
    "date_modified": "2024-05-23T15:09:36.000",
    "request_status": "Pending",
    "responsible_agency": "Department of Sanitation",
    "final_address": "3909 Camp St",
    "address_councildis": "B",
    "status": "Assigned to Contractor",
    "contractor": "IV Waste",
    "rowid": "1096279",
    "final_x": "3672928.47368",
    "final_y": "519379.864631",
    "longitude": "-90.09555026886268",
    "latitude": "29.922371734880056",
    "geocoded_column": {
      "latitude": "29.922371734880056",
      "longitude": "-90.09555026886268"
    }
  },
  {
    "service_request": "2024-1096278",
    "request_type": "Abandoned Vehicles",
    "request_reason": "Abandoned/Junk Vehicles",
    "date_created": "2024-05-23T15:08:22.000",
    "date_modified": "2024-05-23T15:22:17.000",
    "request_status": "Pending",
    "responsible_agency": "Department of Public Works",
    "final_address": "9025 Olive St",
    "address_councildis": "A",
    "status": "Pending",
    "rowid": "1096278",
    "final_x": "3664761.46573",
    "final_y": "536486.413511",
    "longitude": "-90.12075885805704",
    "latitude": "29.969649297226134",
    "geocoded_column": {
      "latitude": "29.969649297226134",
      "longitude": "-90.12075885805704"
    }
  },
  {
    "service_request": "2024-1096277",
    "request_type": "Healthy Homes",
    "request_reason": "Healthy Homes",
    "date_created": "2024-05-23T15:07:39.000",
    "date_modified": "2024-05-23T15:07:39.000",
    "request_status": "Pending",
    "responsible_agency": "Department of Code Enforcement",
    "final_address": "3939 Banks St",
    "address_councildis": "A",
    "status": "Pending",
    "rowid": "1096277",
    "final_x": "3670827.76212",
    "final_y": "537111.976008",
    "longitude": "-90.10157967621937",
    "latitude": "29.971191472267837",
    "geocoded_column": {
      "latitude": "29.971191472267837",
      "longitude": "-90.10157967621937"
    }
  },
  {
    "service_request": "2024-1096276",
    "request_type": "Parks & Parkways",
    "request_reason": "Request Tree Service (Right of Way/Public Property)",
    "date_created": "2024-05-23T15:06:55.000",
    "date_modified": "2024-05-23T15:07:54.000",
    "request_status": "Pending",
    "responsible_agency": "Department of Parks & Parkway",
    "final_address": "1262 Granada Dr",
    "address_councildis": "D",
    "status": "Pending",
    "rowid": "1096276",
    "final_x": "3677217.91963",
    "final_y": "550430.957076",
    "longitude": "-90.08093892742778",
    "latitude": "30.007623592780465",
    "geocoded_column": {
      "latitude": "30.007623592780465",
      "longitude": "-90.08093892742778"
    }
  },
  {
    "service_request": "2024-1096275",
    "request_type": "Trash/Recycling",
    "request_reason": "MIssed Recycling Pick-Up",
    "date_created": "2024-05-23T15:06:12.000",
    "date_modified": "2024-05-23T15:06:13.000",
    "request_status": "Pending",
    "responsible_agency": "Department of Sanitation",
    "final_address": "4526 Sierra Madre Dr",
    "address_councildis": "E",
    "status": "Assigned to Contractor",
    "contractor": "Waste Pro",
    "rowid": "1096275",
    "final_x": "3713930.66693",
    "final_y": "555470.136217",
    "longitude": "-89.9647638142446",
    "latitude": "30.02032493491354",
    "geocoded_column": {
      "latitude": "30.02032493491354",
      "longitude": "-89.9647638142446"
    }
  },
  {
    "service_request": "2024-1096274",
    "request_type": "Traffic Signals/Signs/Striping/Streetlights",
    "request_reason": "Traffic Sign Missing/Damaged",
    "date_created": "2024-05-23T15:00:06.000",
    "date_modified": "2024-05-23T15:00:07.000",
    "request_status": "Pending",
    "responsible_agency": "Department of Public Works",
    "final_address": "WEAVER RD & E WHEATON CIR & W WHEATON CIR",
    "address_councildis": "E",
    "status": "Pending",
    "rowid": "1096274",
    "final_x": "3708633.7",
    "final_y": "562180.88",
    "longitude": "-89.98125024238422",
    "latitude": "30.038949734578306",
    "geocoded_column": {
      "latitude": "30.038949734578306",
      "longitude": "-89.98125024238422"
    }
  },
  {
    "service_request": "2024-1096273",
    "request_type": "Roads/Drainage",
    "request_reason": "Pothole",
    "date_created": "2024-05-23T14:57:47.000",
    "date_modified": "2024-05-23T14:58:21.000",
    "case_close_date": "2024-05-23T09:58:21.000",
    "request_status": "Closed",
    "responsible_agency": "Department of Public Works",
    "final_address": "7100 BLK Hurst St",
    "address_councildis": "A",
    "status": "Resolved",
    "rowid": "1096273",
    "final_x": "3662359.61389",
    "final_y": "523518.362856",
    "longitude": "-90.12877468522021",
    "latitude": "29.934061005702745",
    "geocoded_column": {
      "latitude": "29.934061005702745",
      "longitude": "-90.12877468522021"
    }
  },
  {
    "service_request": "2024-1096272",
    "request_type": "Trash/Recycling",
    "request_reason": "MIssed Recycling Pick-Up",
    "date_created": "2024-05-23T14:55:18.000",
    "date_modified": "2024-05-23T14:55:18.000",
    "request_status": "Pending",
    "responsible_agency": "Department of Sanitation",
    "final_address": "4709 Crowder Blvd",
    "address_councildis": "E",
    "status": "Assigned to Contractor",
    "contractor": "Waste Pro",
    "rowid": "1096272",
    "final_x": "3706530.36222",
    "final_y": "555421.785305",
    "longitude": "-89.98814809510012",
    "latitude": "30.0204329459861",
    "geocoded_column": {
      "latitude": "30.0204329459861",
      "longitude": "-89.98814809510012"
    }
  },
  {
    "service_request": "2024-1096271",
    "request_type": "Abandoned Vehicles",
    "request_reason": "Abandoned/Junk Vehicles",
    "date_created": "2024-05-23T14:46:55.000",
    "date_modified": "2024-05-23T14:46:55.000",
    "request_status": "Pending",
    "responsible_agency": "Department of Public Works",
    "final_address": "3322 N Dorgenois St",
    "address_councildis": "D",
    "status": "Pending",
    "rowid": "1096271",
    "final_x": "3691326.79171",
    "final_y": "540980.432459",
    "longitude": "-90.03670293044682",
    "latitude": "29.981206515185768",
    "geocoded_column": {
      "latitude": "29.981206515185768",
      "longitude": "-90.03670293044682"
    }
  },
  {
    "service_request": "2024-1096270",
    "request_type": "Trash/Recycling",
    "request_reason": "Request a Large Item Pick Up",
    "date_created": "2024-05-23T14:45:36.000",
    "date_modified": "2024-05-23T14:45:36.000",
    "request_status": "Pending",
    "responsible_agency": "Department of Sanitation",
    "final_address": "7018 Dreux Ave",
    "address_councildis": "E",
    "status": "Assigned to Contractor",
    "contractor": "Waste Pro",
    "rowid": "1096270",
    "final_x": "3701060.46097",
    "final_y": "554330.343128",
    "longitude": "-90.00547116685846",
    "latitude": "30.017607330417324",
    "geocoded_column": {
      "latitude": "30.017607330417324",
      "longitude": "-90.00547116685846"
    }
  },
  {
    "service_request": "2024-1096269",
    "request_type": "Trash/Recycling",
    "request_reason": "Request a Large Item Pick Up",
    "date_created": "2024-05-23T14:44:51.000",
    "date_modified": "2024-05-23T14:44:52.000",
    "request_status": "Pending",
    "responsible_agency": "Department of Sanitation",
    "final_address": "1728 Touro St",
    "address_councildis": "D",
    "status": "Assigned to Contractor",
    "contractor": "IV Waste",
    "rowid": "1096269",
    "final_x": "3684003.78332",
    "final_y": "538691.523145",
    "longitude": "-90.05991262290325",
    "latitude": "29.975138639014354",
    "geocoded_column": {
      "latitude": "29.975138639014354",
      "longitude": "-90.05991262290325"
    }
  },
  {
    "service_request": "2024-1096268",
    "request_type": "Roads/Drainage",
    "request_reason": "Pothole",
    "date_created": "2024-05-23T14:43:21.000",
    "date_modified": "2024-05-23T14:43:22.000",
    "request_status": "Pending",
    "responsible_agency": "Department of Public Works",
    "final_address": "BANKS ST & S BROAD ST",
    "address_councildis": "B",
    "status": "Pending",
    "rowid": "1096268",
    "final_x": "3674610.8",
    "final_y": "534180.58",
    "longitude": "-90.08973278513542",
    "latitude": "29.963018761407483",
    "geocoded_column": {
      "latitude": "29.963018761407483",
      "longitude": "-90.08973278513542"
    }
  },
  {
    "service_request": "2024-1096267",
    "request_type": "Roads/Drainage",
    "request_reason": "Damaged Sidewalk",
    "date_created": "2024-05-23T14:40:05.000",
    "date_modified": "2024-05-23T14:40:05.000",
    "request_status": "Pending",
    "responsible_agency": "Department of Public Works",
    "final_address": "2116 Philip St",
    "address_councildis": "B",
    "status": "Pending",
    "rowid": "1096267",
    "final_x": "3676044.26792",
    "final_y": "524942.370364",
    "longitude": "-90.08552375679847",
    "latitude": "29.937573901168292",
    "geocoded_column": {
      "latitude": "29.937573901168292",
      "longitude": "-90.08552375679847"
    }
  },
  {
    "service_request": "2024-1096266",
    "request_type": "Trash/Recycling",
    "request_reason": "Order Trash Cart",
    "date_created": "2024-05-23T14:37:51.000",
    "date_modified": "2024-05-23T14:37:51.000",
    "request_status": "Pending",
    "responsible_agency": "Department of Sanitation",
    "final_address": "6128 Dorothea St",
    "address_councildis": "D",
    "status": "Assigned to Contractor",
    "contractor": "Waste Pro",
    "rowid": "1096266",
    "final_x": "3696267.13271",
    "final_y": "557360.185371",
    "longitude": "-90.02050643544302",
    "latitude": "30.02609011296759",
    "geocoded_column": {
      "latitude": "30.02609011296759",
      "longitude": "-90.02050643544302"
    }
  },
  {
    "service_request": "2024-1096265",
    "request_type": "Trash/Recycling",
    "request_reason": "Request a Large Item Pick Up",
    "date_created": "2024-05-23T14:36:21.000",
    "date_modified": "2024-05-23T14:36:21.000",
    "request_status": "Pending",
    "responsible_agency": "Department of Sanitation",
    "final_address": "2107 Martin Luther King, Jr. Blvd",
    "address_councildis": "B",
    "status": "Assigned to Contractor",
    "contractor": "IV Waste",
    "rowid": "1096265",
    "final_x": "3677529.60373",
    "final_y": "526667.535486",
    "longitude": "-90.08077490365419",
    "latitude": "29.942272976166134",
    "geocoded_column": {
      "latitude": "29.942272976166134",
      "longitude": "-90.08077490365419"
    }
  },
  {
    "service_request": "2024-1096264",
    "request_type": "Trash/Recycling",
    "request_reason": "Request a Large Item Pick Up",
    "date_created": "2024-05-23T14:36:07.000",
    "date_modified": "2024-05-23T14:36:33.000",
    "request_status": "Pending",
    "responsible_agency": "Department of Sanitation",
    "final_address": "3641 White Oak Ave",
    "address_councildis": "C",
    "status": "Assigned to Contractor",
    "contractor": "Richards Disposal",
    "rowid": "1096264",
    "final_x": "3703721.70974",
    "final_y": "514182.602738",
    "longitude": "-89.99854041933769",
    "latitude": "29.90713048098672",
    "geocoded_column": {
      "latitude": "29.90713048098672",
      "longitude": "-89.99854041933769"
    }
  },
  {
    "service_request": "2024-1096263",
    "request_type": "Abandoned Vehicles",
    "request_reason": "Abandoned/Junk Vehicles",
    "date_created": "2024-05-23T14:33:36.000",
    "date_modified": "2024-05-23T14:33:36.000",
    "request_status": "Pending",
    "responsible_agency": "Department of Public Works",
    "final_address": "723 Lamanche St",
    "address_councildis": "E",
    "status": "Pending",
    "rowid": "1096263",
    "final_x": "3698046.17731",
    "final_y": "532373.024835",
    "longitude": "-90.01579278349156",
    "latitude": "29.957328446011857",
    "geocoded_column": {
      "latitude": "29.957328446011857",
      "longitude": "-90.01579278349156"
    }
  },
  {
    "service_request": "2024-1096262",
    "request_type": "Abandoned Vehicles",
    "request_reason": "Abandoned/Junk Vehicles",
    "date_created": "2024-05-23T14:32:06.000",
    "date_modified": "2024-05-23T14:32:06.000",
    "request_status": "Pending",
    "responsible_agency": "Department of Public Works",
    "final_address": "723 Lamanche St",
    "address_councildis": "E",
    "status": "Pending",
    "rowid": "1096262",
    "final_x": "3698046.17731",
    "final_y": "532373.024835",
    "longitude": "-90.01579278349156",
    "latitude": "29.957328446011857",
    "geocoded_column": {
      "latitude": "29.957328446011857",
      "longitude": "-90.01579278349156"
    }
  },
  {
    "service_request": "2024-1096261",
    "request_type": "Trash/Recycling",
    "request_reason": "Request a Large Item Pick Up",
    "date_created": "2024-05-23T14:30:03.000",
    "date_modified": "2024-05-23T14:30:03.000",
    "request_status": "Pending",
    "responsible_agency": "Department of Sanitation",
    "final_address": "2240 Constance St",
    "address_councildis": "B",
    "status": "Assigned to Contractor",
    "contractor": "IV Waste",
    "rowid": "1096261",
    "final_x": "3678820.38856",
    "final_y": "521536.293305",
    "longitude": "-90.07687725347672",
    "latitude": "29.928124888596415",
    "geocoded_column": {
      "latitude": "29.928124888596415",
      "longitude": "-90.07687725347672"
    }
  },
  {
    "service_request": "2024-1096260",
    "request_type": "Abandoned Vehicles",
    "request_reason": "Abandoned/Junk Vehicles",
    "date_created": "2024-05-23T14:29:58.000",
    "date_modified": "2024-05-23T14:29:58.000",
    "request_status": "Pending",
    "responsible_agency": "Department of Public Works",
    "final_address": "4015 Odin St",
    "address_councildis": "D",
    "status": "Pending",
    "rowid": "1096260",
    "final_x": "3688905.09647",
    "final_y": "553979.693848",
    "longitude": "-90.04388968865818",
    "latitude": "30.017024895062136",
    "geocoded_column": {
      "latitude": "30.017024895062136",
      "longitude": "-90.04388968865818"
    }
  },
  {
    "service_request": "2024-1096259",
    "request_type": "Abandoned Vehicles",
    "request_reason": "Abandoned/Junk Vehicles",
    "date_created": "2024-05-23T14:27:23.000",
    "date_modified": "2024-05-23T14:27:23.000",
    "request_status": "Pending",
    "responsible_agency": "Department of Public Works",
    "final_address": "723 Lamanche St",
    "address_councildis": "E",
    "status": "Pending",
    "rowid": "1096259",
    "final_x": "3698046.17731",
    "final_y": "532373.024835",
    "longitude": "-90.01579278349156",
    "latitude": "29.957328446011857",
    "geocoded_column": {
      "latitude": "29.957328446011857",
      "longitude": "-90.01579278349156"
    }
  },
  {
    "service_request": "2024-1096258",
    "request_type": "Trash/Recycling",
    "request_reason": "Order Recycling Cart",
    "date_created": "2024-05-23T14:25:55.000",
    "date_modified": "2024-05-23T14:25:56.000",
    "request_status": "Pending",
    "responsible_agency": "Department of Sanitation",
    "final_address": "4627 Redwood St",
    "address_councildis": "E",
    "status": "Pending",
    "rowid": "1096258",
    "final_x": "3712636.29451",
    "final_y": "555460.639001",
    "longitude": "-89.96885394726952",
    "latitude": "30.020341266273025",
    "geocoded_column": {
      "latitude": "30.020341266273025",
      "longitude": "-89.96885394726952"
    }
  },
  {
    "service_request": "2024-1096256",
    "request_type": "Trash/Recycling",
    "request_reason": "Request a Large Item Pick Up",
    "date_created": "2024-05-23T14:24:33.000",
    "date_modified": "2024-05-23T14:24:33.000",
    "request_status": "Pending",
    "responsible_agency": "Department of Sanitation",
    "final_address": "54 Yosemite Dr",
    "address_councildis": "C",
    "status": "Assigned to Contractor",
    "contractor": "Richards Disposal",
    "rowid": "1096256",
    "final_x": "3699871.68912",
    "final_y": "516636.787445",
    "longitude": "-90.01060201708664",
    "latitude": "29.91400141714129",
    "geocoded_column": {
      "latitude": "29.91400141714129",
      "longitude": "-90.01060201708664"
    }
  },
  {
    "service_request": "2024-1096257",
    "request_type": "Trash/Recycling",
    "request_reason": "Order Trash Cart",
    "date_created": "2024-05-23T14:24:33.000",
    "date_modified": "2024-05-23T14:24:33.000",
    "request_status": "Pending",
    "responsible_agency": "Department of Sanitation",
    "final_address": "2707 General Pershing St, New Orleans, Louisiana, 70115",
    "status": "Assigned to Contractor",
    "rowid": "1096257",
    "longitude": "0.0",
    "latitude": "0.0",
    "geocoded_column": {
      "latitude": "0.0",
      "longitude": "0.0"
    }
  },
  {
    "service_request": "2024-1096255",
    "request_type": "Trash/Recycling",
    "request_reason": "Repair Trash Cart",
    "date_created": "2024-05-23T14:23:41.000",
    "date_modified": "2024-05-23T14:23:42.000",
    "request_status": "Pending",
    "responsible_agency": "Department of Sanitation",
    "final_address": "4706 St Charles Ave",
    "address_councildis": "B",
    "status": "Assigned to Contractor",
    "contractor": "IV Waste",
    "rowid": "1096255",
    "final_x": "3669653.08788",
    "final_y": "520645.076793",
    "longitude": "-90.10584657215693",
    "latitude": "29.925947549170857",
    "geocoded_column": {
      "latitude": "29.925947549170857",
      "longitude": "-90.10584657215693"
    }
  },
  {
    "service_request": "2024-1096254",
    "request_type": "Traffic Signals/Signs/Striping/Streetlights",
    "request_reason": "Street Light Knocked Down/Leaning",
    "date_created": "2024-05-23T14:23:14.000",
    "date_modified": "2024-05-23T14:23:14.000",
    "request_status": "Pending",
    "responsible_agency": "Department of Public Works",
    "final_address": "7051 Edgefield Dr",
    "address_councildis": "E",
    "status": "Pending",
    "contractor": "Legacy Professional Services",
    "rowid": "1096254",
    "final_x": "3718804.48799",
    "final_y": "569237.738278",
    "longitude": "-89.94883861720355",
    "latitude": "30.05801927781096",
    "geocoded_column": {
      "latitude": "30.05801927781096",
      "longitude": "-89.94883861720355"
    }
  },
  {
    "service_request": "2024-1096253",
    "request_type": "Traffic Signals/Signs/Striping/Streetlights",
    "request_reason": "Street Light Outage/Malfunction",
    "date_created": "2024-05-23T14:22:52.000",
    "date_modified": "2024-05-23T14:22:52.000",
    "request_status": "Pending",
    "responsible_agency": "Department of Public Works",
    "final_address": "MARQUE DR & SPRINGWOOD ST",
    "address_councildis": "E",
    "status": "Assigned to Contractor",
    "contractor": "Legacy Professional Services",
    "rowid": "1096253",
    "final_x": "3710105.3",
    "final_y": "555358.88",
    "longitude": "-89.97685484154088",
    "latitude": "30.020144097903874",
    "geocoded_column": {
      "latitude": "30.020144097903874",
      "longitude": "-89.97685484154088"
    }
  },
  {
    "service_request": "2024-1096252",
    "request_type": "Roads/Drainage",
    "request_reason": "Debris in Roadway",
    "date_created": "2024-05-23T14:22:41.000",
    "date_modified": "2024-05-23T14:22:42.000",
    "request_status": "Pending",
    "responsible_agency": "Department of Public Works",
    "final_address": "3213 Laurel St",
    "address_councildis": "B",
    "status": "Pending",
    "rowid": "1096252",
    "final_x": "3676006.88699",
    "final_y": "519318.127223",
    "longitude": "-90.08583508582373",
    "latitude": "29.92211017952411",
    "geocoded_column": {
      "latitude": "29.92211017952411",
      "longitude": "-90.08583508582373"
    }
  },
  {
    "service_request": "2024-1096251",
    "request_type": "Abandoned Vehicles",
    "request_reason": "Abandoned/Junk Vehicles",
    "date_created": "2024-05-23T14:20:55.000",
    "date_modified": "2024-05-23T14:20:55.000",
    "request_status": "Pending",
    "responsible_agency": "Department of Public Works",
    "final_address": "1403 Burdette St",
    "address_councildis": "A",
    "status": "Pending",
    "rowid": "1096251",
    "final_x": "3663320.2137",
    "final_y": "528135.637887",
    "longitude": "-90.12558845316534",
    "latitude": "29.946729239435488",
    "geocoded_column": {
      "latitude": "29.946729239435488",
      "longitude": "-90.12558845316534"
    }
  },
  {
    "service_request": "2024-1096250",
    "request_type": "Roads/Drainage",
    "request_reason": "Street Subsidence (Sinking)",
    "date_created": "2024-05-23T14:20:30.000",
    "date_modified": "2024-05-23T14:20:30.000",
    "request_status": "Pending",
    "responsible_agency": "Department of Public Works",
    "final_address": "7210 Queensway Dr",
    "address_councildis": "E",
    "status": "Pending",
    "rowid": "1096250",
    "final_x": "3718629.37625",
    "final_y": "570129.618087",
    "longitude": "-89.94935806867178",
    "latitude": "30.060477392868314",
    "geocoded_column": {
      "latitude": "30.060477392868314",
      "longitude": "-89.94935806867178"
    }
  },
  {
    "service_request": "2024-1096249",
    "request_type": "Trash/Recycling",
    "request_reason": "Request a Large Item Pick Up",
    "date_created": "2024-05-23T14:19:26.000",
    "date_modified": "2024-05-23T14:19:38.000",
    "request_status": "Pending",
    "responsible_agency": "Department of Sanitation",
    "final_address": "10710 Dwyer Rd",
    "address_councildis": "E",
    "status": "Assigned to Contractor",
    "contractor": "Waste Pro",
    "rowid": "1096249",
    "final_x": "3715041.3877",
    "final_y": "558231.07478",
    "longitude": "-89.96114984886911",
    "latitude": "30.027879896939474",
    "geocoded_column": {
      "latitude": "30.027879896939474",
      "longitude": "-89.96114984886911"
    }
  },
  {
    "service_request": "2024-1096248",
    "request_type": "Roads/Drainage",
    "request_reason": "Pothole",
    "date_created": "2024-05-23T14:17:24.000",
    "date_modified": "2024-05-23T14:17:48.000",
    "case_close_date": "2024-05-23T09:17:48.000",
    "request_status": "Closed",
    "responsible_agency": "Department of Public Works",
    "final_address": "7000 BLK Garfield St",
    "address_councildis": "A",
    "status": "Resolved",
    "rowid": "1096248",
    "final_x": "3662409.48715",
    "final_y": "523078.718394",
    "longitude": "-90.12863182886625",
    "latitude": "29.93285068030957",
    "geocoded_column": {
      "latitude": "29.93285068030957",
      "longitude": "-90.12863182886625"
    }
  },
  {
    "service_request": "2024-1096247",
    "request_type": "Traffic Signals/Signs/Striping/Streetlights",
    "request_reason": "Street Light Outage/Malfunction",
    "date_created": "2024-05-23T14:16:46.000",
    "date_modified": "2024-05-23T14:16:47.000",
    "request_status": "Pending",
    "responsible_agency": "Department of Public Works",
    "final_address": "1131 Governor Nicholls St",
    "address_councildis": "C",
    "status": "Assigned to Contractor",
    "contractor": "Legacy Professional Services",
    "rowid": "1096247",
    "final_x": "3682303.89986",
    "final_y": "535034.75015",
    "longitude": "-90.06540908985517",
    "latitude": "29.965135612229453",
    "geocoded_column": {
      "latitude": "29.965135612229453",
      "longitude": "-90.06540908985517"
    }
  },
  {
    "service_request": "2024-1096246",
    "request_type": "Trash/Recycling",
    "request_reason": "Missed Trash Pick-Up",
    "date_created": "2024-05-23T14:16:11.000",
    "date_modified": "2024-05-23T14:16:12.000",
    "request_status": "Pending",
    "responsible_agency": "Department of Sanitation",
    "final_address": "7724 Vincent Rd",
    "address_councildis": "E",
    "status": "Assigned to Contractor",
    "contractor": "Waste Pro",
    "rowid": "1096246",
    "final_x": "3717991.40517",
    "final_y": "572021.8506",
    "longitude": "-89.95130250650108",
    "latitude": "30.065701414732306",
    "geocoded_column": {
      "latitude": "30.065701414732306",
      "longitude": "-89.95130250650108"
    }
  },