[
  {
    "service_request": "2025-1215358",
    "request_type": "Roads and Streets",
    "request_reason": "Pothole",
    "date_created": "2025-08-04T23:54:54.000",
    "date_modified": "2025-08-04T23:54:55.000",
    "request_status": "Pending",
    "responsible_agency": "Department of Public Works",
    "final_address": "4000 BLK Toulouse St",
    "address_councildis": "A",
    "status": "Pending",
    "rowid": "1215358",
    "final_x": "3672463.19441",
    "final_y": "539559.144751",
    "longitude": "-90.0963313135396",
    "latitude": "29.97787191477527",
    "geocoded_column": {
      "latitude": "29.97787191477527",
      "longitude": "-90.0963313135396"
    }
  },
  {
    "service_request": "2025-1215357",
    "request_type": "Trash/Recycling",
    "request_reason": "Request a Large Item Pick Up",
    "date_created": "2025-08-04T23:36:26.000",
    "date_modified": "2025-08-04T23:36:29.000",
    "request_status": "Pending",
    "responsible_agency": "Department of Sanitation",
    "final_address": "44 Marywood Ct",
    "address_councildis": "E",
    "status": "Assigned to Contractor",
    "contractor": "Waste Pro",
    "rowid": "1215357",
    "final_x": "3712233.94373",
    "final_y": "567025.747748",
    "longitude": "-89.96969035871096",
    "latitude": "30.052153862366005",
    "geocoded_column": {
      "latitude": "30.052153862366005",
      "longitude": "-89.96969035871096"
    }
  },
  {
    "service_request": "2025-1215356",
    "request_type": "Trash/Recycling",
    "request_reason": "Order Trash Cart",
    "date_created": "2025-08-04T23:06:28.000",
    "date_modified": "2025-08-04T23:06:30.000",
    "request_status": "Pending",
    "responsible_agency": "Department of Sanitation",
    "final_address": "215 N Roman St",
    "address_councildis": "B",
    "status": "Assigned to Contractor",
    "contractor": "IV Waste",
    "rowid": "1215356",
    "final_x": "3678134.74274",
    "final_y": "533720.857413",
    "longitude": "-90.07862049725821",
    "latitude": "29.96164904615079",
    "geocoded_column": {
      "latitude": "29.96164904615079",
      "longitude": "-90.07862049725821"
    }
  },
  {
    "service_request": "2025-1215355",
    "request_type": "Drainage",
    "request_reason": "Catch Basin Clogged",
    "date_created": "2025-08-04T22:56:56.000",
    "date_modified": "2025-08-04T22:56:58.000",
    "request_status": "Pending",
    "responsible_agency": "Sewerage & Water Board",
    "final_address": "602 Hagan St",
    "address_councildis": "A",
    "status": "Pending",
    "rowid": "1215355",
    "final_x": "3674444.86664",
    "final_y": "538128.046537",
    "longitude": "-90.09012153389558",
    "latitude": "29.973877909914425",
    "geocoded_column": {
      "latitude": "29.973877909914425",
      "longitude": "-90.09012153389558"
    }
  },
  {
    "service_request": "2025-1215354",
    "request_type": "Streetlights",
    "request_reason": "Streetlight Outage/Malfunction",
    "date_created": "2025-08-04T22:36:52.000",
    "date_modified": "2025-08-04T22:36:54.000",
    "request_status": "Pending",
    "responsible_agency": "Department of Public Works",
    "final_address": "5521 St Anthony Ave",
    "address_councildis": "D",
    "status": "Pending",
    "contractor": "Legacy Professional Services",
    "rowid": "1215354",
    "final_x": "3682274.463",
    "final_y": "553120.339415",
    "longitude": "-90.0648697967326",
    "latitude": "30.01486548431089",
    "geocoded_column": {
      "latitude": "30.01486548431089",
      "longitude": "-90.0648697967326"
    }
  },
  {
    "service_request": "2025-1215353",
    "request_type": "Trash/Recycling",
    "request_reason": "Request a Large Item Pick Up",
    "date_created": "2025-08-04T21:55:51.000",
    "date_modified": "2025-08-04T21:55:53.000",
    "request_status": "Pending",
    "responsible_agency": "Department of Sanitation",
    "final_address": "13020 Ashland Dr",
    "address_councildis": "E",
    "status": "Assigned to Contractor",
    "contractor": "Waste Pro",
    "rowid": "1215353",
    "final_x": "3717576.75954",
    "final_y": "567553.200996",
    "longitude": "-89.95278343391202",
    "latitude": "30.053428228146448",
    "geocoded_column": {
      "latitude": "30.053428228146448",
      "longitude": "-89.95278343391202"
    }
  },
  {
    "service_request": "2025-1215352",
    "request_type": "Property Maintenance",
    "request_reason": "Property Maintenance",
    "date_created": "2025-08-04T21:53:12.000",
    "date_modified": "2025-08-04T21:53:14.000",
    "request_status": "Pending",
    "responsible_agency": "Department of Code Enforcement",
    "final_address": "2306 Alabo St",
    "address_councildis": "E",
    "status": "Pending",
    "rowid": "1215352",
    "final_x": "3700096.46807",
    "final_y": "538113.348809",
    "longitude": "-90.00910914640862",
    "latitude": "29.973047294607866",
    "geocoded_column": {
      "latitude": "29.973047294607866",
      "longitude": "-90.00910914640862"
    }
  },
  {
    "service_request": "2025-1215351",
    "request_type": "Trash/Recycling",
    "request_reason": "Request a Large Item Pick Up",
    "date_created": "2025-08-04T21:32:03.000",
    "date_modified": "2025-08-04T21:32:05.000",
    "request_status": "Pending",
    "responsible_agency": "Department of Sanitation",
    "final_address": "2204 Third St",
    "address_councildis": "B",
    "status": "Assigned to Contractor",
    "contractor": "IV Waste",
    "rowid": "1215351",
    "final_x": "3675193.89729",
    "final_y": "524700.24902",
    "longitude": "-90.088216748371",
    "latitude": "29.936933582459005",
    "geocoded_column": {
      "latitude": "29.936933582459005",
      "longitude": "-90.088216748371"
    }
  },
  {
    "service_request": "2025-1215350",
    "request_type": "Trash/Recycling",
    "request_reason": "Order Trash Cart",
    "date_created": "2025-08-04T21:30:58.000",
    "date_modified": "2025-08-04T21:31:00.000",
    "request_status": "Pending",
    "responsible_agency": "Department of Sanitation",
    "final_address": "2464 Vienna St",
    "address_councildis": "D",
    "status": "Assigned to Contractor",
    "contractor": "IV Waste",
    "rowid": "1215350",
    "final_x": "3685574.61001",
    "final_y": "555080.152665",
    "longitude": "-90.05437382372457",
    "latitude": "30.020153383998657",
    "geocoded_column": {
      "latitude": "30.020153383998657",
      "longitude": "-90.05437382372457"
    }
  },
  {
    "service_request": "2025-1215349",
    "request_type": "Trash/Recycling",
    "request_reason": "Request a Large Item Pick Up",
    "date_created": "2025-08-04T21:18:57.000",
    "date_modified": "2025-08-04T21:18:59.000",
    "request_status": "Pending",
    "responsible_agency": "Department of Sanitation",
    "final_address": "3915 Prytania St",
    "address_councildis": "B",
    "status": "Assigned to Contractor",
    "contractor": "IV Waste",
    "rowid": "1215349",
    "final_x": "3672632.27707",
    "final_y": "520543.0494",
    "longitude": "-90.09644560808513",
    "latitude": "29.92557891531325",
    "geocoded_column": {
      "latitude": "29.92557891531325",
      "longitude": "-90.09644560808513"
    }
  },
  {
    "service_request": "2025-1215348",
    "request_type": "Abandoned Vehicles",
    "request_reason": "Abandoned/Junk Vehicles",
    "date_created": "2025-08-04T21:18:36.000",
    "date_modified": "2025-08-04T21:18:37.000",
    "request_status": "Pending",
    "responsible_agency": "Department of Public Works",
    "final_address": "4611 Galahad Dr",
    "address_councildis": "E",
    "status": "Pending",
    "rowid": "1215348",
    "final_x": "3707380.16945",
    "final_y": "554514.574232",
    "longitude": "-89.98549670465553",
    "latitude": "30.01791100808755",
    "geocoded_column": {
      "latitude": "30.01791100808755",
      "longitude": "-89.98549670465553"
    }
  },
  {
    "service_request": "2025-1215347",
    "request_type": "Roads and Streets",
    "request_reason": "Street Subsidence (Sinking)",
    "date_created": "2025-08-04T21:13:39.000",
    "date_modified": "2025-08-04T21:13:41.000",
    "request_status": "Pending",
    "responsible_agency": "Sewerage & Water Board",
    "final_address": "4525 N Robertson St",
    "address_councildis": "D",
    "status": "Pending",
    "rowid": "1215347",
    "final_x": "3693985.21923",
    "final_y": "536460.728711",
    "longitude": "-90.02846901275659",
    "latitude": "29.9686959600709",
    "geocoded_column": {
      "latitude": "29.9686959600709",
      "longitude": "-90.02846901275659"
    }
  },
  {
    "service_request": "2025-1215346",
    "request_type": "Parks & Parkways",
    "request_reason": "Request Tree Service (Right of Way/Public Property)",
    "date_created": "2025-08-04T21:04:07.000",
    "date_modified": "2025-08-04T21:04:09.000",
    "request_status": "Pending",
    "responsible_agency": "Department of Parks & Parkway",
    "final_address": "5242 Michoud Blvd",
    "address_councildis": "E",
    "status": "Pending",
    "rowid": "1215346",
    "final_x": "3724690.9166",
    "final_y": "562703.125216",
    "longitude": "-89.93048543016496",
    "latitude": "30.039854936404147",
    "geocoded_column": {
      "latitude": "30.039854936404147",
      "longitude": "-89.93048543016496"
    }
  },
  {
    "service_request": "2025-1215345",
    "request_type": "Property Maintenance",
    "request_reason": "Property Maintenance",
    "date_created": "2025-08-04T20:59:10.000",
    "date_modified": "2025-08-04T20:59:12.000",
    "request_status": "Pending",
    "responsible_agency": "Department of Code Enforcement",
    "final_address": "4526 N Robertson St",
    "address_councildis": "D",
    "status": "Pending",
    "rowid": "1215345",
    "final_x": "3693873.59043",
    "final_y": "536244.858055",
    "longitude": "-90.02882930264298",
    "latitude": "29.968105887233968",
    "geocoded_column": {
      "latitude": "29.968105887233968",
      "longitude": "-90.02882930264298"
    }
  },
  {
    "service_request": "2025-1215344",
    "request_type": "Property Maintenance",
    "request_reason": "Property Maintenance",
    "date_created": "2025-08-04T20:49:08.000",
    "date_modified": "2025-08-04T20:49:10.000",
    "request_status": "Pending",
    "responsible_agency": "Department of Code Enforcement",
    "final_address": "2326 Annunciation St",
    "address_councildis": "B",
    "status": "Pending",
    "rowid": "1215344",
    "final_x": "3679036.93403",
    "final_y": "520801.563897",
    "longitude": "-90.07621911442581",
    "latitude": "29.926098091728583",
    "geocoded_column": {
      "latitude": "29.926098091728583",
      "longitude": "-90.07621911442581"
    }
  },
  {
    "service_request": "2025-1215343",
    "request_type": "Trash/Recycling",
    "request_reason": "Illegal Dumping",
    "date_created": "2025-08-04T20:37:39.000",
    "date_modified": "2025-08-04T20:37:41.000",
    "request_status": "Pending",
    "responsible_agency": "Department of Sanitation",
    "final_address": "721 Eighth St",
    "address_councildis": "B",
    "status": "Pending",
    "rowid": "1215343",
    "final_x": "3676881.06625",
    "final_y": "519133.622583",
    "longitude": "-90.08308201844969",
    "latitude": "29.921576652739812",
    "geocoded_column": {
      "latitude": "29.921576652739812",
      "longitude": "-90.08308201844969"
    }
  },
  {
    "service_request": "2025-1215342",
    "request_type": "Trash/Recycling",
    "request_reason": "Request a Large Item Pick Up",
    "date_created": "2025-08-04T20:31:22.000",
    "date_modified": "2025-08-04T20:31:24.000",
    "request_status": "Pending",
    "responsible_agency": "Department of Sanitation",
    "final_address": "7724 Mercier St",
    "address_councildis": "E",
    "status": "Assigned to Contractor",
    "contractor": "Waste Pro",
    "rowid": "1215342",
    "final_x": "3711162.58014",
    "final_y": "566846.989476",
    "longitude": "-89.97308329206345",
    "latitude": "30.05169736394223",
    "geocoded_column": {
      "latitude": "30.05169736394223",
      "longitude": "-89.97308329206345"
    }
  },
  {
    "service_request": "2025-1215341",
    "request_type": "Streetlights",
    "request_reason": "Streetlight Outage/Malfunction",
    "date_created": "2025-08-04T20:24:42.000",
    "date_modified": "2025-08-04T20:24:43.000",
    "request_status": "Pending",
    "responsible_agency": "Department of Public Works",
    "final_address": "760 Magazine St",
    "address_councildis": "B",
    "status": "Pending",
    "contractor": "Legacy Professional Services",
    "rowid": "1215341",
    "final_x": "3681241.20226",
    "final_y": "527910.497663",
    "longitude": "-90.06901327117299",
    "latitude": "29.945578622882707",
    "geocoded_column": {
      "latitude": "29.945578622882707",
      "longitude": "-90.06901327117299"
    }
  },
  {
    "service_request": "2025-1215340",
    "request_type": "Trash/Recycling",
    "request_reason": "Request a Large Item Pick Up",
    "date_created": "2025-08-04T20:23:51.000",
    "date_modified": "2025-08-04T20:23:53.000",
    "request_status": "Pending",
    "responsible_agency": "Department of Sanitation",
    "final_address": "1222 Frenchmen St",
    "address_councildis": "C",
    "status": "Assigned to Contractor",
    "contractor": "IV Waste",
    "rowid": "1215340",
    "final_x": "3684510.02377",
    "final_y": "536832.931464",
    "longitude": "-90.05837909912964",
    "latitude": "29.97001267975877",
    "geocoded_column": {
      "latitude": "29.97001267975877",
      "longitude": "-90.05837909912964"
    }
  },
  {
    "service_request": "2025-1215339",
    "request_type": "Trash/Recycling",
    "request_reason": "Repair Trash Cart",
    "date_created": "2025-08-04T20:11:55.000",
    "date_modified": "2025-08-04T20:11:58.000",
    "request_status": "Pending",
    "responsible_agency": "Department of Sanitation",
    "final_address": "5880 Marcia Ave",
    "address_councildis": "A",
    "status": "Assigned to Contractor",
    "contractor": "IV Waste",
    "rowid": "1215339",
    "final_x": "3664720.35892",
    "final_y": "546947.514641",
    "longitude": "-90.12053900201036",
    "latitude": "29.998414999823513",
    "geocoded_column": {
      "latitude": "29.998414999823513",
      "longitude": "-90.12053900201036"
    }
  },
  {
    "service_request": "2025-1215338",
    "request_type": "Trash/Recycling",
    "request_reason": "Request a Large Item Pick Up",
    "date_created": "2025-08-04T20:10:29.000",
    "date_modified": "2025-08-04T20:10:32.000",
    "request_status": "Pending",
    "responsible_agency": "Department of Sanitation",
    "final_address": "715 N Rendon St",
    "address_councildis": "A",
    "status": "Assigned to Contractor",
    "contractor": "IV Waste",
    "rowid": "1215338",
    "final_x": "3674929.30261",
    "final_y": "538289.551305",
    "longitude": "-90.08858603479935",
    "latitude": "29.974307531814098",
    "geocoded_column": {
      "latitude": "29.974307531814098",
      "longitude": "-90.08858603479935"
    }
  },
  {
    "service_request": "2025-1215337",
    "request_type": "Trash/Recycling",
    "request_reason": "Repair Recycling Cart",
    "date_created": "2025-08-04T20:04:20.000",
    "date_modified": "2025-08-04T20:04:22.000",
    "request_status": "Pending",
    "responsible_agency": "Department of Sanitation",
    "final_address": "4345 St Bernard Ave",
    "address_councildis": "D",
    "status": "Pending",
    "rowid": "1215337",
    "final_x": "3676907.5405",
    "final_y": "548717.937619",
    "longitude": "-90.0819786086643",
    "latitude": "30.002922722331938",
    "geocoded_column": {
      "latitude": "30.002922722331938",
      "longitude": "-90.0819786086643"
    }
  },
  {
    "service_request": "2025-1215336",
    "request_type": "Trash/Recycling",
    "request_reason": "Request a Large Item Pick Up",
    "date_created": "2025-08-04T19:56:44.000",
    "date_modified": "2025-08-04T19:56:45.000",
    "request_status": "Pending",
    "responsible_agency": "Department of Sanitation",
    "final_address": "12540 N Lake Carmel Dr",
    "address_councildis": "E",
    "status": "Assigned to Contractor",
    "contractor": "Waste Pro",
    "rowid": "1215336",
    "final_x": "3715844.74936",
    "final_y": "567899.210341",
    "longitude": "-89.9582446825664",
    "latitude": "30.05443687644844",
    "geocoded_column": {
      "latitude": "30.05443687644844",
      "longitude": "-89.9582446825664"
    }
  },
  {
    "service_request": "2025-1215335",
    "request_type": "Streetlights",
    "request_reason": "New Streetlight Request",
    "date_created": "2025-08-04T19:53:01.000",
    "date_modified": "2025-08-04T19:53:04.000",
    "request_status": "Pending",
    "responsible_agency": "Department of Public Works",
    "final_address": "4912 Chrysler St",
    "address_councildis": "E",
    "status": "Pending",
    "contractor": "Legacy Professional Services",
    "rowid": "1215335",
    "final_x": "3715160.81413",
    "final_y": "557504.293467",
    "longitude": "-89.96079998302066",
    "latitude": "30.02587760459259",
    "geocoded_column": {
      "latitude": "30.02587760459259",
      "longitude": "-89.96079998302066"
    }
  },
  {
    "service_request": "2025-1215334",
    "request_type": "Drainage",
    "request_reason": "Catch Basin Clogged",
    "date_created": "2025-08-04T19:46:13.000",
    "date_modified": "2025-08-04T19:46:14.000",
    "request_status": "Pending",
    "responsible_agency": "Sewerage & Water Board",
    "final_address": "2800 DAbadie St",
    "address_councildis": "D",
    "status": "Pending",
    "rowid": "1215334",
    "final_x": "3678914.20635",
    "final_y": "541186.461836",
    "longitude": "-90.07590036884237",
    "latitude": "29.982153403064945",
    "geocoded_column": {
      "latitude": "29.982153403064945",
      "longitude": "-90.07590036884237"
    }
  },
  {
    "service_request": "2025-1215333",
    "request_type": "Street and Traffic Signs",
    "request_reason": "Street Name Sign Damaged or Missing",
    "date_created": "2025-08-04T19:44:08.000",
    "date_modified": "2025-08-04T19:44:09.000",
    "request_status": "Pending",
    "responsible_agency": "Department of Public Works",
    "final_address": "4912 Chrysler St",
    "address_councildis": "E",
    "status": "Pending",
    "rowid": "1215333",
    "final_x": "3715160.81413",
    "final_y": "557504.293467",
    "longitude": "-89.96079998302066",
    "latitude": "30.02587760459259",
    "geocoded_column": {
      "latitude": "30.02587760459259",
      "longitude": "-89.96079998302066"
    }
  },
  {
    "service_request": "2025-1215332",
    "request_type": "Trash/Recycling",
    "request_reason": "Replace Trash Cart",
    "date_created": "2025-08-04T19:39:26.000",
    "date_modified": "2025-08-04T19:39:28.000",
    "request_status": "Pending",
    "responsible_agency": "Department of Sanitation",
    "final_address": "2655 General Collins Ave",
    "address_councildis": "C",
    "status": "Assigned to Contractor",
    "contractor": "Richards Disposal",
    "rowid": "1215332",
    "final_x": "3698339.95005",
    "final_y": "521288.142137",
    "longitude": "-90.01526778039046",
    "latitude": "29.9268395894828",
    "geocoded_column": {
      "latitude": "29.9268395894828",
      "longitude": "-90.01526778039046"
    }
  },
  {
    "service_request": "2025-1215331",
    "request_type": "Street and Traffic Signs",
    "request_reason": "Street Name Sign Damaged or Missing",
    "date_created": "2025-08-04T19:39:01.000",
    "date_modified": "2025-08-04T19:39:04.000",
    "request_status": "Pending",
    "responsible_agency": "Department of Public Works",
    "final_address": "4912 Chrysler St",
    "address_councildis": "E",
    "status": "Pending",
    "rowid": "1215331",
    "final_x": "3715160.81413",
    "final_y": "557504.293467",
    "longitude": "-89.96079998302066",
    "latitude": "30.02587760459259",
    "geocoded_column": {
      "latitude": "30.02587760459259",
      "longitude": "-89.96079998302066"
    }
  },
  {
    "service_request": "2025-1215330",
    "request_type": "Roads and Streets",
    "request_reason": "Pothole",
    "date_created": "2025-08-04T19:33:33.000",
    "date_modified": "2025-08-04T19:33:34.000",
    "request_status": "Pending",
    "responsible_agency": "Department of Public Works",
    "final_address": "5922 Warwick Ct",
    "address_councildis": "C",
    "status": "Pending",
    "rowid": "1215330",
    "final_x": "3705652.83652",
    "final_y": "515945.724596",
    "longitude": "-89.99238049932589",
    "latitude": "29.911916463910455",
    "geocoded_column": {
      "latitude": "29.911916463910455",
      "longitude": "-89.99238049932589"
    }
  },
  {
    "service_request": "2025-1215329",
    "request_type": "Abandoned Vehicles",
    "request_reason": "Abandoned/Junk Vehicles",
    "date_created": "2025-08-04T19:26:35.000",
    "date_modified": "2025-08-04T19:26:36.000",
    "request_status": "Pending",
    "responsible_agency": "Department of Public Works",
    "final_address": "435 S Dupre St",
    "address_councildis": "B",
    "status": "Pending",
    "rowid": "1215329",
    "final_x": "3673632.63476",
    "final_y": "534450.742277",
    "longitude": "-90.09281248041006",
    "latitude": "29.963790771689656",
    "geocoded_column": {
      "latitude": "29.963790771689656",
      "longitude": "-90.09281248041006"
    }
  },
  {
    "service_request": "2025-1215328",
    "request_type": "Roads and Streets",
    "request_reason": "Pothole",
    "date_created": "2025-08-04T19:11:12.000",
    "date_modified": "2025-08-04T19:11:14.000",
    "request_status": "Pending",
    "responsible_agency": "Department of Public Works",
    "final_address": "4947 Dodt Ave",
    "address_councildis": "E",
    "status": "Pending",
    "rowid": "1215328",
    "final_x": "3705401.13182",
    "final_y": "556480.145306",
    "longitude": "-89.99167693486997",
    "latitude": "30.023379429466665",
    "geocoded_column": {
      "latitude": "30.023379429466665",
      "longitude": "-89.99167693486997"
    }
  },
  {
    "service_request": "2025-1215327",
    "request_type": "Trash/Recycling",
    "request_reason": "Replace Recycling Cart",
    "date_created": "2025-08-04T19:09:13.000",
    "date_modified": "2025-08-04T19:09:15.000",
    "request_status": "Pending",
    "responsible_agency": "Department of Sanitation",
    "final_address": "44 W Park Pl",
    "address_councildis": "A",
    "status": "Pending",
    "rowid": "1215327",
    "final_x": "3669808.32199",
    "final_y": "544410.136591",
    "longitude": "-90.10455204672823",
    "latitude": "29.991289028881827",
    "geocoded_column": {
      "latitude": "29.991289028881827",
      "longitude": "-90.10455204672823"
    }
  },
  {
    "service_request": "2025-1215326",
    "request_type": "Drainage",
    "request_reason": "Ditch and Culvert Maintenance",
    "date_created": "2025-08-04T19:04:04.000",
    "date_modified": "2025-08-04T19:04:06.000",
    "request_status": "Pending",
    "responsible_agency": "Department of Public Works",
    "final_address": "4901 Piety Dr",
    "address_councildis": "D",
    "status": "Pending",
    "rowid": "1215326",
    "final_x": "3691531.2383",
    "final_y": "551871.81871",
    "longitude": "-90.03566761861497",
    "latitude": "30.01114750101827",
    "geocoded_column": {
      "latitude": "30.01114750101827",
      "longitude": "-90.03566761861497"
    }
  },
  {
    "service_request": "2025-1215325",
    "request_type": "Trash/Recycling",
    "request_reason": "Return Trash Cart",
    "date_created": "2025-08-04T19:02:24.000",
    "date_modified": "2025-08-04T19:02:28.000",
    "request_status": "Pending",
    "responsible_agency": "Department of Sanitation",
    "final_address": "613 Belleville St",
    "address_councildis": "C",
    "status": "Assigned to Contractor",
    "contractor": "Richards Disposal",
    "rowid": "1215325",
    "final_x": "3687795.07247",
    "final_y": "529354.992129",
    "longitude": "-90.04826947093319",
    "latitude": "29.949350019365475",
    "geocoded_column": {
      "latitude": "29.949350019365475",
      "longitude": "-90.04826947093319"
    }
  },
  {
    "service_request": "2025-1215324",
    "request_type": "Drainage",
    "request_reason": "Catch Basin Clogged",
    "date_created": "2025-08-04T19:00:20.000",
    "date_modified": "2025-08-04T19:00:22.000",
    "request_status": "Pending",
    "responsible_agency": "Sewerage & Water Board",
    "final_address": "1517 Joliet St",
    "address_councildis": "A",
    "status": "Pending",
    "rowid": "1215324",
    "final_x": "3661747.97683",
    "final_y": "530203.141953",
    "longitude": "-90.13048407407358",
    "latitude": "29.95245968579299",
    "geocoded_column": {
      "latitude": "29.95245968579299",
      "longitude": "-90.13048407407358"
    }
  },
  {
    "service_request": "2025-1215323",
    "request_type": "Trash/Recycling",
    "request_reason": "Request a Large Item Pick Up",
    "date_created": "2025-08-04T18:44:49.000",
    "date_modified": "2025-08-04T18:44:51.000",
    "request_status": "Pending",
    "responsible_agency": "Department of Sanitation",
    "final_address": "723 Soraparu St",
    "address_councildis": "B",
    "status": "Assigned to Contractor",
    "contractor": "IV Waste",
    "rowid": "1215323",
    "final_x": "3679039.62658",
    "final_y": "520640.8686",
    "longitude": "-90.07621618013694",
    "latitude": "29.925656150829848",
    "geocoded_column": {
      "latitude": "29.925656150829848",
      "longitude": "-90.07621618013694"
    }
  },
  {
    "service_request": "2025-1215322",
    "request_type": "Drainage",
    "request_reason": "Catch Basin Clogged",
    "date_created": "2025-08-04T18:23:53.000",
    "date_modified": "2025-08-04T18:23:54.000",
    "request_status": "Pending",
    "responsible_agency": "Sewerage & Water Board",
    "final_address": "3200 BLK Palmyra St",
    "address_councildis": "B",
    "status": "Pending",
    "rowid": "1215322",
    "final_x": "3673246.23287",
    "final_y": "535703.848327",
    "longitude": "-90.09398990100269",
    "latitude": "29.96724788912383",
    "geocoded_column": {
      "latitude": "29.96724788912383",
      "longitude": "-90.09398990100269"
    }
  },
  {
    "service_request": "2025-1215321",
    "request_type": "Drainage",
    "request_reason": "Catch Basin Clogged",
    "date_created": "2025-08-04T18:22:08.000",
    "date_modified": "2025-08-04T18:22:10.000",
    "request_status": "Pending",
    "responsible_agency": "Sewerage & Water Board",
    "final_address": "3300 BLK Palmyra St",
    "address_councildis": "B",
    "status": "Pending",
    "rowid": "1215321",
    "final_x": "3672953.41849",
    "final_y": "535926.453197",
    "longitude": "-90.09490701608497",
    "latitude": "29.967868682729392",
    "geocoded_column": {
      "latitude": "29.967868682729392",
      "longitude": "-90.09490701608497"
    }
  },
  {
    "service_request": "2025-1215320",
    "request_type": "Trash/Recycling",
    "request_reason": "Illegal Dumping",
    "date_created": "2025-08-04T18:16:23.000",
    "date_modified": "2025-08-04T18:16:25.000",
    "request_status": "Pending",
    "responsible_agency": "Department of Sanitation",
    "final_address": "2616 Franklin Ave",
    "address_councildis": "D",
    "status": "Pending",
    "rowid": "1215320",
    "final_x": "3687372.98742",
    "final_y": "542228.215565",
    "longitude": "-90.0491466377709",
    "latitude": "29.98475990597532",
    "geocoded_column": {
      "latitude": "29.98475990597532",
      "longitude": "-90.0491466377709"
    }
  },
  {
    "service_request": "2025-1215319",
    "request_type": "Trash/Recycling",
    "request_reason": "Request a Large Item Pick Up",
    "date_created": "2025-08-04T17:58:34.000",
    "date_modified": "2025-08-04T17:58:36.000",
    "request_status": "Pending",
    "responsible_agency": "Department of Sanitation",
    "final_address": "146 Harbour Town Ct",
    "address_councildis": "C",
    "status": "Assigned to Contractor",
    "contractor": "Richards Disposal",
    "rowid": "1215319",
    "final_x": "3718010.57183",
    "final_y": "512974.797169",
    "longitude": "-89.95348965189142",
    "latitude": "29.903344023535446",
    "geocoded_column": {
      "latitude": "29.903344023535446",
      "longitude": "-89.95348965189142"
    }
  },
  {
    "service_request": "2025-1215318",
    "request_type": "Trash/Recycling",
    "request_reason": "Request a Large Item Pick Up",
    "date_created": "2025-08-04T17:58:23.000",
    "date_modified": "2025-08-04T17:58:25.000",
    "request_status": "Pending",
    "responsible_agency": "Department of Sanitation",
    "final_address": "11521 Morrison Rd",
    "address_councildis": "E",
    "status": "Assigned to Contractor",
    "contractor": "Waste Pro",
    "rowid": "1215318",
    "final_x": "3712607.0083",
    "final_y": "566083.674275",
    "longitude": "-89.96854669109283",
    "latitude": "30.04955133038131",
    "geocoded_column": {
      "latitude": "30.04955133038131",
      "longitude": "-89.96854669109283"
    }
  },
  {
    "service_request": "2025-1215317",
    "request_type": "Trash/Recycling",
    "request_reason": "Request a Large Item Pick Up",
    "date_created": "2025-08-04T17:56:59.000",
    "date_modified": "2025-08-04T17:57:02.000",
    "request_status": "Pending",
    "responsible_agency": "Department of Sanitation",
    "final_address": "7917 Means Ave",
    "address_councildis": "E",
    "status": "Assigned to Contractor",
    "contractor": "Waste Pro",
    "rowid": "1215317",
    "final_x": "3707690.46168",
    "final_y": "565633.862114",
    "longitude": "-89.98410262197072",
    "latitude": "30.048474628101268",
    "geocoded_column": {
      "latitude": "30.048474628101268",
      "longitude": "-89.98410262197072"
    }
  },
  {
    "service_request": "2025-1215316",
    "request_type": "Trash/Recycling",
    "request_reason": "Request a Large Item Pick Up",
    "date_created": "2025-08-04T17:47:57.000",
    "date_modified": "2025-08-04T17:47:59.000",
    "request_status": "Pending",
    "responsible_agency": "Department of Sanitation",
    "final_address": "2100 Audubon St",
    "address_councildis": "A",
    "status": "Assigned to Contractor",
    "contractor": "IV Waste",
    "rowid": "1215316",
    "final_x": "3666177.77159",
    "final_y": "529020.547072",
    "longitude": "-90.11653640194116",
    "latitude": "29.949079325617763",
    "geocoded_column": {
      "latitude": "29.949079325617763",
      "longitude": "-90.11653640194116"
    }
  },
  {
    "service_request": "2025-1215315",
    "request_type": "Trash/Recycling",
    "request_reason": "Missed Trash Pick-Up",
    "date_created": "2025-08-04T17:47:17.000",
    "date_modified": "2025-08-04T17:47:18.000",
    "request_status": "Pending",
    "responsible_agency": "Department of Sanitation",
    "final_address": "2256 St Claude Ave",
    "address_councildis": "C",
    "status": "Assigned to Contractor",
    "contractor": "IV Waste",
    "rowid": "1215315",
    "final_x": "3685562.25794",
    "final_y": "536316.933575",
    "longitude": "-90.05507422449332",
    "latitude": "29.968561630126942",
    "geocoded_column": {
      "latitude": "29.968561630126942",
      "longitude": "-90.05507422449332"
    }
  },
  {
    "service_request": "2025-1215314",
    "request_type": "Trash/Recycling",
    "request_reason": "Request a Large Item Pick Up",
    "date_created": "2025-08-04T17:42:59.000",
    "date_modified": "2025-08-04T17:43:01.000",
    "request_status": "Pending",
    "responsible_agency": "Department of Sanitation",
    "final_address": "12960 Chanelle Ct",
    "address_councildis": "E",
    "status": "Assigned to Contractor",
    "contractor": "Waste Pro",
    "rowid": "1215314",
    "final_x": "3717140.82821",
    "final_y": "567696.807524",
    "longitude": "-89.95415582029591",
    "latitude": "30.053837521394176",
    "geocoded_column": {
      "latitude": "30.053837521394176",
      "longitude": "-89.95415582029591"
    }
  },
  {
    "service_request": "2025-1215313",
    "request_type": "Trash/Recycling",
    "request_reason": "Missed Trash Pick-Up",
    "date_created": "2025-08-04T17:36:12.000",
    "date_modified": "2025-08-04T17:36:13.000",
    "request_status": "Pending",
    "responsible_agency": "Department of Sanitation",
    "final_address": "2919 Grand-Route St John St",
    "address_councildis": "A",
    "status": "Assigned to Contractor",
    "contractor": "IV Waste",
    "rowid": "1215313",
    "final_x": "3677538.89832",
    "final_y": "540332.715979",
    "longitude": "-90.08027374756085",
    "latitude": "29.979847324618056",
    "geocoded_column": {
      "latitude": "29.979847324618056",
      "longitude": "-90.08027374756085"
    }
  },
  {
    "service_request": "2025-1215312",
    "request_type": "Trash/Recycling",
    "request_reason": "Replace Trash Cart",
    "date_created": "2025-08-04T17:34:10.000",
    "date_modified": "2025-08-04T17:34:13.000",
    "request_status": "Pending",
    "responsible_agency": "Department of Sanitation",
    "final_address": "2419 Conti St",
    "address_councildis": "B",
    "status": "Assigned to Contractor",
    "contractor": "IV Waste",
    "rowid": "1215312",
    "final_x": "3677006.88168",
    "final_y": "535360.147718",
    "longitude": "-90.08212557198777",
    "latitude": "29.96619045021828",
    "geocoded_column": {
      "latitude": "29.96619045021828",
      "longitude": "-90.08212557198777"
    }
  },
  {
    "service_request": "2025-1215311",
    "request_type": "Trash/Recycling",
    "request_reason": "Missed Trash Pick-Up",
    "date_created": "2025-08-04T17:20:33.000",
    "date_modified": "2025-08-04T17:20:35.000",
    "request_status": "Pending",
    "responsible_agency": "Department of Sanitation",
    "final_address": "13511 Dwyer Blvd",
    "address_councildis": "E",
    "status": "Assigned to Contractor",
    "contractor": "Waste Pro",
    "rowid": "1215311",
    "final_x": "3725954.58809",
    "final_y": "562107.552031",
    "longitude": "-89.92651500341378",
    "latitude": "30.03817475627309",
    "geocoded_column": {
      "latitude": "30.03817475627309",
      "longitude": "-89.92651500341378"
    }
  },
  {
    "service_request": "2025-1215310",
    "request_type": "Drainage",
    "request_reason": "Catch Basin Clogged",
    "date_created": "2025-08-04T17:16:02.000",
    "date_modified": "2025-08-04T17:16:04.000",
    "request_status": "Pending",
    "responsible_agency": "Sewerage & Water Board",
    "final_address": "2359 Mendez St",
    "address_councildis": "D",
    "status": "Pending",
    "rowid": "1215310",
    "final_x": "3684937.47055",
    "final_y": "553556.339863",
    "longitude": "-90.05644063597818",
    "latitude": "30.01598299786138",
    "geocoded_column": {
      "latitude": "30.01598299786138",
      "longitude": "-90.05644063597818"
    }
  },
  {
    "service_request": "2025-1215309",
    "request_type": "Abandoned Vehicles",
    "request_reason": "Abandoned/Junk Vehicles",
    "date_created": "2025-08-04T16:59:52.000",
    "date_modified": "2025-08-04T16:59:54.000",
    "request_status": "Pending",
    "responsible_agency": "Department of Public Works",
    "final_address": "1630 Washington Ave",
    "address_councildis": "B",
    "status": "Pending",
    "rowid": "1215309",
    "final_x": "3675728.51483",
    "final_y": "522748.708858",
    "longitude": "-90.08659596719141",
    "latitude": "29.931551499180358",
    "geocoded_column": {
      "latitude": "29.931551499180358",
      "longitude": "-90.08659596719141"
    }
  },
  {
    "service_request": "2025-1215308",
    "request_type": "Trash/Recycling",
    "request_reason": "Missed Trash Pick-Up",
    "date_created": "2025-08-04T16:59:03.000",
    "date_modified": "2025-08-04T17:18:13.000",
    "case_close_date": "2025-08-04T12:18:12.000",
    "request_status": "Closed",
    "responsible_agency": "Department of Sanitation",
    "final_address": "1254 N Villere St",
    "address_councildis": "C",
    "status": "Invalid Request",
    "contractor": "IV Waste",
    "contractor_action": "Invalid",
    "rowid": "1215308",
    "final_x": "3681741.05583",
    "final_y": "535987.455047",
    "longitude": "-90.0671532733442",
    "latitude": "29.967772336615024",
    "geocoded_column": {
      "latitude": "29.967772336615024",
      "longitude": "-90.0671532733442"
    }
  },
  {
    "service_request": "2025-1215307",
    "request_type": "Trash/Recycling",
    "request_reason": "Request a Large Item Pick Up",
    "date_created": "2025-08-04T16:57:34.000",
    "date_modified": "2025-08-04T16:57:36.000",
    "request_status": "Pending",
    "responsible_agency": "Department of Sanitation",
    "final_address": "4104 Perrier St",
    "address_councildis": "B",
    "status": "Assigned to Contractor",
    "contractor": "IV Waste",
    "rowid": "1215307",
    "final_x": "3671887.76257",
    "final_y": "520132.806584",
    "longitude": "-90.09880976978944",
    "latitude": "29.924472956190364",
    "geocoded_column": {
      "latitude": "29.924472956190364",
      "longitude": "-90.09880976978944"
    }
  },
  {
    "service_request": "2025-1215306",
    "request_type": "General Services",
    "request_reason": "General Service Request",
    "date_created": "2025-08-04T16:56:08.000",
    "date_modified": "2025-08-04T16:56:10.000",
    "request_status": "Pending",
    "responsible_agency": "Orleans Parish Communication District",
    "final_address": "3197 Desaix Blvd",
    "address_councildis": "D",
    "status": "Pending",
    "rowid": "1215306",
    "final_x": "3678319.52219",
    "final_y": "543672.706958",
    "longitude": "-90.07769261693035",
    "latitude": "29.989007641909453",
    "geocoded_column": {
      "latitude": "29.989007641909453",
      "longitude": "-90.07769261693035"
    }
  },
  {
    "service_request": "2025-1215305",
    "request_type": "General Services",
    "request_reason": "General Service Request",
    "date_created": "2025-08-04T16:56:07.000",
    "date_modified": "2025-08-04T16:56:08.000",
    "request_status": "Pending",
    "responsible_agency": "Orleans Parish Communication District",
    "final_address": "3197 Desaix Blvd",
    "address_councildis": "D",
    "status": "Pending",
    "rowid": "1215305",
    "final_x": "3678319.52219",
    "final_y": "543672.706958",
    "longitude": "-90.07769261693035",
    "latitude": "29.989007641909453",
    "geocoded_column": {
      "latitude": "29.989007641909453",
      "longitude": "-90.07769261693035"
    }
  },
  {
    "service_request": "2025-1215304",
    "request_type": "Trash/Recycling",
    "request_reason": "Request a Large Item Pick Up",
    "date_created": "2025-08-04T16:54:44.000",
    "date_modified": "2025-08-04T16:54:46.000",
    "request_status": "Pending",
    "responsible_agency": "Department of Sanitation",
    "final_address": "3125 Kansas St",
    "address_councildis": "C",
    "status": "Assigned to Contractor",
    "contractor": "Richards Disposal",
    "rowid": "1215304",
    "final_x": "3694558.70397",
    "final_y": "520790.377401",
    "longitude": "-90.02722202083525",
    "latitude": "29.925589962990074",
    "geocoded_column": {
      "latitude": "29.925589962990074",
      "longitude": "-90.02722202083525"
    }
  },
  {
    "service_request": "2025-1215303",
    "request_type": "Trash/Recycling",
    "request_reason": "Request a Large Item Pick Up",
    "date_created": "2025-08-04T16:51:52.000",
    "date_modified": "2025-08-04T16:51:56.000",
    "request_status": "Pending",
    "responsible_agency": "Department of Sanitation",
    "final_address": "8530 Gervais St",
    "address_councildis": "E",
    "status": "Assigned to Contractor",
    "contractor": "Waste Pro",
    "rowid": "1215303",
    "final_x": "3703809.97879",
    "final_y": "562620.839648",
    "longitude": "-89.9964782261738",
    "latitude": "30.040315075319924",
    "geocoded_column": {
      "latitude": "30.040315075319924",
      "longitude": "-89.9964782261738"
    }
  },
  {
    "service_request": "2025-1215302",
    "request_type": "Trash/Recycling",
    "request_reason": "Request a Large Item Pick Up",
    "date_created": "2025-08-04T16:48:34.000",
    "date_modified": "2025-08-04T17:00:21.000",
    "request_status": "Pending",
    "responsible_agency": "Department of Sanitation",
    "final_address": "4304 Constance St",
    "address_councildis": "B",
    "status": "Assigned to Contractor",
    "contractor": "IV Waste",
    "rowid": "1215302",
    "final_x": "3671431.39489",
    "final_y": "518414.16543",
    "longitude": "-90.10030874966732",
    "latitude": "29.91976075226916",
    "geocoded_column": {
      "latitude": "29.91976075226916",
      "longitude": "-90.10030874966732"
    }
  },
  {
    "service_request": "2025-1215301",
    "request_type": "Roads and Streets",
    "request_reason": "Debris in Driving Lanes",
    "date_created": "2025-08-04T16:47:41.000",
    "date_modified": "2025-08-04T23:03:42.000",
    "request_status": "Pending",
    "responsible_agency": "Department of Public Works",
    "final_address": "4000 Velie St",
    "address_councildis": "D",
    "status": "Pending",
    "rowid": "1215301",
    "final_x": "3689594.57807",
    "final_y": "547879.952594",
    "longitude": "-90.04192842773566",
    "latitude": "30.000231495983982",
    "geocoded_column": {
      "latitude": "30.000231495983982",
      "longitude": "-90.04192842773566"
    }
  },
  {
    "service_request": "2025-1215300",
    "request_type": "Trash/Recycling",
    "request_reason": "Order Recycling Cart",
    "date_created": "2025-08-04T16:42:48.000",
    "date_modified": "2025-08-04T16:42:50.000",
    "request_status": "Pending",
    "responsible_agency": "Department of Sanitation",
    "final_address": "11131 Lake Forest Blvd",
    "address_councildis": "E",
    "status": "Pending",
    "rowid": "1215300",
    "final_x": "3715302.99237",
    "final_y": "561198.53027",
    "longitude": "-89.96021083667166",
    "latitude": "30.03603059483239",
    "geocoded_column": {
      "latitude": "30.03603059483239",
      "longitude": "-89.96021083667166"
    }
  },
  {
    "service_request": "2025-1215299",
    "request_type": "Trash/Recycling",
    "request_reason": "Request a Large Item Pick Up",
    "date_created": "2025-08-04T16:41:36.000",
    "date_modified": "2025-08-04T16:41:38.000",
    "request_status": "Pending",
    "responsible_agency": "Department of Sanitation",
    "final_address": "13 Winners Cir",
    "address_councildis": "E",
    "status": "Assigned to Contractor",
    "contractor": "Waste Pro",
    "rowid": "1215299",
    "final_x": "3715676.88517",
    "final_y": "570494.049575",
    "longitude": "-89.95867686231298",
    "latitude": "30.061577151508803",
    "geocoded_column": {
      "latitude": "30.061577151508803",
      "longitude": "-89.95867686231298"
    }
  },
  {
    "service_request": "2025-1215298",
    "request_type": "Abandoned Vehicles",
    "request_reason": "Abandoned/Junk Vehicles",
    "date_created": "2025-08-04T16:40:24.000",
    "date_modified": "2025-08-04T16:40:26.000",
    "request_status": "Pending",
    "responsible_agency": "Department of Public Works",
    "final_address": "2715 George Nick Connor Dr",
    "address_councildis": "D",
    "status": "Pending",
    "rowid": "1215298",
    "final_x": "3681130.86581",
    "final_y": "542467.239821",
    "longitude": "-90.0688544487813",
    "latitude": "29.985608021734453",
    "geocoded_column": {
      "latitude": "29.985608021734453",
      "longitude": "-90.0688544487813"
    }
  },
  {
    "service_request": "2025-1215297",
    "request_type": "Trash/Recycling",
    "request_reason": "Request a Large Item Pick Up",
    "date_created": "2025-08-04T16:36:34.000",
    "date_modified": "2025-08-04T16:36:35.000",
    "request_status": "Pending",
    "responsible_agency": "Department of Sanitation",
    "final_address": "9730 W Rockton Cir",
    "address_councildis": "E",
    "status": "Assigned to Contractor",
    "contractor": "Waste Pro",
    "rowid": "1215297",
    "final_x": "3707941.23499",
    "final_y": "562389.991583",
    "longitude": "-89.98343082243048",
    "latitude": "30.039547157464636",
    "geocoded_column": {
      "latitude": "30.039547157464636",
      "longitude": "-89.98343082243048"
    }
  },
  {
    "service_request": "2025-1215296",
    "request_type": "Trash/Recycling",
    "request_reason": "Missed Trash Pick-Up",
    "date_created": "2025-08-04T16:35:37.000",
    "date_modified": "2025-08-04T17:14:34.000",
    "case_close_date": "2025-08-04T12:14:33.000",
    "request_status": "Closed",
    "responsible_agency": "Department of Sanitation",
    "final_address": "1727 Abundance St",
    "address_councildis": "D",
    "status": "Invalid Request",
    "contractor": "IV Waste",
    "contractor_action": "Invalid",
    "rowid": "1215296",
    "final_x": "3680873.83535",
    "final_y": "543414.625038",
    "longitude": "-90.06963330099035",
    "latitude": "29.988220795220656",
    "geocoded_column": {
      "latitude": "29.988220795220656",
      "longitude": "-90.06963330099035"
    }
  },
  {
    "service_request": "2025-1215295",
    "request_type": "General Services",
    "request_reason": "General Service Request",
    "date_created": "2025-08-04T16:31:51.000",
    "date_modified": "2025-08-04T16:31:53.000",
    "request_status": "Pending",
    "responsible_agency": "Orleans Parish Communication District",
    "final_address": "4635 Charlmark Dr",
    "address_councildis": "E",
    "status": "Pending",
    "rowid": "1215295",
    "final_x": "3711577.58315",
    "final_y": "555395.683865",
    "longitude": "-89.97220155403059",
    "latitude": "30.02019728784261",
    "geocoded_column": {
      "latitude": "30.02019728784261",
      "longitude": "-89.97220155403059"
    }
  },
  {
    "service_request": "2025-1215294",
    "request_type": "Roads and Streets",
    "request_reason": "Sidewalk Damaged or Missing",
    "date_created": "2025-08-04T16:30:10.000",
    "date_modified": "2025-08-04T16:30:12.000",
    "request_status": "Pending",
    "responsible_agency": "Department of Public Works",
    "final_address": "1530 Felicity St",
    "address_councildis": "B",
    "status": "Pending",
    "rowid": "1215294",
    "final_x": "3678729.10651",
    "final_y": "524276.383932",
    "longitude": "-90.07707057617375",
    "latitude": "29.935661991116742",
    "geocoded_column": {
      "latitude": "29.935661991116742",
      "longitude": "-90.07707057617375"
    }
  },
  {
    "service_request": "2025-1215293",
    "request_type": "Abandoned Vehicles",
    "request_reason": "Abandoned/Junk Vehicles",
    "date_created": "2025-08-04T16:27:52.000",
    "date_modified": "2025-08-04T16:27:54.000",
    "request_status": "Pending",
    "responsible_agency": "Department of Public Works",
    "final_address": "1410 Madrid St",
    "address_councildis": "D",
    "status": "Pending",
    "rowid": "1215293",
    "final_x": "3677578.97538",
    "final_y": "554471.530968",
    "longitude": "-90.07965858014333",
    "latitude": "30.018722863245213",
    "geocoded_column": {
      "latitude": "30.018722863245213",
      "longitude": "-90.07965858014333"
    }
  },
  {
    "service_request": "2025-1215292",
    "request_type": "Trash/Recycling",
    "request_reason": "Request a Large Item Pick Up",
    "date_created": "2025-08-04T16:25:44.000",
    "date_modified": "2025-08-04T16:25:46.000",
    "request_status": "Pending",
    "responsible_agency": "Department of Sanitation",
    "final_address": "1821 General Ogden St",
    "address_councildis": "A",
    "status": "Assigned to Contractor",
    "contractor": "IV Waste",
    "rowid": "1215292",
    "final_x": "3661441.39981",
    "final_y": "531949.387651",
    "longitude": "-90.13139427146719",
    "latitude": "29.957270144037132",
    "geocoded_column": {
      "latitude": "29.957270144037132",
      "longitude": "-90.13139427146719"
    }
  },
  {
    "service_request": "2025-1215291",
    "request_type": "Streetlights",
    "request_reason": "Streetlight Outage/Malfunction",
    "date_created": "2025-08-04T16:23:14.000",
    "date_modified": "2025-08-04T16:23:16.000",
    "request_status": "Pending",
    "responsible_agency": "Department of Public Works",
    "final_address": "6071 Wright Rd",
    "address_councildis": "E",
    "status": "Pending",
    "contractor": "Legacy Professional Services",
    "rowid": "1215291",
    "final_x": "3713029.93138",
    "final_y": "563099.65584",
    "longitude": "-89.96732244189765",
    "latitude": "30.041332628960124",
    "geocoded_column": {
      "latitude": "30.041332628960124",
      "longitude": "-89.96732244189765"
    }
  },
  {
    "service_request": "2025-1215290",
    "request_type": "Parks & Parkways",
    "request_reason": "Request Tree Service (Right of Way/Public Property)",
    "date_created": "2025-08-04T16:22:47.000",
    "date_modified": "2025-08-04T16:22:50.000",
    "request_status": "Pending",
    "responsible_agency": "Department of Parks & Parkway",
    "final_address": "BEHRMAN HWY & TULLIS DR",
    "address_councildis": "C",
    "status": "Pending",
    "rowid": "1215290",
    "final_x": "3697481.2",
    "final_y": "514235.98",
    "longitude": "-90.01823411181259",
    "latitude": "29.90747566580172",
    "geocoded_column": {
      "latitude": "29.90747566580172",
      "longitude": "-90.01823411181259"
    }
  },
  {
    "service_request": "2025-1215289",
    "request_type": "Streetlights",
    "request_reason": "Streetlight Outage/Malfunction",
    "date_created": "2025-08-04T16:19:03.000",
    "date_modified": "2025-08-04T16:19:04.000",
    "request_status": "Pending",
    "responsible_agency": "Department of Public Works",
    "final_address": "Cypress Street & West Stadium Drive",
    "address_councildis": "B",
    "status": "Pending",
    "contractor": "Legacy Professional Services",
    "rowid": "1215289",
    "final_x": "3676625.45531",
    "final_y": "530119.077185",
    "longitude": "-90.08351064087665",
    "latitude": "29.951790716093452",
    "geocoded_column": {
      "latitude": "29.951790716093452",
      "longitude": "-90.08351064087665"
    }
  },
  {
    "service_request": "2025-1215288",
    "request_type": "Health Related Request",
    "request_reason": "Homeless Encampment Complaint",
    "date_created": "2025-08-04T16:17:36.000",
    "date_modified": "2025-08-04T16:17:37.000",
    "request_status": "Pending",
    "responsible_agency": "Office Of Homeless Services And Strategy",
    "final_address": "2336 Tulane Ave",
    "address_councildis": "B",
    "status": "Pending",
    "rowid": "1215288",
    "final_x": "3675506.16373",
    "final_y": "533016.347908",
    "longitude": "-90.0869453237628",
    "latitude": "29.959790764464337",
    "geocoded_column": {
      "latitude": "29.959790764464337",
      "longitude": "-90.0869453237628"
    }
  },
  {
    "service_request": "2025-1215287",
    "request_type": "Trash/Recycling",
    "request_reason": "Request a Large Item Pick Up",
    "date_created": "2025-08-04T16:17:22.000",
    "date_modified": "2025-08-04T16:17:23.000",
    "request_status": "Pending",
    "responsible_agency": "Department of Sanitation",
    "final_address": "5231 Norgate Dr",
    "address_councildis": "E",
    "status": "Assigned to Contractor",
    "contractor": "Waste Pro",
    "rowid": "1215287",
    "final_x": "3707491.90846",
    "final_y": "557455.820379",
    "longitude": "-89.98503430348735",
    "latitude": "30.025994676648963",
    "geocoded_column": {
      "latitude": "30.025994676648963",
      "longitude": "-89.98503430348735"
    }
  },
  {
    "service_request": "2025-1215286",
    "request_type": "Trash/Recycling",
    "request_reason": "Illegal Dumping",
    "date_created": "2025-08-04T16:11:27.000",
    "date_modified": "2025-08-04T16:11:28.000",
    "request_status": "Pending",
    "responsible_agency": "Department of Sanitation",
    "final_address": "PARIS RD & I 10 E SERVICE RD",
    "address_councildis": "E",
    "status": "Pending",
    "rowid": "1215286",
    "final_x": "3721432.3",
    "final_y": "569031.98",
    "longitude": "-89.94054041721856",
    "latitude": "30.057365963027966",
    "geocoded_column": {
      "latitude": "30.057365963027966",
      "longitude": "-89.94054041721856"
    }
  },
  {
    "service_request": "2025-1215285",
    "request_type": "Trash/Recycling",
    "request_reason": "Request a Large Item Pick Up",
    "date_created": "2025-08-04T16:10:11.000",
    "date_modified": "2025-08-04T16:10:12.000",
    "request_status": "Pending",
    "responsible_agency": "Department of Sanitation",
    "final_address": "620 Opelousas Ave Apt 205",
    "address_councildis": "C",
    "status": "Assigned to Contractor",
    "contractor": "Richards Disposal",
    "rowid": "1215285",
    "final_x": "3687453.75663",
    "final_y": "529243.882433",
    "longitude": "-90.04935108553944",
    "latitude": "29.9490550266023",
    "geocoded_column": {
      "latitude": "29.9490550266023",
      "longitude": "-90.04935108553944"
    }
  },
  {
    "service_request": "2025-1215284",
    "request_type": "Trash/Recycling",
    "request_reason": "Request a Large Item Pick Up",
    "date_created": "2025-08-04T16:07:09.000",
    "date_modified": "2025-08-04T16:07:11.000",
    "request_status": "Pending",
    "responsible_agency": "Department of Sanitation",
    "final_address": "4535 Annunciation St",
    "address_councildis": "B",
    "status": "Assigned to Contractor",
    "contractor": "IV Waste",
    "rowid": "1215284",
    "final_x": "3670453.89537",
    "final_y": "517718.511542",
    "longitude": "-90.10341781396217",
    "latitude": "29.917876811231572",
    "geocoded_column": {
      "latitude": "29.917876811231572",
      "longitude": "-90.10341781396217"
    }
  },
  {
    "service_request": "2025-1215283",
    "request_type": "Trash/Recycling",
    "request_reason": "Damaged Caused By Contractor",
    "date_created": "2025-08-04T16:03:02.000",
    "date_modified": "2025-08-04T16:03:04.000",
    "request_status": "Pending",
    "responsible_agency": "Department of Sanitation",
    "final_address": "3206 De Soto St",
    "address_councildis": "A",
    "status": "Assigned to Contractor",
    "contractor": "IV Waste",
    "rowid": "1215283",
    "final_x": "3675953.76917",
    "final_y": "539928.007306",
    "longitude": "-90.08529416363085",
    "latitude": "29.97878208368206",
    "geocoded_column": {
      "latitude": "29.97878208368206",
      "longitude": "-90.08529416363085"
    }
  },
  {
    "service_request": "2025-1215282",
    "request_type": "Trash/Recycling",
    "request_reason": "Request a Large Item Pick Up",
    "date_created": "2025-08-04T16:00:00.000",
    "date_modified": "2025-08-04T16:00:02.000",
    "request_status": "Pending",
    "responsible_agency": "Department of Sanitation",
    "final_address": "64 Grand Canyon Dr",
    "address_councildis": "C",
    "status": "Assigned to Contractor",
    "contractor": "Richards Disposal",
    "rowid": "1215282",
    "final_x": "3699206.83152",
    "final_y": "516079.686772",
    "longitude": "-90.01272077833575",
    "latitude": "29.912490665905782",
    "geocoded_column": {
      "latitude": "29.912490665905782",
      "longitude": "-90.01272077833575"
    }
  },
  {
    "service_request": "2025-1215281",
    "request_type": "Trash/Recycling",
    "request_reason": "Request a Large Item Pick Up",
    "date_created": "2025-08-04T15:57:03.000",
    "date_modified": "2025-08-04T15:57:05.000",
    "request_status": "Pending",
    "responsible_agency": "Department of Sanitation",
    "final_address": "4720 San Marco Rd",
    "address_councildis": "E",
    "status": "Assigned to Contractor",
    "contractor": "Waste Pro",
    "rowid": "1215281",
    "final_x": "3763445.90634",
    "final_y": "572728.255721",
    "longitude": "-89.80758916947485",
    "latitude": "30.066057902808087",
    "geocoded_column": {
      "latitude": "30.066057902808087",
      "longitude": "-89.80758916947485"
    }
  },
  {
    "service_request": "2025-1215280",
    "request_type": "Trash/Recycling",
    "request_reason": "Request a Large Item Pick Up",
    "date_created": "2025-08-04T15:54:03.000",
    "date_modified": "2025-08-04T15:54:05.000",
    "request_status": "Pending",
    "responsible_agency": "Department of Sanitation",
    "final_address": "5200 Annunciation St",
    "address_councildis": "B",
    "status": "Assigned to Contractor",
    "contractor": "IV Waste",
    "rowid": "1215280",
    "final_x": "3667979.22266",
    "final_y": "517527.780598",
    "longitude": "-90.1112354419054",
    "latitude": "29.917425167453473",
    "geocoded_column": {
      "latitude": "29.917425167453473",
      "longitude": "-90.1112354419054"
    }
  },
  {
    "service_request": "2025-1215279",
    "request_type": "Trash/Recycling",
    "request_reason": "Replace Trash Cart",
    "date_created": "2025-08-04T15:52:00.000",
    "date_modified": "2025-08-04T15:52:02.000",
    "request_status": "Pending",
    "responsible_agency": "Department of Sanitation",
    "final_address": "3903 Iberville St",
    "address_councildis": "A",
    "status": "Assigned to Contractor",
    "contractor": "IV Waste",
    "rowid": "1215279",
    "final_x": "3672049.07828",
    "final_y": "538241.100361",
    "longitude": "-90.09768413045029",
    "latitude": "29.974260026137944",
    "geocoded_column": {
      "latitude": "29.974260026137944",
      "longitude": "-90.09768413045029"
    }
  },
  {
    "service_request": "2025-1215278",
    "request_type": "Trash/Recycling",
    "request_reason": "Repair Trash Cart",
    "date_created": "2025-08-04T15:51:27.000",
    "date_modified": "2025-08-04T15:51:29.000",
    "request_status": "Pending",
    "responsible_agency": "Department of Sanitation",
    "final_address": "1019 L. B. Landry Ave",
    "address_councildis": "C",
    "status": "Assigned to Contractor",
    "contractor": "Richards Disposal",
    "rowid": "1215278",
    "final_x": "3690086.18294",
    "final_y": "527697.652799",
    "longitude": "-90.04109445409209",
    "latitude": "29.944722053762902",
    "geocoded_column": {
      "latitude": "29.944722053762902",
      "longitude": "-90.04109445409209"
    }
  },
  {
    "service_request": "2025-1215277",
    "request_type": "Trash/Recycling",
    "request_reason": "Request a Large Item Pick Up",
    "date_created": "2025-08-04T15:50:59.000",
    "date_modified": "2025-08-04T15:51:01.000",
    "request_status": "Pending",
    "responsible_agency": "Department of Sanitation",
    "final_address": "9870 E Wheaton Cir",
    "address_councildis": "E",
    "status": "Assigned to Contractor",
    "contractor": "Waste Pro",
    "rowid": "1215277",
    "final_x": "3708937.62129",
    "final_y": "562716.898784",
    "longitude": "-89.98026977100506",
    "latitude": "30.0404137085187",
    "geocoded_column": {
      "latitude": "30.0404137085187",
      "longitude": "-89.98026977100506"
    }
  },
  {
    "service_request": "2025-1215276",
    "request_type": "Street and Traffic Signs",
    "request_reason": "One Way Sign Missing or Damaged",
    "date_created": "2025-08-04T15:50:12.000",
    "date_modified": "2025-08-04T15:50:14.000",
    "request_status": "Pending",
    "responsible_agency": "Department of Public Works",
    "final_address": "1768 Lafreniere St",
    "address_councildis": "D",
    "status": "Pending",
    "rowid": "1215276",
    "final_x": "3681010.40002",
    "final_y": "545200.956559",
    "longitude": "-90.06913968526985",
    "latitude": "29.99312843491437",
    "geocoded_column": {
      "latitude": "29.99312843491437",
      "longitude": "-90.06913968526985"
    }
  },
  {
    "service_request": "2025-1215275",
    "request_type": "Trash/Recycling",
    "request_reason": "Request a Large Item Pick Up",
    "date_created": "2025-08-04T15:49:01.000",
    "date_modified": "2025-08-04T15:49:03.000",
    "request_status": "Pending",
    "responsible_agency": "Department of Sanitation",
    "final_address": "5324 N Galvez St",
    "address_councildis": "E",
    "status": "Assigned to Contractor",
    "contractor": "Waste Pro",
    "rowid": "1215275",
    "final_x": "3697990.90224",
    "final_y": "537648.572872",
    "longitude": "-90.01577577418092",
    "latitude": "29.971836068875117",
    "geocoded_column": {
      "latitude": "29.971836068875117",
      "longitude": "-90.01577577418092"
    }
  },
  {
    "service_request": "2025-1215274",
    "request_type": "Property Maintenance",
    "request_reason": "Property Maintenance",
    "date_created": "2025-08-04T15:48:56.000",
    "date_modified": "2025-08-04T15:48:58.000",
    "request_status": "Pending",
    "responsible_agency": "Department of Code Enforcement",
    "final_address": "4856 Charlene Dr",
    "address_councildis": "E",
    "status": "Pending",
    "rowid": "1215274",
    "final_x": "3707756.46219",
    "final_y": "556425.83273",
    "longitude": "-89.98423667445103",
    "latitude": "30.02315405042579",
    "geocoded_column": {
      "latitude": "30.02315405042579",
      "longitude": "-89.98423667445103"
    }
  },
  {
    "service_request": "2025-1215273",
    "request_type": "Trash/Recycling",
    "request_reason": "Missed Trash Pick-Up",
    "date_created": "2025-08-04T15:48:16.000",
    "date_modified": "2025-08-04T15:48:18.000",
    "request_status": "Pending",
    "responsible_agency": "Department of Sanitation",
    "final_address": "5324 N Galvez St",
    "address_councildis": "E",
    "status": "Assigned to Contractor",
    "contractor": "Waste Pro",
    "rowid": "1215273",
    "final_x": "3697990.90224",
    "final_y": "537648.572872",
    "longitude": "-90.01577577418092",
    "latitude": "29.971836068875117",
    "geocoded_column": {
      "latitude": "29.971836068875117",
      "longitude": "-90.01577577418092"
    }
  },
  {
    "service_request": "2025-1215272",
    "request_type": "Trash/Recycling",
    "request_reason": "Missed Trash Pick-Up",
    "date_created": "2025-08-04T15:47:22.000",
    "date_modified": "2025-08-04T15:47:23.000",
    "request_status": "Pending",
    "responsible_agency": "Department of Sanitation",
    "final_address": "14059 Explorers Ave",
    "address_councildis": "E",
    "status": "Assigned to Contractor",
    "contractor": "Waste Pro",
    "rowid": "1215272",
    "final_x": "3726555.43129",
    "final_y": "570849.080615",
    "longitude": "-89.92427649977449",
    "latitude": "30.06218999932751",
    "geocoded_column": {
      "latitude": "30.06218999932751",
      "longitude": "-89.92427649977449"
    }
  },
  {
    "service_request": "2025-1215271",
    "request_type": "Trash/Recycling",
    "request_reason": "Request a Large Item Pick Up",
    "date_created": "2025-08-04T15:47:01.000",
    "date_modified": "2025-08-04T15:47:03.000",
    "request_status": "Pending",
    "responsible_agency": "Department of Sanitation",
    "final_address": "714 Topaz St",
    "address_councildis": "D",
    "status": "Assigned to Contractor",
    "contractor": "IV Waste",
    "rowid": "1215271",
    "final_x": "3669815.16257",
    "final_y": "556361.307738",
    "longitude": "-90.1041254617434",
    "latitude": "30.024150357313196",
    "geocoded_column": {
      "latitude": "30.024150357313196",
      "longitude": "-90.1041254617434"
    }
  },
  {
    "service_request": "2025-1215270",
    "request_type": "Trash/Recycling",
    "request_reason": "Order Recycling Cart",
    "date_created": "2025-08-04T15:44:47.000",
    "date_modified": "2025-08-04T15:44:49.000",
    "request_status": "Pending",
    "responsible_agency": "Department of Sanitation",
    "final_address": "1204 Elysian Fields Ave",
    "address_councildis": "C",
    "status": "Pending",
    "rowid": "1215270",
    "final_x": "3684835.90229",
    "final_y": "536733.048519",
    "longitude": "-90.05735345683229",
    "latitude": "29.96972806212903",
    "geocoded_column": {
      "latitude": "29.96972806212903",
      "longitude": "-90.05735345683229"
    }
  },
  {
    "service_request": "2025-1215269",
    "request_type": "Trash/Recycling",
    "request_reason": "Request a Large Item Pick Up",
    "date_created": "2025-08-04T15:43:00.000",
    "date_modified": "2025-08-04T15:44:04.000",
    "request_status": "Pending",
    "responsible_agency": "Department of Sanitation",
    "final_address": "7300 Spring Lake Dr",
    "address_councildis": "E",
    "status": "Assigned to Contractor",
    "contractor": "Waste Pro",
    "rowid": "1215269",
    "final_x": "3700550.08221",
    "final_y": "558887.444828",
    "longitude": "-90.00691707483311",
    "latitude": "30.030153864897148",
    "geocoded_column": {
      "latitude": "30.030153864897148",
      "longitude": "-90.00691707483311"
    }
  },
  {
    "service_request": "2025-1215268",
    "request_type": "Property Maintenance",
    "request_reason": "Property Maintenance",
    "date_created": "2025-08-04T15:40:46.000",
    "date_modified": "2025-08-04T15:40:48.000",
    "request_status": "Pending",
    "responsible_agency": "Department of Code Enforcement",
    "final_address": "2655 Piety St",
    "address_councildis": "D",
    "status": "Pending",
    "rowid": "1215268",
    "final_x": "3691391.84707",
    "final_y": "541874.387084",
    "longitude": "-90.03646550024654",
    "latitude": "29.983662545928453",
    "geocoded_column": {
      "latitude": "29.983662545928453",
      "longitude": "-90.03646550024654"
    }
  },
  {
    "service_request": "2025-1215267",
    "request_type": "Property Maintenance",
    "request_reason": "Property Maintenance",
    "date_created": "2025-08-04T15:39:34.000",
    "date_modified": "2025-08-04T15:39:37.000",
    "request_status": "Pending",
    "responsible_agency": "Department of Code Enforcement",
    "final_address": "2661 Piety St",
    "address_councildis": "D",
    "status": "Pending",
    "rowid": "1215267",
    "final_x": "3691396.23772",
    "final_y": "541902.186508",
    "longitude": "-90.03645063849724",
    "latitude": "29.983738847734603",
    "geocoded_column": {
      "latitude": "29.983738847734603",
      "longitude": "-90.03645063849724"
    }
  },
  {
    "service_request": "2025-1215266",
    "request_type": "Abandoned Vehicles",
    "request_reason": "Abandoned/Junk Vehicles",
    "date_created": "2025-08-04T15:38:31.000",
    "date_modified": "2025-08-04T15:38:32.000",
    "request_status": "Pending",
    "responsible_agency": "Department of Public Works",
    "final_address": "301 Basin St",
    "address_councildis": "C",
    "status": "Pending",
    "rowid": "1215266",
    "final_x": "3680158.18639",
    "final_y": "532597.952004",
    "longitude": "-90.0722698238968",
    "latitude": "29.958500358335314",
    "geocoded_column": {
      "latitude": "29.958500358335314",
      "longitude": "-90.0722698238968"
    }
  },
  {
    "service_request": "2025-1215265",
    "request_type": "Trash/Recycling",
    "request_reason": "Replace Trash Cart",
    "date_created": "2025-08-04T15:35:33.000",
    "date_modified": "2025-08-04T15:35:35.000",
    "request_status": "Pending",
    "responsible_agency": "Department of Sanitation",
    "final_address": "1204 Elysian Fields Ave",
    "address_councildis": "C",
    "status": "Assigned to Contractor",
    "contractor": "IV Waste",
    "rowid": "1215265",
    "final_x": "3684835.90229",
    "final_y": "536733.048519",
    "longitude": "-90.05735345683229",
    "latitude": "29.96972806212903",
    "geocoded_column": {
      "latitude": "29.96972806212903",
      "longitude": "-90.05735345683229"
    }
  },
  {
    "service_request": "2025-1215264",
    "request_type": "Trash/Recycling",
    "request_reason": "Order Trash Cart",
    "date_created": "2025-08-04T15:34:08.000",
    "date_modified": "2025-08-04T15:34:09.000",
    "request_status": "Pending",
    "responsible_agency": "Department of Sanitation",
    "final_address": "5139 Pratt Dr",
    "address_councildis": "D",
    "status": "Assigned to Contractor",
    "contractor": "IV Waste",
    "rowid": "1215264",
    "final_x": "3680553.99195",
    "final_y": "551437.130453",
    "longitude": "-90.07036427400666",
    "latitude": "30.010289525312842",
    "geocoded_column": {
      "latitude": "30.010289525312842",
      "longitude": "-90.07036427400666"
    }
  },
  {
    "service_request": "2025-1215263",
    "request_type": "Property Maintenance",
    "request_reason": "Property Maintenance",
    "date_created": "2025-08-04T15:33:12.000",
    "date_modified": "2025-08-04T15:33:18.000",
    "request_status": "Pending",
    "responsible_agency": "Department of Code Enforcement",
    "final_address": "3320 Florida Ave",
    "address_councildis": "D",
    "status": "Pending",
    "rowid": "1215263",
    "final_x": "3691546.09385",
    "final_y": "541764.603148",
    "longitude": "-90.03598223485801",
    "latitude": "29.983355878317607",
    "geocoded_column": {
      "latitude": "29.983355878317607",
      "longitude": "-90.03598223485801"
    }
  },
  {
    "service_request": "2025-1215262",
    "request_type": "Streetlights",
    "request_reason": "Streetlight Outage/Malfunction",
    "date_created": "2025-08-04T15:32:20.000",
    "date_modified": "2025-08-04T15:32:22.000",
    "request_status": "Pending",
    "responsible_agency": "Department of Public Works",
    "final_address": "1000 BLK Jefferson Ave",
    "address_councildis": "A",
    "status": "Pending",
    "contractor": "Legacy Professional Services",
    "rowid": "1215262",
    "final_x": "3666874.03006",
    "final_y": "519342.223899",
    "longitude": "-90.11466301213316",
    "latitude": "29.922446682273748",
    "geocoded_column": {
      "latitude": "29.922446682273748",
      "longitude": "-90.11466301213316"
    }
  },
  {
    "service_request": "2025-1215261",
    "request_type": "Property Maintenance",
    "request_reason": "Property Maintenance",
    "date_created": "2025-08-04T15:31:25.000",
    "date_modified": "2025-08-04T15:31:26.000",
    "request_status": "Pending",
    "responsible_agency": "Department of Code Enforcement",
    "final_address": "3320 Florida Ave",
    "address_councildis": "D",
    "status": "Pending",
    "rowid": "1215261",
    "final_x": "3691546.09385",
    "final_y": "541764.603148",
    "longitude": "-90.03598223485801",
    "latitude": "29.983355878317607",
    "geocoded_column": {
      "latitude": "29.983355878317607",
      "longitude": "-90.03598223485801"
    }
  },
  {
    "service_request": "2025-1215260",
    "request_type": "Streetlights",
    "request_reason": "Streetlight Knocked Down/Leaning",
    "date_created": "2025-08-04T15:31:24.000",
    "date_modified": "2025-08-04T15:31:25.000",
    "request_status": "Pending",
    "responsible_agency": "Department of Public Works",
    "final_address": "702 Piety St",
    "address_councildis": "C",
    "status": "Pending",
    "contractor": "Legacy Professional Services",
    "rowid": "1215260",
    "final_x": "3689433.23843",
    "final_y": "534341.294853",
    "longitude": "-90.042919763452",
    "latitude": "29.963010007672047",
    "geocoded_column": {
      "latitude": "29.963010007672047",
      "longitude": "-90.042919763452"
    }
  },
  {
    "service_request": "2025-1215259",
    "request_type": "Trash/Recycling",
    "request_reason": "Request a Large Item Pick Up",
    "date_created": "2025-08-04T15:29:10.000",
    "date_modified": "2025-08-04T15:29:11.000",
    "request_status": "Pending",
    "responsible_agency": "Department of Sanitation",
    "final_address": "2254 Lark St",
    "address_councildis": "D",
    "status": "Assigned to Contractor",
    "contractor": "IV Waste",
    "rowid": "1215259",
    "final_x": "3683984.83977",
    "final_y": "557716.558491",
    "longitude": "-90.05930437145979",
    "latitude": "30.027451221776822",
    "geocoded_column": {
      "latitude": "30.027451221776822",
      "longitude": "-90.05930437145979"
    }
  },
  {
    "service_request": "2025-1215258",
    "request_type": "Trash/Recycling",
    "request_reason": "Request a Large Item Pick Up",
    "date_created": "2025-08-04T15:29:00.000",
    "date_modified": "2025-08-04T15:29:47.000",
    "request_status": "Pending",
    "responsible_agency": "Department of Sanitation",
    "final_address": "7806 Marquis St",
    "address_councildis": "E",
    "status": "Assigned to Contractor",
    "contractor": "Waste Pro",
    "rowid": "1215258",
    "final_x": "3710842.18795",
    "final_y": "566805.692387",
    "longitude": "-89.97409748968109",
    "latitude": "30.051594267780448",
    "geocoded_column": {
      "latitude": "30.051594267780448",
      "longitude": "-89.97409748968109"
    }
  },
  {
    "service_request": "2025-1215257",
    "request_type": "Parks & Parkways",
    "request_reason": "Request Tree Service (Right of Way/Public Property)",
    "date_created": "2025-08-04T15:28:58.000",
    "date_modified": "2025-08-04T15:29:00.000",
    "request_status": "Pending",
    "responsible_agency": "Department of Parks & Parkway",
    "final_address": "8631 Morrison Rd",
    "address_councildis": "E",
    "status": "Pending",
    "rowid": "1215257",
    "final_x": "3704776.29054",
    "final_y": "561537.399327",
    "longitude": "-89.99346442860019",
    "latitude": "30.03730500673062",
    "geocoded_column": {
      "latitude": "30.03730500673062",
      "longitude": "-89.99346442860019"
    }
  },
  {
    "service_request": "2025-1215256",
    "request_type": "Trash/Recycling",
    "request_reason": "Order Recycling Cart",
    "date_created": "2025-08-04T15:26:23.000",
    "date_modified": "2025-08-04T15:26:24.000",
    "request_status": "Pending",
    "responsible_agency": "Department of Sanitation",
    "final_address": "8631 Morrison Rd",
    "address_councildis": "E",
    "status": "Pending",
    "rowid": "1215256",
    "final_x": "3704776.29054",
    "final_y": "561537.399327",
    "longitude": "-89.99346442860019",
    "latitude": "30.03730500673062",
    "geocoded_column": {
      "latitude": "30.03730500673062",
      "longitude": "-89.99346442860019"
    }
  },
  {
    "service_request": "2025-1215255",
    "request_type": "Trash/Recycling",
    "request_reason": "Request a Large Item Pick Up",
    "date_created": "2025-08-04T15:26:13.000",
    "date_modified": "2025-08-04T15:26:14.000",
    "request_status": "Pending",
    "responsible_agency": "Department of Sanitation",
    "final_address": "7934 Haney Dr",
    "address_councildis": "E",
    "status": "Assigned to Contractor",
    "contractor": "Waste Pro",
    "rowid": "1215255",
    "final_x": "3711906.62085",
    "final_y": "568204.681253",
    "longitude": "-89.97068060474777",
    "latitude": "30.05540615614996",
    "geocoded_column": {
      "latitude": "30.05540615614996",
      "longitude": "-89.97068060474777"
    }
  },
  {
    "service_request": "2025-1215254",
    "request_type": "Trash/Recycling",
    "request_reason": "Request a Large Item Pick Up",
    "date_created": "2025-08-04T15:25:21.000",
    "date_modified": "2025-08-04T15:25:23.000",
    "request_status": "Pending",
    "responsible_agency": "Department of Sanitation",
    "final_address": "8631 Morrison Rd",
    "address_councildis": "E",
    "status": "Assigned to Contractor",
    "contractor": "Waste Pro",
    "rowid": "1215254",
    "final_x": "3704776.29054",
    "final_y": "561537.399327",
    "longitude": "-89.99346442860019",
    "latitude": "30.03730500673062",
    "geocoded_column": {
      "latitude": "30.03730500673062",
      "longitude": "-89.99346442860019"
    }
  },
  {
    "service_request": "2025-1215253",
    "request_type": "Roads and Streets",
    "request_reason": "Sidewalk Damaged or Missing",
    "date_created": "2025-08-04T15:21:52.000",
    "date_modified": "2025-08-04T15:21:54.000",
    "request_status": "Pending",
    "responsible_agency": "Department of Public Works",
    "final_address": "6222 Waldo Dr",
    "address_councildis": "D",
    "status": "Pending",
    "rowid": "1215253",
    "final_x": "3681031.43362",
    "final_y": "555871.111321",
    "longitude": "-90.06870124873048",
    "latitude": "30.022466882061725",
    "geocoded_column": {
      "latitude": "30.022466882061725",
      "longitude": "-90.06870124873048"
    }
  },
  {
    "service_request": "2025-1215252",
    "request_type": "Streetlights",
    "request_reason": "Streetlight Outage/Malfunction",
    "date_created": "2025-08-04T15:21:29.000",
    "date_modified": "2025-08-04T15:21:31.000",
    "request_status": "Pending",
    "responsible_agency": "Department of Public Works",
    "final_address": "1853 Saux Ln",
    "address_councildis": "C",
    "status": "Pending",
    "contractor": "Legacy Professional Services",
    "rowid": "1215252",
    "final_x": "3692549.79145",
    "final_y": "524132.084988",
    "longitude": "-90.03344384745905",
    "latitude": "29.934841337776756",
    "geocoded_column": {
      "latitude": "29.934841337776756",
      "longitude": "-90.03344384745905"
    }
  },
  {
    "service_request": "2025-1215251",
    "request_type": "Trash/Recycling",
    "request_reason": "Replace Trash Cart",
    "date_created": "2025-08-04T15:21:07.000",
    "date_modified": "2025-08-04T15:21:08.000",
    "request_status": "Pending",
    "responsible_agency": "Department of Sanitation",
    "final_address": "2800 St Ann St",
    "address_councildis": "A",
    "status": "Assigned to Contractor",
    "contractor": "IV Waste",
    "rowid": "1215251",
    "final_x": "3676430.1323",
    "final_y": "537554.225672",
    "longitude": "-90.08387138106754",
    "latitude": "29.972240722494263",
    "geocoded_column": {
      "latitude": "29.972240722494263",
      "longitude": "-90.08387138106754"
    }
  },
  {
    "service_request": "2025-1215250",
    "request_type": "Trash/Recycling",
    "request_reason": "Order Trash Cart",
    "date_created": "2025-08-04T15:20:13.000",
    "date_modified": "2025-08-04T15:20:15.000",
    "request_status": "Pending",
    "responsible_agency": "Department of Sanitation",
    "final_address": "6222 Waldo Dr",
    "address_councildis": "D",
    "status": "Assigned to Contractor",
    "contractor": "IV Waste",
    "rowid": "1215250",
    "final_x": "3681031.43362",
    "final_y": "555871.111321",
    "longitude": "-90.06870124873048",
    "latitude": "30.022466882061725",
    "geocoded_column": {
      "latitude": "30.022466882061725",
      "longitude": "-90.06870124873048"
    }
  },
  {
    "service_request": "2025-1215249",
    "request_type": "Trash/Recycling",
    "request_reason": "Replace Trash Cart",
    "date_created": "2025-08-04T15:18:06.000",
    "date_modified": "2025-08-04T15:18:07.000",
    "request_status": "Pending",
    "responsible_agency": "Department of Sanitation",
    "final_address": "2701 Dauphine St",
    "address_councildis": "C",
    "status": "Assigned to Contractor",
    "contractor": "IV Waste",
    "rowid": "1215249",
    "final_x": "3687160.4559",
    "final_y": "535270.26343",
    "longitude": "-90.05006406110391",
    "latitude": "29.96563453162363",
    "geocoded_column": {
      "latitude": "29.96563453162363",
      "longitude": "-90.05006406110391"
    }
  },
  {
    "service_request": "2025-1215248",
    "request_type": "Trash/Recycling",
    "request_reason": "Order Trash Cart",
    "date_created": "2025-08-04T15:15:48.000",
    "date_modified": "2025-08-04T15:15:50.000",
    "request_status": "Pending",
    "responsible_agency": "Department of Sanitation",
    "final_address": "3525 S Liberty St",
    "address_councildis": "B",
    "status": "Assigned to Contractor",
    "contractor": "IV Waste",
    "rowid": "1215248",
    "final_x": "3672623.01288",
    "final_y": "523655.481659",
    "longitude": "-90.09636878891291",
    "latitude": "29.93413737619418",
    "geocoded_column": {
      "latitude": "29.93413737619418",
      "longitude": "-90.09636878891291"
    }
  },
  {
    "service_request": "2025-1215247",
    "request_type": "Trash/Recycling",
    "request_reason": "Request a Large Item Pick Up",
    "date_created": "2025-08-04T15:08:56.000",
    "date_modified": "2025-08-04T15:08:59.000",
    "request_status": "Pending",
    "responsible_agency": "Department of Sanitation",
    "final_address": "1466 Prentiss Ave",
    "address_councildis": "D",
    "status": "Assigned to Contractor",
    "contractor": "IV Waste",
    "rowid": "1215247",
    "final_x": "3678369.09806",
    "final_y": "553277.296535",
    "longitude": "-90.07720344035107",
    "latitude": "30.01541535670813",
    "geocoded_column": {
      "latitude": "30.01541535670813",
      "longitude": "-90.07720344035107"
    }
  },
  {
    "service_request": "2025-1215246",
    "request_type": "Trash/Recycling",
    "request_reason": "Illegal Dumping",
    "date_created": "2025-08-04T15:06:31.000",
    "date_modified": "2025-08-04T15:06:34.000",
    "request_status": "Pending",
    "responsible_agency": "Department of Sanitation",
    "final_address": "1102 Robert St",
    "address_councildis": "B",
    "status": "Pending",
    "rowid": "1215246",
    "final_x": "3668626.42612",
    "final_y": "519378.467511",
    "longitude": "-90.10913016852628",
    "latitude": "29.922494976519797",
    "geocoded_column": {
      "latitude": "29.922494976519797",
      "longitude": "-90.10913016852628"
    }
  },
  {
    "service_request": "2025-1215245",
    "request_type": "Trash/Recycling",
    "request_reason": "Repair Trash Cart",
    "date_created": "2025-08-04T15:04:32.000",
    "date_modified": "2025-08-04T15:06:09.000",
    "request_status": "Pending",
    "responsible_agency": "Department of Sanitation",
    "final_address": "801 Leontine St",
    "address_councildis": "B",
    "status": "Assigned to Contractor",
    "contractor": "IV Waste",
    "rowid": "1215245",
    "final_x": "3667162.81121",
    "final_y": "518351.921334",
    "longitude": "-90.11378471457722",
    "latitude": "29.919715213369713",
    "geocoded_column": {
      "latitude": "29.919715213369713",
      "longitude": "-90.11378471457722"
    }
  },
  {
    "service_request": "2025-1215244",
    "request_type": "Property Maintenance",
    "request_reason": "Property Maintenance",
    "date_created": "2025-08-04T15:03:19.000",
    "date_modified": "2025-08-04T15:03:20.000",
    "request_status": "Pending",
    "responsible_agency": "Department of Code Enforcement",
    "final_address": "2328 St Philip St",
    "address_councildis": "D",
    "status": "Pending",
    "rowid": "1215244",
    "final_x": "3678541.89467",
    "final_y": "536927.026952",
    "longitude": "-90.07722378973224",
    "latitude": "29.970452654716492",
    "geocoded_column": {
      "latitude": "29.970452654716492",
      "longitude": "-90.07722378973224"
    }
  },
  {
    "service_request": "2025-1215243",
    "request_type": "Streetlights",
    "request_reason": "Streetlight Outage/Malfunction",
    "date_created": "2025-08-04T14:59:51.000",
    "date_modified": "2025-08-04T14:59:53.000",
    "request_status": "Pending",
    "responsible_agency": "Department of Public Works",
    "final_address": "3124 Palmyra St",
    "address_councildis": "B",
    "status": "Pending",
    "contractor": "Legacy Professional Services",
    "rowid": "1215243",
    "final_x": "3673396.44795",
    "final_y": "535527.920198",
    "longitude": "-90.09352153065255",
    "latitude": "29.966759677719057",
    "geocoded_column": {
      "latitude": "29.966759677719057",
      "longitude": "-90.09352153065255"
    }
  },
  {
    "service_request": "2025-1215242",
    "request_type": "Health Related Request",
    "request_reason": "Homeless Encampment Complaint",
    "date_created": "2025-08-04T14:59:03.000",
    "date_modified": "2025-08-04T14:59:06.000",
    "request_status": "Pending",
    "responsible_agency": "Office Of Homeless Services And Strategy",
    "final_address": "1820 Dauphine St",
    "address_councildis": "C",
    "status": "Pending",
    "rowid": "1215242",
    "final_x": "3683818.44738",
    "final_y": "535091.70471",
    "longitude": "-90.06062424114477",
    "latitude": "29.96524604877944",
    "geocoded_column": {
      "latitude": "29.96524604877944",
      "longitude": "-90.06062424114477"
    }
  },
  {
    "service_request": "2025-1215241",
    "request_type": "Property Maintenance",
    "request_reason": "Property Maintenance",
    "date_created": "2025-08-04T14:57:48.000",
    "date_modified": "2025-08-04T14:57:49.000",
    "request_status": "Pending",
    "responsible_agency": "Department of Code Enforcement",
    "final_address": "8923 Pear St",
    "address_councildis": "A",
    "status": "Pending",
    "rowid": "1215241",
    "final_x": "3666922.8306",
    "final_y": "538308.088009",
    "longitude": "-90.11387182657532",
    "latitude": "29.974595225975452",
    "geocoded_column": {
      "latitude": "29.974595225975452",
      "longitude": "-90.11387182657532"
    }
  },
  {
    "service_request": "2025-1215240",
    "request_type": "Abandoned Vehicles",
    "request_reason": "Abandoned/Junk Vehicles",
    "date_created": "2025-08-04T14:56:44.000",
    "date_modified": "2025-08-04T14:56:46.000",
    "request_status": "Pending",
    "responsible_agency": "Department of Public Works",
    "final_address": "42 Grand Canyon Dr",
    "address_councildis": "C",
    "status": "Pending",
    "rowid": "1215240",
    "final_x": "3699552.41527",
    "final_y": "516690.675573",
    "longitude": "-90.01160778160458",
    "latitude": "29.91415972159785",
    "geocoded_column": {
      "latitude": "29.91415972159785",
      "longitude": "-90.01160778160458"
    }
  },
  {
    "service_request": "2025-1215239",
    "request_type": "Roads and Streets",
    "request_reason": "Pothole",
    "date_created": "2025-08-04T14:54:27.000",
    "date_modified": "2025-08-04T14:54:30.000",
    "request_status": "Pending",
    "responsible_agency": "Department of Public Works",
    "final_address": "1924 St Claude Ave",
    "address_councildis": "C",
    "status": "Pending",
    "rowid": "1215239",
    "final_x": "3684094.58242",
    "final_y": "536133.410247",
    "longitude": "-90.05971565729871",
    "latitude": "29.968101942661107",
    "geocoded_column": {
      "latitude": "29.968101942661107",
      "longitude": "-90.05971565729871"
    }
  },
  {
    "service_request": "2025-1215238",
    "request_type": "Trash/Recycling",
    "request_reason": "Repair Trash Cart",
    "date_created": "2025-08-04T14:53:59.000",
    "date_modified": "2025-08-04T14:56:53.000",
    "request_status": "Pending",
    "responsible_agency": "Department of Sanitation",
    "final_address": "1357 Harrison Ave",
    "address_councildis": "D",
    "status": "Assigned to Contractor",
    "contractor": "IV Waste",
    "rowid": "1215238",
    "final_x": "3677779.12917",
    "final_y": "547669.140114",
    "longitude": "-90.07926139834467",
    "latitude": "30.000012699728114",
    "geocoded_column": {
      "latitude": "30.000012699728114",
      "longitude": "-90.07926139834467"
    }
  },
  {
    "service_request": "2025-1215237",
    "request_type": "General Services",
    "request_reason": "General Service Request",
    "date_created": "2025-08-04T14:50:45.000",
    "date_modified": "2025-08-04T14:50:46.000",
    "request_status": "Pending",
    "responsible_agency": "Orleans Parish Communication District",
    "final_address": "111 Audubon St",
    "address_councildis": "A",
    "status": "Pending",
    "rowid": "1215237",
    "final_x": "3660916.91347",
    "final_y": "521057.297401",
    "longitude": "-90.13341062217289",
    "latitude": "29.927335469788034",
    "geocoded_column": {
      "latitude": "29.927335469788034",
      "longitude": "-90.13341062217289"
    }
  },
  {
    "service_request": "2025-1215236",
    "request_type": "Trash/Recycling",
    "request_reason": "Repair Trash Cart",
    "date_created": "2025-08-04T14:48:38.000",
    "date_modified": "2025-08-04T14:48:40.000",
    "request_status": "Pending",
    "responsible_agency": "Department of Sanitation",
    "final_address": "850 St Andrew St",
    "address_councildis": "B",
    "status": "Assigned to Contractor",
    "contractor": "IV Waste",
    "rowid": "1215236",
    "final_x": "3680002.25666",
    "final_y": "521947.054458",
    "longitude": "-90.07313210282244",
    "latitude": "29.929218659486292",
    "geocoded_column": {
      "latitude": "29.929218659486292",
      "longitude": "-90.07313210282244"
    }
  },
  {
    "service_request": "2025-1215235",
    "request_type": "Property Maintenance",
    "request_reason": "Property Maintenance",
    "date_created": "2025-08-04T14:48:33.000",
    "date_modified": "2025-08-04T14:48:38.000",
    "request_status": "Pending",
    "responsible_agency": "Department of Code Enforcement",
    "final_address": "8903 Edinburgh St",
    "address_councildis": "A",
    "status": "Pending",
    "rowid": "1215235",
    "final_x": "3665383.37434",
    "final_y": "536397.426695",
    "longitude": "-90.11879778675485",
    "latitude": "29.969386501999523",
    "geocoded_column": {
      "latitude": "29.969386501999523",
      "longitude": "-90.11879778675485"
    }
  },
  {
    "service_request": "2025-1215234",
    "request_type": "Trash/Recycling",
    "request_reason": "Repair Recycling Cart",
    "date_created": "2025-08-04T14:46:29.000",
    "date_modified": "2025-08-04T14:46:31.000",
    "request_status": "Pending",
    "responsible_agency": "Department of Sanitation",
    "final_address": "3437 Mandeville St",
    "address_councildis": "D",
    "status": "Pending",
    "rowid": "1215234",
    "final_x": "3685122.0086",
    "final_y": "545502.42856",
    "longitude": "-90.05614121702023",
    "latitude": "29.993832002415953",
    "geocoded_column": {
      "latitude": "29.993832002415953",
      "longitude": "-90.05614121702023"
    }
  },
  {
    "service_request": "2025-1215233",
    "request_type": "Trash/Recycling",
    "request_reason": "Request a Large Item Pick Up",
    "date_created": "2025-08-04T14:44:04.000",
    "date_modified": "2025-08-04T14:44:06.000",
    "request_status": "Pending",
    "responsible_agency": "Department of Sanitation",
    "final_address": "6225 Cartier Dr",
    "address_councildis": "D",
    "status": "Assigned to Contractor",
    "contractor": "IV Waste",
    "rowid": "1215233",
    "final_x": "3677678.31694",
    "final_y": "555774.017689",
    "longitude": "-90.07929965647656",
    "latitude": "30.022301240489288",
    "geocoded_column": {
      "latitude": "30.022301240489288",
      "longitude": "-90.07929965647656"
    }
  },
  {
    "service_request": "2025-1215232",
    "request_type": "Trash/Recycling",
    "request_reason": "Request a Large Item Pick Up",
    "date_created": "2025-08-04T14:43:17.000",
    "date_modified": "2025-08-04T14:43:21.000",
    "request_status": "Pending",
    "responsible_agency": "Department of Sanitation",
    "final_address": "5414 Canal Blvd",
    "address_councildis": "A",
    "status": "Assigned to Contractor",
    "contractor": "IV Waste",
    "rowid": "1215232",
    "final_x": "3667984.53434",
    "final_y": "543161.681293",
    "longitude": "-90.11035508769763",
    "latitude": "29.987909854843654",
    "geocoded_column": {
      "latitude": "29.987909854843654",
      "longitude": "-90.11035508769763"
    }
  },
  {
    "service_request": "2025-1215231",
    "request_type": "Trash/Recycling",
    "request_reason": "Order Recycling Cart",
    "date_created": "2025-08-04T14:42:31.000",
    "date_modified": "2025-08-04T14:42:32.000",
    "request_status": "Pending",
    "responsible_agency": "Department of Sanitation",
    "final_address": "2333 Pauline St",
    "address_councildis": "D",
    "status": "Pending",
    "rowid": "1215231",
    "final_x": "3692439.01846",
    "final_y": "540213.758347",
    "longitude": "-90.03321750343693",
    "latitude": "29.979063782112814",
    "geocoded_column": {
      "latitude": "29.979063782112814",
      "longitude": "-90.03321750343693"
    }
  },
  {
    "service_request": "2025-1215230",
    "request_type": "Trash/Recycling",
    "request_reason": "Stop Trash Service",
    "date_created": "2025-08-04T14:41:33.000",
    "date_modified": "2025-08-04T14:41:34.000",
    "request_status": "Pending",
    "responsible_agency": "Department of Sanitation",
    "final_address": "317 Homer St",
    "address_councildis": "C",
    "status": "Assigned to Contractor",
    "contractor": "Richards Disposal",
    "rowid": "1215230",
    "final_x": "3686314.83881",
    "final_y": "528240.193152",
    "longitude": "-90.05298254903028",
    "latitude": "29.9463302652577",
    "geocoded_column": {
      "latitude": "29.9463302652577",
      "longitude": "-90.05298254903028"
    }
  },
  {
    "service_request": "2025-1215229",
    "request_type": "Trash/Recycling",
    "request_reason": "Request a Large Item Pick Up",
    "date_created": "2025-08-04T14:41:15.000",
    "date_modified": "2025-08-04T14:41:16.000",
    "request_status": "Pending",
    "responsible_agency": "Department of Sanitation",
    "final_address": "2561 Jonquil St",
    "address_councildis": "D",
    "status": "Assigned to Contractor",
    "contractor": "IV Waste",
    "rowid": "1215229",
    "final_x": "3686868.49494",
    "final_y": "547237.575889",
    "longitude": "-90.05056297501397",
    "latitude": "29.998549390366705",
    "geocoded_column": {
      "latitude": "29.998549390366705",
      "longitude": "-90.05056297501397"
    }
  },
  {
    "service_request": "2025-1215228",
    "request_type": "Trash/Recycling",
    "request_reason": "Illegal Dumping",
    "date_created": "2025-08-04T14:40:23.000",
    "date_modified": "2025-08-04T14:40:24.000",
    "request_status": "Pending",
    "responsible_agency": "Department of Sanitation",
    "final_address": "317 Homer St",
    "address_councildis": "C",
    "status": "Pending",
    "rowid": "1215228",
    "final_x": "3686314.83881",
    "final_y": "528240.193152",
    "longitude": "-90.05298254903028",
    "latitude": "29.9463302652577",
    "geocoded_column": {
      "latitude": "29.9463302652577",
      "longitude": "-90.05298254903028"
    }
  },
  {
    "service_request": "2025-1215227",
    "request_type": "Parks & Parkways",
    "request_reason": "Request Tree Service (Right of Way/Public Property)",
    "date_created": "2025-08-04T14:38:03.000",
    "date_modified": "2025-08-04T14:38:06.000",
    "request_status": "Pending",
    "responsible_agency": "Department of Parks & Parkway",
    "final_address": "7268 Claridge Ct",
    "address_councildis": "E",
    "status": "Pending",
    "rowid": "1215227",
    "final_x": "3704587.16894",
    "final_y": "561184.612574",
    "longitude": "-89.99407512249036",
    "latitude": "30.036341061109255",
    "geocoded_column": {
      "latitude": "30.036341061109255",
      "longitude": "-89.99407512249036"
    }
  },
  {
    "service_request": "2025-1215226",
    "request_type": "Trash/Recycling",
    "request_reason": "Request a Large Item Pick Up",
    "date_created": "2025-08-04T14:37:21.000",
    "date_modified": "2025-08-04T14:37:22.000",
    "request_status": "Pending",
    "responsible_agency": "Department of Sanitation",
    "final_address": "1821 General Ogden St",
    "address_councildis": "A",
    "status": "Assigned to Contractor",
    "contractor": "IV Waste",
    "rowid": "1215226",
    "final_x": "3661441.39981",
    "final_y": "531949.387651",
    "longitude": "-90.13139427146719",
    "latitude": "29.957270144037132",
    "geocoded_column": {
      "latitude": "29.957270144037132",
      "longitude": "-90.13139427146719"
    }
  },
  {
    "service_request": "2025-1215225",
    "request_type": "Trash/Recycling",
    "request_reason": "Request a Large Item Pick Up",
    "date_created": "2025-08-04T14:35:48.000",
    "date_modified": "2025-08-04T14:35:50.000",
    "request_status": "Pending",
    "responsible_agency": "Department of Sanitation",
    "final_address": "322 Harney St",
    "address_councildis": "A",
    "status": "Assigned to Contractor",
    "contractor": "IV Waste",
    "rowid": "1215225",
    "final_x": "3667329.43745",
    "final_y": "546859.288081",
    "longitude": "-90.11229986759926",
    "latitude": "29.998096216707697",
    "geocoded_column": {
      "latitude": "29.998096216707697",
      "longitude": "-90.11229986759926"
    }
  },
  {
    "service_request": "2025-1215224",
    "request_type": "Trash/Recycling",
    "request_reason": "Request a Large Item Pick Up",
    "date_created": "2025-08-04T14:35:29.000",
    "date_modified": "2025-08-04T14:35:30.000",
    "request_status": "Pending",
    "responsible_agency": "Department of Sanitation",
    "final_address": "415 S Hennessey St",
    "address_councildis": "A",
    "status": "Assigned to Contractor",
    "contractor": "IV Waste",
    "rowid": "1215224",
    "final_x": "3669375.29959",
    "final_y": "537831.734409",
    "longitude": "-90.10614241999161",
    "latitude": "29.97321341860542",
    "geocoded_column": {
      "latitude": "29.97321341860542",
      "longitude": "-90.10614241999161"
    }
  },
  {
    "service_request": "2025-1215223",
    "request_type": "Parks & Parkways",
    "request_reason": "Request Tree Service (Right of Way/Public Property)",
    "date_created": "2025-08-04T14:34:20.000",
    "date_modified": "2025-08-04T14:34:22.000",
    "request_status": "Pending",
    "responsible_agency": "Department of Parks & Parkway",
    "final_address": "2333 Upperline St",
    "address_councildis": "B",
    "status": "Pending",
    "rowid": "1215223",
    "final_x": "3669197.89761",
    "final_y": "523497.463099",
    "longitude": "-90.10718712591378",
    "latitude": "29.933804100675736",
    "geocoded_column": {
      "latitude": "29.933804100675736",
      "longitude": "-90.10718712591378"
    }
  },
  {
    "service_request": "2025-1215222",
    "request_type": "Trash/Recycling",
    "request_reason": "Request a Large Item Pick Up",
    "date_created": "2025-08-04T14:33:41.000",
    "date_modified": "2025-08-04T14:33:42.000",
    "request_status": "Pending",
    "responsible_agency": "Department of Sanitation",
    "final_address": "7720 Shaw Ave",
    "address_councildis": "E",
    "status": "Assigned to Contractor",
    "contractor": "Waste Pro",
    "rowid": "1215222",
    "final_x": "3707000.23729",
    "final_y": "564517.056481",
    "longitude": "-89.98632560997274",
    "latitude": "30.04542618821065",
    "geocoded_column": {
      "latitude": "30.04542618821065",
      "longitude": "-89.98632560997274"
    }
  },
  {
    "service_request": "2025-1215221",
    "request_type": "Roads and Streets",
    "request_reason": "Street Subsidence (Sinking)",
    "date_created": "2025-08-04T14:33:06.000",
    "date_modified": "2025-08-04T14:33:08.000",
    "request_status": "Pending",
    "responsible_agency": "Sewerage & Water Board",
    "final_address": "4000 BLK dHemecourt St",
    "address_councildis": "A",
    "status": "Pending",
    "rowid": "1215221",
    "final_x": "3670044.6684",
    "final_y": "536651.270317",
    "longitude": "-90.10406840899041",
    "latitude": "29.969947809822184",
    "geocoded_column": {
      "latitude": "29.969947809822184",
      "longitude": "-90.10406840899041"
    }
  },