[
  {
    "service_request": "2025-1217483",
    "request_type": "Trash/Recycling",
    "request_reason": "Order Second Trash Cart",
    "date_created": "2025-08-11T23:49:31.000",
    "date_modified": "2025-08-11T23:49:33.000",
    "request_status": "Pending",
    "responsible_agency": "Department of Sanitation",
    "final_address": "2421 Alvar St",
    "address_councildis": "D",
    "status": "Assigned to Contractor",
    "contractor": "IV Waste",
    "rowid": "1217483",
    "final_x": "3692799.67696",
    "final_y": "540433.645195",
    "longitude": "-90.03207052265036",
    "latitude": "29.979657135238593",
    "geocoded_column": {
      "latitude": "29.979657135238593",
      "longitude": "-90.03207052265036"
    }
  },
  {
    "service_request": "2025-1217482",
    "request_type": "Trash/Recycling",
    "request_reason": "Request a Large Item Pick Up",
    "date_created": "2025-08-11T22:37:57.000",
    "date_modified": "2025-08-11T22:37:59.000",
    "request_status": "Pending",
    "responsible_agency": "Department of Sanitation",
    "final_address": "1228 Columbus St",
    "address_councildis": "C",
    "status": "Assigned to Contractor",
    "contractor": "IV Waste",
    "rowid": "1217482",
    "final_x": "3682795.24373",
    "final_y": "536185.642759",
    "longitude": "-90.06381718729136",
    "latitude": "29.96828521152473",
    "geocoded_column": {
      "latitude": "29.96828521152473",
      "longitude": "-90.06381718729136"
    }
  },
  {
    "service_request": "2025-1217481",
    "request_type": "Trash/Recycling",
    "request_reason": "Replace Recycling Cart",
    "date_created": "2025-08-11T22:21:59.000",
    "date_modified": "2025-08-11T22:22:01.000",
    "request_status": "Pending",
    "responsible_agency": "Department of Sanitation",
    "final_address": "1322 Esplanade Ave",
    "address_councildis": "C",
    "status": "Pending",
    "rowid": "1217481",
    "final_x": "3681923.90312",
    "final_y": "535965.928583",
    "longitude": "-90.06657658843653",
    "latitude": "29.967707589286107",
    "geocoded_column": {
      "latitude": "29.967707589286107",
      "longitude": "-90.06657658843653"
    }
  },
  {
    "service_request": "2025-1217480",
    "request_type": "Streetlights",
    "request_reason": "Streetlight Outage/Malfunction",
    "date_created": "2025-08-11T22:17:56.000",
    "date_modified": "2025-08-11T22:17:58.000",
    "request_status": "Pending",
    "responsible_agency": "Department of Public Works",
    "final_address": "4808 Haydel St",
    "address_councildis": "E",
    "status": "Pending",
    "contractor": "Legacy Professional Services",
    "rowid": "1217480",
    "final_x": "3698923.61892",
    "final_y": "554789.049176",
    "longitude": "-90.01220599496042",
    "latitude": "30.018936513580737",
    "geocoded_column": {
      "latitude": "30.018936513580737",
      "longitude": "-90.01220599496042"
    }
  },
  {
    "service_request": "2025-1217479",
    "request_type": "Streetlights",
    "request_reason": "Streetlight Outage/Malfunction",
    "date_created": "2025-08-11T21:56:49.000",
    "date_modified": "2025-08-11T21:56:51.000",
    "request_status": "Pending",
    "responsible_agency": "Department of Public Works",
    "final_address": "4808 Haydel St",
    "address_councildis": "E",
    "status": "Pending",
    "contractor": "Legacy Professional Services",
    "rowid": "1217479",
    "final_x": "3698923.61892",
    "final_y": "554789.049176",
    "longitude": "-90.01220599496042",
    "latitude": "30.018936513580737",
    "geocoded_column": {
      "latitude": "30.018936513580737",
      "longitude": "-90.01220599496042"
    }
  },
  {
    "service_request": "2025-1217478",
    "request_type": "Trash/Recycling",
    "request_reason": "Repair Recycling Cart",
    "date_created": "2025-08-11T21:32:57.000",
    "date_modified": "2025-08-11T21:33:00.000",
    "request_status": "Pending",
    "responsible_agency": "Department of Sanitation",
    "final_address": "5220 Conti St",
    "address_councildis": "A",
    "status": "Pending",
    "rowid": "1217478",
    "final_x": "3668451.66836",
    "final_y": "541755.865356",
    "longitude": "-90.1089270124331",
    "latitude": "29.984030622030264",
    "geocoded_column": {
      "latitude": "29.984030622030264",
      "longitude": "-90.1089270124331"
    }
  },
  {
    "service_request": "2025-1217477",
    "request_type": "Trash/Recycling",
    "request_reason": "Request a Large Item Pick Up",
    "date_created": "2025-08-11T21:22:17.000",
    "date_modified": "2025-08-11T21:22:19.000",
    "request_status": "Pending",
    "responsible_agency": "Department of Sanitation",
    "final_address": "935 First St",
    "address_councildis": "B",
    "status": "Assigned to Contractor",
    "contractor": "IV Waste",
    "rowid": "1217477",
    "final_x": "3678352.09109",
    "final_y": "521141.568953",
    "longitude": "-90.07836921041603",
    "latitude": "29.92705363675769",
    "geocoded_column": {
      "latitude": "29.92705363675769",
      "longitude": "-90.07836921041603"
    }
  },
  {
    "service_request": "2025-1217476",
    "request_type": "Property Maintenance",
    "request_reason": "Property Maintenance",
    "date_created": "2025-08-11T21:09:32.000",
    "date_modified": "2025-08-11T21:09:34.000",
    "request_status": "Pending",
    "responsible_agency": "Department of Code Enforcement",
    "final_address": "1417 Melpomene St",
    "address_councildis": "B",
    "status": "Pending",
    "rowid": "1217476",
    "final_x": "3679879.34683",
    "final_y": "525157.513149",
    "longitude": "-90.07340866693698",
    "latitude": "29.938050079212893",
    "geocoded_column": {
      "latitude": "29.938050079212893",
      "longitude": "-90.07340866693698"
    }
  },
  {
    "service_request": "2025-1217475",
    "request_type": "Roads and Streets",
    "request_reason": "Sidewalk Damaged or Missing",
    "date_created": "2025-08-11T21:05:45.000",
    "date_modified": "2025-08-11T21:05:46.000",
    "request_status": "Pending",
    "responsible_agency": "Department of Public Works",
    "final_address": "910 Dauphine St",
    "address_councildis": "C",
    "status": "Pending",
    "rowid": "1217475",
    "final_x": "3682508.50799",
    "final_y": "533549.124613",
    "longitude": "-90.06481488743063",
    "latitude": "29.96104442432874",
    "geocoded_column": {
      "latitude": "29.96104442432874",
      "longitude": "-90.06481488743063"
    }
  },
  {
    "service_request": "2025-1217474",
    "request_type": "Streetlights",
    "request_reason": "Streetlight Outage/Malfunction",
    "date_created": "2025-08-11T20:18:40.000",
    "date_modified": "2025-08-11T20:18:42.000",
    "request_status": "Pending",
    "responsible_agency": "Department of Public Works",
    "final_address": "2938 Orleans Ave",
    "address_councildis": "A",
    "status": "Pending",
    "contractor": "Legacy Professional Services",
    "rowid": "1217474",
    "final_x": "3675774.72225",
    "final_y": "537689.317192",
    "longitude": "-90.0859366348925",
    "latitude": "29.972631813104353",
    "geocoded_column": {
      "latitude": "29.972631813104353",
      "longitude": "-90.0859366348925"
    }
  },
  {
    "service_request": "2025-1217473",
    "request_type": "General Services",
    "request_reason": "General Service Request",
    "date_created": "2025-08-11T19:49:45.000",
    "date_modified": "2025-08-11T19:49:46.000",
    "request_status": "Pending",
    "responsible_agency": "Orleans Parish Communication District",
    "final_address": "9232 Palmetto St",
    "address_councildis": "A",
    "status": "Pending",
    "rowid": "1217473",
    "final_x": "3664980.0041",
    "final_y": "537899.067337",
    "longitude": "-90.12002145189317",
    "latitude": "29.973527265665417",
    "geocoded_column": {
      "latitude": "29.973527265665417",
      "longitude": "-90.12002145189317"
    }
  },
  {
    "service_request": "2025-1217472",
    "request_type": "Trash/Recycling",
    "request_reason": "Request a Large Item Pick Up",
    "date_created": "2025-08-11T19:49:43.000",
    "date_modified": "2025-08-11T19:49:45.000",
    "request_status": "Pending",
    "responsible_agency": "Department of Sanitation",
    "final_address": "806 Audubon St, New Orleans, Louisiana, 70118",
    "address_councildis": "A",
    "status": "Assigned to Contractor",
    "contractor": "IV Waste",
    "rowid": "1217472",
    "final_x": "3663658.32864",
    "final_y": "525267.925437",
    "longitude": "-90.12461640949482",
    "latitude": "29.938834143305783",
    "geocoded_column": {
      "latitude": "29.938834143305783",
      "longitude": "-90.12461640949482"
    }
  },
  {
    "service_request": "2025-1217471",
    "request_type": "Roads and Streets",
    "request_reason": "Sidewalk Damaged or Missing",
    "date_created": "2025-08-11T19:45:38.000",
    "date_modified": "2025-08-11T19:45:40.000",
    "request_status": "Pending",
    "responsible_agency": "Department of Public Works",
    "final_address": "5426 N Dorgenois St",
    "address_councildis": "E",
    "status": "Pending",
    "rowid": "1217471",
    "final_x": "3698849.45981",
    "final_y": "539114.833482",
    "longitude": "-90.01301097306714",
    "latitude": "29.97584058301405",
    "geocoded_column": {
      "latitude": "29.97584058301405",
      "longitude": "-90.01301097306714"
    }
  },
  {
    "service_request": "2025-1217470",
    "request_type": "Street and Traffic Signs",
    "request_reason": "Stop Sign Missing or Damaged",
    "date_created": "2025-08-11T19:45:31.000",
    "date_modified": "2025-08-11T19:45:33.000",
    "request_status": "Pending",
    "responsible_agency": "Department of Public Works",
    "final_address": "9232 Palmetto St",
    "address_councildis": "A",
    "status": "Pending",
    "rowid": "1217470",
    "final_x": "3664980.0041",
    "final_y": "537899.067337",
    "longitude": "-90.12002145189317",
    "latitude": "29.973527265665417",
    "geocoded_column": {
      "latitude": "29.973527265665417",
      "longitude": "-90.12002145189317"
    }
  },
  {
    "service_request": "2025-1217469",
    "request_type": "Roads and Streets",
    "request_reason": "Pothole",
    "date_created": "2025-08-11T19:40:25.000",
    "date_modified": "2025-08-11T19:40:27.000",
    "request_status": "Pending",
    "responsible_agency": "Department of Public Works",
    "final_address": "2601 Lamanche St",
    "address_councildis": "E",
    "status": "Pending",
    "rowid": "1217469",
    "final_x": "3699945.62487",
    "final_y": "539361.803658",
    "longitude": "-90.00953998368439",
    "latitude": "29.976484885480158",
    "geocoded_column": {
      "latitude": "29.976484885480158",
      "longitude": "-90.00953998368439"
    }
  },
  {
    "service_request": "2025-1217468",
    "request_type": "Trash/Recycling",
    "request_reason": "Request a Large Item Pick Up",
    "date_created": "2025-08-11T19:22:22.000",
    "date_modified": "2025-08-11T19:22:23.000",
    "request_status": "Pending",
    "responsible_agency": "Department of Sanitation",
    "final_address": "2316 Franklin Ave",
    "address_councildis": "D",
    "status": "Assigned to Contractor",
    "contractor": "IV Waste",
    "rowid": "1217468",
    "final_x": "3687479.58364",
    "final_y": "541099.486924",
    "longitude": "-90.0488499127517",
    "latitude": "29.981653017650082",
    "geocoded_column": {
      "latitude": "29.981653017650082",
      "longitude": "-90.0488499127517"
    }
  },
  {
    "service_request": "2025-1217467",
    "request_type": "Mosquito, Termite & Rodent Control",
    "request_reason": "Mosquito Complaint",
    "date_created": "2025-08-11T19:20:52.000",
    "date_modified": "2025-08-11T19:20:54.000",
    "request_status": "Pending",
    "responsible_agency": "Mosquito, Termite & Rodent Control Board",
    "final_address": "7761 Scottwood Dr",
    "address_councildis": "E",
    "status": "Pending",
    "rowid": "1217467",
    "final_x": "3716820.58488",
    "final_y": "571490.064808",
    "longitude": "-89.95502379928139",
    "latitude": "30.06427800238868",
    "geocoded_column": {
      "latitude": "30.06427800238868",
      "longitude": "-89.95502379928139"
    }
  },
  {
    "service_request": "2025-1217466",
    "request_type": "Property Maintenance",
    "request_reason": "Property Maintenance",
    "date_created": "2025-08-11T19:17:40.000",
    "date_modified": "2025-08-11T19:17:41.000",
    "request_status": "Pending",
    "responsible_agency": "Department of Code Enforcement",
    "final_address": "2340 Fats Domino Ave",
    "address_councildis": "E",
    "status": "Pending",
    "rowid": "1217466",
    "final_x": "3699271.97412",
    "final_y": "538598.281481",
    "longitude": "-90.01169537838493",
    "latitude": "29.974406858491655",
    "geocoded_column": {
      "latitude": "29.974406858491655",
      "longitude": "-90.01169537838493"
    }
  },
  {
    "service_request": "2025-1217465",
    "request_type": "Trash/Recycling",
    "request_reason": "Order Trash Cart",
    "date_created": "2025-08-11T19:14:22.000",
    "date_modified": "2025-08-11T19:14:25.000",
    "request_status": "Pending",
    "responsible_agency": "Department of Sanitation",
    "final_address": "7761 Scottwood Dr",
    "address_councildis": "E",
    "status": "Assigned to Contractor",
    "contractor": "Waste Pro",
    "rowid": "1217465",
    "final_x": "3716820.58488",
    "final_y": "571490.064808",
    "longitude": "-89.95502379928139",
    "latitude": "30.06427800238868",
    "geocoded_column": {
      "latitude": "30.06427800238868",
      "longitude": "-89.95502379928139"
    }
  },
  {
    "service_request": "2025-1217464",
    "request_type": "Trash/Recycling",
    "request_reason": "Change Size of Trash Cart",
    "date_created": "2025-08-11T19:10:48.000",
    "date_modified": "2025-08-11T19:10:50.000",
    "request_status": "Pending",
    "responsible_agency": "Department of Sanitation",
    "final_address": "7761 Scottwood Dr",
    "address_councildis": "E",
    "status": "Assigned to Contractor",
    "contractor": "Waste Pro",
    "rowid": "1217464",
    "final_x": "3716820.58488",
    "final_y": "571490.064808",
    "longitude": "-89.95502379928139",
    "latitude": "30.06427800238868",
    "geocoded_column": {
      "latitude": "30.06427800238868",
      "longitude": "-89.95502379928139"
    }
  },
  {
    "service_request": "2025-1217463",
    "request_type": "General Services",
    "request_reason": "General Service Request",
    "date_created": "2025-08-11T19:09:18.000",
    "date_modified": "2025-08-11T19:09:21.000",
    "request_status": "Pending",
    "responsible_agency": "Orleans Parish Communication District",
    "final_address": "7670 Morel St",
    "address_councildis": "E",
    "status": "Pending",
    "rowid": "1217463",
    "final_x": "3718585.41689",
    "final_y": "572016.121",
    "longitude": "-89.94942500002938",
    "latitude": "30.06566594768728",
    "geocoded_column": {
      "latitude": "30.06566594768728",
      "longitude": "-89.94942500002938"
    }
  },
  {
    "service_request": "2025-1217462",
    "request_type": "Parks & Parkways",
    "request_reason": "Request Tree Service (Right of Way/Public Property)",
    "date_created": "2025-08-11T19:03:08.000",
    "date_modified": "2025-08-11T19:03:10.000",
    "request_status": "Pending",
    "responsible_agency": "Department of Parks & Parkway",
    "final_address": "5834 Franklin Ave",
    "address_councildis": "D",
    "status": "Pending",
    "rowid": "1217462",
    "final_x": "3686373.06722",
    "final_y": "554726.24956",
    "longitude": "-90.0518634601461",
    "latitude": "30.01915575180221",
    "geocoded_column": {
      "latitude": "30.01915575180221",
      "longitude": "-90.0518634601461"
    }
  },
  {
    "service_request": "2025-1217461",
    "request_type": "Health Related Request",
    "request_reason": "Noise Ordinance Complaint",
    "date_created": "2025-08-11T18:58:30.000",
    "date_modified": "2025-08-11T18:58:32.000",
    "request_status": "Pending",
    "responsible_agency": "Health Department",
    "final_address": "6326 Caldwell Drive New Orleans LA 70122",
    "status": "Pending",
    "rowid": "1217461",
    "longitude": "0.0",
    "latitude": "0.0",
    "geocoded_column": {
      "latitude": "0.0",
      "longitude": "0.0"
    }
  },
  {
    "service_request": "2025-1217460",
    "request_type": "Trash/Recycling",
    "request_reason": "Request a Large Item Pick Up",
    "date_created": "2025-08-11T18:50:40.000",
    "date_modified": "2025-08-11T18:50:42.000",
    "request_status": "Pending",
    "responsible_agency": "Department of Sanitation",
    "final_address": "15 S Oak Ridge Ct",
    "address_councildis": "E",
    "status": "Assigned to Contractor",
    "contractor": "Waste Pro",
    "rowid": "1217460",
    "final_x": "3713572.95634",
    "final_y": "567615.680868",
    "longitude": "-89.96543592644186",
    "latitude": "30.05373205354316",
    "geocoded_column": {
      "latitude": "30.05373205354316",
      "longitude": "-89.96543592644186"
    }
  },
  {
    "service_request": "2025-1217459",
    "request_type": "Roads and Streets",
    "request_reason": "Pothole",
    "date_created": "2025-08-11T18:42:07.000",
    "date_modified": "2025-08-11T18:42:09.000",
    "request_status": "Pending",
    "responsible_agency": "Department of Public Works",
    "final_address": "2601 Lamanche St",
    "address_councildis": "E",
    "status": "Pending",
    "rowid": "1217459",
    "final_x": "3699945.62487",
    "final_y": "539361.803658",
    "longitude": "-90.00953998368439",
    "latitude": "29.976484885480158",
    "geocoded_column": {
      "latitude": "29.976484885480158",
      "longitude": "-90.00953998368439"
    }
  },
  {
    "service_request": "2025-1217458",
    "request_type": "Roads and Streets",
    "request_reason": "Pothole",
    "date_created": "2025-08-11T18:32:57.000",
    "date_modified": "2025-08-11T18:32:58.000",
    "request_status": "Pending",
    "responsible_agency": "Department of Public Works",
    "final_address": "5231 Conti St",
    "address_councildis": "A",
    "status": "Pending",
    "rowid": "1217458",
    "final_x": "3668434.96762",
    "final_y": "541874.416588",
    "longitude": "-90.10897576152676",
    "latitude": "29.98435708833897",
    "geocoded_column": {
      "latitude": "29.98435708833897",
      "longitude": "-90.10897576152676"
    }
  },
  {
    "service_request": "2025-1217457",
    "request_type": "Property Maintenance",
    "request_reason": "Property Maintenance",
    "date_created": "2025-08-11T18:28:18.000",
    "date_modified": "2025-08-11T18:28:20.000",
    "request_status": "Pending",
    "responsible_agency": "Department of Code Enforcement",
    "final_address": "2401 Lamanche St",
    "address_councildis": "E",
    "status": "Pending",
    "rowid": "1217457",
    "final_x": "3699726.93744",
    "final_y": "538593.770313",
    "longitude": "-90.0102586694291",
    "latitude": "29.974380017374475",
    "geocoded_column": {
      "latitude": "29.974380017374475",
      "longitude": "-90.0102586694291"
    }
  },
  {
    "service_request": "2025-1217456",
    "request_type": "Property Maintenance",
    "request_reason": "Property Maintenance",
    "date_created": "2025-08-11T18:25:55.000",
    "date_modified": "2025-08-11T18:25:57.000",
    "request_status": "Pending",
    "responsible_agency": "Department of Code Enforcement",
    "final_address": "2620 Flood St",
    "address_councildis": "E",
    "status": "Pending",
    "rowid": "1217456",
    "final_x": "3699239.80228",
    "final_y": "539657.426634",
    "longitude": "-90.01175840365693",
    "latitude": "29.977320144289394",
    "geocoded_column": {
      "latitude": "29.977320144289394",
      "longitude": "-90.01175840365693"
    }
  },
  {
    "service_request": "2025-1217455",
    "request_type": "Roads and Streets",
    "request_reason": "Abandoned Service Cut",
    "date_created": "2025-08-11T18:08:56.000",
    "date_modified": "2025-08-11T18:08:58.000",
    "request_status": "Pending",
    "responsible_agency": "Department of Public Works",
    "final_address": "2312 N Roman St",
    "address_councildis": "D",
    "status": "Pending",
    "rowid": "1217455",
    "final_x": "3685690.87388",
    "final_y": "538923.623306",
    "longitude": "-90.05457617956648",
    "latitude": "29.975725171061246",
    "geocoded_column": {
      "latitude": "29.975725171061246",
      "longitude": "-90.05457617956648"
    }
  },
  {
    "service_request": "2025-1217454",
    "request_type": "Trash/Recycling",
    "request_reason": "Request a Large Item Pick Up",
    "date_created": "2025-08-11T18:03:15.000",
    "date_modified": "2025-08-11T18:03:17.000",
    "request_status": "Pending",
    "responsible_agency": "Department of Sanitation",
    "final_address": "1910 Urquhart St",
    "address_councildis": "C",
    "status": "Assigned to Contractor",
    "contractor": "IV Waste",
    "rowid": "1217454",
    "final_x": "3683886.64073",
    "final_y": "536925.915656",
    "longitude": "-90.06034453948273",
    "latitude": "29.970287411645295",
    "geocoded_column": {
      "latitude": "29.970287411645295",
      "longitude": "-90.06034453948273"
    }
  },
  {
    "service_request": "2025-1217453",
    "request_type": "Trash/Recycling",
    "request_reason": "Missed Trash Pick-Up",
    "date_created": "2025-08-11T17:56:16.000",
    "date_modified": "2025-08-11T17:56:18.000",
    "request_status": "Pending",
    "responsible_agency": "Department of Sanitation",
    "final_address": "207 Fairfax Pl",
    "address_councildis": "C",
    "status": "Assigned to Contractor",
    "contractor": "Richards Disposal",
    "rowid": "1217453",
    "final_x": "3706287.75531",
    "final_y": "517360.857525",
    "longitude": "-89.99032419564053",
    "latitude": "29.91578714473963",
    "geocoded_column": {
      "latitude": "29.91578714473963",
      "longitude": "-89.99032419564053"
    }
  },
  {
    "service_request": "2025-1217452",
    "request_type": "General Services",
    "request_reason": "General Service Request",
    "date_created": "2025-08-11T17:52:50.000",
    "date_modified": "2025-08-11T17:52:52.000",
    "request_status": "Pending",
    "responsible_agency": "Orleans Parish Communication District",
    "final_address": "9300 Palmetto St",
    "address_councildis": "A",
    "status": "Pending",
    "rowid": "1217452",
    "final_x": "3664914.41984",
    "final_y": "537953.704329",
    "longitude": "-90.12022675482285",
    "latitude": "29.973679408591824",
    "geocoded_column": {
      "latitude": "29.973679408591824",
      "longitude": "-90.12022675482285"
    }
  },
  {
    "service_request": "2025-1217451",
    "request_type": "General Services",
    "request_reason": "General Service Request",
    "date_created": "2025-08-11T17:49:08.000",
    "date_modified": "2025-08-11T17:49:10.000",
    "request_status": "Pending",
    "responsible_agency": "Orleans Parish Communication District",
    "final_address": "207 Fairfax Pl",
    "address_councildis": "C",
    "status": "Pending",
    "rowid": "1217451",
    "final_x": "3706287.75531",
    "final_y": "517360.857525",
    "longitude": "-89.99032419564053",
    "latitude": "29.91578714473963",
    "geocoded_column": {
      "latitude": "29.91578714473963",
      "longitude": "-89.99032419564053"
    }
  },
  {
    "service_request": "2025-1217450",
    "request_type": "Trash/Recycling",
    "request_reason": "Change Size of Trash Cart",
    "date_created": "2025-08-11T17:47:25.000",
    "date_modified": "2025-08-11T17:47:27.000",
    "request_status": "Pending",
    "responsible_agency": "Department of Sanitation",
    "final_address": "1 Walnut St",
    "address_councildis": "A",
    "status": "Assigned to Contractor",
    "contractor": "IV Waste",
    "rowid": "1217450",
    "final_x": "3660474.81965",
    "final_y": "520152.108728",
    "longitude": "-90.13483609690353",
    "latitude": "29.924859205014595",
    "geocoded_column": {
      "latitude": "29.924859205014595",
      "longitude": "-90.13483609690353"
    }
  },
  {
    "service_request": "2025-1217449",
    "request_type": "Utility Poles",
    "request_reason": "Wires Sagging/Hanging Low",
    "date_created": "2025-08-11T17:45:54.000",
    "date_modified": "2025-08-11T17:45:58.000",
    "request_status": "Pending",
    "responsible_agency": "Utility Company Collective",
    "final_address": "3811 General Pershing St",
    "address_councildis": "B",
    "status": "Pending",
    "rowid": "1217449",
    "final_x": "3670523.12622",
    "final_y": "528657.647616",
    "longitude": "-90.10282848818947",
    "latitude": "29.94795387372545",
    "geocoded_column": {
      "latitude": "29.94795387372545",
      "longitude": "-90.10282848818947"
    }
  },
  {
    "service_request": "2025-1217448",
    "request_type": "Trash/Recycling",
    "request_reason": "Replace Trash Cart",
    "date_created": "2025-08-11T17:45:16.000",
    "date_modified": "2025-08-11T17:45:18.000",
    "request_status": "Pending",
    "responsible_agency": "Department of Sanitation",
    "final_address": "721 Burgundy St",
    "address_councildis": "C",
    "status": "Assigned to Contractor",
    "contractor": "IV Waste",
    "rowid": "1217448",
    "final_x": "3681786.55471",
    "final_y": "533300.400772",
    "longitude": "-90.06710336034469",
    "latitude": "29.96038247552622",
    "geocoded_column": {
      "latitude": "29.96038247552622",
      "longitude": "-90.06710336034469"
    }
  },
  {
    "service_request": "2025-1217447",
    "request_type": "Trash/Recycling",
    "request_reason": "Request a Large Item Pick Up",
    "date_created": "2025-08-11T17:31:23.000",
    "date_modified": "2025-08-11T17:31:26.000",
    "request_status": "Pending",
    "responsible_agency": "Department of Sanitation",
    "final_address": "3154 Toulouse St",
    "address_councildis": "A",
    "status": "Assigned to Contractor",
    "contractor": "IV Waste",
    "rowid": "1217447",
    "final_x": "3674829.67515",
    "final_y": "537743.750472",
    "longitude": "-90.08891940276143",
    "latitude": "29.972809740923744",
    "geocoded_column": {
      "latitude": "29.972809740923744",
      "longitude": "-90.08891940276143"
    }
  },
  {
    "service_request": "2025-1217446",
    "request_type": "Trash/Recycling",
    "request_reason": "Request a Large Item Pick Up",
    "date_created": "2025-08-11T17:28:23.000",
    "date_modified": "2025-08-11T17:28:26.000",
    "request_status": "Pending",
    "responsible_agency": "Department of Sanitation",
    "final_address": "32 Olympic Ct",
    "address_councildis": "C",
    "status": "Assigned to Contractor",
    "contractor": "Richards Disposal",
    "rowid": "1217446",
    "final_x": "3699734.25834",
    "final_y": "515853.775156",
    "longitude": "-90.01106431060758",
    "latitude": "29.91185276043689",
    "geocoded_column": {
      "latitude": "29.91185276043689",
      "longitude": "-90.01106431060758"
    }
  },
  {
    "service_request": "2025-1217445",
    "request_type": "Roads and Streets",
    "request_reason": "Pothole",
    "date_created": "2025-08-11T17:18:32.000",
    "date_modified": "2025-08-11T17:18:34.000",
    "request_status": "Pending",
    "responsible_agency": "Department of Public Works",
    "final_address": "6221 Vicksburg St",
    "address_councildis": "A",
    "status": "Pending",
    "rowid": "1217445",
    "final_x": "3669093.86113",
    "final_y": "548727.187539",
    "longitude": "-90.10666288757369",
    "latitude": "30.003180474893067",
    "geocoded_column": {
      "latitude": "30.003180474893067",
      "longitude": "-90.10666288757369"
    }
  },
  {
    "service_request": "2025-1217444",
    "request_type": "Street and Traffic Signs",
    "request_reason": "Crosswalk Signage Damaged or Missing",
    "date_created": "2025-08-11T17:05:27.000",
    "date_modified": "2025-08-11T17:05:30.000",
    "request_status": "Pending",
    "responsible_agency": "Department of Public Works",
    "final_address": "421 N Carrollton Ave",
    "address_councildis": "A",
    "status": "Pending",
    "rowid": "1217444",
    "final_x": "3671911.40999",
    "final_y": "539470.348682",
    "longitude": "-90.09807706795056",
    "latitude": "29.977644123480495",
    "geocoded_column": {
      "latitude": "29.977644123480495",
      "longitude": "-90.09807706795056"
    }
  },
  {
    "service_request": "2025-1217443",
    "request_type": "Trash/Recycling",
    "request_reason": "Order Recycling Cart",
    "date_created": "2025-08-11T17:04:25.000",
    "date_modified": "2025-08-11T17:04:29.000",
    "request_status": "Pending",
    "responsible_agency": "Department of Sanitation",
    "final_address": "7615 Plum St",
    "address_councildis": "A",
    "status": "Pending",
    "rowid": "1217443",
    "final_x": "3663450.99469",
    "final_y": "527558.397439",
    "longitude": "-90.12519474474439",
    "latitude": "29.94513822234967",
    "geocoded_column": {
      "latitude": "29.94513822234967",
      "longitude": "-90.12519474474439"
    }
  },
  {
    "service_request": "2025-1217442",
    "request_type": "Trash/Recycling",
    "request_reason": "Request a Large Item Pick Up",
    "date_created": "2025-08-11T17:02:56.000",
    "date_modified": "2025-08-11T17:02:58.000",
    "request_status": "Pending",
    "responsible_agency": "Department of Sanitation",
    "final_address": "7917 Means Ave",
    "address_councildis": "E",
    "status": "Assigned to Contractor",
    "contractor": "Waste Pro",
    "rowid": "1217442",
    "final_x": "3707690.46168",
    "final_y": "565633.862114",
    "longitude": "-89.98410262197072",
    "latitude": "30.048474628101268",
    "geocoded_column": {
      "latitude": "30.048474628101268",
      "longitude": "-89.98410262197072"
    }
  },
  {
    "service_request": "2025-1217441",
    "request_type": "Trash/Recycling",
    "request_reason": "Request a Large Item Pick Up",
    "date_created": "2025-08-11T17:01:19.000",
    "date_modified": "2025-08-11T17:02:09.000",
    "request_status": "Pending",
    "responsible_agency": "Department of Sanitation",
    "final_address": "4724 Babylon St",
    "address_councildis": "D",
    "status": "Assigned to Contractor",
    "contractor": "Waste Pro",
    "rowid": "1217441",
    "final_x": "3696616.69923",
    "final_y": "554097.332824",
    "longitude": "-90.01952007077232",
    "latitude": "30.01710748843726",
    "geocoded_column": {
      "latitude": "30.01710748843726",
      "longitude": "-90.01952007077232"
    }
  },
  {
    "service_request": "2025-1217440",
    "request_type": "Safety & Permits",
    "request_reason": "Zoning Enforcement",
    "date_created": "2025-08-11T16:59:55.000",
    "date_modified": "2025-08-11T16:59:57.000",
    "request_status": "Pending",
    "responsible_agency": "Safety and Permits",
    "final_address": "1025 Lowerline St",
    "address_councildis": "A",
    "status": "Pending",
    "rowid": "1217440",
    "final_x": "3663434.85709",
    "final_y": "526389.723966",
    "longitude": "-90.12528459840273",
    "latitude": "29.941925211869098",
    "geocoded_column": {
      "latitude": "29.941925211869098",
      "longitude": "-90.12528459840273"
    }
  },
  {
    "service_request": "2025-1217439",
    "request_type": "Safety & Permits",
    "request_reason": "Zoning Enforcement",
    "date_created": "2025-08-11T16:55:41.000",
    "date_modified": "2025-08-11T16:55:43.000",
    "request_status": "Pending",
    "responsible_agency": "Safety and Permits",
    "final_address": "232 Lake Marina Ave",
    "address_councildis": "A",
    "status": "Pending",
    "rowid": "1217439",
    "final_x": "3666001.5442",
    "final_y": "555381.200665",
    "longitude": "-90.1162087291086",
    "latitude": "30.021567348518722",
    "geocoded_column": {
      "latitude": "30.021567348518722",
      "longitude": "-90.1162087291086"
    }
  },
  {
    "service_request": "2025-1217438",
    "request_type": "Trash/Recycling",
    "request_reason": "Request a Large Item Pick Up",
    "date_created": "2025-08-11T16:55:12.000",
    "date_modified": "2025-08-11T16:55:14.000",
    "request_status": "Pending",
    "responsible_agency": "Department of Sanitation",
    "final_address": "4766 Galahad Dr",
    "address_councildis": "E",
    "status": "Assigned to Contractor",
    "contractor": "Waste Pro",
    "rowid": "1217438",
    "final_x": "3707120.49803",
    "final_y": "555640.954841",
    "longitude": "-89.98627532054213",
    "latitude": "30.02101651445104",
    "geocoded_column": {
      "latitude": "30.02101651445104",
      "longitude": "-89.98627532054213"
    }
  },
  {
    "service_request": "2025-1217437",
    "request_type": "Trash/Recycling",
    "request_reason": "Return Trash Cart",
    "date_created": "2025-08-11T16:54:48.000",
    "date_modified": "2025-08-11T16:54:51.000",
    "request_status": "Pending",
    "responsible_agency": "Department of Sanitation",
    "final_address": "3509 Silver Maple Ct",
    "address_councildis": "C",
    "status": "Assigned to Contractor",
    "contractor": "Richards Disposal",
    "rowid": "1217437",
    "final_x": "3703435.80356",
    "final_y": "512426.905777",
    "longitude": "-89.99950726634738",
    "latitude": "29.902312065260368",
    "geocoded_column": {
      "latitude": "29.902312065260368",
      "longitude": "-89.99950726634738"
    }
  },
  {
    "service_request": "2025-1217436",
    "request_type": "Trash/Recycling",
    "request_reason": "Request a Large Item Pick Up",
    "date_created": "2025-08-11T16:53:25.000",
    "date_modified": "2025-08-11T16:53:27.000",
    "request_status": "Pending",
    "responsible_agency": "Department of Sanitation",
    "final_address": "3509 Silver Maple Ct",
    "address_councildis": "C",
    "status": "Assigned to Contractor",
    "contractor": "Richards Disposal",
    "rowid": "1217436",
    "final_x": "3703435.80356",
    "final_y": "512426.905777",
    "longitude": "-89.99950726634738",
    "latitude": "29.902312065260368",
    "geocoded_column": {
      "latitude": "29.902312065260368",
      "longitude": "-89.99950726634738"
    }
  },
  {
    "service_request": "2025-1217435",
    "request_type": "Trash/Recycling",
    "request_reason": "Request a Large Item Pick Up",
    "date_created": "2025-08-11T16:53:16.000",
    "date_modified": "2025-08-11T16:53:18.000",
    "request_status": "Pending",
    "responsible_agency": "Department of Sanitation",
    "final_address": "3805 Louisiana Avenue Prkwy",
    "address_councildis": "B",
    "status": "Assigned to Contractor",
    "contractor": "IV Waste",
    "rowid": "1217435",
    "final_x": "3671370.71963",
    "final_y": "528706.551296",
    "longitude": "-90.10015062759895",
    "latitude": "29.948063287546372",
    "geocoded_column": {
      "latitude": "29.948063287546372",
      "longitude": "-90.10015062759895"
    }
  },
  {
    "service_request": "2025-1217434",
    "request_type": "Trash/Recycling",
    "request_reason": "Request a Large Item Pick Up",
    "date_created": "2025-08-11T16:52:14.000",
    "date_modified": "2025-08-11T16:52:16.000",
    "request_status": "Pending",
    "responsible_agency": "Department of Sanitation",
    "final_address": "6033 Vermillion Blvd",
    "address_councildis": "D",
    "status": "Assigned to Contractor",
    "contractor": "IV Waste",
    "rowid": "1217434",
    "final_x": "3683162.53122",
    "final_y": "555197.271769",
    "longitude": "-90.06199112281462",
    "latitude": "30.020549226505516",
    "geocoded_column": {
      "latitude": "30.020549226505516",
      "longitude": "-90.06199112281462"
    }
  },
  {
    "service_request": "2025-1217433",
    "request_type": "Trash/Recycling",
    "request_reason": "Dead Animal Pick Up",
    "date_created": "2025-08-11T16:51:40.000",
    "date_modified": "2025-08-11T16:51:48.000",
    "request_status": "Pending",
    "responsible_agency": "Department of Sanitation",
    "final_address": "3021 Franklin Ave",
    "address_councildis": "D",
    "status": "Assigned to Contractor",
    "contractor": "IV Waste",
    "rowid": "1217433",
    "final_x": "3687531.84425",
    "final_y": "544086.331086",
    "longitude": "-90.04857907434982",
    "latitude": "29.98986416435794",
    "geocoded_column": {
      "latitude": "29.98986416435794",
      "longitude": "-90.04857907434982"
    }
  },
  {
    "service_request": "2025-1217432",
    "request_type": "Trash/Recycling",
    "request_reason": "Dead Animal Pick Up",
    "date_created": "2025-08-11T16:51:39.000",
    "date_modified": "2025-08-11T16:55:12.000",
    "case_close_date": "2025-08-11T11:55:11.000",
    "request_status": "Closed",
    "responsible_agency": "Department of Sanitation",
    "final_address": "3021 Franklin Ave",
    "address_councildis": "D",
    "status": "Assigned to Contractor",
    "contractor": "IV Waste",
    "contractor_action": "Duplicate",
    "rowid": "1217432",
    "final_x": "3687531.84425",
    "final_y": "544086.331086",
    "longitude": "-90.04857907434982",
    "latitude": "29.98986416435794",
    "geocoded_column": {
      "latitude": "29.98986416435794",
      "longitude": "-90.04857907434982"
    }
  },
  {
    "service_request": "2025-1217431",
    "request_type": "Trash/Recycling",
    "request_reason": "Dead Animal Pick Up",
    "date_created": "2025-08-11T16:51:31.000",
    "date_modified": "2025-08-11T16:56:02.000",
    "case_close_date": "2025-08-11T11:56:01.000",
    "request_status": "Closed",
    "responsible_agency": "Department of Sanitation",
    "final_address": "3021 Franklin Ave",
    "address_councildis": "D",
    "status": "Assigned to Contractor",
    "contractor": "IV Waste",
    "contractor_action": "Duplicate",
    "rowid": "1217431",
    "final_x": "3687531.84425",
    "final_y": "544086.331086",
    "longitude": "-90.04857907434982",
    "latitude": "29.98986416435794",
    "geocoded_column": {
      "latitude": "29.98986416435794",
      "longitude": "-90.04857907434982"
    }
  },
  {
    "service_request": "2025-1217430",
    "request_type": "Trash/Recycling",
    "request_reason": "Replace Trash Cart",
    "date_created": "2025-08-11T16:49:40.000",
    "date_modified": "2025-08-11T16:49:41.000",
    "request_status": "Pending",
    "responsible_agency": "Department of Sanitation",
    "final_address": "3422 Cleveland Ave",
    "address_councildis": "B",
    "status": "Assigned to Contractor",
    "contractor": "IV Waste",
    "rowid": "1217430",
    "final_x": "3672676.11451",
    "final_y": "536554.886599",
    "longitude": "-90.09576131754595",
    "latitude": "29.96960490095709",
    "geocoded_column": {
      "latitude": "29.96960490095709",
      "longitude": "-90.09576131754595"
    }
  },
  {
    "service_request": "2025-1217429",
    "request_type": "Property Maintenance",
    "request_reason": "Property Maintenance",
    "date_created": "2025-08-11T16:49:32.000",
    "date_modified": "2025-08-11T16:49:34.000",
    "request_status": "Pending",
    "responsible_agency": "Department of Code Enforcement",
    "final_address": "2542 Charbonnet St",
    "address_councildis": "E",
    "status": "Pending",
    "rowid": "1217429",
    "final_x": "3700092.55485",
    "final_y": "539208.192458",
    "longitude": "-90.00908154402106",
    "latitude": "29.97605784215293",
    "geocoded_column": {
      "latitude": "29.97605784215293",
      "longitude": "-90.00908154402106"
    }
  },
  {
    "service_request": "2025-1217428",
    "request_type": "Property Maintenance",
    "request_reason": "Property Maintenance",
    "date_created": "2025-08-11T16:47:29.000",
    "date_modified": "2025-08-11T16:47:31.000",
    "request_status": "Pending",
    "responsible_agency": "Department of Code Enforcement",
    "final_address": "2501 Flood St",
    "address_councildis": "E",
    "status": "Pending",
    "rowid": "1217428",
    "final_x": "3699166.19133",
    "final_y": "539118.125386",
    "longitude": "-90.01201053135425",
    "latitude": "29.975839595593865",
    "geocoded_column": {
      "latitude": "29.975839595593865",
      "longitude": "-90.01201053135425"
    }
  },
  {
    "service_request": "2025-1217427",
    "request_type": "Property Maintenance",
    "request_reason": "Property Maintenance",
    "date_created": "2025-08-11T16:44:43.000",
    "date_modified": "2025-08-11T16:44:45.000",
    "request_status": "Pending",
    "responsible_agency": "Department of Code Enforcement",
    "final_address": "5437 N Dorgenois St",
    "address_councildis": "E",
    "status": "Pending",
    "rowid": "1217427",
    "final_x": "3698940.57668",
    "final_y": "539172.105354",
    "longitude": "-90.012721117201",
    "latitude": "29.975995172713784",
    "geocoded_column": {
      "latitude": "29.975995172713784",
      "longitude": "-90.012721117201"
    }
  },
  {
    "service_request": "2025-1217426",
    "request_type": "Trash/Recycling",
    "request_reason": "Request a Large Item Pick Up",
    "date_created": "2025-08-11T16:44:42.000",
    "date_modified": "2025-08-11T16:44:44.000",
    "request_status": "Pending",
    "responsible_agency": "Department of Sanitation",
    "final_address": "4819 Lynhuber Dr",
    "address_councildis": "D",
    "status": "Assigned to Contractor",
    "contractor": "Waste Pro",
    "rowid": "1217426",
    "final_x": "3698053.39146",
    "final_y": "554749.133336",
    "longitude": "-90.01495704290349",
    "latitude": "30.018854319930306",
    "geocoded_column": {
      "latitude": "30.018854319930306",
      "longitude": "-90.01495704290349"
    }
  },
  {
    "service_request": "2025-1217425",
    "request_type": "Trash/Recycling",
    "request_reason": "Illegal Dumping",
    "date_created": "2025-08-11T16:44:36.000",
    "date_modified": "2025-08-11T16:44:38.000",
    "request_status": "Pending",
    "responsible_agency": "Department of Code Enforcement",
    "final_address": "5437 N Dorgenois St",
    "address_councildis": "E",
    "status": "Pending",
    "rowid": "1217425",
    "final_x": "3698940.57668",
    "final_y": "539172.105354",
    "longitude": "-90.012721117201",
    "latitude": "29.975995172713784",
    "geocoded_column": {
      "latitude": "29.975995172713784",
      "longitude": "-90.012721117201"
    }
  },
  {
    "service_request": "2025-1217424",
    "request_type": "Property Maintenance",
    "request_reason": "Property Maintenance",
    "date_created": "2025-08-11T16:41:26.000",
    "date_modified": "2025-08-11T16:41:29.000",
    "request_status": "Pending",
    "responsible_agency": "Department of Code Enforcement",
    "final_address": "2531 Charbonnet St",
    "address_councildis": "E",
    "status": "Pending",
    "rowid": "1217424",
    "final_x": "3700132.27876",
    "final_y": "539111.310666",
    "longitude": "-90.00895962173257",
    "latitude": "29.97579018999972",
    "geocoded_column": {
      "latitude": "29.97579018999972",
      "longitude": "-90.00895962173257"
    }
  },
  {
    "service_request": "2025-1217423",
    "request_type": "Property Maintenance",
    "request_reason": "Property Maintenance",
    "date_created": "2025-08-11T16:36:43.000",
    "date_modified": "2025-08-11T16:36:45.000",
    "request_status": "Pending",
    "responsible_agency": "Department of Code Enforcement",
    "final_address": "2601 Lamanche St",
    "address_councildis": "E",
    "status": "Pending",
    "rowid": "1217423",
    "final_x": "3699945.62487",
    "final_y": "539361.803658",
    "longitude": "-90.00953998368439",
    "latitude": "29.976484885480158",
    "geocoded_column": {
      "latitude": "29.976484885480158",
      "longitude": "-90.00953998368439"
    }
  },
  {
    "service_request": "2025-1217422",
    "request_type": "Mosquito, Termite & Rodent Control",
    "request_reason": "Mosquito Complaint",
    "date_created": "2025-08-11T16:36:01.000",
    "date_modified": "2025-08-11T16:36:03.000",
    "request_status": "Pending",
    "responsible_agency": "Mosquito, Termite & Rodent Control Board",
    "final_address": "1800 BLK Mercedes Blvd",
    "address_councildis": "C",
    "status": "Pending",
    "rowid": "1217422",
    "final_x": "3698139.71622",
    "final_y": "524036.807357",
    "longitude": "-90.0158000923466",
    "latitude": "29.934403805036585",
    "geocoded_column": {
      "latitude": "29.934403805036585",
      "longitude": "-90.0158000923466"
    }
  },
  {
    "service_request": "2025-1217421",
    "request_type": "Trash/Recycling",
    "request_reason": "Request a Large Item Pick Up",
    "date_created": "2025-08-11T16:35:55.000",
    "date_modified": "2025-08-11T16:36:54.000",
    "request_status": "Pending",
    "responsible_agency": "Department of Sanitation",
    "final_address": "10101 Brookfield Dr",
    "address_councildis": "E",
    "status": "Assigned to Contractor",
    "contractor": "Waste Pro",
    "rowid": "1217421",
    "final_x": "3709862.14782",
    "final_y": "562819.341024",
    "longitude": "-89.97734415983236",
    "latitude": "30.040665333073868",
    "geocoded_column": {
      "latitude": "30.040665333073868",
      "longitude": "-89.97734415983236"
    }
  },
  {
    "service_request": "2025-1217420",
    "request_type": "Property Maintenance",
    "request_reason": "Property Maintenance",
    "date_created": "2025-08-11T16:34:32.000",
    "date_modified": "2025-08-11T16:34:35.000",
    "request_status": "Pending",
    "responsible_agency": "Department of Code Enforcement",
    "final_address": "5435 N Dorgenois St",
    "address_councildis": "E",
    "status": "Pending",
    "rowid": "1217420",
    "final_x": "3698923.07664",
    "final_y": "539176.68865",
    "longitude": "-90.01277622021557",
    "latitude": "29.976008329691144",
    "geocoded_column": {
      "latitude": "29.976008329691144",
      "longitude": "-90.01277622021557"
    }
  },
  {
    "service_request": "2025-1217419",
    "request_type": "Property Maintenance",
    "request_reason": "Property Maintenance",
    "date_created": "2025-08-11T16:32:39.000",
    "date_modified": "2025-08-11T16:32:41.000",
    "request_status": "Pending",
    "responsible_agency": "Department of Code Enforcement",
    "final_address": "2601 Charbonnet St",
    "address_councildis": "E",
    "status": "Pending",
    "rowid": "1217419",
    "final_x": "3700196.15664",
    "final_y": "539267.056394",
    "longitude": "-90.0087521924994",
    "latitude": "29.97621640395602",
    "geocoded_column": {
      "latitude": "29.97621640395602",
      "longitude": "-90.0087521924994"
    }
  },
  {
    "service_request": "2025-1217418",
    "request_type": "Trash/Recycling",
    "request_reason": "Repair Recycling Cart",
    "date_created": "2025-08-11T16:31:42.000",
    "date_modified": "2025-08-11T16:31:44.000",
    "request_status": "Pending",
    "responsible_agency": "Department of Sanitation",
    "final_address": "1526 Pauger St",
    "address_councildis": "C",
    "status": "Pending",
    "rowid": "1217418",
    "final_x": "3683890.07209",
    "final_y": "535352.817926",
    "longitude": "-90.0603888938303",
    "latitude": "29.96596183235175",
    "geocoded_column": {
      "latitude": "29.96596183235175",
      "longitude": "-90.0603888938303"
    }
  },
  {
    "service_request": "2025-1217417",
    "request_type": "Drainage",
    "request_reason": "Catch Basin Not Draining",
    "date_created": "2025-08-11T16:28:20.000",
    "date_modified": "2025-08-11T16:28:22.000",
    "request_status": "Pending",
    "responsible_agency": "Sewerage & Water Board",
    "final_address": "8000 Dorsett Dr",
    "address_councildis": "E",
    "status": "Pending",
    "rowid": "1217417",
    "final_x": "3712119.05848",
    "final_y": "568347.088421",
    "longitude": "-89.97000378237844",
    "latitude": "30.055790769540238",
    "geocoded_column": {
      "latitude": "30.055790769540238",
      "longitude": "-89.97000378237844"
    }
  },
  {
    "service_request": "2025-1217416",
    "request_type": "Property Maintenance",
    "request_reason": "Property Maintenance",
    "date_created": "2025-08-11T16:28:08.000",
    "date_modified": "2025-08-11T16:28:50.000",
    "request_status": "Pending",
    "responsible_agency": "Department of Code Enforcement",
    "final_address": "1701 W Homestead Dr",
    "address_councildis": "C",
    "status": "Pending",
    "rowid": "1217416",
    "final_x": "3696880.42992",
    "final_y": "525703.059133",
    "longitude": "-90.01971529771978",
    "latitude": "29.939025176787833",
    "geocoded_column": {
      "latitude": "29.939025176787833",
      "longitude": "-90.01971529771978"
    }
  },
  {
    "service_request": "2025-1217415",
    "request_type": "Trash/Recycling",
    "request_reason": "Request a Large Item Pick Up",
    "date_created": "2025-08-11T16:27:01.000",
    "date_modified": "2025-08-11T16:27:04.000",
    "request_status": "Pending",
    "responsible_agency": "Department of Sanitation",
    "final_address": "7731 Hansbrough Ave",
    "address_councildis": "E",
    "status": "Assigned to Contractor",
    "contractor": "Waste Pro",
    "rowid": "1217415",
    "final_x": "3707487.00081",
    "final_y": "564855.111522",
    "longitude": "-89.98477463901013",
    "latitude": "30.04633996159354",
    "geocoded_column": {
      "latitude": "30.04633996159354",
      "longitude": "-89.98477463901013"
    }
  },
  {
    "service_request": "2025-1217414",
    "request_type": "Trash/Recycling",
    "request_reason": "Missed Trash Pick-Up",
    "date_created": "2025-08-11T16:26:46.000",
    "date_modified": "2025-08-11T16:47:14.000",
    "case_close_date": "2025-08-11T11:47:13.000",
    "request_status": "Closed",
    "responsible_agency": "Department of Sanitation",
    "final_address": "1306 Touro St, New Orleans, Louisiana, 70116",
    "address_councildis": "C",
    "status": "Invalid Request",
    "contractor": "IV Waste",
    "contractor_action": "Invalid Request",
    "rowid": "1217414",
    "final_x": "3684133.80661",
    "final_y": "537054.234248",
    "longitude": "-90.05955945921869",
    "latitude": "29.970632690563164",
    "geocoded_column": {
      "latitude": "29.970632690563164",
      "longitude": "-90.05955945921869"
    }
  },
  {
    "service_request": "2025-1217413",
    "request_type": "Trash/Recycling",
    "request_reason": "Replace Trash Cart",
    "date_created": "2025-08-11T16:25:36.000",
    "date_modified": "2025-08-11T16:25:41.000",
    "request_status": "Pending",
    "responsible_agency": "Department of Sanitation",
    "final_address": "3957 Peach Tree Ct",
    "address_councildis": "C",
    "status": "Assigned to Contractor",
    "contractor": "Richards Disposal",
    "rowid": "1217413",
    "final_x": "3704154.72644",
    "final_y": "512877.746865",
    "longitude": "-89.99722180258894",
    "latitude": "29.90352869442197",
    "geocoded_column": {
      "latitude": "29.90352869442197",
      "longitude": "-89.99722180258894"
    }
  },
  {
    "service_request": "2025-1217412",
    "request_type": "Trash/Recycling",
    "request_reason": "Order Trash Cart",
    "date_created": "2025-08-11T16:23:50.000",
    "date_modified": "2025-08-11T16:23:52.000",
    "request_status": "Pending",
    "responsible_agency": "Department of Sanitation",
    "final_address": "2522 S Tonti St",
    "address_councildis": "B",
    "status": "Assigned to Contractor",
    "contractor": "IV Waste",
    "rowid": "1217412",
    "final_x": "3672474.97665",
    "final_y": "529046.080768",
    "longitude": "-90.09665246398602",
    "latitude": "29.94896415784698",
    "geocoded_column": {
      "latitude": "29.94896415784698",
      "longitude": "-90.09665246398602"
    }
  },
  {
    "service_request": "2025-1217411",
    "request_type": "Trash/Recycling",
    "request_reason": "Order Trash Cart",
    "date_created": "2025-08-11T16:18:26.000",
    "date_modified": "2025-08-11T16:18:28.000",
    "request_status": "Pending",
    "responsible_agency": "Department of Sanitation",
    "final_address": "2401 S Johnson St",
    "address_councildis": "B",
    "status": "Assigned to Contractor",
    "contractor": "IV Waste",
    "rowid": "1217411",
    "final_x": "3673377.74401",
    "final_y": "528557.079808",
    "longitude": "-90.09381873343408",
    "latitude": "29.94759274447721",
    "geocoded_column": {
      "latitude": "29.94759274447721",
      "longitude": "-90.09381873343408"
    }
  },
  {
    "service_request": "2025-1217410",
    "request_type": "Trash/Recycling",
    "request_reason": "Request a Large Item Pick Up",
    "date_created": "2025-08-11T16:15:39.000",
    "date_modified": "2025-08-11T16:15:43.000",
    "request_status": "Pending",
    "responsible_agency": "Department of Sanitation",
    "final_address": "232 Bermuda St",
    "address_councildis": "C",
    "status": "Assigned to Contractor",
    "contractor": "Richards Disposal",
    "rowid": "1217410",
    "final_x": "3686307.09794",
    "final_y": "530940.665602",
    "longitude": "-90.05291171197241",
    "latitude": "29.953755881324764",
    "geocoded_column": {
      "latitude": "29.953755881324764",
      "longitude": "-90.05291171197241"
    }
  },
  {
    "service_request": "2025-1217409",
    "request_type": "Trash/Recycling",
    "request_reason": "Request a Large Item Pick Up",
    "date_created": "2025-08-11T16:10:52.000",
    "date_modified": "2025-08-11T16:10:54.000",
    "request_status": "Pending",
    "responsible_agency": "Department of Sanitation",
    "final_address": "11214 King Richard Dr",
    "address_councildis": "E",
    "status": "Assigned to Contractor",
    "contractor": "Waste Pro",
    "rowid": "1217409",
    "final_x": "3716943.63948",
    "final_y": "556338.666714",
    "longitude": "-89.95521085553874",
    "latitude": "30.022613755643043",
    "geocoded_column": {
      "latitude": "30.022613755643043",
      "longitude": "-89.95521085553874"
    }
  },
  {
    "service_request": "2025-1217408",
    "request_type": "Trash/Recycling",
    "request_reason": "Replace Trash Cart",
    "date_created": "2025-08-11T16:09:21.000",
    "date_modified": "2025-08-11T16:09:24.000",
    "request_status": "Pending",
    "responsible_agency": "Department of Sanitation",
    "final_address": "3221 St Ann St",
    "address_councildis": "A",
    "status": "Assigned to Contractor",
    "contractor": "IV Waste",
    "rowid": "1217408",
    "final_x": "3675049.11713",
    "final_y": "538682.928521",
    "longitude": "-90.08819413145628",
    "latitude": "29.97538560549333",
    "geocoded_column": {
      "latitude": "29.97538560549333",
      "longitude": "-90.08819413145628"
    }
  },
  {
    "service_request": "2025-1217407",
    "request_type": "Trash/Recycling",
    "request_reason": "Request a Large Item Pick Up",
    "date_created": "2025-08-11T16:09:16.000",
    "date_modified": "2025-08-11T16:10:23.000",
    "request_status": "Pending",
    "responsible_agency": "Department of Sanitation",
    "final_address": "11415 Curran Rd",
    "address_councildis": "E",
    "status": "Assigned to Contractor",
    "contractor": "Waste Pro",
    "rowid": "1217407",
    "final_x": "3711405.52286",
    "final_y": "566782.739363",
    "longitude": "-89.97231784610277",
    "latitude": "30.051512770023674",
    "geocoded_column": {
      "latitude": "30.051512770023674",
      "longitude": "-89.97231784610277"
    }
  },
  {
    "service_request": "2025-1217406",
    "request_type": "Trash/Recycling",
    "request_reason": "Request a Large Item Pick Up",
    "date_created": "2025-08-11T16:04:12.000",
    "date_modified": "2025-08-11T16:18:39.000",
    "request_status": "Pending",
    "responsible_agency": "Department of Sanitation",
    "final_address": "851 Bungalow Ct",
    "address_councildis": "A",
    "status": "Assigned to Contractor",
    "contractor": "IV Waste",
    "rowid": "1217406",
    "final_x": "3672632.64417",
    "final_y": "540719.865099",
    "longitude": "-90.09575653657019",
    "latitude": "29.981058468672597",
    "geocoded_column": {
      "latitude": "29.981058468672597",
      "longitude": "-90.09575653657019"
    }
  },
  {
    "service_request": "2025-1217405",
    "request_type": "Trash/Recycling",
    "request_reason": "Replace Trash Cart",
    "date_created": "2025-08-11T16:00:57.000",
    "date_modified": "2025-08-11T16:00:59.000",
    "request_status": "Pending",
    "responsible_agency": "Department of Sanitation",
    "final_address": "4343 Mandeville St",
    "address_councildis": "D",
    "status": "Assigned to Contractor",
    "contractor": "IV Waste",
    "rowid": "1217405",
    "final_x": "3684910.70895",
    "final_y": "548862.911059",
    "longitude": "-90.05669041004056",
    "latitude": "30.00307859653999",
    "geocoded_column": {
      "latitude": "30.00307859653999",
      "longitude": "-90.05669041004056"
    }
  },
  {
    "service_request": "2025-1217404",
    "request_type": "Traffic Signals",
    "request_reason": "Traffic Signal Malfunctioning or Damaged",
    "date_created": "2025-08-11T16:00:55.000",
    "date_modified": "2025-08-11T16:00:56.000",
    "request_status": "Pending",
    "responsible_agency": "Department of Public Works",
    "final_address": "ST BERNARD AVE & I 610 E & FRANKLIN EXIT",
    "address_councildis": "D",
    "status": "Pending",
    "rowid": "1217404",
    "final_x": "3678485.6",
    "final_y": "545057.38",
    "longitude": "-90.07712007603695",
    "latitude": "29.9928100020234",
    "geocoded_column": {
      "latitude": "29.9928100020234",
      "longitude": "-90.07712007603695"
    }
  },
  {
    "service_request": "2025-1217403",
    "request_type": "Streetlights",
    "request_reason": "Streetlight Outage/Malfunction",
    "date_created": "2025-08-11T15:59:38.000",
    "date_modified": "2025-08-11T15:59:41.000",
    "request_status": "Pending",
    "responsible_agency": "Department of Public Works",
    "final_address": "1708 Flood St",
    "address_councildis": "E",
    "status": "Pending",
    "contractor": "Legacy Professional Services",
    "rowid": "1217403",
    "final_x": "3698288.96701",
    "final_y": "536179.590535",
    "longitude": "-90.01488782549322",
    "latitude": "29.96778746748099",
    "geocoded_column": {
      "latitude": "29.96778746748099",
      "longitude": "-90.01488782549322"
    }
  },
  {
    "service_request": "2025-1217402",
    "request_type": "Trash/Recycling",
    "request_reason": "Request a Large Item Pick Up",
    "date_created": "2025-08-11T15:57:33.000",
    "date_modified": "2025-08-11T15:57:35.000",
    "request_status": "Pending",
    "responsible_agency": "Department of Sanitation",
    "final_address": "426 St Maurice Ave",
    "address_councildis": "E",
    "status": "Assigned to Contractor",
    "contractor": "Waste Pro",
    "rowid": "1217402",
    "final_x": "3698934.34007",
    "final_y": "531030.975106",
    "longitude": "-90.01303708082497",
    "latitude": "29.95361017352944",
    "geocoded_column": {
      "latitude": "29.95361017352944",
      "longitude": "-90.01303708082497"
    }
  },
  {
    "service_request": "2025-1217401",
    "request_type": "Trash/Recycling",
    "request_reason": "Request a Large Item Pick Up",
    "date_created": "2025-08-11T15:56:30.000",
    "date_modified": "2025-08-11T15:56:32.000",
    "request_status": "Pending",
    "responsible_agency": "Department of Sanitation",
    "final_address": "420 St Maurice Ave",
    "address_councildis": "E",
    "status": "Assigned to Contractor",
    "contractor": "Waste Pro",
    "rowid": "1217401",
    "final_x": "3698871.06903",
    "final_y": "530996.142786",
    "longitude": "-90.01323813011061",
    "latitude": "29.95351640141486",
    "geocoded_column": {
      "latitude": "29.95351640141486",
      "longitude": "-90.01323813011061"
    }
  },
  {
    "service_request": "2025-1217400",
    "request_type": "Trash/Recycling",
    "request_reason": "Replace Trash Cart",
    "date_created": "2025-08-11T15:54:46.000",
    "date_modified": "2025-08-11T15:54:48.000",
    "request_status": "Pending",
    "responsible_agency": "Department of Sanitation",
    "final_address": "4343 Mandeville St",
    "address_councildis": "D",
    "status": "Assigned to Contractor",
    "contractor": "IV Waste",
    "rowid": "1217400",
    "final_x": "3684910.70895",
    "final_y": "548862.911059",
    "longitude": "-90.05669041004056",
    "latitude": "30.00307859653999",
    "geocoded_column": {
      "latitude": "30.00307859653999",
      "longitude": "-90.05669041004056"
    }
  },
  {
    "service_request": "2025-1217399",
    "request_type": "Trash/Recycling",
    "request_reason": "Order Trash Cart",
    "date_created": "2025-08-11T15:53:45.000",
    "date_modified": "2025-08-11T15:53:47.000",
    "request_status": "Pending",
    "responsible_agency": "Department of Sanitation",
    "final_address": "9022 Marks St",
    "address_councildis": "A",
    "status": "Assigned to Contractor",
    "contractor": "IV Waste",
    "rowid": "1217399",
    "final_x": "3666376.06977",
    "final_y": "538229.741449",
    "longitude": "-90.11560126709978",
    "latitude": "29.974395787788364",
    "geocoded_column": {
      "latitude": "29.974395787788364",
      "longitude": "-90.11560126709978"
    }
  },
  {
    "service_request": "2025-1217398",
    "request_type": "Trash/Recycling",
    "request_reason": "Order Trash Cart",
    "date_created": "2025-08-11T15:51:56.000",
    "date_modified": "2025-08-11T15:51:58.000",
    "request_status": "Pending",
    "responsible_agency": "Department of Sanitation",
    "final_address": "9020 Marks St",
    "address_councildis": "A",
    "status": "Assigned to Contractor",
    "contractor": "IV Waste",
    "rowid": "1217398",
    "final_x": "3666384.22189",
    "final_y": "538222.660809",
    "longitude": "-90.11557575832522",
    "latitude": "29.974376080171854",
    "geocoded_column": {
      "latitude": "29.974376080171854",
      "longitude": "-90.11557575832522"
    }
  },
  {
    "service_request": "2025-1217397",
    "request_type": "Parks & Parkways",
    "request_reason": "Request Grass Cutting Service (City Owned Property)",
    "date_created": "2025-08-11T15:45:59.000",
    "date_modified": "2025-08-11T15:59:52.000",
    "request_status": "Pending",
    "responsible_agency": "Department of Parks & Parkway",
    "final_address": "BEHRMAN AVE & MARDI GRAS BLVD",
    "address_councildis": "C",
    "status": "Pending",
    "rowid": "1217397",
    "final_x": "3691880.9",
    "final_y": "522616.78",
    "longitude": "-90.03560969944105",
    "latitude": "29.930695611369778",
    "geocoded_column": {
      "latitude": "29.930695611369778",
      "longitude": "-90.03560969944105"
    }
  },
  {
    "service_request": "2025-1217396",
    "request_type": "Trash/Recycling",
    "request_reason": "Request a Large Item Pick Up",
    "date_created": "2025-08-11T15:43:24.000",
    "date_modified": "2025-08-11T15:43:25.000",
    "request_status": "Pending",
    "responsible_agency": "Department of Sanitation",
    "final_address": "2409 General Collins Ave",
    "address_councildis": "C",
    "status": "Assigned to Contractor",
    "contractor": "Richards Disposal",
    "rowid": "1217396",
    "final_x": "3698376.56951",
    "final_y": "522209.875066",
    "longitude": "-90.01511870947239",
    "latitude": "29.929372880287747",
    "geocoded_column": {
      "latitude": "29.929372880287747",
      "longitude": "-90.01511870947239"
    }
  },
  {
    "service_request": "2025-1217395",
    "request_type": "Trash/Recycling",
    "request_reason": "Order Second Trash Cart",
    "date_created": "2025-08-11T15:41:32.000",
    "date_modified": "2025-08-11T15:41:34.000",
    "request_status": "Pending",
    "responsible_agency": "Department of Sanitation",
    "final_address": "11276 Notaway Ln",
    "address_councildis": "E",
    "status": "Assigned to Contractor",
    "contractor": "Waste Pro",
    "rowid": "1217395",
    "final_x": "3718190.07481",
    "final_y": "559588.978077",
    "longitude": "-89.95114857627361",
    "latitude": "30.03150953035046",
    "geocoded_column": {
      "latitude": "30.03150953035046",
      "longitude": "-89.95114857627361"
    }
  },
  {
    "service_request": "2025-1217394",
    "request_type": "Trash/Recycling",
    "request_reason": "Illegal Dumping",
    "date_created": "2025-08-11T15:41:15.000",
    "date_modified": "2025-08-11T15:41:18.000",
    "request_status": "Pending",
    "responsible_agency": "Department of Sanitation",
    "final_address": "2636 General Ogden St",
    "address_councildis": "A",
    "status": "Pending",
    "rowid": "1217394",
    "final_x": "3663421.06131",
    "final_y": "534242.769797",
    "longitude": "-90.12506670940805",
    "latitude": "29.963518949316466",
    "geocoded_column": {
      "latitude": "29.963518949316466",
      "longitude": "-90.12506670940805"
    }
  },
  {
    "service_request": "2025-1217393",
    "request_type": "Trash/Recycling",
    "request_reason": "Request a Large Item Pick Up",
    "date_created": "2025-08-11T15:39:17.000",
    "date_modified": "2025-08-11T15:39:26.000",
    "request_status": "Pending",
    "responsible_agency": "Department of Sanitation",
    "final_address": "11276 Notaway Ln",
    "address_councildis": "E",
    "status": "Assigned to Contractor",
    "contractor": "Waste Pro",
    "rowid": "1217393",
    "final_x": "3718190.07481",
    "final_y": "559588.978077",
    "longitude": "-89.95114857627361",
    "latitude": "30.03150953035046",
    "geocoded_column": {
      "latitude": "30.03150953035046",
      "longitude": "-89.95114857627361"
    }
  },
  {
    "service_request": "2025-1217392",
    "request_type": "Trash/Recycling",
    "request_reason": "Request a Large Item Pick Up",
    "date_created": "2025-08-11T15:37:49.000",
    "date_modified": "2025-08-11T15:37:51.000",
    "request_status": "Pending",
    "responsible_agency": "Department of Sanitation",
    "final_address": "8933 Bunker Hill Rd",
    "address_councildis": "E",
    "status": "Assigned to Contractor",
    "contractor": "Waste Pro",
    "rowid": "1217392",
    "final_x": "3705975.8122",
    "final_y": "561695.319647",
    "longitude": "-89.98966784311499",
    "latitude": "30.037700603467304",
    "geocoded_column": {
      "latitude": "30.037700603467304",
      "longitude": "-89.98966784311499"
    }
  },
  {
    "service_request": "2025-1217391",
    "request_type": "Trash/Recycling",
    "request_reason": "Repair Trash Cart",
    "date_created": "2025-08-11T15:37:06.000",
    "date_modified": "2025-08-11T15:37:08.000",
    "request_status": "Pending",
    "responsible_agency": "Department of Sanitation",
    "final_address": "8933 Bunker Hill Rd",
    "address_councildis": "E",
    "status": "Assigned to Contractor",
    "contractor": "Waste Pro",
    "rowid": "1217391",
    "final_x": "3705975.8122",
    "final_y": "561695.319647",
    "longitude": "-89.98966784311499",
    "latitude": "30.037700603467304",
    "geocoded_column": {
      "latitude": "30.037700603467304",
      "longitude": "-89.98966784311499"
    }
  },
  {
    "service_request": "2025-1217390",
    "request_type": "Trash/Recycling",
    "request_reason": "Request a Large Item Pick Up",
    "date_created": "2025-08-11T15:37:02.000",
    "date_modified": "2025-08-11T15:37:04.000",
    "request_status": "Pending",
    "responsible_agency": "Department of Sanitation",
    "final_address": "2132 Lizardi St",
    "address_councildis": "E",
    "status": "Assigned to Contractor",
    "contractor": "Waste Pro",
    "rowid": "1217390",
    "final_x": "3697623.52394",
    "final_y": "538114.795657",
    "longitude": "-90.01691909002827",
    "latitude": "29.973129624283953",
    "geocoded_column": {
      "latitude": "29.973129624283953",
      "longitude": "-90.01691909002827"
    }
  },
  {
    "service_request": "2025-1217389",
    "request_type": "Trash/Recycling",
    "request_reason": "Replace Trash Cart",
    "date_created": "2025-08-11T15:36:22.000",
    "date_modified": "2025-08-11T15:36:24.000",
    "request_status": "Pending",
    "responsible_agency": "Department of Sanitation",
    "final_address": "1801 Robert St",
    "address_councildis": "B",
    "status": "Assigned to Contractor",
    "contractor": "IV Waste",
    "rowid": "1217389",
    "final_x": "3668788.98305",
    "final_y": "522189.74841",
    "longitude": "-90.10852218352696",
    "latitude": "29.930220329058432",
    "geocoded_column": {
      "latitude": "29.930220329058432",
      "longitude": "-90.10852218352696"
    }
  },
  {
    "service_request": "2025-1217388",
    "request_type": "Property Maintenance",
    "request_reason": "Property Maintenance",
    "date_created": "2025-08-11T15:33:35.000",
    "date_modified": "2025-08-11T15:33:37.000",
    "request_status": "Pending",
    "responsible_agency": "Department of Code Enforcement",
    "final_address": "5431 N Dorgenois St",
    "address_councildis": "E",
    "status": "Pending",
    "rowid": "1217388",
    "final_x": "3698893.62666",
    "final_y": "539184.166474",
    "longitude": "-90.01286895903495",
    "latitude": "29.976029824211565",
    "geocoded_column": {
      "latitude": "29.976029824211565",
      "longitude": "-90.01286895903495"
    }
  },
  {
    "service_request": "2025-1217387",
    "request_type": "Trash/Recycling",
    "request_reason": "Request a Large Item Pick Up",
    "date_created": "2025-08-11T15:33:27.000",
    "date_modified": "2025-08-11T15:33:30.000",
    "request_status": "Pending",
    "responsible_agency": "Department of Sanitation",
    "final_address": "4900 Meadowbank Dr",
    "address_councildis": "E",
    "status": "Assigned to Contractor",
    "contractor": "Waste Pro",
    "rowid": "1217387",
    "final_x": "3718879.57765",
    "final_y": "557908.622171",
    "longitude": "-89.94903389276952",
    "latitude": "30.026866340557806",
    "geocoded_column": {
      "latitude": "30.026866340557806",
      "longitude": "-89.94903389276952"
    }
  },
  {
    "service_request": "2025-1217386",
    "request_type": "Trash/Recycling",
    "request_reason": "Request a Large Item Pick Up",
    "date_created": "2025-08-11T15:32:20.000",
    "date_modified": "2025-08-11T15:32:22.000",
    "request_status": "Pending",
    "responsible_agency": "Department of Sanitation",
    "final_address": "816 N Salcedo St",
    "address_councildis": "A",
    "status": "Assigned to Contractor",
    "contractor": "IV Waste",
    "rowid": "1217386",
    "final_x": "3675821.11509",
    "final_y": "538236.666313",
    "longitude": "-90.08577129682925",
    "latitude": "29.974135447562485",
    "geocoded_column": {
      "latitude": "29.974135447562485",
      "longitude": "-90.08577129682925"
    }
  },
  {
    "service_request": "2025-1217385",
    "request_type": "Property Maintenance",
    "request_reason": "Property Maintenance",
    "date_created": "2025-08-11T15:30:46.000",
    "date_modified": "2025-08-11T15:30:47.000",
    "request_status": "Pending",
    "responsible_agency": "Department of Code Enforcement",
    "final_address": "5426 N Dorgenois St",
    "address_councildis": "E",
    "status": "Pending",
    "rowid": "1217385",
    "final_x": "3698849.45981",
    "final_y": "539114.833482",
    "longitude": "-90.01301097306714",
    "latitude": "29.97584058301405",
    "geocoded_column": {
      "latitude": "29.97584058301405",
      "longitude": "-90.01301097306714"
    }
  },
  {
    "service_request": "2025-1217384",
    "request_type": "Trash/Recycling",
    "request_reason": "Request a Large Item Pick Up",
    "date_created": "2025-08-11T15:30:41.000",
    "date_modified": "2025-08-11T15:30:43.000",
    "request_status": "Pending",
    "responsible_agency": "Department of Sanitation",
    "final_address": "825 Weiblen Pl",
    "address_councildis": "A",
    "status": "Assigned to Contractor",
    "contractor": "IV Waste",
    "rowid": "1217384",
    "final_x": "3668771.74612",
    "final_y": "542590.790285",
    "longitude": "-90.10788782630425",
    "latitude": "29.986316973061715",
    "geocoded_column": {
      "latitude": "29.986316973061715",
      "longitude": "-90.10788782630425"
    }
  },
  {
    "service_request": "2025-1217383",
    "request_type": "Trash/Recycling",
    "request_reason": "Replace Trash Cart",
    "date_created": "2025-08-11T15:30:37.000",
    "date_modified": "2025-08-11T15:30:39.000",
    "request_status": "Pending",
    "responsible_agency": "Department of Sanitation",
    "final_address": "1036 Clouet St",
    "address_councildis": "C",
    "status": "Assigned to Contractor",
    "contractor": "IV Waste",
    "rowid": "1217383",
    "final_x": "3688933.3199",
    "final_y": "535849.203911",
    "longitude": "-90.04444487776303",
    "latitude": "29.967171702144547",
    "geocoded_column": {
      "latitude": "29.967171702144547",
      "longitude": "-90.04444487776303"
    }
  },
  {
    "service_request": "2025-1217382",
    "request_type": "Trash/Recycling",
    "request_reason": "Request a Large Item Pick Up",
    "date_created": "2025-08-11T15:29:55.000",
    "date_modified": "2025-08-11T15:29:58.000",
    "request_status": "Pending",
    "responsible_agency": "Department of Sanitation",
    "final_address": "7541 Rochon Ave",
    "address_councildis": "E",
    "status": "Assigned to Contractor",
    "contractor": "Waste Pro",
    "rowid": "1217382",
    "final_x": "3718995.91801",
    "final_y": "571430.104296",
    "longitude": "-89.94814976329087",
    "latitude": "30.064041008609813",
    "geocoded_column": {
      "latitude": "30.064041008609813",
      "longitude": "-89.94814976329087"
    }
  },
  {
    "service_request": "2025-1217381",
    "request_type": "Property Maintenance",
    "request_reason": "Property Maintenance",
    "date_created": "2025-08-11T15:29:53.000",
    "date_modified": "2025-08-11T15:29:54.000",
    "request_status": "Pending",
    "responsible_agency": "Department of Code Enforcement",
    "final_address": "3435 Upperline St",
    "address_councildis": "B",
    "status": "Pending",
    "rowid": "1217381",
    "final_x": "3669327.65684",
    "final_y": "527686.614655",
    "longitude": "-90.10663589884156",
    "latitude": "29.945319095464626",
    "geocoded_column": {
      "latitude": "29.945319095464626",
      "longitude": "-90.10663589884156"
    }
  },
  {
    "service_request": "2025-1217380",
    "request_type": "Trash/Recycling",
    "request_reason": "Request a Large Item Pick Up",
    "date_created": "2025-08-11T15:29:44.000",
    "date_modified": "2025-08-11T15:29:46.000",
    "request_status": "Pending",
    "responsible_agency": "Department of Sanitation",
    "final_address": "1125 Kerlerec St",
    "address_councildis": "C",
    "status": "Assigned to Contractor",
    "contractor": "IV Waste",
    "rowid": "1217380",
    "final_x": "3682956.44898",
    "final_y": "535745.377415",
    "longitude": "-90.06332350495481",
    "latitude": "29.967069721729363",
    "geocoded_column": {
      "latitude": "29.967069721729363",
      "longitude": "-90.06332350495481"
    }
  },
  {
    "service_request": "2025-1217379",
    "request_type": "Property Maintenance",
    "request_reason": "Property Maintenance",
    "date_created": "2025-08-11T15:28:19.000",
    "date_modified": "2025-08-11T15:28:21.000",
    "request_status": "Pending",
    "responsible_agency": "Department of Code Enforcement",
    "final_address": "5432 N Dorgenois St",
    "address_councildis": "E",
    "status": "Pending",
    "rowid": "1217379",
    "final_x": "3698881.4762",
    "final_y": "539107.908042",
    "longitude": "-90.01291010888934",
    "latitude": "29.975820526130374",
    "geocoded_column": {
      "latitude": "29.975820526130374",
      "longitude": "-90.01291010888934"
    }
  },
  {
    "service_request": "2025-1217378",
    "request_type": "Trash/Recycling",
    "request_reason": "Request a Large Item Pick Up",
    "date_created": "2025-08-11T15:27:34.000",
    "date_modified": "2025-08-11T15:27:36.000",
    "request_status": "Pending",
    "responsible_agency": "Department of Sanitation",
    "final_address": "7432 Briarheath Dr",
    "address_councildis": "E",
    "status": "Assigned to Contractor",
    "contractor": "Waste Pro",
    "rowid": "1217378",
    "final_x": "3714300.75506",
    "final_y": "566868.280036",
    "longitude": "-89.96316380955287",
    "latitude": "30.051653097031366",
    "geocoded_column": {
      "latitude": "30.051653097031366",
      "longitude": "-89.96316380955287"
    }
  },
  {
    "service_request": "2025-1217377",
    "request_type": "Trash/Recycling",
    "request_reason": "Order Trash Cart",
    "date_created": "2025-08-11T15:26:55.000",
    "date_modified": "2025-08-11T15:26:58.000",
    "request_status": "Pending",
    "responsible_agency": "Department of Sanitation",
    "final_address": "2600 Ursulines Ave Apt 201",
    "address_councildis": "D",
    "status": "Assigned to Contractor",
    "contractor": "IV Waste",
    "rowid": "1217377",
    "final_x": "3677981.12558",
    "final_y": "537800.310472",
    "longitude": "-90.07896457120486",
    "latitude": "29.97287077650373",
    "geocoded_column": {
      "latitude": "29.97287077650373",
      "longitude": "-90.07896457120486"
    }
  },
  {
    "service_request": "2025-1217376",
    "request_type": "Safety & Permits",
    "request_reason": "Zoning Enforcement",
    "date_created": "2025-08-11T15:26:45.000",
    "date_modified": "2025-08-11T15:27:24.000",
    "request_status": "Pending",
    "responsible_agency": "Safety and Permits",
    "final_address": "8015 Mackenzie St",
    "address_councildis": "E",
    "status": "Pending",
    "rowid": "1217376",
    "final_x": "3710261.67614",
    "final_y": "567285.769188",
    "longitude": "-89.9759143103759",
    "latitude": "30.052933206206564",
    "geocoded_column": {
      "latitude": "30.052933206206564",
      "longitude": "-89.9759143103759"
    }
  },
  {
    "service_request": "2025-1217375",
    "request_type": "Parks & Parkways",
    "request_reason": "Request Tree Service (Right of Way/Public Property)",
    "date_created": "2025-08-11T15:23:22.000",
    "date_modified": "2025-08-11T15:23:24.000",
    "request_status": "Pending",
    "responsible_agency": "Department of Parks & Parkway",
    "final_address": "2729 Octavia St",
    "address_councildis": "A",
    "status": "Pending",
    "rowid": "1217375",
    "final_x": "3667979.27002",
    "final_y": "525608.885565",
    "longitude": "-90.11096318100708",
    "latitude": "29.93964563529448",
    "geocoded_column": {
      "latitude": "29.93964563529448",
      "longitude": "-90.11096318100708"
    }
  },
  {
    "service_request": "2025-1217374",
    "request_type": "Trash/Recycling",
    "request_reason": "Request a Large Item Pick Up",
    "date_created": "2025-08-11T15:22:31.000",
    "date_modified": "2025-08-11T15:22:33.000",
    "request_status": "Pending",
    "responsible_agency": "Department of Sanitation",
    "final_address": "8015 Spruce St",
    "address_councildis": "A",
    "status": "Assigned to Contractor",
    "contractor": "IV Waste",
    "rowid": "1217374",
    "final_x": "3664126.36365",
    "final_y": "530259.196225",
    "longitude": "-90.12297231019498",
    "latitude": "29.952544951112564",
    "geocoded_column": {
      "latitude": "29.952544951112564",
      "longitude": "-90.12297231019498"
    }
  },
  {
    "service_request": "2025-1217373",
    "request_type": "Property Maintenance",
    "request_reason": "Property Maintenance",
    "date_created": "2025-08-11T15:16:41.000",
    "date_modified": "2025-08-11T15:16:42.000",
    "request_status": "Pending",
    "responsible_agency": "Department of Code Enforcement",
    "final_address": "5444 N Dorgenois St",
    "address_councildis": "E",
    "status": "Pending",
    "rowid": "1217373",
    "final_x": "3698952.69949",
    "final_y": "539094.993738",
    "longitude": "-90.01268563704497",
    "latitude": "29.9757827595013",
    "geocoded_column": {
      "latitude": "29.9757827595013",
      "longitude": "-90.01268563704497"
    }
  },
  {
    "service_request": "2025-1217372",
    "request_type": "Drainage",
    "request_reason": "Catch Basin Not Draining",
    "date_created": "2025-08-11T15:15:21.000",
    "date_modified": "2025-08-11T15:15:22.000",
    "request_status": "Pending",
    "responsible_agency": "Sewerage & Water Board",
    "final_address": "1421 Lafitte Ave",
    "address_councildis": "C",
    "status": "Pending",
    "rowid": "1217372",
    "final_x": "3680269.40635",
    "final_y": "533999.995013",
    "longitude": "-90.07186988063431",
    "latitude": "29.962352133818055",
    "geocoded_column": {
      "latitude": "29.962352133818055",
      "longitude": "-90.07186988063431"
    }
  },
  {
    "service_request": "2025-1217371",
    "request_type": "Trash/Recycling",
    "request_reason": "Request a Large Item Pick Up",
    "date_created": "2025-08-11T15:13:38.000",
    "date_modified": "2025-08-11T15:13:40.000",
    "request_status": "Pending",
    "responsible_agency": "Department of Sanitation",
    "final_address": "8912 Dinkins St",
    "address_councildis": "E",
    "status": "Assigned to Contractor",
    "contractor": "Waste Pro",
    "rowid": "1217371",
    "final_x": "3704839.70014",
    "final_y": "563426.933664",
    "longitude": "-89.99319420222832",
    "latitude": "30.042498441708556",
    "geocoded_column": {
      "latitude": "30.042498441708556",
      "longitude": "-89.99319420222832"
    }
  },
  {
    "service_request": "2025-1217370",
    "request_type": "Property Maintenance",
    "request_reason": "Property Maintenance",
    "date_created": "2025-08-11T15:13:15.000",
    "date_modified": "2025-08-11T15:13:16.000",
    "request_status": "Pending",
    "responsible_agency": "Department of Code Enforcement",
    "final_address": "7000 BLK Cohn St",
    "address_councildis": "A",
    "status": "Pending",
    "rowid": "1217370",
    "final_x": "3665871.91297",
    "final_y": "528337.492653",
    "longitude": "-90.11752501904195",
    "latitude": "29.947210074264646",
    "geocoded_column": {
      "latitude": "29.947210074264646",
      "longitude": "-90.11752501904195"
    }
  },
  {
    "service_request": "2025-1217369",
    "request_type": "Roads and Streets",
    "request_reason": "Debris in Driving Lanes",
    "date_created": "2025-08-11T15:13:12.000",
    "date_modified": "2025-08-11T15:13:14.000",
    "request_status": "Pending",
    "responsible_agency": "Department of Public Works",
    "final_address": "2131 Marengo St",
    "address_councildis": "B",
    "status": "Pending",
    "rowid": "1217369",
    "final_x": "3671805.91463",
    "final_y": "523036.669371",
    "longitude": "-90.09896938955197",
    "latitude": "29.932460071129636",
    "geocoded_column": {
      "latitude": "29.932460071129636",
      "longitude": "-90.09896938955197"
    }
  },
  {
    "service_request": "2025-1217368",
    "request_type": "Trash/Recycling",
    "request_reason": "Request a Large Item Pick Up",
    "date_created": "2025-08-11T15:12:51.000",
    "date_modified": "2025-08-11T15:12:55.000",
    "request_status": "Pending",
    "responsible_agency": "Department of Sanitation",
    "final_address": "1931 Martin Luther King, Jr. Blvd",
    "address_councildis": "B",
    "status": "Assigned to Contractor",
    "contractor": "IV Waste",
    "rowid": "1217368",
    "final_x": "3677842.76379",
    "final_y": "526485.04243",
    "longitude": "-90.07979249081691",
    "latitude": "29.941761764106126",
    "geocoded_column": {
      "latitude": "29.941761764106126",
      "longitude": "-90.07979249081691"
    }
  },
  {
    "service_request": "2025-1217367",
    "request_type": "Trash/Recycling",
    "request_reason": "Missed Trash Pick-Up",
    "date_created": "2025-08-11T15:10:51.000",
    "date_modified": "2025-08-11T15:10:53.000",
    "request_status": "Pending",
    "responsible_agency": "Department of Sanitation",
    "final_address": "7541 Rochon Ave",
    "address_councildis": "E",
    "status": "Assigned to Contractor",
    "contractor": "Waste Pro",
    "rowid": "1217367",
    "final_x": "3718995.91801",
    "final_y": "571430.104296",
    "longitude": "-89.94814976329087",
    "latitude": "30.064041008609813",
    "geocoded_column": {
      "latitude": "30.064041008609813",
      "longitude": "-89.94814976329087"
    }
  },
  {
    "service_request": "2025-1217366",
    "request_type": "Roads and Streets",
    "request_reason": "Street Subsidence (Sinking)",
    "date_created": "2025-08-11T15:10:30.000",
    "date_modified": "2025-08-11T15:15:18.000",
    "request_status": "Pending",
    "responsible_agency": "Sewerage & Water Board",
    "final_address": "7432 Woodbine Dr",
    "address_councildis": "E",
    "status": "Pending",
    "rowid": "1217366",
    "final_x": "3702166.77361",
    "final_y": "560769.617118",
    "longitude": "-90.00173924182445",
    "latitude": "30.03527754913091",
    "geocoded_column": {
      "latitude": "30.03527754913091",
      "longitude": "-90.00173924182445"
    }
  },
  {
    "service_request": "2025-1217365",
    "request_type": "Streetlights",
    "request_reason": "Streetlight Outage/Malfunction",
    "date_created": "2025-08-11T15:06:53.000",
    "date_modified": "2025-08-11T15:06:56.000",
    "request_status": "Pending",
    "responsible_agency": "Department of Public Works",
    "final_address": "5140 Norgate Dr",
    "address_councildis": "E",
    "status": "Pending",
    "contractor": "Legacy Professional Services",
    "rowid": "1217365",
    "final_x": "3707429.22692",
    "final_y": "557237.108187",
    "longitude": "-89.98524049825426",
    "latitude": "30.0253953314112",
    "geocoded_column": {
      "latitude": "30.0253953314112",
      "longitude": "-89.98524049825426"
    }
  },
  {
    "service_request": "2025-1217364",
    "request_type": "Property Maintenance",
    "request_reason": "Property Maintenance",
    "date_created": "2025-08-11T15:00:54.000",
    "date_modified": "2025-08-11T15:00:55.000",
    "request_status": "Pending",
    "responsible_agency": "Department of Code Enforcement",
    "final_address": "134 N Norman C Francis Prkwy",
    "address_councildis": "B",
    "status": "Pending",
    "rowid": "1217364",
    "final_x": "3673563.66542",
    "final_y": "536948.972488",
    "longitude": "-90.09294487782643",
    "latitude": "29.970662115659422",
    "geocoded_column": {
      "latitude": "29.970662115659422",
      "longitude": "-90.09294487782643"
    }
  },
  {
    "service_request": "2025-1217363",
    "request_type": "Property Maintenance",
    "request_reason": "Property Maintenance",
    "date_created": "2025-08-11T15:00:13.000",
    "date_modified": "2025-08-11T15:00:15.000",
    "request_status": "Pending",
    "responsible_agency": "Department of Code Enforcement",
    "final_address": "2439 Flood St",
    "address_councildis": "E",
    "status": "Pending",
    "rowid": "1217363",
    "final_x": "3699152.11005",
    "final_y": "539041.129546",
    "longitude": "-90.01205780781308",
    "latitude": "29.975628331389736",
    "geocoded_column": {
      "latitude": "29.975628331389736",
      "longitude": "-90.01205780781308"
    }
  },
  {
    "service_request": "2025-1217362",
    "request_type": "Trash/Recycling",
    "request_reason": "Request a Large Item Pick Up",
    "date_created": "2025-08-11T14:59:47.000",
    "date_modified": "2025-08-11T14:59:48.000",
    "request_status": "Pending",
    "responsible_agency": "Department of Sanitation",
    "final_address": "7831 Arcadia Ln",
    "address_councildis": "E",
    "status": "Assigned to Contractor",
    "contractor": "Waste Pro",
    "rowid": "1217362",
    "final_x": "3711998.67627",
    "final_y": "567704.393316",
    "longitude": "-89.97040844750917",
    "latitude": "30.054027557911244",
    "geocoded_column": {
      "latitude": "30.054027557911244",
      "longitude": "-89.97040844750917"
    }
  },
  {
    "service_request": "2025-1217361",
    "request_type": "Trash/Recycling",
    "request_reason": "Order Trash Cart",
    "date_created": "2025-08-11T14:58:46.000",
    "date_modified": "2025-08-11T14:58:48.000",
    "request_status": "Pending",
    "responsible_agency": "Department of Sanitation",
    "final_address": "716 Hidalgo St",
    "address_councildis": "A",
    "status": "Assigned to Contractor",
    "contractor": "IV Waste",
    "rowid": "1217361",
    "final_x": "3668431.51642",
    "final_y": "544096.99963",
    "longitude": "-90.1089116464226",
    "latitude": "29.990468535247697",
    "geocoded_column": {
      "latitude": "29.990468535247697",
      "longitude": "-90.1089116464226"
    }
  },
  {
    "service_request": "2025-1217360",
    "request_type": "Trash/Recycling",
    "request_reason": "Replace Recycling Cart",
    "date_created": "2025-08-11T14:57:32.000",
    "date_modified": "2025-08-11T14:57:34.000",
    "request_status": "Pending",
    "responsible_agency": "Department of Sanitation",
    "final_address": "6831 Morrison Rd",
    "address_councildis": "E",
    "status": "Pending",
    "rowid": "1217360",
    "final_x": "3698973.34775",
    "final_y": "558944.264796",
    "longitude": "-90.01189746070476",
    "latitude": "30.03036019028499",
    "geocoded_column": {
      "latitude": "30.03036019028499",
      "longitude": "-90.01189746070476"
    }
  },
  {
    "service_request": "2025-1217359",
    "request_type": "General Services",
    "request_reason": "General Service Request",
    "date_created": "2025-08-11T14:52:17.000",
    "date_modified": "2025-08-11T14:52:19.000",
    "request_status": "Pending",
    "responsible_agency": "Orleans Parish Communication District",
    "final_address": "1300 Perdido St, New Orleans, Louisiana, 70112",
    "address_councildis": "B",
    "status": "Pending",
    "rowid": "1217359",
    "final_x": "3678683.48347",
    "final_y": "530227.987073",
    "longitude": "-90.07700859883013",
    "latitude": "29.952028297123956",
    "geocoded_column": {
      "latitude": "29.952028297123956",
      "longitude": "-90.07700859883013"
    }
  },
  {
    "service_request": "2025-1217358",
    "request_type": "Abandoned Vehicles",
    "request_reason": "Abandoned/Junk Vehicles",
    "date_created": "2025-08-11T14:50:08.000",
    "date_modified": "2025-08-11T14:50:09.000",
    "request_status": "Pending",
    "responsible_agency": "Department of Public Works",
    "final_address": "12 Palm Ter",
    "address_councildis": "B",
    "status": "Pending",
    "rowid": "1217358",
    "final_x": "3671789.1707",
    "final_y": "521290.130361",
    "longitude": "-90.09908163975712",
    "latitude": "29.927658146470964",
    "geocoded_column": {
      "latitude": "29.927658146470964",
      "longitude": "-90.09908163975712"
    }
  },
  {
    "service_request": "2025-1217357",
    "request_type": "Property Maintenance",
    "request_reason": "Property Maintenance",
    "date_created": "2025-08-11T14:49:52.000",
    "date_modified": "2025-08-11T14:49:54.000",
    "request_status": "Pending",
    "responsible_agency": "Department of Code Enforcement",
    "final_address": "2300 BLK Ramsey Dr",
    "address_councildis": "C",
    "status": "Pending",
    "rowid": "1217357",
    "final_x": "3703157.02213",
    "final_y": "522082.278786",
    "longitude": "-90.00003251128618",
    "latitude": "29.928869948704058",
    "geocoded_column": {
      "latitude": "29.928869948704058",
      "longitude": "-90.00003251128618"
    }
  },
  {
    "service_request": "2025-1217356",
    "request_type": "Trash/Recycling",
    "request_reason": "Request a Large Item Pick Up",
    "date_created": "2025-08-11T14:49:21.000",
    "date_modified": "2025-08-11T14:49:23.000",
    "request_status": "Pending",
    "responsible_agency": "Department of Sanitation",
    "final_address": "2020 Coliseum St Unit A",
    "address_councildis": "B",
    "status": "Assigned to Contractor",
    "contractor": "IV Waste",
    "rowid": "1217356",
    "final_x": "3678722.39445",
    "final_y": "523249.684027",
    "longitude": "-90.07712730125289",
    "latitude": "29.932839106315065",
    "geocoded_column": {
      "latitude": "29.932839106315065",
      "longitude": "-90.07712730125289"
    }
  },
  {
    "service_request": "2025-1217355",
    "request_type": "Parks & Parkways",
    "request_reason": "Park Maintenance/Clean Up",
    "date_created": "2025-08-11T14:46:07.000",
    "date_modified": "2025-08-11T14:46:09.000",
    "request_status": "Pending",
    "responsible_agency": "Department of Parks & Parkway",
    "final_address": "1300 Perdido St, New Orleans, Louisiana, 70112",
    "address_councildis": "B",
    "status": "Pending",
    "rowid": "1217355",
    "final_x": "3678683.48347",
    "final_y": "530227.987073",
    "longitude": "-90.07700859883013",
    "latitude": "29.952028297123956",
    "geocoded_column": {
      "latitude": "29.952028297123956",
      "longitude": "-90.07700859883013"
    }
  },
  {
    "service_request": "2025-1217354",
    "request_type": "Trash/Recycling",
    "request_reason": "Order Recycling Cart",
    "date_created": "2025-08-11T14:45:28.000",
    "date_modified": "2025-08-11T14:45:30.000",
    "request_status": "Pending",
    "responsible_agency": "Department of Sanitation",
    "final_address": "7813 Panola St",
    "address_councildis": "A",
    "status": "Pending",
    "rowid": "1217354",
    "final_x": "3664861.52295",
    "final_y": "530064.082625",
    "longitude": "-90.12065752076032",
    "latitude": "29.95198707881037",
    "geocoded_column": {
      "latitude": "29.95198707881037",
      "longitude": "-90.12065752076032"
    }
  },
  {
    "service_request": "2025-1217353",
    "request_type": "Healthy Homes",
    "request_reason": "Healthy Homes",
    "date_created": "2025-08-11T14:44:49.000",
    "date_modified": "2025-08-11T14:44:50.000",
    "request_status": "Pending",
    "responsible_agency": "Department of Code Enforcement",
    "final_address": "4918 Haik Dr",
    "address_councildis": "D",
    "status": "Pending",
    "rowid": "1217353",
    "final_x": "3681923.22946",
    "final_y": "550797.418837",
    "longitude": "-90.06606069612111",
    "latitude": "30.008488980809023",
    "geocoded_column": {
      "latitude": "30.008488980809023",
      "longitude": "-90.06606069612111"
    }
  },
  {
    "service_request": "2025-1217352",
    "request_type": "Healthy Homes",
    "request_reason": "Healthy Homes",
    "date_created": "2025-08-11T14:44:46.000",
    "date_modified": "2025-08-11T14:44:47.000",
    "request_status": "Pending",
    "responsible_agency": "Department of Code Enforcement",
    "final_address": "4918 Haik Dr",
    "address_councildis": "D",
    "status": "Pending",
    "rowid": "1217352",
    "final_x": "3681923.22946",
    "final_y": "550797.418837",
    "longitude": "-90.06606069612111",
    "latitude": "30.008488980809023",
    "geocoded_column": {
      "latitude": "30.008488980809023",
      "longitude": "-90.06606069612111"
    }
  },
  {
    "service_request": "2025-1217351",
    "request_type": "Property Maintenance",
    "request_reason": "Property Maintenance",
    "date_created": "2025-08-11T14:43:57.000",
    "date_modified": "2025-08-11T14:43:59.000",
    "request_status": "Pending",
    "responsible_agency": "Department of Code Enforcement",
    "final_address": "FLORIDA AVE & DUELS ST",
    "address_councildis": "D",
    "status": "Pending",
    "rowid": "1217351",
    "final_x": "3684017.5",
    "final_y": "542542.58",
    "longitude": "-90.05973411463354",
    "latitude": "29.985727274412753",
    "geocoded_column": {
      "latitude": "29.985727274412753",
      "longitude": "-90.05973411463354"
    }
  },
  {
    "service_request": "2025-1217350",
    "request_type": "Trash/Recycling",
    "request_reason": "Replace Trash Cart",
    "date_created": "2025-08-11T14:41:00.000",
    "date_modified": "2025-08-11T14:41:02.000",
    "request_status": "Pending",
    "responsible_agency": "Department of Sanitation",
    "final_address": "5019 Michoud Blvd",
    "address_councildis": "E",
    "status": "Assigned to Contractor",
    "contractor": "Waste Pro",
    "rowid": "1217350",
    "final_x": "3724963.13868",
    "final_y": "561873.868511",
    "longitude": "-89.92965724026449",
    "latitude": "30.037565655624523",
    "geocoded_column": {
      "latitude": "30.037565655624523",
      "longitude": "-89.92965724026449"
    }
  },
  {
    "service_request": "2025-1217349",
    "request_type": "Trash/Recycling",
    "request_reason": "Order Trash Cart",
    "date_created": "2025-08-11T14:40:59.000",
    "date_modified": "2025-08-11T14:41:01.000",
    "request_status": "Pending",
    "responsible_agency": "Department of Sanitation",
    "final_address": "328 Florida Blvd",
    "address_councildis": "A",
    "status": "Assigned to Contractor",
    "contractor": "IV Waste",
    "rowid": "1217349",
    "final_x": "3667068.20685",
    "final_y": "545415.992656",
    "longitude": "-90.11317364581984",
    "latitude": "29.994135301727805",
    "geocoded_column": {
      "latitude": "29.994135301727805",
      "longitude": "-90.11317364581984"
    }
  },
  {
    "service_request": "2025-1217348",
    "request_type": "Abandoned Vehicles",
    "request_reason": "Abandoned/Junk Vehicles",
    "date_created": "2025-08-11T14:39:38.000",
    "date_modified": "2025-08-11T14:39:40.000",
    "request_status": "Pending",
    "responsible_agency": "Department of Public Works",
    "final_address": "7600 BLK Mackenzie St",
    "address_councildis": "E",
    "status": "Pending",
    "rowid": "1217348",
    "final_x": "3711023.06775",
    "final_y": "566083.693079",
    "longitude": "-89.9735528723817",
    "latitude": "30.049603161117865",
    "geocoded_column": {
      "latitude": "30.049603161117865",
      "longitude": "-89.9735528723817"
    }
  },
  {
    "service_request": "2025-1217347",
    "request_type": "Abandoned Vehicles",
    "request_reason": "Abandoned/Junk Vehicles",
    "date_created": "2025-08-11T14:37:51.000",
    "date_modified": "2025-08-11T14:37:52.000",
    "request_status": "Pending",
    "responsible_agency": "Department of Public Works",
    "final_address": "7600 BLK Mackenzie St",
    "address_councildis": "E",
    "status": "Pending",
    "rowid": "1217347",
    "final_x": "3711023.06775",
    "final_y": "566083.693079",
    "longitude": "-89.9735528723817",
    "latitude": "30.049603161117865",
    "geocoded_column": {
      "latitude": "30.049603161117865",
      "longitude": "-89.9735528723817"
    }
  },
  {
    "service_request": "2025-1217346",
    "request_type": "Trash/Recycling",
    "request_reason": "Request a Large Item Pick Up",
    "date_created": "2025-08-11T14:37:47.000",
    "date_modified": "2025-08-11T14:37:49.000",
    "request_status": "Pending",
    "responsible_agency": "Department of Sanitation",
    "final_address": "4670 Lennox Blvd",
    "address_councildis": "C",
    "status": "Assigned to Contractor",
    "contractor": "Richards Disposal",
    "rowid": "1217346",
    "final_x": "3700838.28292",
    "final_y": "513311.268338",
    "longitude": "-90.0076725872935",
    "latitude": "29.904826649928573",
    "geocoded_column": {
      "latitude": "29.904826649928573",
      "longitude": "-90.0076725872935"
    }
  },