[
  {
    "service_request": "2024-1100431",
    "request_type": "Roads/Drainage",
    "request_reason": "Pothole",
    "date_created": "2024-06-05T23:57:39.000",
    "date_modified": "2024-06-05T23:57:39.000",
    "request_status": "Pending",
    "responsible_agency": "Department of Public Works",
    "final_address": "1421 Constantinople St",
    "address_councildis": "B",
    "status": "Pending",
    "rowid": "1100431",
    "final_x": "3672433.24257",
    "final_y": "520667.657465",
    "longitude": "-90.09706965638372",
    "latitude": "29.925927453713577",
    "geocoded_column": {
      "latitude": "29.925927453713577",
      "longitude": "-90.09706965638372"
    }
  },
  {
    "service_request": "2024-1100430",
    "request_type": "Trash/Recycling",
    "request_reason": "Replace Trash Cart",
    "date_created": "2024-06-05T23:35:18.000",
    "date_modified": "2024-06-05T23:35:18.000",
    "request_status": "Pending",
    "responsible_agency": "Department of Sanitation",
    "final_address": "7750 N Coronet Ct Apt C",
    "address_councildis": "E",
    "status": "Assigned to Contractor",
    "contractor": "Waste Pro",
    "rowid": "1100430",
    "final_x": "3702661.23466",
    "final_y": "557464.323163",
    "longitude": "-90.00029819091448",
    "latitude": "30.026173465727524",
    "geocoded_column": {
      "latitude": "30.026173465727524",
      "longitude": "-90.00029819091448"
    }
  },
  {
    "service_request": "2024-1100429",
    "request_type": "Traffic Signals/Signs/Striping/Streetlights",
    "request_reason": "Street Light Outage/Malfunction",
    "date_created": "2024-06-05T23:21:47.000",
    "date_modified": "2024-06-05T23:21:48.000",
    "request_status": "Pending",
    "responsible_agency": "Department of Public Works",
    "final_address": "2237 Josephine St, New Orleans, Louisiana, 70113",
    "address_councildis": "B",
    "status": "Assigned to Contractor",
    "contractor": "Legacy Professional Services",
    "rowid": "1100429",
    "final_x": "3676360.71093",
    "final_y": "526016.498878",
    "longitude": "-90.08448776282695",
    "latitude": "29.94051792235077",
    "geocoded_column": {
      "latitude": "29.94051792235077",
      "longitude": "-90.08448776282695"
    }
  },
  {
    "service_request": "2024-1100428",
    "request_type": "Trash/Recycling",
    "request_reason": "Request a Large Item Pick Up",
    "date_created": "2024-06-05T22:35:41.000",
    "date_modified": "2024-06-05T22:35:42.000",
    "request_status": "Pending",
    "responsible_agency": "Department of Sanitation",
    "final_address": "5015 St Claude Ave",
    "address_councildis": "E",
    "status": "Assigned to Contractor",
    "contractor": "Waste Pro",
    "rowid": "1100428",
    "final_x": "3696113.05085",
    "final_y": "534351.361221",
    "longitude": "-90.02182547915295",
    "latitude": "29.962829149857008",
    "geocoded_column": {
      "latitude": "29.962829149857008",
      "longitude": "-90.02182547915295"
    }
  },
  {
    "service_request": "2024-1100427",
    "request_type": "Traffic Signals/Signs/Striping/Streetlights",
    "request_reason": "Street Light Outage/Malfunction",
    "date_created": "2024-06-05T22:29:26.000",
    "date_modified": "2024-06-05T22:29:27.000",
    "request_status": "Pending",
    "responsible_agency": "Department of Public Works",
    "final_address": "6623 Argonne Blvd",
    "address_councildis": "A",
    "status": "Assigned to Contractor",
    "contractor": "Legacy Professional Services",
    "rowid": "1100427",
    "final_x": "3670620.61083",
    "final_y": "551416.710549",
    "longitude": "-90.1017483205287",
    "latitude": "30.01053068953372",
    "geocoded_column": {
      "latitude": "30.01053068953372",
      "longitude": "-90.1017483205287"
    }
  },
  {
    "service_request": "2024-1100426",
    "request_type": "Traffic Signals/Signs/Striping/Streetlights",
    "request_reason": "Street Light Outage/Malfunction",
    "date_created": "2024-06-05T22:22:43.000",
    "date_modified": "2024-06-05T22:22:44.000",
    "request_status": "Pending",
    "responsible_agency": "Department of Public Works",
    "final_address": "6849 Argonne Blvd",
    "address_councildis": "A",
    "status": "Assigned to Contractor",
    "contractor": "Legacy Professional Services",
    "rowid": "1100426",
    "final_x": "3670840.01403",
    "final_y": "552884.026391",
    "longitude": "-90.10100528296896",
    "latitude": "30.01455880332871",
    "geocoded_column": {
      "latitude": "30.01455880332871",
      "longitude": "-90.10100528296896"
    }
  },
  {
    "service_request": "2024-1100425",
    "request_type": "Traffic Signals/Signs/Striping/Streetlights",
    "request_reason": "Street Light Outage/Malfunction",
    "date_created": "2024-06-05T22:20:17.000",
    "date_modified": "2024-06-05T22:20:22.000",
    "request_status": "Pending",
    "responsible_agency": "Department of Public Works",
    "final_address": "6945 Argonne Blvd",
    "address_councildis": "A",
    "status": "Assigned to Contractor",
    "contractor": "Legacy Professional Services",
    "rowid": "1100425",
    "final_x": "3670809.46382",
    "final_y": "553484.159255",
    "longitude": "-90.10108141569759",
    "latitude": "30.016209859224187",
    "geocoded_column": {
      "latitude": "30.016209859224187",
      "longitude": "-90.10108141569759"
    }
  },
  {
    "service_request": "2024-1100424",
    "request_type": "Traffic Signals/Signs/Striping/Streetlights",
    "request_reason": "Street Light Outage/Malfunction",
    "date_created": "2024-06-05T22:15:36.000",
    "date_modified": "2024-06-05T22:15:37.000",
    "request_status": "Pending",
    "responsible_agency": "Department of Public Works",
    "final_address": "7059 Argonne Blvd",
    "address_councildis": "A",
    "status": "Assigned to Contractor",
    "contractor": "Legacy Professional Services",
    "rowid": "1100424",
    "final_x": "3670873.16967",
    "final_y": "554285.441048",
    "longitude": "-90.10085290129963",
    "latitude": "30.018411215288392",
    "geocoded_column": {
      "latitude": "30.018411215288392",
      "longitude": "-90.10085290129963"
    }
  },
  {
    "service_request": "2024-1100423",
    "request_type": "Trash/Recycling",
    "request_reason": "Replace Recycling Cart",
    "date_created": "2024-06-05T22:06:57.000",
    "date_modified": "2024-06-05T22:06:57.000",
    "request_status": "Pending",
    "responsible_agency": "Department of Sanitation",
    "final_address": "4911 Longfellow Dr",
    "address_councildis": "E",
    "status": "Pending",
    "rowid": "1100423",
    "final_x": "3709597.21432",
    "final_y": "556739.428698",
    "longitude": "-89.97840863731196",
    "latitude": "30.02395659611743",
    "geocoded_column": {
      "latitude": "30.02395659611743",
      "longitude": "-89.97840863731196"
    }
  },
  {
    "service_request": "2024-1100422",
    "request_type": "Trash/Recycling",
    "request_reason": "Replace Trash Cart",
    "date_created": "2024-06-05T22:00:08.000",
    "date_modified": "2024-06-05T22:00:09.000",
    "request_status": "Pending",
    "responsible_agency": "Department of Sanitation",
    "final_address": "1300 BLK Saint Ferdinand St",
    "address_councildis": "C",
    "status": "Assigned to Contractor",
    "contractor": "IV Waste",
    "rowid": "1100422",
    "final_x": "3687952.32747",
    "final_y": "537236.746508",
    "longitude": "-90.04749368029077",
    "latitude": "29.971017263797705",
    "geocoded_column": {
      "latitude": "29.971017263797705",
      "longitude": "-90.04749368029077"
    }
  },
  {
    "service_request": "2024-1100421",
    "request_type": "Trash/Recycling",
    "request_reason": "MIssed Recycling Pick-Up",
    "date_created": "2024-06-05T21:35:29.000",
    "date_modified": "2024-06-05T21:35:29.000",
    "request_status": "Pending",
    "responsible_agency": "Department of Sanitation",
    "final_address": "4811 Longfellow Dr",
    "address_councildis": "E",
    "status": "Assigned to Contractor",
    "contractor": "Waste Pro",
    "rowid": "1100421",
    "final_x": "3709647.5148",
    "final_y": "556240.70185",
    "longitude": "-89.97826833522281",
    "latitude": "30.02258365694395",
    "geocoded_column": {
      "latitude": "30.02258365694395",
      "longitude": "-89.97826833522281"
    }
  },
  {
    "service_request": "2024-1100420",
    "request_type": "Trash/Recycling",
    "request_reason": "Order Recycling Cart",
    "date_created": "2024-06-05T21:24:26.000",
    "date_modified": "2024-06-05T21:24:26.000",
    "request_status": "Pending",
    "responsible_agency": "Department of Sanitation",
    "final_address": "4942 Berkley Dr",
    "address_councildis": "C",
    "status": "Pending",
    "rowid": "1100420",
    "final_x": "3702324.6202",
    "final_y": "518304.30751",
    "longitude": "-90.0027987030426",
    "latitude": "29.91850843839108",
    "geocoded_column": {
      "latitude": "29.91850843839108",
      "longitude": "-90.0027987030426"
    }
  },
  {
    "service_request": "2024-1100419",
    "request_type": "Traffic Signals/Signs/Striping/Streetlights",
    "request_reason": "Crosswalks and Signage",
    "date_created": "2024-06-05T21:00:52.000",
    "date_modified": "2024-06-05T21:00:52.000",
    "request_status": "Pending",
    "responsible_agency": "Department of Public Works",
    "final_address": "7935 Plum St",
    "address_councildis": "A",
    "status": "Pending",
    "rowid": "1100419",
    "final_x": "3662605.57517",
    "final_y": "528316.678784",
    "longitude": "-90.12783882347121",
    "latitude": "29.9472477363595",
    "geocoded_column": {
      "latitude": "29.9472477363595",
      "longitude": "-90.12783882347121"
    }
  },
  {
    "service_request": "2024-1100418",
    "request_type": "Abandoned Vehicles",
    "request_reason": "Abandoned/Junk Vehicles",
    "date_created": "2024-06-05T20:42:22.000",
    "date_modified": "2024-06-05T20:42:22.000",
    "request_status": "Pending",
    "responsible_agency": "Department of Public Works",
    "final_address": "800 BLK N Derbigny St",
    "address_councildis": "D",
    "status": "Pending",
    "rowid": "1100418",
    "final_x": "3679774.11679",
    "final_y": "535288.759591",
    "longitude": "-90.07338918388304",
    "latitude": "29.96591078066911",
    "geocoded_column": {
      "latitude": "29.96591078066911",
      "longitude": "-90.07338918388304"
    }
  },
  {
    "service_request": "2024-1100417",
    "request_type": "Trash/Recycling",
    "request_reason": "Missed Trash Pick-Up",
    "date_created": "2024-06-05T20:13:43.000",
    "date_modified": "2024-06-05T20:13:44.000",
    "request_status": "Pending",
    "responsible_agency": "Department of Sanitation",
    "final_address": "1406 Seventh St",
    "address_councildis": "B",
    "status": "Assigned to Contractor",
    "contractor": "IV Waste",
    "rowid": "1100417",
    "final_x": "3675697.65281",
    "final_y": "521262.216185",
    "longitude": "-90.08674444796534",
    "latitude": "29.92746505012124",
    "geocoded_column": {
      "latitude": "29.92746505012124",
      "longitude": "-90.08674444796534"
    }
  },
  {
    "service_request": "2024-1100416",
    "request_type": "Trash/Recycling",
    "request_reason": "Replace Trash Cart",
    "date_created": "2024-06-05T20:11:14.000",
    "date_modified": "2024-06-05T20:11:15.000",
    "request_status": "Pending",
    "responsible_agency": "Department of Sanitation",
    "final_address": "6063 Laurel St",
    "address_councildis": "A",
    "status": "Assigned to Contractor",
    "contractor": "IV Waste",
    "rowid": "1100416",
    "final_x": "3663895.60659",
    "final_y": "518424.095798",
    "longitude": "-90.12409531525878",
    "latitude": "29.92000888299222",
    "geocoded_column": {
      "latitude": "29.92000888299222",
      "longitude": "-90.12409531525878"
    }
  },
  {
    "service_request": "2024-1100415",
    "request_type": "Trash/Recycling",
    "request_reason": "Request a Large Item Pick Up",
    "date_created": "2024-06-05T20:00:47.000",
    "date_modified": "2024-06-05T20:00:48.000",
    "request_status": "Pending",
    "responsible_agency": "Department of Sanitation",
    "final_address": "2408 Hyman Pl",
    "address_councildis": "C",
    "status": "Assigned to Contractor",
    "contractor": "Richards Disposal",
    "rowid": "1100415",
    "final_x": "3701135.68266",
    "final_y": "522303.285754",
    "longitude": "-90.00640534818567",
    "latitude": "29.929542159642157",
    "geocoded_column": {
      "latitude": "29.929542159642157",
      "longitude": "-90.00640534818567"
    }
  },
  {
    "service_request": "2024-1100414",
    "request_type": "Property Maintenance",
    "request_reason": "Property Maintenance",
    "date_created": "2024-06-05T19:55:46.000",
    "date_modified": "2024-06-05T19:55:46.000",
    "request_status": "Pending",
    "responsible_agency": "Department of Code Enforcement",
    "final_address": "3727 Coliseum St",
    "address_councildis": "B",
    "status": "Pending",
    "rowid": "1100414",
    "final_x": "3673174.89992",
    "final_y": "520136.978104",
    "longitude": "-90.09474656689223",
    "latitude": "29.924446232479852",
    "geocoded_column": {
      "latitude": "29.924446232479852",
      "longitude": "-90.09474656689223"
    }
  },
  {
    "service_request": "2024-1100413",
    "request_type": "Roads/Drainage",
    "request_reason": "Pothole",
    "date_created": "2024-06-05T19:55:31.000",
    "date_modified": "2024-06-05T19:55:31.000",
    "request_status": "Pending",
    "responsible_agency": "Department of Public Works",
    "final_address": "666 Gravier St, New Orleans, Louisiana, 70130",
    "address_councildis": "B",
    "status": "Pending",
    "rowid": "1100413",
    "final_x": "3680936.55682",
    "final_y": "530012.706433",
    "longitude": "-90.0699019505673",
    "latitude": "29.951368230146713",
    "geocoded_column": {
      "latitude": "29.951368230146713",
      "longitude": "-90.0699019505673"
    }
  },
  {
    "service_request": "2024-1100411",
    "request_type": "Roads/Drainage",
    "request_reason": "Street Subsidence (Sinking)",
    "date_created": "2024-06-05T19:32:19.000",
    "date_modified": "2024-06-05T19:32:19.000",
    "request_status": "Pending",
    "responsible_agency": "Department of Public Works",
    "final_address": "2022 St Bernard Ave",
    "address_councildis": "D",
    "status": "Pending",
    "rowid": "1100411",
    "final_x": "3681226.01621",
    "final_y": "539331.18081",
    "longitude": "-90.06866323545235",
    "latitude": "29.976982066472033",
    "geocoded_column": {
      "latitude": "29.976982066472033",
      "longitude": "-90.06866323545235"
    }
  },
  {
    "service_request": "2024-1100410",
    "request_type": "Trash/Recycling",
    "request_reason": "Illegal Dumping",
    "date_created": "2024-06-05T19:28:26.000",
    "date_modified": "2024-06-05T19:28:26.000",
    "request_status": "Pending",
    "responsible_agency": "Department of Sanitation",
    "final_address": "4733 Banks St",
    "address_councildis": "A",
    "status": "Pending",
    "rowid": "1100410",
    "final_x": "3668194.61338",
    "final_y": "539116.410186",
    "longitude": "-90.10982795344768",
    "latitude": "29.97678056253909",
    "geocoded_column": {
      "latitude": "29.97678056253909",
      "longitude": "-90.10982795344768"
    }
  },
  {
    "service_request": "2024-1100409",
    "request_type": "Roads/Drainage",
    "request_reason": "Debris in Roadway",
    "date_created": "2024-06-05T19:21:08.000",
    "date_modified": "2024-06-05T19:21:08.000",
    "request_status": "Pending",
    "responsible_agency": "Department of Public Works",
    "final_address": "4631 Music St",
    "address_councildis": "D",
    "status": "Pending",
    "rowid": "1100409",
    "final_x": "3685773.20892",
    "final_y": "549818.500116",
    "longitude": "-90.05393194476365",
    "latitude": "30.00567966902734",
    "geocoded_column": {
      "latitude": "30.00567966902734",
      "longitude": "-90.05393194476365"
    }
  },
  {
    "service_request": "2024-1100408",
    "request_type": "Trash/Recycling",
    "request_reason": "Request a Large Item Pick Up",
    "date_created": "2024-06-05T19:17:52.000",
    "date_modified": "2024-06-05T19:17:53.000",
    "request_status": "Pending",
    "responsible_agency": "Department of Sanitation",
    "final_address": "4232 S Miro St",
    "address_councildis": "B",
    "status": "Assigned to Contractor",
    "contractor": "IV Waste",
    "rowid": "1100408",
    "final_x": "3670644.27796",
    "final_y": "527826.857791",
    "longitude": "-90.1024741402481",
    "latitude": "29.945665895260106",
    "geocoded_column": {
      "latitude": "29.945665895260106",
      "longitude": "-90.1024741402481"
    }
  },
  {
    "service_request": "2024-1100406",
    "request_type": "Trash/Recycling",
    "request_reason": "Dead Animal Pick Up",
    "date_created": "2024-06-05T19:01:24.000",
    "date_modified": "2024-06-05T19:01:25.000",
    "request_status": "Pending",
    "responsible_agency": "Department of Sanitation",
    "final_address": "2001 Leon C Simon Dr",
    "address_councildis": "D",
    "status": "Assigned to Contractor",
    "contractor": "IV Waste",
    "rowid": "1100406",
    "final_x": "3682033.69986",
    "final_y": "556569.273242",
    "longitude": "-90.06550992159832",
    "latitude": "30.024356116968296",
    "geocoded_column": {
      "latitude": "30.024356116968296",
      "longitude": "-90.06550992159832"
    }
  },
  {
    "service_request": "2024-1100405",
    "request_type": "Trash/Recycling",
    "request_reason": "Request a Large Item Pick Up",
    "date_created": "2024-06-05T19:00:15.000",
    "date_modified": "2024-06-05T19:00:15.000",
    "request_status": "Pending",
    "responsible_agency": "Department of Sanitation",
    "final_address": "0 BLK Bethaney Ct",
    "address_councildis": "E",
    "status": "Assigned to Contractor",
    "contractor": "Waste Pro",
    "rowid": "1100405",
    "final_x": "3704359.68376",
    "final_y": "556770.866889",
    "longitude": "-89.99495693570155",
    "latitude": "30.024212289833443",
    "geocoded_column": {
      "latitude": "30.024212289833443",
      "longitude": "-89.99495693570155"
    }
  },
  {
    "service_request": "2024-1100404",
    "request_type": "Trash/Recycling",
    "request_reason": "Return Trash Cart",
    "date_created": "2024-06-05T18:59:07.000",
    "date_modified": "2024-06-05T18:59:07.000",
    "request_status": "Pending",
    "responsible_agency": "Department of Sanitation",
    "final_address": "6231 Wadsworth Dr",
    "address_councildis": "D",
    "status": "Assigned to Contractor",
    "contractor": "IV Waste",
    "rowid": "1100404",
    "final_x": "3681665.60303",
    "final_y": "556025.413401",
    "longitude": "-90.06669203727",
    "latitude": "30.022871895819783",
    "geocoded_column": {
      "latitude": "30.022871895819783",
      "longitude": "-90.06669203727"
    }
  },
  {
    "service_request": "2024-1100403",
    "request_type": "Mosquito, Termite & Rodent Control",
    "request_reason": "Non-Rodent Complaint (Mice, Possums, Snakes)",
    "date_created": "2024-06-05T18:52:27.000",
    "date_modified": "2024-06-05T18:52:27.000",
    "request_status": "Pending",
    "responsible_agency": "Mosquito, Termite & Rodent Control Board",
    "final_address": "2001 Leon C Simon Dr",
    "address_councildis": "D",
    "status": "Pending",
    "rowid": "1100403",
    "final_x": "3682033.69986",
    "final_y": "556569.273242",
    "longitude": "-90.06550992159832",
    "latitude": "30.024356116968296",
    "geocoded_column": {
      "latitude": "30.024356116968296",
      "longitude": "-90.06550992159832"
    }
  },
  {
    "service_request": "2024-1100402",
    "request_type": "Trash/Recycling",
    "request_reason": "Replace Trash Cart",
    "date_created": "2024-06-05T18:27:10.000",
    "date_modified": "2024-06-05T18:27:11.000",
    "request_status": "Pending",
    "responsible_agency": "Department of Sanitation",
    "final_address": "4911 Magnolia St, New Orleans, Louisiana, 70115",
    "address_councildis": "B",
    "status": "Assigned to Contractor",
    "contractor": "IV Waste",
    "rowid": "1100402",
    "final_x": "3669089.46644",
    "final_y": "524648.525436",
    "longitude": "-90.10749056344149",
    "latitude": "29.936972342251075",
    "geocoded_column": {
      "latitude": "29.936972342251075",
      "longitude": "-90.10749056344149"
    }
  },
  {
    "service_request": "2024-1100401",
    "request_type": "Roads/Drainage",
    "request_reason": "Man hole cover issue",
    "date_created": "2024-06-05T18:20:33.000",
    "date_modified": "2024-06-05T18:20:33.000",
    "request_status": "Pending",
    "responsible_agency": "Department of Public Works",
    "final_address": "3111 Palmyra St",
    "address_councildis": "B",
    "status": "Pending",
    "rowid": "1100401",
    "final_x": "3673527.5668",
    "final_y": "535535.78247",
    "longitude": "-90.0931071883541",
    "latitude": "29.966777394669048",
    "geocoded_column": {
      "latitude": "29.966777394669048",
      "longitude": "-90.0931071883541"
    }
  },
  {
    "service_request": "2024-1100400",
    "request_type": "Parks & Parkways",
    "request_reason": "Request Tree Service (Right of Way/Public Property)",
    "date_created": "2024-06-05T18:14:17.000",
    "date_modified": "2024-06-05T18:14:17.000",
    "request_status": "Pending",
    "responsible_agency": "Department of Parks & Parkway",
    "final_address": "3111 Palmyra St",
    "address_councildis": "B",
    "status": "Pending",
    "rowid": "1100400",
    "final_x": "3673527.5668",
    "final_y": "535535.78247",
    "longitude": "-90.0931071883541",
    "latitude": "29.966777394669048",
    "geocoded_column": {
      "latitude": "29.966777394669048",
      "longitude": "-90.0931071883541"
    }
  },
  {
    "service_request": "2024-1100399",
    "request_type": "Traffic Signals/Signs/Striping/Streetlights",
    "request_reason": "Disabled Parking Sign ",
    "date_created": "2024-06-05T18:13:47.000",
    "date_modified": "2024-06-05T18:13:47.000",
    "request_status": "Pending",
    "responsible_agency": "Department of Public Works",
    "final_address": "2700 BLK S Carrollton Ave",
    "address_councildis": "A",
    "status": "Pending",
    "rowid": "1100399",
    "final_x": "3665743.60516",
    "final_y": "532460.59858",
    "longitude": "-90.11779203577277",
    "latitude": "29.958551017732372",
    "geocoded_column": {
      "latitude": "29.958551017732372",
      "longitude": "-90.11779203577277"
    }
  },
  {
    "service_request": "2024-1100398",
    "request_type": "Trash/Recycling",
    "request_reason": "Replace Recycling Cart",
    "date_created": "2024-06-05T18:13:28.000",
    "date_modified": "2024-06-05T18:13:28.000",
    "request_status": "Pending",
    "responsible_agency": "Department of Sanitation",
    "final_address": "2253 Cambronne St",
    "address_councildis": "A",
    "status": "Pending",
    "rowid": "1100398",
    "final_x": "3663856.77306",
    "final_y": "531995.961155",
    "longitude": "-90.12376566971233",
    "latitude": "29.957328318708296",
    "geocoded_column": {
      "latitude": "29.957328318708296",
      "longitude": "-90.12376566971233"
    }
  },
  {
    "service_request": "2024-1100397",
    "request_type": "Roads/Drainage",
    "request_reason": "Pothole",
    "date_created": "2024-06-05T18:03:34.000",
    "date_modified": "2024-06-05T18:03:34.000",
    "request_status": "Pending",
    "responsible_agency": "Department of Public Works",
    "final_address": "5914 Prytania St",
    "address_councildis": "A",
    "status": "Pending",
    "rowid": "1100397",
    "final_x": "3665424.59066",
    "final_y": "520662.082489",
    "longitude": "-90.11919417737737",
    "latitude": "29.926118187021718",
    "geocoded_column": {
      "latitude": "29.926118187021718",
      "longitude": "-90.11919417737737"
    }
  },
  {
    "service_request": "2024-1100396",
    "request_type": "Abandoned Vehicles",
    "request_reason": "Abandoned/Junk Vehicles",
    "date_created": "2024-06-05T17:52:27.000",
    "date_modified": "2024-06-05T17:52:27.000",
    "request_status": "Pending",
    "responsible_agency": "Department of Public Works",
    "final_address": "3501 Mimosa Ct",
    "address_councildis": "C",
    "status": "Pending",
    "rowid": "1100396",
    "final_x": "3703741.86839",
    "final_y": "512918.473457",
    "longitude": "-89.99852327387586",
    "latitude": "29.903653909607307",
    "geocoded_column": {
      "latitude": "29.903653909607307",
      "longitude": "-89.99852327387586"
    }
  },
  {
    "service_request": "2024-1100395",
    "request_type": "Trash/Recycling",
    "request_reason": "Request a Large Item Pick Up",
    "date_created": "2024-06-05T17:49:55.000",
    "date_modified": "2024-06-05T17:49:55.000",
    "request_status": "Pending",
    "responsible_agency": "Department of Sanitation",
    "final_address": "933 Toledano St",
    "address_councildis": "B",
    "status": "Assigned to Contractor",
    "contractor": "IV Waste",
    "rowid": "1100395",
    "final_x": "3675604.82126",
    "final_y": "519376.607287",
    "longitude": "-90.08710223370564",
    "latitude": "29.922283011090915",
    "geocoded_column": {
      "latitude": "29.922283011090915",
      "longitude": "-90.08710223370564"
    }
  },
  {
    "service_request": "2024-1100394",
    "request_type": "Trash/Recycling",
    "request_reason": "MIssed Recycling Pick-Up",
    "date_created": "2024-06-05T17:46:57.000",
    "date_modified": "2024-06-05T17:46:58.000",
    "request_status": "Pending",
    "responsible_agency": "Department of Sanitation",
    "final_address": "4420 Longfellow Dr",
    "address_councildis": "E",
    "status": "Assigned to Contractor",
    "contractor": "Waste Pro",
    "rowid": "1100394",
    "final_x": "3709719.63326",
    "final_y": "554190.373784",
    "longitude": "-89.9781170834316",
    "latitude": "30.01694370897143",
    "geocoded_column": {
      "latitude": "30.01694370897143",
      "longitude": "-89.9781170834316"
    }
  },
  {
    "service_request": "2024-1100393",
    "request_type": "Trash/Recycling",
    "request_reason": "Replace Recycling Cart",
    "date_created": "2024-06-05T17:26:29.000",
    "date_modified": "2024-06-05T17:26:29.000",
    "request_status": "Pending",
    "responsible_agency": "Department of Sanitation",
    "final_address": "1609 Broadway St",
    "address_councildis": "A",
    "status": "Pending",
    "rowid": "1100393",
    "final_x": "3665065.87207",
    "final_y": "527724.110719",
    "longitude": "-90.12009051138452",
    "latitude": "29.945546963757817",
    "geocoded_column": {
      "latitude": "29.945546963757817",
      "longitude": "-90.12009051138452"
    }
  },
  {
    "service_request": "2024-1100392",
    "request_type": "Trash/Recycling",
    "request_reason": "Replace Trash Cart",
    "date_created": "2024-06-05T17:25:22.000",
    "date_modified": "2024-06-05T17:25:22.000",
    "request_status": "Pending",
    "responsible_agency": "Department of Sanitation",
    "final_address": "1609 Broadway St",
    "address_councildis": "A",
    "status": "Assigned to Contractor",
    "contractor": "IV Waste",
    "rowid": "1100392",
    "final_x": "3665065.87207",
    "final_y": "527724.110719",
    "longitude": "-90.12009051138452",
    "latitude": "29.945546963757817",
    "geocoded_column": {
      "latitude": "29.945546963757817",
      "longitude": "-90.12009051138452"
    }
  },
  {
    "service_request": "2024-1100391",
    "request_type": "Abandoned Vehicles",
    "request_reason": "Abandoned/Junk Vehicles",
    "date_created": "2024-06-05T17:19:07.000",
    "date_modified": "2024-06-05T17:19:07.000",
    "request_status": "Pending",
    "responsible_agency": "Department of Public Works",
    "final_address": "PLEASANT ST & LAUREL ST",
    "address_councildis": "B",
    "status": "Pending",
    "rowid": "1100391",
    "final_x": "3675887.5",
    "final_y": "519210.68",
    "longitude": "-90.0862156326923",
    "latitude": "29.921818307721793",
    "geocoded_column": {
      "latitude": "29.921818307721793",
      "longitude": "-90.0862156326923"
    }
  },
  {
    "service_request": "2024-1100390",
    "request_type": "Trash/Recycling",
    "request_reason": "Illegal Dumping",
    "date_created": "2024-06-05T17:18:57.000",
    "date_modified": "2024-06-05T17:18:57.000",
    "request_status": "Pending",
    "responsible_agency": "Department of Sanitation",
    "final_address": "4638 Willow St",
    "address_councildis": "B",
    "status": "Pending",
    "rowid": "1100390",
    "final_x": "3669281.421",
    "final_y": "525259.220989",
    "longitude": "-90.10686391407584",
    "latitude": "29.938645910117852",
    "geocoded_column": {
      "latitude": "29.938645910117852",
      "longitude": "-90.10686391407584"
    }
  },
  {
    "service_request": "2024-1100389",
    "request_type": "Roads/Drainage",
    "request_reason": "Pothole",
    "date_created": "2024-06-05T17:16:20.000",
    "date_modified": "2024-06-05T17:16:20.000",
    "request_status": "Pending",
    "responsible_agency": "Department of Public Works",
    "final_address": "5822 Perrier St",
    "address_councildis": "A",
    "status": "Pending",
    "rowid": "1100389",
    "final_x": "3665612.84391",
    "final_y": "520336.532024",
    "longitude": "-90.11861080842084",
    "latitude": "29.9252175395516",
    "geocoded_column": {
      "latitude": "29.9252175395516",
      "longitude": "-90.11861080842084"
    }
  },
  {
    "service_request": "2024-1100388",
    "request_type": "Roads/Drainage",
    "request_reason": "Pothole",
    "date_created": "2024-06-05T17:14:20.000",
    "date_modified": "2024-06-05T17:14:20.000",
    "request_status": "Pending",
    "responsible_agency": "Department of Public Works",
    "final_address": "2918 Mandeville St",
    "address_councildis": "D",
    "status": "Pending",
    "rowid": "1100388",
    "final_x": "3685165.97186",
    "final_y": "543557.072014",
    "longitude": "-90.05607084281102",
    "latitude": "29.988481617696863",
    "geocoded_column": {
      "latitude": "29.988481617696863",
      "longitude": "-90.05607084281102"
    }
  },
  {
    "service_request": "2024-1100387",
    "request_type": "Trash/Recycling",
    "request_reason": "Request a Large Item Pick Up",
    "date_created": "2024-06-05T16:50:11.000",
    "date_modified": "2024-06-05T16:50:12.000",
    "request_status": "Pending",
    "responsible_agency": "Department of Sanitation",
    "final_address": "3512 Franklin Ave",
    "address_councildis": "D",
    "status": "Assigned to Contractor",
    "contractor": "IV Waste",
    "rowid": "1100387",
    "final_x": "3687099.87727",
    "final_y": "545887.697104",
    "longitude": "-90.04987980332811",
    "latitude": "29.99483058556422",
    "geocoded_column": {
      "latitude": "29.99483058556422",
      "longitude": "-90.04987980332811"
    }
  },
  {
    "service_request": "2024-1100386",
    "request_type": "Trash/Recycling",
    "request_reason": "Repair Trash Cart",
    "date_created": "2024-06-05T16:43:30.000",
    "date_modified": "2024-06-05T16:51:04.000",
    "request_status": "Pending",
    "responsible_agency": "Department of Sanitation",
    "final_address": "1632 Washington Ave",
    "address_councildis": "B",
    "status": "Assigned to Contractor",
    "contractor": "IV Waste",
    "rowid": "1100386",
    "final_x": "3675717.93006",
    "final_y": "522761.940922",
    "longitude": "-90.08662892761009",
    "latitude": "29.931588199721638",
    "geocoded_column": {
      "latitude": "29.931588199721638",
      "longitude": "-90.08662892761009"
    }
  },
  {
    "service_request": "2024-1100385",
    "request_type": "Trash/Recycling",
    "request_reason": "Repair Recycling Cart",
    "date_created": "2024-06-05T16:42:03.000",
    "date_modified": "2024-06-05T16:42:04.000",
    "request_status": "Pending",
    "responsible_agency": "Department of Sanitation",
    "final_address": "5807 Tchoupitoulas St",
    "address_councildis": "A",
    "status": "Pending",
    "rowid": "1100385",
    "final_x": "3665056.19655",
    "final_y": "517332.154485",
    "longitude": "-90.12046836086841",
    "latitude": "29.916972655878308",
    "geocoded_column": {
      "latitude": "29.916972655878308",
      "longitude": "-90.12046836086841"
    }
  },
  {
    "service_request": "2024-1100384",
    "request_type": "Trash/Recycling",
    "request_reason": "Request a Large Item Pick Up",
    "date_created": "2024-06-05T16:41:09.000",
    "date_modified": "2024-06-05T16:49:34.000",
    "request_status": "Pending",
    "responsible_agency": "Department of Sanitation",
    "final_address": "2531 Palmyra St, New Orleans, Louisiana, 70119",
    "address_councildis": "B",
    "status": "Assigned to Contractor",
    "contractor": "IV Waste",
    "rowid": "1100384",
    "final_x": "3675494.80097",
    "final_y": "534089.912389",
    "longitude": "-90.08694432925597",
    "latitude": "29.9627430455754",
    "geocoded_column": {
      "latitude": "29.9627430455754",
      "longitude": "-90.08694432925597"
    }
  },
  {
    "service_request": "2024-1100383",
    "request_type": "Roads/Drainage",
    "request_reason": "Pothole",
    "date_created": "2024-06-05T16:32:16.000",
    "date_modified": "2024-06-05T16:32:17.000",
    "request_status": "Pending",
    "responsible_agency": "Department of Public Works",
    "final_address": "5300 BLK Saint Claude Ave",
    "address_councildis": "E",
    "status": "Pending",
    "rowid": "1100383",
    "final_x": "3697005.25982",
    "final_y": "534082.5622",
    "longitude": "-90.01901774934544",
    "latitude": "29.962061938167466",
    "geocoded_column": {
      "latitude": "29.962061938167466",
      "longitude": "-90.01901774934544"
    }
  },
  {
    "service_request": "2024-1100382",
    "request_type": "Trash/Recycling",
    "request_reason": "Illegal Dumping",
    "date_created": "2024-06-05T16:30:51.000",
    "date_modified": "2024-06-05T16:30:52.000",
    "request_status": "Pending",
    "responsible_agency": "Department of Sanitation",
    "final_address": "10115 Hillwood St",
    "address_councildis": "E",
    "status": "Pending",
    "rowid": "1100382",
    "final_x": "3712895.53202",
    "final_y": "556733.577754",
    "longitude": "-89.96798691921111",
    "latitude": "30.023832855832204",
    "geocoded_column": {
      "latitude": "30.023832855832204",
      "longitude": "-89.96798691921111"
    }
  },
  {
    "service_request": "2024-1100381",
    "request_type": "Trash/Recycling",
    "request_reason": "Request a Large Item Pick Up",
    "date_created": "2024-06-05T16:27:34.000",
    "date_modified": "2024-06-05T16:27:34.000",
    "request_status": "Pending",
    "responsible_agency": "Department of Sanitation",
    "final_address": "1718 N Robertson St",
    "address_councildis": "C",
    "status": "Assigned to Contractor",
    "contractor": "IV Waste",
    "rowid": "1100381",
    "final_x": "3683196.38293",
    "final_y": "537543.145736",
    "longitude": "-90.06250282642286",
    "latitude": "29.97200564817391",
    "geocoded_column": {
      "latitude": "29.97200564817391",
      "longitude": "-90.06250282642286"
    }
  },
  {
    "service_request": "2024-1100380",
    "request_type": "Trash/Recycling",
    "request_reason": "Missed Trash Pick-Up",
    "date_created": "2024-06-05T16:27:23.000",
    "date_modified": "2024-06-05T16:27:24.000",
    "request_status": "Pending",
    "responsible_agency": "Department of Sanitation",
    "final_address": "7920 Forshey St",
    "address_councildis": "B",
    "status": "Assigned to Contractor",
    "contractor": "IV Waste",
    "rowid": "1100380",
    "final_x": "3667434.12033",
    "final_y": "533486.52986",
    "longitude": "-90.11241929667231",
    "latitude": "29.96132257164784",
    "geocoded_column": {
      "latitude": "29.96132257164784",
      "longitude": "-90.11241929667231"
    }
  },
  {
    "service_request": "2024-1100379",
    "request_type": "Trash/Recycling",
    "request_reason": "Repair Trash Cart",
    "date_created": "2024-06-05T16:26:34.000",
    "date_modified": "2024-06-05T16:26:35.000",
    "request_status": "Pending",
    "responsible_agency": "Department of Sanitation",
    "final_address": "2516 Deslonde St",
    "address_councildis": "E",
    "status": "Assigned to Contractor",
    "contractor": "Waste Pro",
    "rowid": "1100379",
    "final_x": "3696843.46013",
    "final_y": "539781.707338",
    "longitude": "-90.01932230182996",
    "latitude": "29.977737650293093",
    "geocoded_column": {
      "latitude": "29.977737650293093",
      "longitude": "-90.01932230182996"
    }
  },
  {
    "service_request": "2024-1100378",
    "request_type": "Roads/Drainage",
    "request_reason": "Street Subsidence (Sinking)",
    "date_created": "2024-06-05T16:26:24.000",
    "date_modified": "2024-06-05T16:26:24.000",
    "request_status": "Pending",
    "responsible_agency": "Department of Public Works",
    "final_address": "1241 Eleonore St",
    "address_councildis": "A",
    "status": "Pending",
    "rowid": "1100378",
    "final_x": "3665601.32096",
    "final_y": "520595.412792",
    "longitude": "-90.11863851974041",
    "latitude": "29.925929716012785",
    "geocoded_column": {
      "latitude": "29.925929716012785",
      "longitude": "-90.11863851974041"
    }
  },
  {
    "service_request": "2024-1100377",
    "request_type": "Trash/Recycling",
    "request_reason": "Missed Trash Pick-Up",
    "date_created": "2024-06-05T16:25:04.000",
    "date_modified": "2024-06-05T16:25:04.000",
    "request_status": "Pending",
    "responsible_agency": "Department of Sanitation",
    "final_address": "3000 BLK Burdette St",
    "address_councildis": "B",
    "status": "Assigned to Contractor",
    "contractor": "IV Waste",
    "rowid": "1100377",
    "final_x": "3667250.80162",
    "final_y": "532509.405241",
    "longitude": "-90.11303104808052",
    "latitude": "29.958641170145185",
    "geocoded_column": {
      "latitude": "29.958641170145185",
      "longitude": "-90.11303104808052"
    }
  },
  {
    "service_request": "2024-1100376",
    "request_type": "Abandoned Vehicles",
    "request_reason": "Abandoned/Junk Vehicles",
    "date_created": "2024-06-05T16:24:18.000",
    "date_modified": "2024-06-05T16:24:19.000",
    "request_status": "Pending",
    "responsible_agency": "Department of Public Works",
    "final_address": "6970 Deanne St",
    "address_councildis": "D",
    "status": "Pending",
    "rowid": "1100376",
    "final_x": "3695530.15133",
    "final_y": "556504.468954",
    "longitude": "-90.02286611725232",
    "latitude": "30.023760414551155",
    "geocoded_column": {
      "latitude": "30.023760414551155",
      "longitude": "-90.02286611725232"
    }
  },
  {
    "service_request": "2024-1100375",
    "request_type": "Parks & Parkways",
    "request_reason": "Request Tree Service (Right of Way/Public Property)",
    "date_created": "2024-06-05T16:23:36.000",
    "date_modified": "2024-06-05T16:23:37.000",
    "request_status": "Pending",
    "responsible_agency": "Department of Parks & Parkway",
    "final_address": "1400 State St",
    "address_councildis": "A",
    "status": "Pending",
    "rowid": "1100375",
    "final_x": "3665279.9961",
    "final_y": "521227.804793",
    "longitude": "-90.11963170657584",
    "latitude": "29.92767795713313",
    "geocoded_column": {
      "latitude": "29.92767795713313",
      "longitude": "-90.11963170657584"
    }
  },
  {
    "service_request": "2024-1100374",
    "request_type": "Trash/Recycling",
    "request_reason": "Replace Recycling Cart",
    "date_created": "2024-06-05T16:19:51.000",
    "date_modified": "2024-06-05T16:19:51.000",
    "request_status": "Pending",
    "responsible_agency": "Department of Sanitation",
    "final_address": "2423 St Ann St",
    "address_councildis": "D",
    "status": "Pending",
    "rowid": "1100374",
    "final_x": "3677877.7748",
    "final_y": "536565.992199",
    "longitude": "-90.07933363446797",
    "latitude": "29.96947993415481",
    "geocoded_column": {
      "latitude": "29.96947993415481",
      "longitude": "-90.07933363446797"
    }
  },
  {
    "service_request": "2024-1100373",
    "request_type": "Roads/Drainage",
    "request_reason": "Pothole",
    "date_created": "2024-06-05T16:13:41.000",
    "date_modified": "2024-06-05T16:13:41.000",
    "request_status": "Pending",
    "responsible_agency": "Department of Public Works",
    "final_address": "2941 George Nick Connor Dr",
    "address_councildis": "D",
    "status": "Pending",
    "rowid": "1100373",
    "final_x": "3681079.9124",
    "final_y": "543360.974094",
    "longitude": "-90.06898424071917",
    "latitude": "29.988067023149508",
    "geocoded_column": {
      "latitude": "29.988067023149508",
      "longitude": "-90.06898424071917"
    }
  },
  {
    "service_request": "2024-1100372",
    "request_type": "Trash/Recycling",
    "request_reason": "Request a Large Item Pick Up",
    "date_created": "2024-06-05T16:11:05.000",
    "date_modified": "2024-06-05T16:11:06.000",
    "request_status": "Pending",
    "responsible_agency": "Department of Sanitation",
    "final_address": "7713 Haney Dr",
    "address_councildis": "E",
    "status": "Assigned to Contractor",
    "contractor": "Waste Pro",
    "rowid": "1100372",
    "final_x": "3712453.14738",
    "final_y": "567564.916388",
    "longitude": "-89.96897723742069",
    "latitude": "30.053629181755557",
    "geocoded_column": {
      "latitude": "30.053629181755557",
      "longitude": "-89.96897723742069"
    }
  },
  {
    "service_request": "2024-1100371",
    "request_type": "Trash/Recycling",
    "request_reason": "Return Trash Cart",
    "date_created": "2024-06-05T16:09:14.000",
    "date_modified": "2024-06-05T16:09:15.000",
    "request_status": "Pending",
    "responsible_agency": "Department of Sanitation",
    "final_address": "900 Cherokee St",
    "address_councildis": "A",
    "status": "Assigned to Contractor",
    "contractor": "IV Waste",
    "rowid": "1100371",
    "final_x": "3662828.32531",
    "final_y": "526215.45267",
    "longitude": "-90.12720534785579",
    "latitude": "29.941463590469013",
    "geocoded_column": {
      "latitude": "29.941463590469013",
      "longitude": "-90.12720534785579"
    }
  },
  {
    "service_request": "2024-1100370",
    "request_type": "Trash/Recycling",
    "request_reason": "Request a Large Item Pick Up",
    "date_created": "2024-06-05T16:05:10.000",
    "date_modified": "2024-06-05T16:05:10.000",
    "request_status": "Pending",
    "responsible_agency": "Department of Sanitation",
    "final_address": "5037 St Ferdinand Dr",
    "address_councildis": "D",
    "status": "Assigned to Contractor",
    "contractor": "IV Waste",
    "rowid": "1100370",
    "final_x": "3689244.7919",
    "final_y": "551606.873365",
    "longitude": "-90.04290082616272",
    "latitude": "30.010489999877326",
    "geocoded_column": {
      "latitude": "30.010489999877326",
      "longitude": "-90.04290082616272"
    }
  },
  {
    "service_request": "2024-1100369",
    "request_type": "Trash/Recycling",
    "request_reason": "Request a Large Item Pick Up",
    "date_created": "2024-06-05T16:02:58.000",
    "date_modified": "2024-06-05T16:02:59.000",
    "request_status": "Pending",
    "responsible_agency": "Department of Sanitation",
    "final_address": "712 Forstall St",
    "address_councildis": "E",
    "status": "Assigned to Contractor",
    "contractor": "Waste Pro",
    "rowid": "1100369",
    "final_x": "3695829.85174",
    "final_y": "532850.84954",
    "longitude": "-90.0227739769005",
    "latitude": "29.958712182717207",
    "geocoded_column": {
      "latitude": "29.958712182717207",
      "longitude": "-90.0227739769005"
    }
  },
  {
    "service_request": "2024-1100368",
    "request_type": "Trash/Recycling",
    "request_reason": "Return Trash Cart",
    "date_created": "2024-06-05T16:01:05.000",
    "date_modified": "2024-06-05T16:01:05.000",
    "request_status": "Pending",
    "responsible_agency": "Department of Sanitation",
    "final_address": "2124 Marigny St",
    "address_councildis": "D",
    "status": "Assigned to Contractor",
    "contractor": "IV Waste",
    "rowid": "1100368",
    "final_x": "3685077.93615",
    "final_y": "540226.758155",
    "longitude": "-90.05646614225604",
    "latitude": "29.979327129270988",
    "geocoded_column": {
      "latitude": "29.979327129270988",
      "longitude": "-90.05646614225604"
    }
  },
  {
    "service_request": "2024-1100367",
    "request_type": "Trash/Recycling",
    "request_reason": "Request a Large Item Pick Up",
    "date_created": "2024-06-05T15:59:50.000",
    "date_modified": "2024-06-05T15:59:51.000",
    "request_status": "Pending",
    "responsible_agency": "Department of Sanitation",
    "final_address": "1812 General Ogden St",
    "address_councildis": "A",
    "status": "Assigned to Contractor",
    "contractor": "IV Waste",
    "rowid": "1100367",
    "final_x": "3661343.14496",
    "final_y": "531963.361539",
    "longitude": "-90.13170406932053",
    "latitude": "29.957311401296547",
    "geocoded_column": {
      "latitude": "29.957311401296547",
      "longitude": "-90.13170406932053"
    }
  },
  {
    "service_request": "2024-1100366",
    "request_type": "Roads/Drainage",
    "request_reason": "Catch Basin - Clogged",
    "date_created": "2024-06-05T15:58:23.000",
    "date_modified": "2024-06-05T15:58:23.000",
    "request_status": "Pending",
    "responsible_agency": "Department of Public Works",
    "final_address": "8613 Oleander St",
    "address_councildis": "A",
    "status": "Pending",
    "rowid": "1100366",
    "final_x": "3665372.90234",
    "final_y": "534988.608518",
    "longitude": "-90.11887801419394",
    "latitude": "29.9655130228261",
    "geocoded_column": {
      "latitude": "29.9655130228261",
      "longitude": "-90.11887801419394"
    }
  },
  {
    "service_request": "2024-1100365",
    "request_type": "Roads/Drainage",
    "request_reason": "Catch Basin - Clogged",
    "date_created": "2024-06-05T15:55:58.000",
    "date_modified": "2024-06-05T15:55:59.000",
    "request_status": "Pending",
    "responsible_agency": "Department of Public Works",
    "final_address": "2828 LaSalle St",
    "address_councildis": "B",
    "status": "Pending",
    "rowid": "1100365",
    "final_x": "3674203.8139",
    "final_y": "524741.480636",
    "longitude": "-90.0913410875597",
    "latitude": "29.937076501563205",
    "geocoded_column": {
      "latitude": "29.937076501563205",
      "longitude": "-90.0913410875597"
    }
  },
  {
    "service_request": "2024-1100364",
    "request_type": "Trash/Recycling",
    "request_reason": "Request a Large Item Pick Up",
    "date_created": "2024-06-05T15:55:55.000",
    "date_modified": "2024-06-05T15:55:56.000",
    "request_status": "Pending",
    "responsible_agency": "Department of Sanitation",
    "final_address": "15001 Emory Rd",
    "address_councildis": "E",
    "status": "Assigned to Contractor",
    "contractor": "Waste Pro",
    "rowid": "1100364",
    "final_x": "3720915.04601",
    "final_y": "574138.401898",
    "longitude": "-89.94197937600815",
    "latitude": "30.071423753550658",
    "geocoded_column": {
      "latitude": "30.071423753550658",
      "longitude": "-89.94197937600815"
    }
  },
  {
    "service_request": "2024-1100363",
    "request_type": "Trash/Recycling",
    "request_reason": "Order Recycling Cart",
    "date_created": "2024-06-05T15:54:12.000",
    "date_modified": "2024-06-05T15:54:13.000",
    "request_status": "Pending",
    "responsible_agency": "Department of Sanitation",
    "final_address": "723 Alvar St",
    "address_councildis": "C",
    "status": "Pending",
    "rowid": "1100363",
    "final_x": "3691208.61046",
    "final_y": "534067.711877",
    "longitude": "-90.03732314806155",
    "latitude": "29.962202654891627",
    "geocoded_column": {
      "latitude": "29.962202654891627",
      "longitude": "-90.03732314806155"
    }
  },
  {
    "service_request": "2024-1100362",
    "request_type": "Trash/Recycling",
    "request_reason": "Order Trash Cart",
    "date_created": "2024-06-05T15:53:59.000",
    "date_modified": "2024-06-05T15:53:59.000",
    "request_status": "Pending",
    "responsible_agency": "Department of Sanitation",
    "final_address": "1325 Deslonde St",
    "address_councildis": "E",
    "status": "Assigned to Contractor",
    "contractor": "Waste Pro",
    "rowid": "1100362",
    "final_x": "3695675.61354",
    "final_y": "535329.092358",
    "longitude": "-90.02317153994085",
    "latitude": "29.965531323657807",
    "geocoded_column": {
      "latitude": "29.965531323657807",
      "longitude": "-90.02317153994085"
    }
  },
  {
    "service_request": "2024-1100360",
    "request_type": "Trash/Recycling",
    "request_reason": "Return Trash Cart",
    "date_created": "2024-06-05T15:51:48.000",
    "date_modified": "2024-06-05T15:51:48.000",
    "request_status": "Pending",
    "responsible_agency": "Department of Sanitation",
    "final_address": "322 Henry Clay Ave",
    "address_councildis": "A",
    "status": "Assigned to Contractor",
    "contractor": "IV Waste",
    "rowid": "1100360",
    "final_x": "3663148.55149",
    "final_y": "518132.586998",
    "longitude": "-90.12646311057908",
    "latitude": "29.91922898144154",
    "geocoded_column": {
      "latitude": "29.91922898144154",
      "longitude": "-90.12646311057908"
    }
  },
  {
    "service_request": "2024-1100359",
    "request_type": "Trash/Recycling",
    "request_reason": "Order Trash Cart",
    "date_created": "2024-06-05T15:49:40.000",
    "date_modified": "2024-06-05T15:49:41.000",
    "request_status": "Pending",
    "responsible_agency": "Department of Sanitation",
    "final_address": "322 Henry Clay Ave",
    "address_councildis": "A",
    "status": "Assigned to Contractor",
    "contractor": "IV Waste",
    "rowid": "1100359",
    "final_x": "3663148.55149",
    "final_y": "518132.586998",
    "longitude": "-90.12646311057908",
    "latitude": "29.91922898144154",
    "geocoded_column": {
      "latitude": "29.91922898144154",
      "longitude": "-90.12646311057908"
    }
  },
  {
    "service_request": "2024-1100358",
    "request_type": "Trash/Recycling",
    "request_reason": "Repair Recycling Cart",
    "date_created": "2024-06-05T15:48:26.000",
    "date_modified": "2024-06-05T15:48:27.000",
    "request_status": "Pending",
    "responsible_agency": "Department of Sanitation",
    "final_address": "322 Henry Clay Ave",
    "address_councildis": "A",
    "status": "Pending",
    "rowid": "1100358",
    "final_x": "3663148.55149",
    "final_y": "518132.586998",
    "longitude": "-90.12646311057908",
    "latitude": "29.91922898144154",
    "geocoded_column": {
      "latitude": "29.91922898144154",
      "longitude": "-90.12646311057908"
    }
  },
  {
    "service_request": "2024-1100357",
    "request_type": "Trash/Recycling",
    "request_reason": "Missed Trash Pick-Up",
    "date_created": "2024-06-05T15:47:56.000",
    "date_modified": "2024-06-05T15:47:56.000",
    "request_status": "Pending",
    "responsible_agency": "Department of Sanitation",
    "final_address": "7100 Beauvoir Ct",
    "address_councildis": "E",
    "status": "Assigned to Contractor",
    "contractor": "Waste Pro",
    "rowid": "1100357",
    "final_x": "3716511.4636",
    "final_y": "567334.21034",
    "longitude": "-89.95615883843591",
    "latitude": "30.05286134228752",
    "geocoded_column": {
      "latitude": "30.05286134228752",
      "longitude": "-89.95615883843591"
    }
  },
  {
    "service_request": "2024-1100356",
    "request_type": "Trash/Recycling",
    "request_reason": "Repair Trash Cart",
    "date_created": "2024-06-05T15:46:25.000",
    "date_modified": "2024-06-05T15:46:25.000",
    "request_status": "Pending",
    "responsible_agency": "Department of Sanitation",
    "final_address": "1814 Jena St",
    "address_councildis": "B",
    "status": "Assigned to Contractor",
    "contractor": "IV Waste",
    "rowid": "1100356",
    "final_x": "3670318.48353",
    "final_y": "521683.760633",
    "longitude": "-90.10371092300942",
    "latitude": "29.92878398128092",
    "geocoded_column": {
      "latitude": "29.92878398128092",
      "longitude": "-90.10371092300942"
    }
  },
  {
    "service_request": "2024-1100355",
    "request_type": "Trash/Recycling",
    "request_reason": "Illegal Dumping",
    "date_created": "2024-06-05T15:43:45.000",
    "date_modified": "2024-06-05T15:43:45.000",
    "request_status": "Pending",
    "responsible_agency": "Department of Sanitation",
    "final_address": "TOURO ST & N GALVEZ ST",
    "address_councildis": "D",
    "status": "Pending",
    "rowid": "1100355",
    "final_x": "3683936.8",
    "final_y": "539927.48",
    "longitude": "-90.0600807982313",
    "latitude": "29.978539135109536",
    "geocoded_column": {
      "latitude": "29.978539135109536",
      "longitude": "-90.0600807982313"
    }
  },
  {
    "service_request": "2024-1100354",
    "request_type": "Trash/Recycling",
    "request_reason": "Illegal Dumping",
    "date_created": "2024-06-05T15:42:34.000",
    "date_modified": "2024-06-05T15:42:34.000",
    "request_status": "Pending",
    "responsible_agency": "Department of Sanitation",
    "final_address": "ANNETTE ST & N ROMAN ST",
    "address_councildis": "D",
    "status": "Pending",
    "rowid": "1100354",
    "final_x": "3682939.8",
    "final_y": "538727.28",
    "longitude": "-90.06327170497366",
    "latitude": "29.97526942829095",
    "geocoded_column": {
      "latitude": "29.97526942829095",
      "longitude": "-90.06327170497366"
    }
  },
  {
    "service_request": "2024-1100352",
    "request_type": "Trash/Recycling",
    "request_reason": "Request a Large Item Pick Up",
    "date_created": "2024-06-05T15:40:05.000",
    "date_modified": "2024-06-05T15:40:05.000",
    "request_status": "Pending",
    "responsible_agency": "Department of Sanitation",
    "final_address": "6241 Kingston Ct",
    "address_councildis": "C",
    "status": "Assigned to Contractor",
    "contractor": "Richards Disposal",
    "rowid": "1100352",
    "final_x": "3707160.04561",
    "final_y": "517745.210038",
    "longitude": "-89.98755668816732",
    "latitude": "29.916815839726723",
    "geocoded_column": {
      "latitude": "29.916815839726723",
      "longitude": "-89.98755668816732"
    }
  },
  {
    "service_request": "2024-1100351",
    "request_type": "Abandoned Vehicles",
    "request_reason": "Abandoned/Junk Vehicles",
    "date_created": "2024-06-05T15:36:38.000",
    "date_modified": "2024-06-05T15:36:38.000",
    "request_status": "Pending",
    "responsible_agency": "Department of Public Works",
    "final_address": "7920 Cynthia Dr",
    "address_councildis": "E",
    "status": "Pending",
    "rowid": "1100351",
    "final_x": "3702231.39121",
    "final_y": "560415.15875",
    "longitude": "-90.00154806012442",
    "latitude": "30.034300861908026",
    "geocoded_column": {
      "latitude": "30.034300861908026",
      "longitude": "-90.00154806012442"
    }
  },
  {
    "service_request": "2024-1100350",
    "request_type": "Trash/Recycling",
    "request_reason": "Request a Large Item Pick Up",
    "date_created": "2024-06-05T15:35:03.000",
    "date_modified": "2024-06-05T15:35:03.000",
    "request_status": "Pending",
    "responsible_agency": "Department of Sanitation",
    "final_address": "2414 Jefferson Ave",
    "address_councildis": "A",
    "status": "Assigned to Contractor",
    "contractor": "IV Waste",
    "rowid": "1100350",
    "final_x": "3667963.61197",
    "final_y": "524478.210236",
    "longitude": "-90.1110506942769",
    "latitude": "29.936537100838574",
    "geocoded_column": {
      "latitude": "29.936537100838574",
      "longitude": "-90.1110506942769"
    }
  },
  {
    "service_request": "2024-1100349",
    "request_type": "Traffic Signals/Signs/Striping/Streetlights",
    "request_reason": "Street Light Outage/Malfunction",
    "date_created": "2024-06-05T15:34:42.000",
    "date_modified": "2024-06-05T15:34:43.000",
    "request_status": "Pending",
    "responsible_agency": "Department of Public Works",
    "final_address": "6900 BLK Vicksburg St",
    "address_councildis": "A",
    "status": "Assigned to Contractor",
    "contractor": "Legacy Professional Services",
    "rowid": "1100349",
    "final_x": "3669450.07707",
    "final_y": "553624.447657",
    "longitude": "-90.10537174497135",
    "latitude": "30.016635729667186",
    "geocoded_column": {
      "latitude": "30.016635729667186",
      "longitude": "-90.10537174497135"
    }
  },
  {
    "service_request": "2024-1100348",
    "request_type": "Traffic Signals/Signs/Striping/Streetlights",
    "request_reason": "Street Light Outage/Malfunction",
    "date_created": "2024-06-05T15:33:17.000",
    "date_modified": "2024-06-05T15:33:18.000",
    "request_status": "Pending",
    "responsible_agency": "Department of Public Works",
    "final_address": "6900 BLK Vicksburg St",
    "address_councildis": "A",
    "status": "Assigned to Contractor",
    "contractor": "Legacy Professional Services",
    "rowid": "1100348",
    "final_x": "3669450.07707",
    "final_y": "553624.447657",
    "longitude": "-90.10537174497135",
    "latitude": "30.016635729667186",
    "geocoded_column": {
      "latitude": "30.016635729667186",
      "longitude": "-90.10537174497135"
    }
  },
  {
    "service_request": "2024-1100347",
    "request_type": "Parks & Parkways",
    "request_reason": "Request Tree Service (Right of Way/Public Property)",
    "date_created": "2024-06-05T15:32:13.000",
    "date_modified": "2024-06-05T21:30:57.000",
    "request_status": "Pending",
    "responsible_agency": "Department of Parks & Parkway",
    "final_address": "3731 Elysian Fields Ave",
    "address_councildis": "D",
    "status": "Pending",
    "rowid": "1100347",
    "final_x": "3684342.83241",
    "final_y": "546511.526737",
    "longitude": "-90.05856705401689",
    "latitude": "29.99663051933429",
    "geocoded_column": {
      "latitude": "29.99663051933429",
      "longitude": "-90.05856705401689"
    }
  },
  {
    "service_request": "2024-1100346",
    "request_type": "Trash/Recycling",
    "request_reason": "Request a Large Item Pick Up",
    "date_created": "2024-06-05T15:31:10.000",
    "date_modified": "2024-06-05T15:31:10.000",
    "request_status": "Pending",
    "responsible_agency": "Department of Sanitation",
    "final_address": "820 Navarre St",
    "address_councildis": "A",
    "status": "Assigned to Contractor",
    "contractor": "IV Waste",
    "rowid": "1100346",
    "final_x": "3668872.6747",
    "final_y": "543756.433102",
    "longitude": "-90.10752964315608",
    "latitude": "29.989519124318836",
    "geocoded_column": {
      "latitude": "29.989519124318836",
      "longitude": "-90.10752964315608"
    }
  },
  {
    "service_request": "2024-1100345",
    "request_type": "Roads/Drainage",
    "request_reason": "Street Flooding / Drainage",
    "date_created": "2024-06-05T15:30:46.000",
    "date_modified": "2024-06-05T15:30:46.000",
    "request_status": "Pending",
    "responsible_agency": "Department of Public Works",
    "final_address": "3140 Jackson Ave",
    "address_councildis": "B",
    "status": "Pending",
    "rowid": "1100345",
    "final_x": "3673923.45524",
    "final_y": "528450.708608",
    "longitude": "-90.09209934575418",
    "latitude": "29.947284015525973",
    "geocoded_column": {
      "latitude": "29.947284015525973",
      "longitude": "-90.09209934575418"
    }
  },
  {
    "service_request": "2024-1100344",
    "request_type": "Trash/Recycling",
    "request_reason": "Order Trash Cart",
    "date_created": "2024-06-05T15:28:32.000",
    "date_modified": "2024-06-05T15:28:32.000",
    "request_status": "Pending",
    "responsible_agency": "Department of Sanitation",
    "final_address": "3531 Toledano St",
    "address_councildis": "B",
    "status": "Assigned to Contractor",
    "contractor": "IV Waste",
    "rowid": "1100344",
    "final_x": "3671803.01499",
    "final_y": "528510.50592",
    "longitude": "-90.09879236226688",
    "latitude": "29.947511427257623",
    "geocoded_column": {
      "latitude": "29.947511427257623",
      "longitude": "-90.09879236226688"
    }
  },
  {
    "service_request": "2024-1100343",
    "request_type": "Trash/Recycling",
    "request_reason": "Repair Trash Cart",
    "date_created": "2024-06-05T15:28:02.000",
    "date_modified": "2024-06-05T15:28:02.000",
    "request_status": "Pending",
    "responsible_agency": "Department of Sanitation",
    "final_address": "5134 Arts St",
    "address_councildis": "D",
    "status": "Assigned to Contractor",
    "contractor": "IV Waste",
    "rowid": "1100343",
    "final_x": "3685725.6975",
    "final_y": "551901.752214",
    "longitude": "-90.0540085621892",
    "latitude": "30.011409312251264",
    "geocoded_column": {
      "latitude": "30.011409312251264",
      "longitude": "-90.0540085621892"
    }
  },
  {
    "service_request": "2024-1100342",
    "request_type": "Trash/Recycling",
    "request_reason": "Replace Trash Cart",
    "date_created": "2024-06-05T15:27:57.000",
    "date_modified": "2024-06-05T15:27:57.000",
    "request_status": "Pending",
    "responsible_agency": "Department of Sanitation",
    "final_address": "4741 Eastern St",
    "address_councildis": "D",
    "status": "Assigned to Contractor",
    "contractor": "IV Waste",
    "rowid": "1100342",
    "final_x": "3688053.91081",
    "final_y": "550689.99426",
    "longitude": "-90.04669579013807",
    "latitude": "30.008005741514737",
    "geocoded_column": {
      "latitude": "30.008005741514737",
      "longitude": "-90.04669579013807"
    }
  },
  {
    "service_request": "2024-1100341",
    "request_type": "Trash/Recycling",
    "request_reason": "Replace Trash Cart",
    "date_created": "2024-06-05T15:27:20.000",
    "date_modified": "2024-06-05T15:27:21.000",
    "request_status": "Pending",
    "responsible_agency": "Department of Sanitation",
    "final_address": "900 Cherokee St",
    "address_councildis": "A",
    "status": "Assigned to Contractor",
    "contractor": "IV Waste",
    "rowid": "1100341",
    "final_x": "3662828.32531",
    "final_y": "526215.45267",
    "longitude": "-90.12720534785579",
    "latitude": "29.941463590469013",
    "geocoded_column": {
      "latitude": "29.941463590469013",
      "longitude": "-90.12720534785579"
    }
  },
  {
    "service_request": "2024-1100340",
    "request_type": "Trash/Recycling",
    "request_reason": "Request a Large Item Pick Up",
    "date_created": "2024-06-05T15:26:52.000",
    "date_modified": "2024-06-05T15:26:52.000",
    "request_status": "Pending",
    "responsible_agency": "Department of Sanitation",
    "final_address": "7715 Nelson St",
    "address_councildis": "A",
    "status": "Assigned to Contractor",
    "contractor": "IV Waste",
    "rowid": "1100340",
    "final_x": "3666121.0242",
    "final_y": "530980.916034",
    "longitude": "-90.1166498545585",
    "latitude": "29.954471359930626",
    "geocoded_column": {
      "latitude": "29.954471359930626",
      "longitude": "-90.1166498545585"
    }
  },
  {
    "service_request": "2024-1100339",
    "request_type": "Trash/Recycling",
    "request_reason": "Replace Trash Cart",
    "date_created": "2024-06-05T15:24:48.000",
    "date_modified": "2024-06-05T15:24:49.000",
    "request_status": "Pending",
    "responsible_agency": "Department of Sanitation",
    "final_address": "5132 Music St",
    "address_councildis": "D",
    "status": "Assigned to Contractor",
    "contractor": "IV Waste",
    "rowid": "1100339",
    "final_x": "3685451.63106",
    "final_y": "551729.101205",
    "longitude": "-90.05488053485723",
    "latitude": "30.0109429958769",
    "geocoded_column": {
      "latitude": "30.0109429958769",
      "longitude": "-90.05488053485723"
    }
  },
  {
    "service_request": "2024-1100338",
    "request_type": "Healthy Homes",
    "request_reason": "Healthy Homes",
    "date_created": "2024-06-05T15:24:18.000",
    "date_modified": "2024-06-05T15:24:18.000",
    "request_status": "Pending",
    "responsible_agency": "Department of Code Enforcement",
    "final_address": "1118 Monroe St Apt 8",
    "address_councildis": "A",
    "status": "Pending",
    "rowid": "1100338",
    "final_x": "3660220.37069",
    "final_y": "529736.413569",
    "longitude": "-90.13532299264925",
    "latitude": "29.951220337783198",
    "geocoded_column": {
      "latitude": "29.951220337783198",
      "longitude": "-90.13532299264925"
    }
  },
  {
    "service_request": "2024-1100337",
    "request_type": "Trash/Recycling",
    "request_reason": "Illegal Dumping",
    "date_created": "2024-06-05T15:23:02.000",
    "date_modified": "2024-06-05T15:23:03.000",
    "request_status": "Pending",
    "responsible_agency": "Department of Sanitation",
    "final_address": "124 S Clark St",
    "address_councildis": "B",
    "status": "Pending",
    "rowid": "1100337",
    "final_x": "3672756.57966",
    "final_y": "536784.7426",
    "longitude": "-90.09549935931133",
    "latitude": "29.97023453750489",
    "geocoded_column": {
      "latitude": "29.97023453750489",
      "longitude": "-90.09549935931133"
    }
  },
  {
    "service_request": "2024-1100336",
    "request_type": "Roads/Drainage",
    "request_reason": "Street Flooding / Drainage",
    "date_created": "2024-06-05T15:22:12.000",
    "date_modified": "2024-06-05T15:23:27.000",
    "request_status": "Pending",
    "responsible_agency": "Department of Public Works",
    "final_address": "1320 Feliciana St",
    "address_councildis": "C",
    "status": "Pending",
    "rowid": "1100336",
    "final_x": "3688931.55356",
    "final_y": "536985.068936",
    "longitude": "-90.04441010595113",
    "latitude": "29.970294987466694",
    "geocoded_column": {
      "latitude": "29.970294987466694",
      "longitude": "-90.04441010595113"
    }
  },
  {
    "service_request": "2024-1100335",
    "request_type": "Trash/Recycling",
    "request_reason": "Return Trash Cart",
    "date_created": "2024-06-05T15:21:33.000",
    "date_modified": "2024-06-05T15:21:34.000",
    "request_status": "Pending",
    "responsible_agency": "Department of Sanitation",
    "final_address": "319 Broadway St",
    "address_councildis": "A",
    "status": "Assigned to Contractor",
    "contractor": "IV Waste",
    "rowid": "1100335",
    "final_x": "3661617.59603",
    "final_y": "522605.10521",
    "longitude": "-90.13114746846242",
    "latitude": "29.931571262074",
    "geocoded_column": {
      "latitude": "29.931571262074",
      "longitude": "-90.13114746846242"
    }
  },
  {
    "service_request": "2024-1100334",
    "request_type": "Trash/Recycling",
    "request_reason": "Replace Trash Cart",
    "date_created": "2024-06-05T15:16:45.000",
    "date_modified": "2024-06-05T15:16:45.000",
    "request_status": "Pending",
    "responsible_agency": "Department of Sanitation",
    "final_address": "4409 Joycelyn Dr",
    "address_councildis": "C",
    "status": "Assigned to Contractor",
    "contractor": "Richards Disposal",
    "rowid": "1100334",
    "final_x": "3707940.47467",
    "final_y": "514499.517747",
    "longitude": "-89.98521388375131",
    "latitude": "29.907866082784043",
    "geocoded_column": {
      "latitude": "29.907866082784043",
      "longitude": "-89.98521388375131"
    }
  },
  {
    "service_request": "2024-1100333",
    "request_type": "Trash/Recycling",
    "request_reason": "Order Trash Cart",
    "date_created": "2024-06-05T15:13:54.000",
    "date_modified": "2024-06-05T15:13:55.000",
    "request_status": "Pending",
    "responsible_agency": "Department of Sanitation",
    "final_address": "1507 Clouet St",
    "address_councildis": "D",
    "status": "Assigned to Contractor",
    "contractor": "IV Waste",
    "rowid": "1100333",
    "final_x": "3689438.78639",
    "final_y": "537551.648456",
    "longitude": "-90.04278806194851",
    "latitude": "29.971837183291782",
    "geocoded_column": {
      "latitude": "29.971837183291782",
      "longitude": "-90.04278806194851"
    }
  },
  {
    "service_request": "2024-1100332",
    "request_type": "Abandoned Vehicles",
    "request_reason": "Abandoned/Junk Vehicles",
    "date_created": "2024-06-05T15:13:03.000",
    "date_modified": "2024-06-05T15:13:03.000",
    "request_status": "Pending",
    "responsible_agency": "Department of Public Works",
    "final_address": "WALES ST & TARPON ST",
    "address_councildis": "E",
    "status": "Pending",
    "rowid": "1100332",
    "final_x": "3698426.7",
    "final_y": "560660.68",
    "longitude": "-90.01356239115232",
    "latitude": "30.035096992953726",
    "geocoded_column": {
      "latitude": "30.035096992953726",
      "longitude": "-90.01356239115232"
    }
  },
  {
    "service_request": "2024-1100331",
    "request_type": "Trash/Recycling",
    "request_reason": "Order Trash Cart",
    "date_created": "2024-06-05T15:12:43.000",
    "date_modified": "2024-06-05T15:13:11.000",
    "request_status": "Pending",
    "responsible_agency": "Department of Sanitation",
    "final_address": "3041 Edith Weston Pl",
    "address_councildis": "D",
    "status": "Assigned to Contractor",
    "contractor": "IV Waste",
    "rowid": "1100331",
    "final_x": "3693052.38928",
    "final_y": "543307.913998",
    "longitude": "-90.03116919242828",
    "latitude": "29.98755244606559",
    "geocoded_column": {
      "latitude": "29.98755244606559",
      "longitude": "-90.03116919242828"
    }
  },
  {
    "service_request": "2024-1100330",
    "request_type": "Trash/Recycling",
    "request_reason": "Request a Large Item Pick Up",
    "date_created": "2024-06-05T15:12:04.000",
    "date_modified": "2024-06-05T15:12:05.000",
    "request_status": "Pending",
    "responsible_agency": "Department of Sanitation",
    "final_address": "4819 Tchoupitoulas St",
    "address_councildis": "B",
    "status": "Assigned to Contractor",
    "contractor": "IV Waste",
    "rowid": "1100330",
    "final_x": "3669556.80846",
    "final_y": "517365.138741",
    "longitude": "-90.10626137693194",
    "latitude": "29.916931593886325",
    "geocoded_column": {
      "latitude": "29.916931593886325",
      "longitude": "-90.10626137693194"
    }
  },
  {
    "service_request": "2024-1100329",
    "request_type": "Trash/Recycling",
    "request_reason": "Illegal Dumping",
    "date_created": "2024-06-05T15:11:21.000",
    "date_modified": "2024-06-05T15:11:22.000",
    "request_status": "Pending",
    "responsible_agency": "Department of Sanitation",
    "final_address": "LOUISIANA AVE PKWY & S DORGENOIS ST",
    "address_councildis": "B",
    "status": "Pending",
    "rowid": "1100329",
    "final_x": "3671209.6",
    "final_y": "529028.48",
    "longitude": "-90.10064841371573",
    "latitude": "29.94895325288303",
    "geocoded_column": {
      "latitude": "29.94895325288303",
      "longitude": "-90.10064841371573"
    }
  },
  {
    "service_request": "2024-1100328",
    "request_type": "Roads/Drainage",
    "request_reason": "Pothole",
    "date_created": "2024-06-05T15:11:02.000",
    "date_modified": "2024-06-05T15:11:02.000",
    "request_status": "Pending",
    "responsible_agency": "Department of Public Works",
    "final_address": "4216 Chestnut St",
    "address_councildis": "B",
    "status": "Pending",
    "rowid": "1100328",
    "final_x": "3671574.31393",
    "final_y": "519539.203703",
    "longitude": "-90.09981939416457",
    "latitude": "29.922850019854593",
    "geocoded_column": {
      "latitude": "29.922850019854593",
      "longitude": "-90.09981939416457"
    }
  },
  {
    "service_request": "2024-1100325",
    "request_type": "Property Maintenance",
    "request_reason": "Property Maintenance",
    "date_created": "2024-06-05T15:07:29.000",
    "date_modified": "2024-06-05T15:07:30.000",
    "request_status": "Pending",
    "responsible_agency": "Department of Code Enforcement",
    "final_address": "2300 BLK Flood St",
    "address_councildis": "E",
    "status": "Pending",
    "rowid": "1100325",
    "final_x": "3698971.84119",
    "final_y": "538522.430945",
    "longitude": "-90.01264602499062",
    "latitude": "29.974207812253656",
    "geocoded_column": {
      "latitude": "29.974207812253656",
      "longitude": "-90.01264602499062"
    }
  },
  {
    "service_request": "2024-1100324",
    "request_type": "Traffic Signals/Signs/Striping/Streetlights",
    "request_reason": "Street Light Outage/Malfunction",
    "date_created": "2024-06-05T15:05:49.000",
    "date_modified": "2024-06-05T15:05:50.000",
    "request_status": "Pending",
    "responsible_agency": "Department of Public Works",
    "final_address": "6544 Pauline Dr",
    "address_councildis": "D",
    "status": "Assigned to Contractor",
    "contractor": "Legacy Professional Services",
    "rowid": "1100324",
    "final_x": "3690857.62992",
    "final_y": "557902.838875",
    "longitude": "-90.03758033729049",
    "latitude": "30.027751514086514",
    "geocoded_column": {
      "latitude": "30.027751514086514",
      "longitude": "-90.03758033729049"
    }
  },
  {
    "service_request": "2024-1100323",
    "request_type": "Trash/Recycling",
    "request_reason": "Illegal Dumping",
    "date_created": "2024-06-05T15:02:53.000",
    "date_modified": "2024-06-05T15:02:54.000",
    "request_status": "Pending",
    "responsible_agency": "Department of Sanitation",
    "final_address": "4477 Franklin Ave",
    "address_councildis": "D",
    "status": "Pending",
    "rowid": "1100323",
    "final_x": "3686989.56873",
    "final_y": "549416.931475",
    "longitude": "-90.05010340283071",
    "latitude": "30.004538101268704",
    "geocoded_column": {
      "latitude": "30.004538101268704",
      "longitude": "-90.05010340283071"
    }
  },
  {
    "service_request": "2024-1100322",
    "request_type": "Trash/Recycling",
    "request_reason": "Request a Large Item Pick Up",
    "date_created": "2024-06-05T15:01:29.000",
    "date_modified": "2024-06-05T15:01:30.000",
    "request_status": "Pending",
    "responsible_agency": "Department of Sanitation",
    "final_address": "14201 Intrepid St",
    "address_councildis": "E",
    "status": "Assigned to Contractor",
    "contractor": "Waste Pro",
    "rowid": "1100322",
    "final_x": "3726411.61145",
    "final_y": "571191.055784",
    "longitude": "-89.92471782132979",
    "latitude": "30.063135147876878",
    "geocoded_column": {
      "latitude": "30.063135147876878",
      "longitude": "-89.92471782132979"
    }
  },
  {
    "service_request": "2024-1100321",
    "request_type": "Trash/Recycling",
    "request_reason": "Start Trash Service",
    "date_created": "2024-06-05T14:54:55.000",
    "date_modified": "2024-06-05T14:54:56.000",
    "request_status": "Pending",
    "responsible_agency": "Department of Sanitation",
    "final_address": "133 S Murat St",
    "address_councildis": "A",
    "status": "Assigned to Contractor",
    "contractor": "IV Waste",
    "rowid": "1100321",
    "final_x": "3669468.66964",
    "final_y": "539157.177546",
    "longitude": "-90.10580269326088",
    "latitude": "29.976855190849236",
    "geocoded_column": {
      "latitude": "29.976855190849236",
      "longitude": "-90.10580269326088"
    }
  },
  {
    "service_request": "2024-1100320",
    "request_type": "Abandoned Vehicles",
    "request_reason": "Abandoned/Junk Vehicles",
    "date_created": "2024-06-05T14:53:20.000",
    "date_modified": "2024-06-05T14:53:21.000",
    "request_status": "Pending",
    "responsible_agency": "Department of Public Works",
    "final_address": "1510 Spain St",
    "address_councildis": "C",
    "status": "Pending",
    "rowid": "1100320",
    "final_x": "3685971.51817",
    "final_y": "537973.242889",
    "longitude": "-90.05372334790428",
    "latitude": "29.97310334291435",
    "geocoded_column": {
      "latitude": "29.97310334291435",
      "longitude": "-90.05372334790428"
    }
  },
  {
    "service_request": "2024-1100319",
    "request_type": "Property Maintenance",
    "request_reason": "Property Maintenance",
    "date_created": "2024-06-05T14:50:22.000",
    "date_modified": "2024-06-05T14:50:22.000",
    "request_status": "Pending",
    "responsible_agency": "Department of Code Enforcement",
    "final_address": "121 N Carrollton Ave",
    "address_councildis": "A",
    "status": "Pending",
    "rowid": "1100319",
    "final_x": "3671225.28647",
    "final_y": "538573.422537",
    "longitude": "-90.10027456934661",
    "latitude": "29.975198200871148",
    "geocoded_column": {
      "latitude": "29.975198200871148",
      "longitude": "-90.10027456934661"
    }
  },
  {
    "service_request": "2024-1100318",
    "request_type": "Abandoned Vehicles",
    "request_reason": "Abandoned/Junk Vehicles",
    "date_created": "2024-06-05T14:49:51.000",
    "date_modified": "2024-06-05T14:49:51.000",
    "request_status": "Pending",
    "responsible_agency": "Department of Public Works",
    "final_address": "7341 Bullard Ave",
    "address_councildis": "E",
    "status": "Inspected",
    "rowid": "1100318",
    "final_x": "3713996.09445",
    "final_y": "566345.387683",
    "longitude": "-89.9641464836309",
    "latitude": "30.050225369804494",
    "geocoded_column": {
      "latitude": "30.050225369804494",
      "longitude": "-89.9641464836309"
    }
  },
  {
    "service_request": "2024-1100317",
    "request_type": "Parks & Parkways",
    "request_reason": "Request Tree Service (Right of Way/Public Property)",
    "date_created": "2024-06-05T14:47:28.000",
    "date_modified": "2024-06-05T14:47:28.000",
    "request_status": "Pending",
    "responsible_agency": "Department of Parks & Parkway",
    "final_address": "635 S Alexander St",
    "address_councildis": "A",
    "status": "Pending",
    "rowid": "1100317",
    "final_x": "3668609.60929",
    "final_y": "537400.123528",
    "longitude": "-90.1085752011929",
    "latitude": "29.972049159742397",
    "geocoded_column": {
      "latitude": "29.972049159742397",
      "longitude": "-90.1085752011929"
    }
  },
  {
    "service_request": "2024-1100316",
    "request_type": "Trash/Recycling",
    "request_reason": "Request a Large Item Pick Up",
    "date_created": "2024-06-05T14:42:47.000",
    "date_modified": "2024-06-05T14:42:47.000",
    "request_status": "Pending",
    "responsible_agency": "Department of Sanitation",
    "final_address": "11223 Will Stutley Dr",
    "address_councildis": "E",
    "status": "Assigned to Contractor",
    "contractor": "Waste Pro",
    "rowid": "1100316",
    "final_x": "3716727.31327",
    "final_y": "558272.464476",
    "longitude": "-89.95582092999896",
    "latitude": "30.027938080679263",
    "geocoded_column": {
      "latitude": "30.027938080679263",
      "longitude": "-89.95582092999896"
    }
  },
  {
    "service_request": "2024-1100315",
    "request_type": "Roads/Drainage",
    "request_reason": "Catch Basin - Clogged",
    "date_created": "2024-06-05T14:40:57.000",
    "date_modified": "2024-06-05T14:40:58.000",
    "request_status": "Pending",
    "responsible_agency": "Department of Public Works",
    "final_address": "1201 Bienville St Apt 101",
    "address_councildis": "C",
    "status": "Pending",
    "rowid": "1100315",
    "final_x": "3680214.96136",
    "final_y": "532455.287812",
    "longitude": "-90.07209550229297",
    "latitude": "29.958106361958762",
    "geocoded_column": {
      "latitude": "29.958106361958762",
      "longitude": "-90.07209550229297"
    }
  },
  {
    "service_request": "2024-1100314",
    "request_type": "Trash/Recycling",
    "request_reason": "Replace Trash Cart",
    "date_created": "2024-06-05T14:32:39.000",
    "date_modified": "2024-06-05T14:32:39.000",
    "request_status": "Pending",
    "responsible_agency": "Department of Sanitation",
    "final_address": "6931 Salem Dr",
    "address_councildis": "E",
    "status": "Assigned to Contractor",
    "contractor": "Waste Pro",
    "rowid": "1100314",
    "final_x": "3706882.42347",
    "final_y": "560453.98979",
    "longitude": "-89.98684885411151",
    "latitude": "30.034258172853676",
    "geocoded_column": {
      "latitude": "30.034258172853676",
      "longitude": "-89.98684885411151"
    }
  },
  {
    "service_request": "2024-1100313",
    "request_type": "Trash/Recycling",
    "request_reason": "Repair Trash Cart",
    "date_created": "2024-06-05T14:30:40.000",
    "date_modified": "2024-06-05T14:30:41.000",
    "request_status": "Pending",
    "responsible_agency": "Department of Sanitation",
    "final_address": "2433 Clover St",
    "address_councildis": "D",
    "status": "Assigned to Contractor",
    "contractor": "IV Waste",
    "rowid": "1100313",
    "final_x": "3686348.5638",
    "final_y": "546629.486225",
    "longitude": "-90.05222691257454",
    "latitude": "29.99689335719911",
    "geocoded_column": {
      "latitude": "29.99689335719911",
      "longitude": "-90.05222691257454"
    }
  },
  {
    "service_request": "2024-1100312",
    "request_type": "Parks & Parkways",
    "request_reason": "Request Tree Service (Right of Way/Public Property)",
    "date_created": "2024-06-05T14:29:56.000",
    "date_modified": "2024-06-05T14:29:57.000",
    "request_status": "Pending",
    "responsible_agency": "Department of Parks & Parkway",
    "final_address": "1410 Robert St",
    "address_councildis": "B",
    "status": "Pending",
    "rowid": "1100312",
    "final_x": "3668631.73274",
    "final_y": "520265.722552",
    "longitude": "-90.10908349401839",
    "latitude": "29.924934490959814",
    "geocoded_column": {
      "latitude": "29.924934490959814",
      "longitude": "-90.10908349401839"
    }
  },
  {
    "service_request": "2024-1100311",
    "request_type": "Traffic Signals/Signs/Striping/Streetlights",
    "request_reason": "Traffic Signal Malfunctioning/Damaged",
    "date_created": "2024-06-05T14:29:50.000",
    "date_modified": "2024-06-05T14:29:50.000",
    "request_status": "Pending",
    "responsible_agency": "Department of Public Works",
    "final_address": "CHEF MENTEUR HWY & DALE ST",
    "address_councildis": "E",
    "status": "Pending",
    "rowid": "1100311",
    "final_x": "3699724.2",
    "final_y": "551982.28",
    "longitude": "-90.00977889450225",
    "latitude": "30.011193557350975",
    "geocoded_column": {
      "latitude": "30.011193557350975",
      "longitude": "-90.00977889450225"
    }
  },
  {
    "service_request": "2024-1100310",
    "request_type": "Trash/Recycling",
    "request_reason": "Request a Large Item Pick Up",
    "date_created": "2024-06-05T14:28:18.000",
    "date_modified": "2024-06-05T14:28:19.000",
    "request_status": "Pending",
    "responsible_agency": "Department of Sanitation",
    "final_address": "3221 N Miro St",
    "address_councildis": "D",
    "status": "Assigned to Contractor",
    "contractor": "IV Waste",
    "rowid": "1100310",
    "final_x": "3690786.99888",
    "final_y": "539988.181067",
    "longitude": "-90.0384432514166",
    "latitude": "29.978494962223504",
    "geocoded_column": {
      "latitude": "29.978494962223504",
      "longitude": "-90.0384432514166"
    }
  },
  {
    "service_request": "2024-1100309",
    "request_type": "Parks & Parkways",
    "request_reason": "Request Tree Service (Right of Way/Public Property)",
    "date_created": "2024-06-05T14:27:25.000",
    "date_modified": "2024-06-05T14:27:25.000",
    "request_status": "Pending",
    "responsible_agency": "Department of Parks & Parkway",
    "final_address": "3100 BLK Bringier St",
    "address_councildis": "C",
    "status": "Pending",
    "rowid": "1100309",
    "final_x": "3695771.42699",
    "final_y": "525115.959726",
    "longitude": "-90.0232377262904",
    "latitude": "29.937445768094",
    "geocoded_column": {
      "latitude": "29.937445768094",
      "longitude": "-90.0232377262904"
    }
  },
  {
    "service_request": "2024-1100308",
    "request_type": "Trash/Recycling",
    "request_reason": "Request a Large Item Pick Up",
    "date_created": "2024-06-05T14:27:20.000",
    "date_modified": "2024-06-05T14:27:20.000",
    "request_status": "Pending",
    "responsible_agency": "Department of Sanitation",
    "final_address": "3919 Fairmont Dr",
    "address_councildis": "D",
    "status": "Assigned to Contractor",
    "contractor": "IV Waste",
    "rowid": "1100308",
    "final_x": "3684985.38082",
    "final_y": "546776.169105",
    "longitude": "-90.05652796904566",
    "latitude": "29.99733851957166",
    "geocoded_column": {
      "latitude": "29.99733851957166",
      "longitude": "-90.05652796904566"
    }
  },
  {
    "service_request": "2024-1100307",
    "request_type": "Trash/Recycling",
    "request_reason": "Return Trash Cart",
    "date_created": "2024-06-05T14:26:41.000",
    "date_modified": "2024-06-05T14:26:42.000",
    "request_status": "Pending",
    "responsible_agency": "Department of Sanitation",
    "final_address": "904 Verret St",
    "address_councildis": "C",
    "status": "Assigned to Contractor",
    "contractor": "Richards Disposal",
    "rowid": "1100307",
    "final_x": "3687230.54479",
    "final_y": "528274.31712",
    "longitude": "-90.05009014530448",
    "latitude": "29.946395928201337",
    "geocoded_column": {
      "latitude": "29.946395928201337",
      "longitude": "-90.05009014530448"
    }
  },
  {
    "service_request": "2024-1100306",
    "request_type": "Trash/Recycling",
    "request_reason": "Order Trash Cart",
    "date_created": "2024-06-05T14:26:10.000",
    "date_modified": "2024-06-05T14:26:10.000",
    "request_status": "Pending",
    "responsible_agency": "Department of Sanitation",
    "final_address": "904 Verret St",
    "address_councildis": "C",
    "status": "Assigned to Contractor",
    "contractor": "Richards Disposal",
    "rowid": "1100306",
    "final_x": "3687230.54479",
    "final_y": "528274.31712",
    "longitude": "-90.05009014530448",
    "latitude": "29.946395928201337",
    "geocoded_column": {
      "latitude": "29.946395928201337",
      "longitude": "-90.05009014530448"
    }
  },
  {
    "service_request": "2024-1100305",
    "request_type": "Roads/Drainage",
    "request_reason": "Pothole",
    "date_created": "2024-06-05T14:25:36.000",
    "date_modified": "2024-06-05T14:25:36.000",
    "request_status": "Pending",
    "responsible_agency": "Department of Public Works",
    "final_address": "12 Tennyson Pl",
    "address_councildis": "C",
    "status": "Pending",
    "rowid": "1100305",
    "final_x": "3704786.97047",
    "final_y": "517573.606838",
    "longitude": "-89.99505336809912",
    "latitude": "29.916420414234896",
    "geocoded_column": {
      "latitude": "29.916420414234896",
      "longitude": "-89.99505336809912"
    }
  },
  {
    "service_request": "2024-1100304",
    "request_type": "Abandoned Vehicles",
    "request_reason": "Abandoned/Junk Vehicles",
    "date_created": "2024-06-05T14:25:19.000",
    "date_modified": "2024-06-05T14:25:19.000",
    "request_status": "Pending",
    "responsible_agency": "Department of Public Works",
    "final_address": "1100 BLK Harrison Ave",
    "address_councildis": "D",
    "status": "Pending",
    "rowid": "1100304",
    "final_x": "3676337.40024",
    "final_y": "547432.895735",
    "longitude": "-90.08382403306618",
    "latitude": "29.999406419091954",
    "geocoded_column": {
      "latitude": "29.999406419091954",
      "longitude": "-90.08382403306618"
    }
  },
  {
    "service_request": "2024-1100303",
    "request_type": "Trash/Recycling",
    "request_reason": "Illegal Dumping",
    "date_created": "2024-06-05T14:23:59.000",
    "date_modified": "2024-06-05T14:24:35.000",
    "request_status": "Pending",
    "responsible_agency": "Department of Sanitation",
    "final_address": "ST CLAUDE AVE & ANDRY ST",
    "address_councildis": "E",
    "status": "Pending",
    "rowid": "1100303",
    "final_x": "3697183.3",
    "final_y": "534041.38",
    "longitude": "-90.01845702101954",
    "latitude": "29.961943085250486",
    "geocoded_column": {
      "latitude": "29.961943085250486",
      "longitude": "-90.01845702101954"
    }
  },
  {
    "service_request": "2024-1100302",
    "request_type": "Traffic Signals/Signs/Striping/Streetlights",
    "request_reason": "Street Light Outage/Malfunction",
    "date_created": "2024-06-05T14:22:50.000",
    "date_modified": "2024-06-05T14:22:50.000",
    "request_status": "Pending",
    "responsible_agency": "Department of Public Works",
    "final_address": "4138 Vincennes Pl",
    "address_councildis": "B",
    "status": "Assigned to Contractor",
    "contractor": "Legacy Professional Services",
    "rowid": "1100302",
    "final_x": "3668606.06734",
    "final_y": "530875.098498",
    "longitude": "-90.10880660964273",
    "latitude": "29.954107607437816",
    "geocoded_column": {
      "latitude": "29.954107607437816",
      "longitude": "-90.10880660964273"
    }
  },
  {
    "service_request": "2024-1100301",
    "request_type": "Property Maintenance",
    "request_reason": "Property Maintenance",
    "date_created": "2024-06-05T14:21:33.000",
    "date_modified": "2024-06-05T14:23:05.000",
    "request_status": "Pending",
    "responsible_agency": "Department of Code Enforcement",
    "final_address": "10820 Harrow Rd",
    "address_councildis": "E",
    "status": "Pending",
    "rowid": "1100301",
    "final_x": "3711488.13778",
    "final_y": "563602.913569",
    "longitude": "-89.97217611900568",
    "latitude": "30.042766834741002",
    "geocoded_column": {
      "latitude": "30.042766834741002",
      "longitude": "-89.97217611900568"
    }
  },
  {
    "service_request": "2024-1100300",
    "request_type": "Trash/Recycling",
    "request_reason": "Return Trash Cart",
    "date_created": "2024-06-05T14:21:21.000",
    "date_modified": "2024-06-05T14:21:21.000",
    "request_status": "Pending",
    "responsible_agency": "Department of Sanitation",
    "final_address": "629 Gallier St",
    "address_councildis": "C",
    "status": "Assigned to Contractor",
    "contractor": "IV Waste",
    "rowid": "1100300",
    "final_x": "3690096.25699",
    "final_y": "534011.873157",
    "longitude": "-90.04083777308954",
    "latitude": "29.962083665397532",
    "geocoded_column": {
      "latitude": "29.962083665397532",
      "longitude": "-90.04083777308954"
    }
  },
  {
    "service_request": "2024-1100299",
    "request_type": "Trash/Recycling",
    "request_reason": "Request a Large Item Pick Up",
    "date_created": "2024-06-05T14:20:34.000",
    "date_modified": "2024-06-05T14:20:34.000",
    "request_status": "Pending",
    "responsible_agency": "Department of Sanitation",
    "final_address": "7730 Windward Ct",
    "address_councildis": "E",
    "status": "Assigned to Contractor",
    "contractor": "Waste Pro",
    "rowid": "1100299",
    "final_x": "3715423.10565",
    "final_y": "569887.153126",
    "longitude": "-89.9595020511763",
    "latitude": "30.05991680630782",
    "geocoded_column": {
      "latitude": "30.05991680630782",
      "longitude": "-89.9595020511763"
    }
  },
  {
    "service_request": "2024-1100298",
    "request_type": "Trash/Recycling",
    "request_reason": "Request a Large Item Pick Up",
    "date_created": "2024-06-05T14:19:14.000",
    "date_modified": "2024-06-05T14:19:15.000",
    "request_status": "Pending",
    "responsible_agency": "Department of Sanitation",
    "final_address": "4229 S Roman St",
    "address_councildis": "B",
    "status": "Assigned to Contractor",
    "contractor": "IV Waste",
    "rowid": "1100298",
    "final_x": "3670791.04315",
    "final_y": "526677.630654",
    "longitude": "-90.10204974370926",
    "latitude": "29.94250155939102",
    "geocoded_column": {
      "latitude": "29.94250155939102",
      "longitude": "-90.10204974370926"
    }
  },
  {
    "service_request": "2024-1100297",
    "request_type": "Trash/Recycling",
    "request_reason": "Request a Large Item Pick Up",
    "date_created": "2024-06-05T14:17:43.000",
    "date_modified": "2024-06-05T14:17:43.000",
    "request_status": "Pending",
    "responsible_agency": "Department of Sanitation",
    "final_address": "1630 Reynes St",
    "address_councildis": "E",
    "status": "Assigned to Contractor",
    "contractor": "Waste Pro",
    "rowid": "1100297",
    "final_x": "3696482.74007",
    "final_y": "536394.528839",
    "longitude": "-90.02058413530249",
    "latitude": "29.968435493829116",
    "geocoded_column": {
      "latitude": "29.968435493829116",
      "longitude": "-90.02058413530249"
    }
  },
  {
    "service_request": "2024-1100296",
    "request_type": "Property Maintenance",
    "request_reason": "Property Maintenance",
    "date_created": "2024-06-05T14:17:11.000",
    "date_modified": "2024-06-05T14:17:12.000",
    "request_status": "Pending",
    "responsible_agency": "Department of Code Enforcement",
    "final_address": "2241 Gordon St",
    "address_councildis": "E",
    "status": "Pending",
    "rowid": "1100296",
    "final_x": "3700894.97476",
    "final_y": "537643.219592",
    "longitude": "-90.00660451477385",
    "latitude": "29.971729211170317",
    "geocoded_column": {
      "latitude": "29.971729211170317",
      "longitude": "-90.00660451477385"
    }
  },
  {
    "service_request": "2024-1100295",
    "request_type": "Trash/Recycling",
    "request_reason": "Request a Large Item Pick Up",
    "date_created": "2024-06-05T14:16:52.000",
    "date_modified": "2024-06-05T14:16:52.000",
    "request_status": "Pending",
    "responsible_agency": "Department of Sanitation",
    "final_address": "2955 Seine St",
    "address_councildis": "C",
    "status": "Assigned to Contractor",
    "contractor": "Richards Disposal",
    "rowid": "1100295",
    "final_x": "3694291.12451",
    "final_y": "520479.946168",
    "longitude": "-90.0280778460513",
    "latitude": "29.92474476620032",
    "geocoded_column": {
      "latitude": "29.92474476620032",
      "longitude": "-90.0280778460513"
    }
  },
  {
    "service_request": "2024-1100294",
    "request_type": "Traffic Signals/Signs/Striping/Streetlights",
    "request_reason": "Street Light Outage/Malfunction",
    "date_created": "2024-06-05T14:14:51.000",
    "date_modified": "2024-06-05T14:15:30.000",
    "request_status": "Pending",
    "responsible_agency": "Department of Public Works",
    "final_address": "33 Curtis Dr",
    "address_councildis": "E",
    "status": "Assigned to Contractor",
    "contractor": "Legacy Professional Services",
    "rowid": "1100294",
    "final_x": "3697732.96477",
    "final_y": "560926.173918",
    "longitude": "-90.01574504571296",
    "latitude": "30.0358489509983",
    "geocoded_column": {
      "latitude": "30.0358489509983",
      "longitude": "-90.01574504571296"
    }
  },
  {
    "service_request": "2024-1100293",
    "request_type": "Trash/Recycling",
    "request_reason": "Illegal Dumping",
    "date_created": "2024-06-05T14:12:56.000",
    "date_modified": "2024-06-05T14:12:57.000",
    "request_status": "Pending",
    "responsible_agency": "Department of Sanitation",
    "final_address": "4400 BLK Prytania St",
    "address_councildis": "B",
    "status": "Pending",
    "rowid": "1100293",
    "final_x": "3670683.51227",
    "final_y": "520299.824017",
    "longitude": "-90.10260552380939",
    "latitude": "29.92496782175203",
    "geocoded_column": {
      "latitude": "29.92496782175203",
      "longitude": "-90.10260552380939"
    }
  },
  {
    "service_request": "2024-1100292",
    "request_type": "Trash/Recycling",
    "request_reason": "Repair Recycling Cart",
    "date_created": "2024-06-05T14:11:22.000",
    "date_modified": "2024-06-05T14:11:23.000",
    "request_status": "Pending",
    "responsible_agency": "Department of Sanitation",
    "final_address": "7645 Plum St",
    "address_councildis": "A",
    "status": "Pending",
    "rowid": "1100292",
    "final_x": "3663352.27687",
    "final_y": "527626.963135",
    "longitude": "-90.1255041472364",
    "latitude": "29.945329617674275",
    "geocoded_column": {
      "latitude": "29.945329617674275",
      "longitude": "-90.1255041472364"
    }
  },
  {
    "service_request": "2024-1100291",
    "request_type": "Trash/Recycling",
    "request_reason": "Repair Trash Cart",
    "date_created": "2024-06-05T14:11:12.000",
    "date_modified": "2024-06-05T14:11:13.000",
    "request_status": "Pending",
    "responsible_agency": "Department of Sanitation",
    "final_address": "7645 Plum St",
    "address_councildis": "A",
    "status": "Assigned to Contractor",
    "contractor": "IV Waste",
    "rowid": "1100291",
    "final_x": "3663352.27687",
    "final_y": "527626.963135",
    "longitude": "-90.1255041472364",
    "latitude": "29.945329617674275",
    "geocoded_column": {
      "latitude": "29.945329617674275",
      "longitude": "-90.1255041472364"
    }
  },
  {
    "service_request": "2024-1100290",
    "request_type": "Property Maintenance",
    "request_reason": "Property Maintenance",
    "date_created": "2024-06-05T14:10:52.000",
    "date_modified": "2024-06-05T14:10:52.000",
    "request_status": "Pending",
    "responsible_agency": "Department of Code Enforcement",
    "final_address": "2709 Edna St",
    "address_councildis": "D",
    "status": "Pending",
    "rowid": "1100290",
    "final_x": "3689483.27651",
    "final_y": "545318.952015",
    "longitude": "-90.04237118433618",
    "latitude": "29.993193121071425",
    "geocoded_column": {
      "latitude": "29.993193121071425",
      "longitude": "-90.04237118433618"
    }
  },
  {
    "service_request": "2024-1100289",
    "request_type": "Trash/Recycling",
    "request_reason": "Request a Large Item Pick Up",
    "date_created": "2024-06-05T14:09:00.000",
    "date_modified": "2024-06-05T14:09:01.000",
    "request_status": "Pending",
    "responsible_agency": "Department of Sanitation",
    "final_address": "3307 Annunciation St",
    "address_councildis": "B",
    "status": "Assigned to Contractor",
    "contractor": "IV Waste",
    "rowid": "1100289",
    "final_x": "3675753.63003",
    "final_y": "518776.970167",
    "longitude": "-90.08665309889064",
    "latitude": "29.92062975085604",
    "geocoded_column": {
      "latitude": "29.92062975085604",
      "longitude": "-90.08665309889064"
    }
  },
  {
    "service_request": "2024-1100288",
    "request_type": "Roads/Drainage",
    "request_reason": "Catch Basin - Clogged",
    "date_created": "2024-06-05T14:07:01.000",
    "date_modified": "2024-06-05T14:07:01.000",
    "request_status": "Pending",
    "responsible_agency": "Department of Public Works",
    "final_address": "2700 BLK Baudin St",
    "address_councildis": "B",
    "status": "Pending",
    "rowid": "1100288",
    "final_x": "3674135.1599",
    "final_y": "534009.182754",
    "longitude": "-90.09124066799161",
    "latitude": "29.962561662277327",
    "geocoded_column": {
      "latitude": "29.962561662277327",
      "longitude": "-90.09124066799161"
    }
  },