[
  {
    "service_request": "2025-1184644",
    "request_type": "Streetlights",
    "request_reason": "Streetlight Outage/Malfunction",
    "date_created": "2025-04-16T23:29:42.000",
    "date_modified": "2025-04-16T23:29:44.000",
    "request_status": "Pending",
    "responsible_agency": "Department of Public Works",
    "final_address": "751 S Genois St",
    "address_councildis": "B",
    "status": "Pending",
    "contractor": "Legacy Professional Services",
    "rowid": "1184644",
    "final_x": "3670876.03803",
    "final_y": "534999.29383",
    "longitude": "-90.10149894272753",
    "latitude": "29.96538087757639",
    "geocoded_column": {
      "latitude": "29.96538087757639",
      "longitude": "-90.10149894272753"
    }
  },
  {
    "service_request": "2025-1184643",
    "request_type": "Trash/Recycling",
    "request_reason": "Request a Large Item Pick Up",
    "date_created": "2025-04-16T22:29:05.000",
    "date_modified": "2025-04-16T22:29:06.000",
    "request_status": "Pending",
    "responsible_agency": "Department of Sanitation",
    "final_address": "4816 Coliseum St",
    "address_councildis": "B",
    "status": "Assigned to Contractor",
    "contractor": "IV Waste",
    "rowid": "1184643",
    "final_x": "3669328.24039",
    "final_y": "519615.026936",
    "longitude": "-90.10690682543013",
    "latitude": "29.923124803926513",
    "geocoded_column": {
      "latitude": "29.923124803926513",
      "longitude": "-90.10690682543013"
    }
  },
  {
    "service_request": "2025-1184642",
    "request_type": "Streetlights",
    "request_reason": "Streetlight Outage/Malfunction",
    "date_created": "2025-04-16T22:13:43.000",
    "date_modified": "2025-04-16T22:13:46.000",
    "request_status": "Pending",
    "responsible_agency": "Department of Public Works",
    "final_address": "6720 General Diaz St",
    "address_councildis": "A",
    "status": "Pending",
    "contractor": "Legacy Professional Services",
    "rowid": "1184642",
    "final_x": "3669893.63252",
    "final_y": "552077.198998",
    "longitude": "-90.10402274180268",
    "latitude": "30.012368265198315",
    "geocoded_column": {
      "latitude": "30.012368265198315",
      "longitude": "-90.10402274180268"
    }
  },
  {
    "service_request": "2025-1184641",
    "request_type": "Trash/Recycling",
    "request_reason": "Request a Large Item Pick Up",
    "date_created": "2025-04-16T21:24:02.000",
    "date_modified": "2025-04-16T21:24:05.000",
    "request_status": "Pending",
    "responsible_agency": "Department of Sanitation",
    "final_address": "5617 Woodlawn Pl",
    "address_councildis": "A",
    "status": "Assigned to Contractor",
    "contractor": "IV Waste",
    "rowid": "1184641",
    "final_x": "3667585.00423",
    "final_y": "544831.337807",
    "longitude": "-90.1115608403723",
    "latitude": "29.99251255935614",
    "geocoded_column": {
      "latitude": "29.99251255935614",
      "longitude": "-90.1115608403723"
    }
  },
  {
    "service_request": "2025-1184640",
    "request_type": "Roads and Streets",
    "request_reason": "Sidewalk Damaged or Missing",
    "date_created": "2025-04-16T20:51:41.000",
    "date_modified": "2025-04-16T20:51:44.000",
    "request_status": "Pending",
    "responsible_agency": "Department of Public Works",
    "final_address": "2559 St Nick Dr",
    "address_councildis": "C",
    "status": "Pending",
    "rowid": "1184640",
    "final_x": "3699300.36848",
    "final_y": "521672.750585",
    "longitude": "-90.01222201613227",
    "latitude": "29.92786671792598",
    "geocoded_column": {
      "latitude": "29.92786671792598",
      "longitude": "-90.01222201613227"
    }
  },
  {
    "service_request": "2025-1184639",
    "request_type": "Trash/Recycling",
    "request_reason": "Order Trash Cart",
    "date_created": "2025-04-16T20:11:40.000",
    "date_modified": "2025-04-16T20:11:42.000",
    "request_status": "Pending",
    "responsible_agency": "Department of Sanitation",
    "final_address": "1922 Lapeyrouse St",
    "address_councildis": "D",
    "status": "Assigned to Contractor",
    "contractor": "IV Waste",
    "rowid": "1184639",
    "final_x": "3681111.3908",
    "final_y": "538482.481545",
    "longitude": "-90.06905483421023",
    "latitude": "29.974651915915718",
    "geocoded_column": {
      "latitude": "29.974651915915718",
      "longitude": "-90.06905483421023"
    }
  },
  {
    "service_request": "2025-1184638",
    "request_type": "Trash/Recycling",
    "request_reason": "Repair Recycling Cart",
    "date_created": "2025-04-16T19:59:49.000",
    "date_modified": "2025-04-16T19:59:50.000",
    "request_status": "Pending",
    "responsible_agency": "Department of Sanitation",
    "final_address": "8410 Panola St",
    "address_councildis": "A",
    "status": "Pending",
    "rowid": "1184638",
    "final_x": "3663195.32506",
    "final_y": "531479.573955",
    "longitude": "-90.12587151546492",
    "latitude": "29.955927604064236",
    "geocoded_column": {
      "latitude": "29.955927604064236",
      "longitude": "-90.12587151546492"
    }
  },
  {
    "service_request": "2025-1184637",
    "request_type": "Trash/Recycling",
    "request_reason": "Replace Trash Cart",
    "date_created": "2025-04-16T19:58:23.000",
    "date_modified": "2025-04-16T19:58:25.000",
    "request_status": "Pending",
    "responsible_agency": "Department of Sanitation",
    "final_address": "1337 Arabella St",
    "address_councildis": "A",
    "status": "Assigned to Contractor",
    "contractor": "IV Waste",
    "rowid": "1184637",
    "final_x": "3666299.80327",
    "final_y": "520848.850105",
    "longitude": "-90.11642511242589",
    "latitude": "29.926606210005854",
    "geocoded_column": {
      "latitude": "29.926606210005854",
      "longitude": "-90.11642511242589"
    }
  },
  {
    "service_request": "2025-1184636",
    "request_type": "Trash/Recycling",
    "request_reason": "Repair Recycling Cart",
    "date_created": "2025-04-16T19:45:47.000",
    "date_modified": "2025-04-16T19:45:49.000",
    "request_status": "Pending",
    "responsible_agency": "Department of Sanitation",
    "final_address": "1230 St Anthony St",
    "address_councildis": "C",
    "status": "Pending",
    "rowid": "1184636",
    "final_x": "3683465.46588",
    "final_y": "536436.819207",
    "longitude": "-90.06169179543731",
    "latitude": "29.968955424959365",
    "geocoded_column": {
      "latitude": "29.968955424959365",
      "longitude": "-90.06169179543731"
    }
  },
  {
    "service_request": "2025-1184635",
    "request_type": "Trash/Recycling",
    "request_reason": "Order Recycling Cart",
    "date_created": "2025-04-16T19:44:03.000",
    "date_modified": "2025-04-16T19:44:04.000",
    "request_status": "Pending",
    "responsible_agency": "Department of Sanitation",
    "final_address": "1232 St Anthony St",
    "address_councildis": "C",
    "status": "Pending",
    "rowid": "1184635",
    "final_x": "3683465.65333",
    "final_y": "536447.341639",
    "longitude": "-90.0616908346696",
    "latitude": "29.968984352286782",
    "geocoded_column": {
      "latitude": "29.968984352286782",
      "longitude": "-90.0616908346696"
    }
  },
  {
    "service_request": "2025-1184634",
    "request_type": "Trash/Recycling",
    "request_reason": "Replace Trash Cart",
    "date_created": "2025-04-16T19:42:35.000",
    "date_modified": "2025-04-16T19:42:38.000",
    "request_status": "Pending",
    "responsible_agency": "Department of Sanitation",
    "final_address": "2032 Dublin St",
    "address_councildis": "A",
    "status": "Assigned to Contractor",
    "contractor": "IV Waste",
    "rowid": "1184634",
    "final_x": "3663737.37248",
    "final_y": "530903.604418",
    "longitude": "-90.1241791017239",
    "latitude": "29.95432815751502",
    "geocoded_column": {
      "latitude": "29.95432815751502",
      "longitude": "-90.1241791017239"
    }
  },
  {
    "service_request": "2025-1184633",
    "request_type": "Parks & Parkways",
    "request_reason": "Request Tree Service (Right of Way/Public Property)",
    "date_created": "2025-04-16T19:31:12.000",
    "date_modified": "2025-04-16T19:31:14.000",
    "request_status": "Pending",
    "responsible_agency": "Department of Parks & Parkway",
    "final_address": "1517 Aline St",
    "address_councildis": "B",
    "status": "Pending",
    "rowid": "1184633",
    "final_x": "3673958.43227",
    "final_y": "520965.016569",
    "longitude": "-90.09224490841648",
    "latitude": "29.926699760137502",
    "geocoded_column": {
      "latitude": "29.926699760137502",
      "longitude": "-90.09224490841648"
    }
  },
  {
    "service_request": "2025-1184632",
    "request_type": "Drainage",
    "request_reason": "Street Flooding",
    "date_created": "2025-04-16T19:28:30.000",
    "date_modified": "2025-04-16T19:28:33.000",
    "request_status": "Pending",
    "responsible_agency": "Sewerage & Water Board ",
    "final_address": "1941 Dauphine St",
    "address_councildis": "C",
    "status": "Pending",
    "rowid": "1184632",
    "final_x": "3684251.76341",
    "final_y": "535210.593222",
    "longitude": "-90.05925167893734",
    "latitude": "29.965559710113148",
    "geocoded_column": {
      "latitude": "29.965559710113148",
      "longitude": "-90.05925167893734"
    }
  },
  {
    "service_request": "2025-1184631",
    "request_type": "Property Maintenance",
    "request_reason": "Property Maintenance",
    "date_created": "2025-04-16T19:15:25.000",
    "date_modified": "2025-04-16T19:15:28.000",
    "request_status": "Pending",
    "responsible_agency": "Department of Code Enforcement",
    "final_address": "4300 St Anthony Ave",
    "address_councildis": "D",
    "status": "Pending",
    "rowid": "1184631",
    "final_x": "3682410.59708",
    "final_y": "548389.114898",
    "longitude": "-90.06460519444556",
    "latitude": "30.001852181733472",
    "geocoded_column": {
      "latitude": "30.001852181733472",
      "longitude": "-90.06460519444556"
    }
  },
  {
    "service_request": "2025-1184630",
    "request_type": "Trash/Recycling",
    "request_reason": "Request a Large Item Pick Up",
    "date_created": "2025-04-16T18:44:41.000",
    "date_modified": "2025-04-16T18:44:43.000",
    "request_status": "Pending",
    "responsible_agency": "Department of Sanitation",
    "final_address": "7220 Thornley Dr",
    "address_councildis": "E",
    "status": "Assigned to Contractor",
    "contractor": "Waste Pro",
    "rowid": "1184630",
    "final_x": "3702894.56247",
    "final_y": "560033.846749",
    "longitude": "-89.99946639193918",
    "latitude": "30.033231192157377",
    "geocoded_column": {
      "latitude": "30.033231192157377",
      "longitude": "-89.99946639193918"
    }
  },
  {
    "service_request": "2025-1184629",
    "request_type": "Abandoned Vehicles",
    "request_reason": "Abandoned/Junk Vehicles",
    "date_created": "2025-04-16T18:42:20.000",
    "date_modified": "2025-04-16T18:42:22.000",
    "request_status": "Pending",
    "responsible_agency": "Department of Public Works",
    "final_address": "2801 N Rampart St",
    "address_councildis": "C",
    "status": "Pending",
    "rowid": "1184629",
    "final_x": "3687649.23913",
    "final_y": "535905.843783",
    "longitude": "-90.04849800074929",
    "latitude": "29.96736709522254",
    "geocoded_column": {
      "latitude": "29.96736709522254",
      "longitude": "-90.04849800074929"
    }
  },
  {
    "service_request": "2025-1184628",
    "request_type": "Abandoned Vehicles",
    "request_reason": "Abandoned/Junk Vehicles",
    "date_created": "2025-04-16T18:37:22.000",
    "date_modified": "2025-04-16T18:37:24.000",
    "request_status": "Pending",
    "responsible_agency": "Department of Public Works",
    "final_address": "2801 N Rampart St",
    "address_councildis": "C",
    "status": "Pending",
    "rowid": "1184628",
    "final_x": "3687649.23913",
    "final_y": "535905.843783",
    "longitude": "-90.04849800074929",
    "latitude": "29.96736709522254",
    "geocoded_column": {
      "latitude": "29.96736709522254",
      "longitude": "-90.04849800074929"
    }
  },
  {
    "service_request": "2025-1184627",
    "request_type": "Abandoned Vehicles",
    "request_reason": "Abandoned/Junk Vehicles",
    "date_created": "2025-04-16T18:30:51.000",
    "date_modified": "2025-04-16T18:30:53.000",
    "request_status": "Pending",
    "responsible_agency": "Department of Public Works",
    "final_address": "4135 Clara St",
    "address_councildis": "B",
    "status": "Pending",
    "rowid": "1184627",
    "final_x": "3671325.44865",
    "final_y": "525227.384189",
    "longitude": "-90.10041176666432",
    "latitude": "29.93849805203783",
    "geocoded_column": {
      "latitude": "29.93849805203783",
      "longitude": "-90.10041176666432"
    }
  },
  {
    "service_request": "2025-1184626",
    "request_type": "Abandoned Vehicles",
    "request_reason": "Abandoned/Junk Vehicles",
    "date_created": "2025-04-16T18:28:43.000",
    "date_modified": "2025-04-16T18:28:45.000",
    "request_status": "Pending",
    "responsible_agency": "Department of Public Works",
    "final_address": "2772 Marengo St",
    "address_councildis": "B",
    "status": "Pending",
    "rowid": "1184626",
    "final_x": "3671494.75732",
    "final_y": "525126.929213",
    "longitude": "-90.09988065462278",
    "latitude": "29.938216823119184",
    "geocoded_column": {
      "latitude": "29.938216823119184",
      "longitude": "-90.09988065462278"
    }
  },
  {
    "service_request": "2025-1184625",
    "request_type": "Trash/Recycling",
    "request_reason": "Return Recycling Cart",
    "date_created": "2025-04-16T18:24:59.000",
    "date_modified": "2025-04-16T18:25:00.000",
    "request_status": "Pending",
    "responsible_agency": "Department of Sanitation",
    "final_address": "626 Elmira Ave",
    "address_councildis": "C",
    "status": "Pending",
    "rowid": "1184625",
    "final_x": "3688229.90671",
    "final_y": "529259.494337",
    "longitude": "-90.04689989458721",
    "latitude": "29.94907401674344",
    "geocoded_column": {
      "latitude": "29.94907401674344",
      "longitude": "-90.04689989458721"
    }
  },
  {
    "service_request": "2025-1184624",
    "request_type": "Trash/Recycling",
    "request_reason": "Order Trash Cart",
    "date_created": "2025-04-16T18:19:39.000",
    "date_modified": "2025-04-16T18:29:04.000",
    "case_close_date": "2025-04-16T13:29:04.000",
    "request_status": "Closed",
    "responsible_agency": "Department of Sanitation",
    "final_address": "4334 Stemway Dr",
    "address_councildis": "D",
    "status": "Duplicate Request",
    "contractor": "Waste Pro",
    "contractor_action": "Duplicate",
    "rowid": "1184624",
    "final_x": "3697153.73565",
    "final_y": "551880.561686",
    "longitude": "-90.01790367207157",
    "latitude": "30.01099525991169",
    "geocoded_column": {
      "latitude": "30.01099525991169",
      "longitude": "-90.01790367207157"
    }
  },
  {
    "service_request": "2025-1184623",
    "request_type": "Trash/Recycling",
    "request_reason": "Order Trash Cart",
    "date_created": "2025-04-16T18:12:00.000",
    "date_modified": "2025-04-16T18:12:03.000",
    "request_status": "Pending",
    "responsible_agency": "Department of Sanitation",
    "final_address": "4334 Stemway Dr",
    "address_councildis": "D",
    "status": "Assigned to Contractor",
    "contractor": "Waste Pro",
    "rowid": "1184623",
    "final_x": "3697153.73565",
    "final_y": "551880.561686",
    "longitude": "-90.01790367207157",
    "latitude": "30.01099525991169",
    "geocoded_column": {
      "latitude": "30.01099525991169",
      "longitude": "-90.01790367207157"
    }
  },
  {
    "service_request": "2025-1184622",
    "request_type": "Abandoned Vehicles",
    "request_reason": "Abandoned/Junk Vehicles",
    "date_created": "2025-04-16T18:10:36.000",
    "date_modified": "2025-04-16T18:10:38.000",
    "request_status": "Pending",
    "responsible_agency": "Department of Public Works",
    "final_address": "2801 N Rampart St",
    "address_councildis": "C",
    "status": "Pending",
    "rowid": "1184622",
    "final_x": "3687649.23913",
    "final_y": "535905.843783",
    "longitude": "-90.04849800074929",
    "latitude": "29.96736709522254",
    "geocoded_column": {
      "latitude": "29.96736709522254",
      "longitude": "-90.04849800074929"
    }
  },
  {
    "service_request": "2025-1184621",
    "request_type": "Trash/Recycling",
    "request_reason": "Order Recycling Cart",
    "date_created": "2025-04-16T17:49:11.000",
    "date_modified": "2025-04-16T17:49:14.000",
    "request_status": "Pending",
    "responsible_agency": "Department of Sanitation",
    "final_address": "5720 Alfred St",
    "address_councildis": "D",
    "status": "Pending",
    "rowid": "1184621",
    "final_x": "3677133.3812",
    "final_y": "553506.436503",
    "longitude": "-90.08109982391422",
    "latitude": "30.016082599403727",
    "geocoded_column": {
      "latitude": "30.016082599403727",
      "longitude": "-90.08109982391422"
    }
  },
  {
    "service_request": "2025-1184620",
    "request_type": "Trash/Recycling",
    "request_reason": "Missed Trash Pick-Up",
    "date_created": "2025-04-16T17:44:27.000",
    "date_modified": "2025-04-16T17:44:30.000",
    "request_status": "Pending",
    "responsible_agency": "Department of Sanitation",
    "final_address": "7709 Green St",
    "address_councildis": "A",
    "status": "Assigned to Contractor",
    "contractor": "IV Waste",
    "rowid": "1184620",
    "final_x": "3664173.07444",
    "final_y": "528780.553728",
    "longitude": "-90.1228741399187",
    "latitude": "29.94847780504801",
    "geocoded_column": {
      "latitude": "29.94847780504801",
      "longitude": "-90.1228741399187"
    }
  },
  {
    "service_request": "2025-1184619",
    "request_type": "Property Maintenance",
    "request_reason": "Property Maintenance",
    "date_created": "2025-04-16T17:40:08.000",
    "date_modified": "2025-04-16T17:40:10.000",
    "request_status": "Pending",
    "responsible_agency": "Department of Code Enforcement",
    "final_address": "2800 Seine St",
    "address_councildis": "C",
    "status": "Pending",
    "rowid": "1184619",
    "final_x": "3693311.14614",
    "final_y": "521066.519417",
    "longitude": "-90.03115025565624",
    "latitude": "29.926388303046597",
    "geocoded_column": {
      "latitude": "29.926388303046597",
      "longitude": "-90.03115025565624"
    }
  },
  {
    "service_request": "2025-1184618",
    "request_type": "Trash/Recycling",
    "request_reason": "Request a Large Item Pick Up",
    "date_created": "2025-04-16T17:32:32.000",
    "date_modified": "2025-04-16T17:32:35.000",
    "request_status": "Pending",
    "responsible_agency": "Department of Sanitation",
    "final_address": "4720 Stemway Dr",
    "address_councildis": "D",
    "status": "Assigned to Contractor",
    "contractor": "Waste Pro",
    "rowid": "1184618",
    "final_x": "3696882.43018",
    "final_y": "554071.59356",
    "longitude": "-90.01868140742866",
    "latitude": "30.01702833476925",
    "geocoded_column": {
      "latitude": "30.01702833476925",
      "longitude": "-90.01868140742866"
    }
  },
  {
    "service_request": "2025-1184617",
    "request_type": "Property Maintenance",
    "request_reason": "Property Maintenance",
    "date_created": "2025-04-16T17:23:05.000",
    "date_modified": "2025-04-16T17:23:08.000",
    "request_status": "Pending",
    "responsible_agency": "Department of Code Enforcement",
    "final_address": "3417 St Ferdinand St",
    "address_councildis": "D",
    "status": "Pending",
    "rowid": "1184617",
    "final_x": "3690104.23536",
    "final_y": "545482.544656",
    "longitude": "-90.04040385453465",
    "latitude": "29.99362369046139",
    "geocoded_column": {
      "latitude": "29.99362369046139",
      "longitude": "-90.04040385453465"
    }
  },
  {
    "service_request": "2025-1184616",
    "request_type": "Abandoned Vehicles",
    "request_reason": "Abandoned/Junk Vehicles",
    "date_created": "2025-04-16T17:05:29.000",
    "date_modified": "2025-04-16T17:05:31.000",
    "request_status": "Pending",
    "responsible_agency": "Department of Public Works",
    "final_address": "1824 Third St",
    "address_councildis": "B",
    "status": "Pending",
    "rowid": "1184616",
    "final_x": "3675895.362",
    "final_y": "523639.675387",
    "longitude": "-90.0860386326061",
    "latitude": "29.93399637395838",
    "geocoded_column": {
      "latitude": "29.93399637395838",
      "longitude": "-90.0860386326061"
    }
  },
  {
    "service_request": "2025-1184615",
    "request_type": "Abandoned Vehicles",
    "request_reason": "Abandoned/Junk Vehicles",
    "date_created": "2025-04-16T17:04:16.000",
    "date_modified": "2025-04-16T17:04:18.000",
    "request_status": "Pending",
    "responsible_agency": "Department of Public Works",
    "final_address": "1824 Third St",
    "address_councildis": "B",
    "status": "Pending",
    "rowid": "1184615",
    "final_x": "3675895.362",
    "final_y": "523639.675387",
    "longitude": "-90.0860386326061",
    "latitude": "29.93399637395838",
    "geocoded_column": {
      "latitude": "29.93399637395838",
      "longitude": "-90.0860386326061"
    }
  },
  {
    "service_request": "2025-1184614",
    "request_type": "Abandoned Vehicles",
    "request_reason": "Abandoned/Junk Vehicles",
    "date_created": "2025-04-16T16:57:10.000",
    "date_modified": "2025-04-16T16:57:12.000",
    "request_status": "Pending",
    "responsible_agency": "Department of Public Works",
    "final_address": "819 Bellecastle St",
    "address_councildis": "B",
    "status": "Pending",
    "rowid": "1184614",
    "final_x": "3667726.79514",
    "final_y": "518406.091254",
    "longitude": "-90.11200266607189",
    "latitude": "29.919847646249732",
    "geocoded_column": {
      "latitude": "29.919847646249732",
      "longitude": "-90.11200266607189"
    }
  },
  {
    "service_request": "2025-1184613",
    "request_type": "Trash/Recycling",
    "request_reason": "Return Trash Cart",
    "date_created": "2025-04-16T16:50:04.000",
    "date_modified": "2025-04-16T16:50:22.000",
    "request_status": "Pending",
    "responsible_agency": "Department of Sanitation",
    "final_address": "168 Mary Jane Ln",
    "address_councildis": "E",
    "status": "Assigned to Contractor",
    "contractor": "Waste Pro",
    "rowid": "1184613",
    "final_x": "3718143.98489",
    "final_y": "571327.286248",
    "longitude": "-89.95084667850864",
    "latitude": "30.063786592166252",
    "geocoded_column": {
      "latitude": "30.063786592166252",
      "longitude": "-89.95084667850864"
    }
  },
  {
    "service_request": "2025-1184612",
    "request_type": "Trash/Recycling",
    "request_reason": "Illegal Dumping",
    "date_created": "2025-04-16T16:43:44.000",
    "date_modified": "2025-04-16T16:43:46.000",
    "request_status": "Pending",
    "responsible_agency": "Department of Sanitation",
    "final_address": "604 S Murat St",
    "address_councildis": "A",
    "status": "Pending",
    "rowid": "1184612",
    "final_x": "3668502.58401",
    "final_y": "537752.794248",
    "longitude": "-90.10890130376777",
    "latitude": "29.973022031145234",
    "geocoded_column": {
      "latitude": "29.973022031145234",
      "longitude": "-90.10890130376777"
    }
  },
  {
    "service_request": "2025-1184611",
    "request_type": "Street and Traffic Signs",
    "request_reason": "Traffic or Parking Sign Damaged or Missing",
    "date_created": "2025-04-16T16:43:38.000",
    "date_modified": "2025-04-16T16:43:40.000",
    "request_status": "Pending",
    "responsible_agency": "Department of Public Works",
    "final_address": "921 Hagan St",
    "address_councildis": "A",
    "status": "Pending",
    "rowid": "1184611",
    "final_x": "3675210.16449",
    "final_y": "539243.876426",
    "longitude": "-90.0876662401928",
    "latitude": "29.976923207429735",
    "geocoded_column": {
      "latitude": "29.976923207429735",
      "longitude": "-90.0876662401928"
    }
  },
  {
    "service_request": "2025-1184610",
    "request_type": "Abandoned Vehicles",
    "request_reason": "Abandoned/Junk Vehicles",
    "date_created": "2025-04-16T16:42:30.000",
    "date_modified": "2025-04-16T16:42:32.000",
    "request_status": "Pending",
    "responsible_agency": "Department of Public Works",
    "final_address": "424 S Anthony St",
    "address_councildis": "A",
    "status": "Pending",
    "rowid": "1184610",
    "final_x": "3667717.88122",
    "final_y": "539097.141194",
    "longitude": "-90.1113342772609",
    "latitude": "29.97674156766916",
    "geocoded_column": {
      "latitude": "29.97674156766916",
      "longitude": "-90.1113342772609"
    }
  },
  {
    "service_request": "2025-1184609",
    "request_type": "Parks & Parkways",
    "request_reason": "Request Tree Service (Right of Way/Public Property)",
    "date_created": "2025-04-16T16:42:03.000",
    "date_modified": "2025-04-16T16:42:05.000",
    "request_status": "Pending",
    "responsible_agency": "Department of Parks & Parkway",
    "final_address": "2801 S Prieur St",
    "address_councildis": "B",
    "status": "Pending",
    "rowid": "1184609",
    "final_x": "3672497.17012",
    "final_y": "527579.890559",
    "longitude": "-90.09663235437995",
    "latitude": "29.944931957608773",
    "geocoded_column": {
      "latitude": "29.944931957608773",
      "longitude": "-90.09663235437995"
    }
  },
  {
    "service_request": "2025-1184608",
    "request_type": "Trash/Recycling",
    "request_reason": "Order Recycling Cart",
    "date_created": "2025-04-16T16:40:28.000",
    "date_modified": "2025-04-16T16:40:30.000",
    "request_status": "Pending",
    "responsible_agency": "Department of Sanitation",
    "final_address": "411 S Pierce St",
    "address_councildis": "A",
    "status": "Pending",
    "rowid": "1184608",
    "final_x": "3670626.40436",
    "final_y": "537003.189",
    "longitude": "-90.10221928449346",
    "latitude": "29.970898294810635",
    "geocoded_column": {
      "latitude": "29.970898294810635",
      "longitude": "-90.10221928449346"
    }
  },
  {
    "service_request": "2025-1184607",
    "request_type": "Trash/Recycling",
    "request_reason": "Request a Large Item Pick Up",
    "date_created": "2025-04-16T16:36:00.000",
    "date_modified": "2025-04-16T16:36:02.000",
    "request_status": "Pending",
    "responsible_agency": "Department of Sanitation",
    "final_address": "14043 Curran Rd",
    "address_councildis": "E",
    "status": "Assigned to Contractor",
    "contractor": "Waste Pro",
    "rowid": "1184607",
    "final_x": "3718599.891",
    "final_y": "572441.235753",
    "longitude": "-89.94936301491263",
    "latitude": "30.066834354355482",
    "geocoded_column": {
      "latitude": "30.066834354355482",
      "longitude": "-89.94936301491263"
    }
  },
  {
    "service_request": "2025-1184606",
    "request_type": "Trash/Recycling",
    "request_reason": "Request a Large Item Pick Up",
    "date_created": "2025-04-16T16:31:11.000",
    "date_modified": "2025-04-16T17:35:05.000",
    "case_close_date": "2025-04-16T12:35:05.000",
    "request_status": "Closed",
    "responsible_agency": "Department of Sanitation",
    "final_address": "4428 Longfellow Dr",
    "address_councildis": "E",
    "status": "Duplicate Request",
    "contractor": "Waste Pro",
    "contractor_action": "Duplicate",
    "rowid": "1184606",
    "final_x": "3709713.14008",
    "final_y": "554253.8374",
    "longitude": "-89.97813522744202",
    "latitude": "30.017118420405904",
    "geocoded_column": {
      "latitude": "30.017118420405904",
      "longitude": "-89.97813522744202"
    }
  },
  {
    "service_request": "2025-1184605",
    "request_type": "Trash/Recycling",
    "request_reason": "Request a Large Item Pick Up",
    "date_created": "2025-04-16T16:28:31.000",
    "date_modified": "2025-04-16T16:28:33.000",
    "request_status": "Pending",
    "responsible_agency": "Department of Sanitation",
    "final_address": "5019 Beaucaire St",
    "address_councildis": "E",
    "status": "Assigned to Contractor",
    "contractor": "Waste Pro",
    "rowid": "1184605",
    "final_x": "3724584.54201",
    "final_y": "561957.090847",
    "longitude": "-89.93085045969723",
    "latitude": "30.03780722975628",
    "geocoded_column": {
      "latitude": "30.03780722975628",
      "longitude": "-89.93085045969723"
    }
  },
  {
    "service_request": "2025-1184604",
    "request_type": "Trash/Recycling",
    "request_reason": "Repair Trash Cart",
    "date_created": "2025-04-16T16:09:53.000",
    "date_modified": "2025-04-16T16:09:54.000",
    "request_status": "Pending",
    "responsible_agency": "Department of Sanitation",
    "final_address": "5412 Chatham Dr",
    "address_councildis": "D",
    "status": "Assigned to Contractor",
    "contractor": "IV Waste",
    "rowid": "1184604",
    "final_x": "3679681.96943",
    "final_y": "552387.187606",
    "longitude": "-90.07308630659819",
    "latitude": "30.01292823973804",
    "geocoded_column": {
      "latitude": "30.01292823973804",
      "longitude": "-90.07308630659819"
    }
  },
  {
    "service_request": "2025-1184603",
    "request_type": "Trash/Recycling",
    "request_reason": "Request a Large Item Pick Up",
    "date_created": "2025-04-16T16:09:50.000",
    "date_modified": "2025-04-16T16:09:52.000",
    "request_status": "Pending",
    "responsible_agency": "Department of Sanitation",
    "final_address": "5411 Royal St",
    "address_councildis": "E",
    "status": "Assigned to Contractor",
    "contractor": "Waste Pro",
    "rowid": "1184603",
    "final_x": "3696897.33898",
    "final_y": "532498.415428",
    "longitude": "-90.01941590777422",
    "latitude": "29.957709498503405",
    "geocoded_column": {
      "latitude": "29.957709498503405",
      "longitude": "-90.01941590777422"
    }
  },
  {
    "service_request": "2025-1184602",
    "request_type": "Trash/Recycling",
    "request_reason": "Order Second Trash Cart",
    "date_created": "2025-04-16T16:02:54.000",
    "date_modified": "2025-04-16T16:02:56.000",
    "request_status": "Pending",
    "responsible_agency": "Department of Sanitation",
    "final_address": "7520 Marquis St",
    "address_councildis": "E",
    "status": "Assigned to Contractor",
    "contractor": "Waste Pro",
    "rowid": "1184602",
    "final_x": "3711639.9283",
    "final_y": "565622.312418",
    "longitude": "-89.97162056001491",
    "latitude": "30.04831440850575",
    "geocoded_column": {
      "latitude": "30.04831440850575",
      "longitude": "-89.97162056001491"
    }
  },
  {
    "service_request": "2025-1184601",
    "request_type": "Trash/Recycling",
    "request_reason": "Replace Trash Cart",
    "date_created": "2025-04-16T15:58:03.000",
    "date_modified": "2025-04-16T15:58:07.000",
    "request_status": "Pending",
    "responsible_agency": "Department of Sanitation",
    "final_address": "3042 Hyman Pl",
    "address_councildis": "C",
    "status": "Assigned to Contractor",
    "contractor": "Richards Disposal",
    "rowid": "1184601",
    "final_x": "3701030.62833",
    "final_y": "519787.93068",
    "longitude": "-90.00682890820083",
    "latitude": "29.92262914549782",
    "geocoded_column": {
      "latitude": "29.92262914549782",
      "longitude": "-90.00682890820083"
    }
  },
  {
    "service_request": "2025-1184600",
    "request_type": "Trash/Recycling",
    "request_reason": "Return Recycling Cart",
    "date_created": "2025-04-16T15:55:01.000",
    "date_modified": "2025-04-16T15:55:03.000",
    "request_status": "Pending",
    "responsible_agency": "Department of Sanitation",
    "final_address": "525 Nashville Ave",
    "address_councildis": "A",
    "status": "Pending",
    "rowid": "1184600",
    "final_x": "3665419.81255",
    "final_y": "518200.76351",
    "longitude": "-90.1192915819454",
    "latitude": "29.91935047140951",
    "geocoded_column": {
      "latitude": "29.91935047140951",
      "longitude": "-90.1192915819454"
    }
  },
  {
    "service_request": "2025-1184599",
    "request_type": "Trash/Recycling",
    "request_reason": "Repair Trash Cart",
    "date_created": "2025-04-16T15:52:53.000",
    "date_modified": "2025-04-16T15:52:55.000",
    "request_status": "Pending",
    "responsible_agency": "Department of Sanitation",
    "final_address": "1823 Marais St",
    "address_councildis": "C",
    "status": "Assigned to Contractor",
    "contractor": "IV Waste",
    "rowid": "1184599",
    "final_x": "3683681.06345",
    "final_y": "536597.960583",
    "longitude": "-90.06100527433433",
    "latitude": "29.969391927145153",
    "geocoded_column": {
      "latitude": "29.969391927145153",
      "longitude": "-90.06100527433433"
    }
  },
  {
    "service_request": "2025-1184598",
    "request_type": "Trash/Recycling",
    "request_reason": "Repair Trash Cart",
    "date_created": "2025-04-16T15:52:42.000",
    "date_modified": "2025-04-16T15:53:29.000",
    "request_status": "Pending",
    "responsible_agency": "Department of Sanitation",
    "final_address": "3741 Red Cypress Dr",
    "address_councildis": "C",
    "status": "Assigned to Contractor",
    "contractor": "Richards Disposal",
    "rowid": "1184598",
    "final_x": "3703357.52004",
    "final_y": "512168.190769",
    "longitude": "-89.99976382660886",
    "latitude": "29.9016031920279",
    "geocoded_column": {
      "latitude": "29.9016031920279",
      "longitude": "-89.99976382660886"
    }
  },
  {
    "service_request": "2025-1184597",
    "request_type": "Trash/Recycling",
    "request_reason": "Request a Large Item Pick Up",
    "date_created": "2025-04-16T15:51:42.000",
    "date_modified": "2025-04-16T15:51:45.000",
    "request_status": "Pending",
    "responsible_agency": "Department of Sanitation",
    "final_address": "1823 Marais St",
    "address_councildis": "C",
    "status": "Assigned to Contractor",
    "contractor": "IV Waste",
    "rowid": "1184597",
    "final_x": "3683681.06345",
    "final_y": "536597.960583",
    "longitude": "-90.06100527433433",
    "latitude": "29.969391927145153",
    "geocoded_column": {
      "latitude": "29.969391927145153",
      "longitude": "-90.06100527433433"
    }
  },
  {
    "service_request": "2025-1184596",
    "request_type": "Abandoned Vehicles",
    "request_reason": "Abandoned/Junk Vehicles",
    "date_created": "2025-04-16T15:51:06.000",
    "date_modified": "2025-04-16T15:51:07.000",
    "request_status": "Pending",
    "responsible_agency": "Department of Public Works",
    "final_address": "325 S St Patrick St",
    "address_councildis": "A",
    "status": "Pending",
    "rowid": "1184596",
    "final_x": "3668475.52167",
    "final_y": "539061.934922",
    "longitude": "-90.10894259259986",
    "latitude": "29.976622523364362",
    "geocoded_column": {
      "latitude": "29.976622523364362",
      "longitude": "-90.10894259259986"
    }
  },
  {
    "service_request": "2025-1184595",
    "request_type": "Trash/Recycling",
    "request_reason": "Replace Trash Cart",
    "date_created": "2025-04-16T15:50:28.000",
    "date_modified": "2025-04-16T15:50:30.000",
    "request_status": "Pending",
    "responsible_agency": "Department of Sanitation",
    "final_address": "604 Seventh St",
    "address_councildis": "B",
    "status": "Assigned to Contractor",
    "contractor": "IV Waste",
    "rowid": "1184595",
    "final_x": "3677317.14562",
    "final_y": "518885.433719",
    "longitude": "-90.08171406137319",
    "latitude": "29.920881122929323",
    "geocoded_column": {
      "latitude": "29.920881122929323",
      "longitude": "-90.08171406137319"
    }
  },
  {
    "service_request": "2025-1184594",
    "request_type": "Trash/Recycling",
    "request_reason": "Request a Large Item Pick Up",
    "date_created": "2025-04-16T15:49:05.000",
    "date_modified": "2025-04-16T15:49:07.000",
    "request_status": "Pending",
    "responsible_agency": "Department of Sanitation",
    "final_address": "2823 General Pershing St",
    "address_councildis": "B",
    "status": "Assigned to Contractor",
    "contractor": "IV Waste",
    "rowid": "1184594",
    "final_x": "3670861.99156",
    "final_y": "525318.063997",
    "longitude": "-90.10187187492342",
    "latitude": "29.938761096022596",
    "geocoded_column": {
      "latitude": "29.938761096022596",
      "longitude": "-90.10187187492342"
    }
  },
  {
    "service_request": "2025-1184593",
    "request_type": "Streetlights",
    "request_reason": "Streetlight Knocked Down/Leaning",
    "date_created": "2025-04-16T15:48:51.000",
    "date_modified": "2025-04-16T15:50:19.000",
    "request_status": "Pending",
    "responsible_agency": "Department of Public Works",
    "final_address": "N ROBERTSON ST & PIETY ST",
    "address_councildis": "D",
    "status": "Pending",
    "contractor": "Legacy Professional Services",
    "rowid": "1184593",
    "final_x": "3690207.2",
    "final_y": "537286.58",
    "longitude": "-90.04037074539116",
    "latitude": "29.971084519150992",
    "geocoded_column": {
      "latitude": "29.971084519150992",
      "longitude": "-90.04037074539116"
    }
  },
  {
    "service_request": "2025-1184592",
    "request_type": "Trash/Recycling",
    "request_reason": "Repair Trash Cart",
    "date_created": "2025-04-16T15:48:00.000",
    "date_modified": "2025-04-16T15:48:03.000",
    "request_status": "Pending",
    "responsible_agency": "Department of Sanitation",
    "final_address": "81 Fontainebleau Dr",
    "address_councildis": "A",
    "status": "Assigned to Contractor",
    "contractor": "IV Waste",
    "rowid": "1184592",
    "final_x": "3666868.03258",
    "final_y": "530882.411394",
    "longitude": "-90.11429439572407",
    "latitude": "29.95417867303513",
    "geocoded_column": {
      "latitude": "29.95417867303513",
      "longitude": "-90.11429439572407"
    }
  },
  {
    "service_request": "2025-1184591",
    "request_type": "Trash/Recycling",
    "request_reason": "Replace Recycling Cart",
    "date_created": "2025-04-16T15:47:25.000",
    "date_modified": "2025-04-16T15:47:27.000",
    "request_status": "Pending",
    "responsible_agency": "Department of Sanitation",
    "final_address": "4111 St Claude Ave",
    "address_councildis": "C",
    "status": "Pending",
    "rowid": "1184591",
    "final_x": "3692232.95094",
    "final_y": "535310.872774",
    "longitude": "-90.03404393089177",
    "latitude": "29.965589013560315",
    "geocoded_column": {
      "latitude": "29.965589013560315",
      "longitude": "-90.03404393089177"
    }
  },
  {
    "service_request": "2025-1184590",
    "request_type": "Trash/Recycling",
    "request_reason": "Illegal Dumping",
    "date_created": "2025-04-16T15:45:52.000",
    "date_modified": "2025-04-16T15:45:55.000",
    "request_status": "Pending",
    "responsible_agency": "Department of Sanitation",
    "final_address": "800 BLK Socrates St",
    "address_councildis": "C",
    "status": "Pending",
    "rowid": "1184590",
    "final_x": "3688431.53189",
    "final_y": "526408.494543",
    "longitude": "-90.04636438326136",
    "latitude": "29.941228513740448",
    "geocoded_column": {
      "latitude": "29.941228513740448",
      "longitude": "-90.04636438326136"
    }
  },
  {
    "service_request": "2025-1184589",
    "request_type": "Trash/Recycling",
    "request_reason": "Damaged Caused By Contractor",
    "date_created": "2025-04-16T15:45:09.000",
    "date_modified": "2025-04-16T15:45:12.000",
    "request_status": "Pending",
    "responsible_agency": "Department of Sanitation",
    "final_address": "6117 West End Blvd",
    "address_councildis": "A",
    "status": "Assigned to Contractor",
    "contractor": "IV Waste",
    "rowid": "1184589",
    "final_x": "3666596.51988",
    "final_y": "548259.096658",
    "longitude": "-90.11456812026665",
    "latitude": "30.00196666249676",
    "geocoded_column": {
      "latitude": "30.00196666249676",
      "longitude": "-90.11456812026665"
    }
  },
  {
    "service_request": "2025-1184588",
    "request_type": "Streetlights",
    "request_reason": "Streetlight Outage/Malfunction",
    "date_created": "2025-04-16T15:44:11.000",
    "date_modified": "2025-04-16T15:51:44.000",
    "request_status": "Pending",
    "responsible_agency": "Department of Public Works",
    "final_address": "4312 S Dorgenois St",
    "address_councildis": "B",
    "status": "Pending",
    "contractor": "Legacy Professional Services",
    "rowid": "1184588",
    "final_x": "3670336.3225",
    "final_y": "528792.06336",
    "longitude": "-90.10341374859375",
    "latitude": "29.948328987744194",
    "geocoded_column": {
      "latitude": "29.948328987744194",
      "longitude": "-90.10341374859375"
    }
  },
  {
    "service_request": "2025-1184587",
    "request_type": "Trash/Recycling",
    "request_reason": "Repair Trash Cart",
    "date_created": "2025-04-16T15:43:52.000",
    "date_modified": "2025-04-16T15:43:54.000",
    "request_status": "Pending",
    "responsible_agency": "Department of Sanitation",
    "final_address": "323 10Th St",
    "address_councildis": "A",
    "status": "Assigned to Contractor",
    "contractor": "IV Waste",
    "rowid": "1184587",
    "final_x": "3664915.33639",
    "final_y": "547604.722962",
    "longitude": "-90.11990107994599",
    "latitude": "30.000216421327256",
    "geocoded_column": {
      "latitude": "30.000216421327256",
      "longitude": "-90.11990107994599"
    }
  },
  {
    "service_request": "2025-1184586",
    "request_type": "Trash/Recycling",
    "request_reason": "Repair Recycling Cart",
    "date_created": "2025-04-16T15:42:36.000",
    "date_modified": "2025-04-16T15:42:38.000",
    "request_status": "Pending",
    "responsible_agency": "Department of Sanitation",
    "final_address": "4312 S Dorgenois St",
    "address_councildis": "B",
    "status": "Pending",
    "rowid": "1184586",
    "final_x": "3670336.3225",
    "final_y": "528792.06336",
    "longitude": "-90.10341374859375",
    "latitude": "29.948328987744194",
    "geocoded_column": {
      "latitude": "29.948328987744194",
      "longitude": "-90.10341374859375"
    }
  },
  {
    "service_request": "2025-1184585",
    "request_type": "Streetlights",
    "request_reason": "Streetlight Outage/Malfunction",
    "date_created": "2025-04-16T15:42:31.000",
    "date_modified": "2025-04-16T15:42:33.000",
    "request_status": "Pending",
    "responsible_agency": "Department of Public Works",
    "final_address": "1800 Laurel St",
    "address_councildis": "B",
    "status": "Pending",
    "contractor": "Legacy Professional Services",
    "rowid": "1184585",
    "final_x": "3680510.23426",
    "final_y": "522455.393338",
    "longitude": "-90.07151084376822",
    "latitude": "29.930601052761222",
    "geocoded_column": {
      "latitude": "29.930601052761222",
      "longitude": "-90.07151084376822"
    }
  },
  {
    "service_request": "2025-1184584",
    "request_type": "Trash/Recycling",
    "request_reason": "Missed Trash Pick-Up",
    "date_created": "2025-04-16T15:41:38.000",
    "date_modified": "2025-04-16T15:41:40.000",
    "request_status": "Pending",
    "responsible_agency": "Department of Sanitation",
    "final_address": "4108 S Inwood Ave",
    "address_councildis": "C",
    "status": "Assigned to Contractor",
    "contractor": "Richards Disposal",
    "rowid": "1184584",
    "final_x": "3704824.06315",
    "final_y": "512760.010865",
    "longitude": "-89.99511373475958",
    "latitude": "29.903183482795136",
    "geocoded_column": {
      "latitude": "29.903183482795136",
      "longitude": "-89.99511373475958"
    }
  },
  {
    "service_request": "2025-1184583",
    "request_type": "Trash/Recycling",
    "request_reason": "Illegal Dumping",
    "date_created": "2025-04-16T15:40:23.000",
    "date_modified": "2025-04-16T15:40:25.000",
    "request_status": "Pending",
    "responsible_agency": "Department of Sanitation",
    "final_address": "800 BLK Socrates St",
    "address_councildis": "C",
    "status": "Pending",
    "rowid": "1184583",
    "final_x": "3688431.53189",
    "final_y": "526408.494543",
    "longitude": "-90.04636438326136",
    "latitude": "29.941228513740448",
    "geocoded_column": {
      "latitude": "29.941228513740448",
      "longitude": "-90.04636438326136"
    }
  },
  {
    "service_request": "2025-1184582",
    "request_type": "Trash/Recycling",
    "request_reason": "Repair Trash Cart",
    "date_created": "2025-04-16T15:38:58.000",
    "date_modified": "2025-04-16T15:38:59.000",
    "request_status": "Pending",
    "responsible_agency": "Department of Sanitation",
    "final_address": "2667 Halsey Ave",
    "address_councildis": "C",
    "status": "Assigned to Contractor",
    "contractor": "Richards Disposal",
    "rowid": "1184582",
    "final_x": "3697591.97136",
    "final_y": "521204.092985",
    "longitude": "-90.01763198282899",
    "latitude": "29.926632120116345",
    "geocoded_column": {
      "latitude": "29.926632120116345",
      "longitude": "-90.01763198282899"
    }
  },
  {
    "service_request": "2025-1184581",
    "request_type": "Property Maintenance",
    "request_reason": "Property Maintenance",
    "date_created": "2025-04-16T15:37:44.000",
    "date_modified": "2025-04-16T15:37:46.000",
    "request_status": "Pending",
    "responsible_agency": "Department of Code Enforcement",
    "final_address": "3639 Fairmont Dr",
    "address_councildis": "D",
    "status": "Pending",
    "rowid": "1184581",
    "final_x": "3685533.85308",
    "final_y": "545817.842576",
    "longitude": "-90.05482914619414",
    "latitude": "29.994686649220736",
    "geocoded_column": {
      "latitude": "29.994686649220736",
      "longitude": "-90.05482914619414"
    }
  },
  {
    "service_request": "2025-1184580",
    "request_type": "Mosquito, Termite & Rodent Control",
    "request_reason": "Mosquito Complaint",
    "date_created": "2025-04-16T15:37:24.000",
    "date_modified": "2025-04-16T15:37:25.000",
    "request_status": "Pending",
    "responsible_agency": "Mosquito, Termite & Rodent Control Board",
    "final_address": "7300 St Charles Ave",
    "address_councildis": "A",
    "status": "Pending",
    "rowid": "1184580",
    "final_x": "3662537.85018",
    "final_y": "524843.384316",
    "longitude": "-90.1281680010551",
    "latitude": "29.93769924242485",
    "geocoded_column": {
      "latitude": "29.93769924242485",
      "longitude": "-90.1281680010551"
    }
  },
  {
    "service_request": "2025-1184579",
    "request_type": "Trash/Recycling",
    "request_reason": "Order Trash Cart",
    "date_created": "2025-04-16T15:34:32.000",
    "date_modified": "2025-04-16T15:34:33.000",
    "request_status": "Pending",
    "responsible_agency": "Department of Sanitation",
    "final_address": "1113 Thalia St",
    "address_councildis": "B",
    "status": "Assigned to Contractor",
    "contractor": "IV Waste",
    "rowid": "1184579",
    "final_x": "3680421.23304",
    "final_y": "525300.386429",
    "longitude": "-90.07169291863251",
    "latitude": "29.93842653863474",
    "geocoded_column": {
      "latitude": "29.93842653863474",
      "longitude": "-90.07169291863251"
    }
  },
  {
    "service_request": "2025-1184578",
    "request_type": "Trash/Recycling",
    "request_reason": "Order Trash Cart",
    "date_created": "2025-04-16T15:33:19.000",
    "date_modified": "2025-04-16T15:33:21.000",
    "request_status": "Pending",
    "responsible_agency": "Department of Sanitation",
    "final_address": "1115 Thalia St",
    "address_councildis": "B",
    "status": "Assigned to Contractor",
    "contractor": "IV Waste",
    "rowid": "1184578",
    "final_x": "3680412.75867",
    "final_y": "525303.169021",
    "longitude": "-90.07171957633015",
    "latitude": "29.93843444640296",
    "geocoded_column": {
      "latitude": "29.93843444640296",
      "longitude": "-90.07171957633015"
    }
  },
  {
    "service_request": "2025-1184577",
    "request_type": "Trash/Recycling",
    "request_reason": "Repair Trash Cart",
    "date_created": "2025-04-16T15:32:53.000",
    "date_modified": "2025-04-16T15:33:51.000",
    "request_status": "Pending",
    "responsible_agency": "Department of Sanitation",
    "final_address": "3625 Joliet St",
    "address_councildis": "A",
    "status": "Assigned to Contractor",
    "contractor": "IV Waste",
    "rowid": "1184577",
    "final_x": "3666835.76935",
    "final_y": "535790.653767",
    "longitude": "-90.11423137853515",
    "latitude": "29.967675667852692",
    "geocoded_column": {
      "latitude": "29.967675667852692",
      "longitude": "-90.11423137853515"
    }
  },
  {
    "service_request": "2025-1184576",
    "request_type": "Trash/Recycling",
    "request_reason": "Request a Large Item Pick Up",
    "date_created": "2025-04-16T15:31:54.000",
    "date_modified": "2025-04-16T15:31:56.000",
    "request_status": "Pending",
    "responsible_agency": "Department of Sanitation",
    "final_address": "4446 Eastview Dr, New Orleans, Louisiana, 70126",
    "address_councildis": "E",
    "status": "Assigned to Contractor",
    "contractor": "Waste Pro",
    "rowid": "1184576",
    "final_x": "3705217.92254",
    "final_y": "553655.813527",
    "longitude": "-89.992360273298",
    "latitude": "30.01561950388063",
    "geocoded_column": {
      "latitude": "30.01561950388063",
      "longitude": "-89.992360273298"
    }
  },
  {
    "service_request": "2025-1184575",
    "request_type": "Trash/Recycling",
    "request_reason": "Repair Trash Cart",
    "date_created": "2025-04-16T15:29:39.000",
    "date_modified": "2025-04-16T15:29:41.000",
    "request_status": "Pending",
    "responsible_agency": "Department of Sanitation",
    "final_address": "2225 Conti St",
    "address_councildis": "B",
    "status": "Assigned to Contractor",
    "contractor": "IV Waste",
    "rowid": "1184575",
    "final_x": "3677498.05493",
    "final_y": "534978.11047",
    "longitude": "-90.08058764697537",
    "latitude": "29.9651252209016",
    "geocoded_column": {
      "latitude": "29.9651252209016",
      "longitude": "-90.08058764697537"
    }
  },
  {
    "service_request": "2025-1184574",
    "request_type": "Trash/Recycling",
    "request_reason": "Order Trash Cart",
    "date_created": "2025-04-16T15:29:27.000",
    "date_modified": "2025-04-16T15:29:29.000",
    "request_status": "Pending",
    "responsible_agency": "Department of Sanitation",
    "final_address": "2621 First St",
    "address_councildis": "B",
    "status": "Assigned to Contractor",
    "contractor": "IV Waste",
    "rowid": "1184574",
    "final_x": "3674884.97115",
    "final_y": "526402.521726",
    "longitude": "-90.08913369086912",
    "latitude": "29.94162350172072",
    "geocoded_column": {
      "latitude": "29.94162350172072",
      "longitude": "-90.08913369086912"
    }
  },
  {
    "service_request": "2025-1184573",
    "request_type": "Trash/Recycling",
    "request_reason": "Request a Large Item Pick Up",
    "date_created": "2025-04-16T15:29:20.000",
    "date_modified": "2025-04-16T15:29:22.000",
    "request_status": "Pending",
    "responsible_agency": "Department of Sanitation",
    "final_address": "4600 Lynhuber Dr",
    "address_councildis": "D",
    "status": "Assigned to Contractor",
    "contractor": "Waste Pro",
    "rowid": "1184573",
    "final_x": "3698032.61271",
    "final_y": "553537.338263",
    "longitude": "-90.01506674600824",
    "latitude": "30.01552299945265",
    "geocoded_column": {
      "latitude": "30.01552299945265",
      "longitude": "-90.01506674600824"
    }
  },
  {
    "service_request": "2025-1184572",
    "request_type": "Roads and Streets",
    "request_reason": "Abandoned Service Cut",
    "date_created": "2025-04-16T15:26:31.000",
    "date_modified": "2025-04-16T15:26:33.000",
    "request_status": "Pending",
    "responsible_agency": "Department of Public Works",
    "final_address": "1515 Valmont St",
    "address_councildis": "B",
    "status": "Pending",
    "rowid": "1184572",
    "final_x": "3667835.71975",
    "final_y": "520564.229176",
    "longitude": "-90.11158620829939",
    "latitude": "29.925778651202457",
    "geocoded_column": {
      "latitude": "29.925778651202457",
      "longitude": "-90.11158620829939"
    }
  },
  {
    "service_request": "2025-1184571",
    "request_type": "Streetlights",
    "request_reason": "New Streetlight Request",
    "date_created": "2025-04-16T15:22:53.000",
    "date_modified": "2025-04-16T15:22:55.000",
    "request_status": "Pending",
    "responsible_agency": "Department of Public Works",
    "final_address": "2627 Sage St",
    "address_councildis": "D",
    "status": "Pending",
    "contractor": "Legacy Professional Services",
    "rowid": "1184571",
    "final_x": "3687451.25519",
    "final_y": "545532.665168",
    "longitude": "-90.04878241637314",
    "latitude": "29.993843548748693",
    "geocoded_column": {
      "latitude": "29.993843548748693",
      "longitude": "-90.04878241637314"
    }
  },
  {
    "service_request": "2025-1184570",
    "request_type": "Roads and Streets",
    "request_reason": "Pothole",
    "date_created": "2025-04-16T15:18:46.000",
    "date_modified": "2025-04-16T15:18:48.000",
    "request_status": "Pending",
    "responsible_agency": "Department of Public Works",
    "final_address": "9012 Apricot St",
    "address_councildis": "A",
    "status": "Pending",
    "rowid": "1184570",
    "final_x": "3663371.45991",
    "final_y": "534808.476038",
    "longitude": "-90.12520451054831",
    "latitude": "29.965075894204027",
    "geocoded_column": {
      "latitude": "29.965075894204027",
      "longitude": "-90.12520451054831"
    }
  },
  {
    "service_request": "2025-1184569",
    "request_type": "Trash/Recycling",
    "request_reason": "Replace Trash Cart",
    "date_created": "2025-04-16T15:18:37.000",
    "date_modified": "2025-04-16T15:18:39.000",
    "request_status": "Pending",
    "responsible_agency": "Department of Sanitation",
    "final_address": "3538 Mimosa Ct",
    "address_councildis": "C",
    "status": "Assigned to Contractor",
    "contractor": "Richards Disposal",
    "rowid": "1184569",
    "final_x": "3703529.36311",
    "final_y": "513075.034033",
    "longitude": "-89.99918818250998",
    "latitude": "29.90409120320615",
    "geocoded_column": {
      "latitude": "29.90409120320615",
      "longitude": "-89.99918818250998"
    }
  },
  {
    "service_request": "2025-1184568",
    "request_type": "Roads and Streets",
    "request_reason": "Debris in Driving Lanes",
    "date_created": "2025-04-16T15:17:59.000",
    "date_modified": "2025-04-16T15:18:01.000",
    "request_status": "Pending",
    "responsible_agency": "Department of Public Works",
    "final_address": "5028 Warrington Dr",
    "address_councildis": "D",
    "status": "Pending",
    "rowid": "1184568",
    "final_x": "3680941.2349",
    "final_y": "551269.698005",
    "longitude": "-90.06914666527827",
    "latitude": "30.009817404589192",
    "geocoded_column": {
      "latitude": "30.009817404589192",
      "longitude": "-90.06914666527827"
    }
  },
  {
    "service_request": "2025-1184567",
    "request_type": "Trash/Recycling",
    "request_reason": "Request a Large Item Pick Up",
    "date_created": "2025-04-16T15:11:30.000",
    "date_modified": "2025-04-16T15:11:32.000",
    "request_status": "Pending",
    "responsible_agency": "Department of Sanitation",
    "final_address": "1333 Mazant St",
    "address_councildis": "D",
    "status": "Assigned to Contractor",
    "contractor": "IV Waste",
    "rowid": "1184567",
    "final_x": "3692397.3439",
    "final_y": "536221.895495",
    "longitude": "-90.03349215039599",
    "latitude": "29.96808887809493",
    "geocoded_column": {
      "latitude": "29.96808887809493",
      "longitude": "-90.03349215039599"
    }
  },
  {
    "service_request": "2025-1184566",
    "request_type": "Trash/Recycling",
    "request_reason": "Replace Recycling Cart",
    "date_created": "2025-04-16T15:09:15.000",
    "date_modified": "2025-04-16T15:09:17.000",
    "request_status": "Pending",
    "responsible_agency": "Department of Sanitation",
    "final_address": "3923 Coliseum St",
    "address_councildis": "B",
    "status": "Pending",
    "rowid": "1184566",
    "final_x": "3672639.79841",
    "final_y": "520030.822648",
    "longitude": "-90.09643931980689",
    "latitude": "29.924170232621645",
    "geocoded_column": {
      "latitude": "29.924170232621645",
      "longitude": "-90.09643931980689"
    }
  },
  {
    "service_request": "2025-1184565",
    "request_type": "Property Maintenance",
    "request_reason": "Property Maintenance",
    "date_created": "2025-04-16T15:05:19.000",
    "date_modified": "2025-04-16T15:35:37.000",
    "case_close_date": "2025-04-16T10:35:36.000",
    "request_status": "Closed",
    "responsible_agency": "Department of Code Enforcement",
    "final_address": "752 Jewel St",
    "address_councildis": "D",
    "status": "Referred to Code Enforcement",
    "rowid": "1184565",
    "final_x": "3669813.77274",
    "final_y": "555799.422361",
    "longitude": "-90.10414889930509",
    "latitude": "30.02260541433247",
    "geocoded_column": {
      "latitude": "30.02260541433247",
      "longitude": "-90.10414889930509"
    }
  },
  {
    "service_request": "2025-1184564",
    "request_type": "Property Maintenance",
    "request_reason": "Property Maintenance",
    "date_created": "2025-04-16T15:02:53.000",
    "date_modified": "2025-04-16T15:02:55.000",
    "request_status": "Pending",
    "responsible_agency": "Department of Code Enforcement",
    "final_address": "709 Valence St",
    "address_councildis": "B",
    "status": "Pending",
    "rowid": "1184564",
    "final_x": "3670053.86804",
    "final_y": "518042.32031",
    "longitude": "-90.10466952404676",
    "latitude": "29.91877898350786",
    "geocoded_column": {
      "latitude": "29.91877898350786",
      "longitude": "-90.10466952404676"
    }
  },
  {
    "service_request": "2025-1184563",
    "request_type": "Trash/Recycling",
    "request_reason": "Request a Large Item Pick Up",
    "date_created": "2025-04-16T14:56:25.000",
    "date_modified": "2025-04-16T14:56:27.000",
    "request_status": "Pending",
    "responsible_agency": "Department of Sanitation",
    "final_address": "N VILLERE ST & PIETY ST",
    "address_councildis": "C",
    "status": "Assigned to Contractor",
    "contractor": "IV Waste",
    "rowid": "1184563",
    "final_x": "3690115.4",
    "final_y": "536903.38",
    "longitude": "-90.04067431364899",
    "latitude": "29.97003370208846",
    "geocoded_column": {
      "latitude": "29.97003370208846",
      "longitude": "-90.04067431364899"
    }
  },
  {
    "service_request": "2025-1184562",
    "request_type": "Abandoned Vehicles",
    "request_reason": "Abandoned/Junk Vehicles",
    "date_created": "2025-04-16T14:48:57.000",
    "date_modified": "2025-04-16T14:48:59.000",
    "request_status": "Pending",
    "responsible_agency": "Department of Public Works",
    "final_address": "637 Lowerline St",
    "address_councildis": "A",
    "status": "Pending",
    "rowid": "1184562",
    "final_x": "3662757.47943",
    "final_y": "525293.966269",
    "longitude": "-90.12745964071046",
    "latitude": "29.93893184623794",
    "geocoded_column": {
      "latitude": "29.93893184623794",
      "longitude": "-90.12745964071046"
    }
  },
  {
    "service_request": "2025-1184561",
    "request_type": "Trash/Recycling",
    "request_reason": "Order Trash Cart",
    "date_created": "2025-04-16T14:43:24.000",
    "date_modified": "2025-04-16T14:43:26.000",
    "request_status": "Pending",
    "responsible_agency": "Department of Sanitation",
    "final_address": "1518 Kerlerec St",
    "address_councildis": "C",
    "status": "Assigned to Contractor",
    "contractor": "IV Waste",
    "rowid": "1184561",
    "final_x": "3681653.97576",
    "final_y": "536727.351687",
    "longitude": "-90.06740245943207",
    "latitude": "29.96980944315269",
    "geocoded_column": {
      "latitude": "29.96980944315269",
      "longitude": "-90.06740245943207"
    }
  },
  {
    "service_request": "2025-1184560",
    "request_type": "Trash/Recycling",
    "request_reason": "Missed Trash Pick-Up",
    "date_created": "2025-04-16T14:42:27.000",
    "date_modified": "2025-04-16T14:42:28.000",
    "request_status": "Pending",
    "responsible_agency": "Department of Sanitation",
    "final_address": "2309 DAbadie St",
    "address_councildis": "D",
    "status": "Assigned to Contractor",
    "contractor": "IV Waste",
    "rowid": "1184560",
    "final_x": "3680619.96488",
    "final_y": "539954.177674",
    "longitude": "-90.07055565434153",
    "latitude": "29.978713470161825",
    "geocoded_column": {
      "latitude": "29.978713470161825",
      "longitude": "-90.07055565434153"
    }
  },
  {
    "service_request": "2025-1184559",
    "request_type": "Trash/Recycling",
    "request_reason": "Repair Trash Cart",
    "date_created": "2025-04-16T14:41:41.000",
    "date_modified": "2025-04-16T14:41:43.000",
    "request_status": "Pending",
    "responsible_agency": "Department of Sanitation",
    "final_address": "2636 State St",
    "address_councildis": "A",
    "status": "Assigned to Contractor",
    "contractor": "IV Waste",
    "rowid": "1184559",
    "final_x": "3666966.75706",
    "final_y": "526421.08787",
    "longitude": "-90.1141325521786",
    "latitude": "29.94190859184033",
    "geocoded_column": {
      "latitude": "29.94190859184033",
      "longitude": "-90.1141325521786"
    }
  },
  {
    "service_request": "2025-1184558",
    "request_type": "Parks & Parkways",
    "request_reason": "Request Tree Service (Right of Way/Public Property)",
    "date_created": "2025-04-16T14:36:02.000",
    "date_modified": "2025-04-16T14:36:04.000",
    "request_status": "Pending",
    "responsible_agency": "Department of Parks & Parkway",
    "final_address": "4931 Annunciation St",
    "address_councildis": "B",
    "status": "Pending",
    "rowid": "1184558",
    "final_x": "3668694.1387",
    "final_y": "517570.019702",
    "longitude": "-90.10897742365867",
    "latitude": "29.917520326180703",
    "geocoded_column": {
      "latitude": "29.917520326180703",
      "longitude": "-90.10897742365867"
    }
  },
  {
    "service_request": "2025-1184557",
    "request_type": "Trash/Recycling",
    "request_reason": "Start Trash Service",
    "date_created": "2025-04-16T14:31:35.000",
    "date_modified": "2025-04-16T14:31:38.000",
    "request_status": "Pending",
    "responsible_agency": "Department of Sanitation",
    "final_address": "13101 Chef Menteur Hwy",
    "address_councildis": "E",
    "status": "Assigned to Contractor",
    "contractor": "Waste Pro",
    "rowid": "1184557",
    "final_x": "3724614.23603",
    "final_y": "559333.704605",
    "longitude": "-89.93085809402756",
    "latitude": "30.0305929936212",
    "geocoded_column": {
      "latitude": "30.0305929936212",
      "longitude": "-89.93085809402756"
    }
  },
  {
    "service_request": "2025-1184556",
    "request_type": "Streetlights",
    "request_reason": "Streetlight Outage/Malfunction",
    "date_created": "2025-04-16T14:28:29.000",
    "date_modified": "2025-04-16T14:28:31.000",
    "request_status": "Pending",
    "responsible_agency": "Department of Public Works",
    "final_address": "4521 N Villere St",
    "address_councildis": "D",
    "status": "Pending",
    "contractor": "Legacy Professional Services",
    "rowid": "1184556",
    "final_x": "3693772.22627",
    "final_y": "536078.735111",
    "longitude": "-90.02915538433787",
    "latitude": "29.967652280709213",
    "geocoded_column": {
      "latitude": "29.967652280709213",
      "longitude": "-90.02915538433787"
    }
  },
  {
    "service_request": "2025-1184555",
    "request_type": "Trash/Recycling",
    "request_reason": "Request a Large Item Pick Up",
    "date_created": "2025-04-16T14:23:48.000",
    "date_modified": "2025-04-16T14:23:57.000",
    "request_status": "Pending",
    "responsible_agency": "Department of Sanitation",
    "final_address": "4826 Nighthart St",
    "address_councildis": "E",
    "status": "Assigned to Contractor",
    "contractor": "Waste Pro",
    "rowid": "1184555",
    "final_x": "3716046.05068",
    "final_y": "557273.521307",
    "longitude": "-89.95801153712043",
    "latitude": "30.02521388710677",
    "geocoded_column": {
      "latitude": "30.02521388710677",
      "longitude": "-89.95801153712043"
    }
  },
  {
    "service_request": "2025-1184554",
    "request_type": "Trash/Recycling",
    "request_reason": "Request a Large Item Pick Up",
    "date_created": "2025-04-16T14:23:07.000",
    "date_modified": "2025-04-16T14:29:37.000",
    "request_status": "Pending",
    "responsible_agency": "Department of Sanitation",
    "final_address": "0 BLK Architect St",
    "address_councildis": "C",
    "status": "Assigned to Contractor",
    "contractor": "IV Waste",
    "rowid": "1184554",
    "final_x": "3687142.46885",
    "final_y": "534686.498656",
    "longitude": "-90.05014150821198",
    "latitude": "29.964029935213947",
    "geocoded_column": {
      "latitude": "29.964029935213947",
      "longitude": "-90.05014150821198"
    }
  },
  {
    "service_request": "2025-1184553",
    "request_type": "Trash/Recycling",
    "request_reason": "Illegal Dumping",
    "date_created": "2025-04-16T14:21:18.000",
    "date_modified": "2025-04-16T14:21:20.000",
    "request_status": "Pending",
    "responsible_agency": "Department of Sanitation",
    "final_address": "ELYSIAN FIELDS AV OVER & FLORIDA AVE",
    "address_councildis": "D",
    "status": "Pending",
    "rowid": "1184553",
    "final_x": "3684508.45",
    "final_y": "542348.88",
    "longitude": "-90.05819021267064",
    "latitude": "29.98517965418547",
    "geocoded_column": {
      "latitude": "29.98517965418547",
      "longitude": "-90.05819021267064"
    }
  },
  {
    "service_request": "2025-1184552",
    "request_type": "Drainage",
    "request_reason": "Catch Basin Damaged",
    "date_created": "2025-04-16T14:19:53.000",
    "date_modified": "2025-04-16T14:19:54.000",
    "request_status": "Pending",
    "responsible_agency": "Sewerage & Water Board ",
    "final_address": "3102 Dumaine St",
    "address_councildis": "A",
    "status": "Pending",
    "rowid": "1184552",
    "final_x": "3675643.4596",
    "final_y": "538635.465481",
    "longitude": "-90.08631866719395",
    "latitude": "29.975237326371094",
    "geocoded_column": {
      "latitude": "29.975237326371094",
      "longitude": "-90.08631866719395"
    }
  },
  {
    "service_request": "2025-1184551",
    "request_type": "Trash/Recycling",
    "request_reason": "Request a Large Item Pick Up",
    "date_created": "2025-04-16T14:16:34.000",
    "date_modified": "2025-04-16T14:16:35.000",
    "request_status": "Pending",
    "responsible_agency": "Department of Sanitation",
    "final_address": "1815 Jourdan Ave",
    "address_councildis": "E",
    "status": "Assigned to Contractor",
    "contractor": "Waste Pro",
    "rowid": "1184551",
    "final_x": "3695861.26736",
    "final_y": "537247.537544",
    "longitude": "-90.02251594975392",
    "latitude": "29.970800526279476",
    "geocoded_column": {
      "latitude": "29.970800526279476",
      "longitude": "-90.02251594975392"
    }
  },
  {
    "service_request": "2025-1184550",
    "request_type": "Trash/Recycling",
    "request_reason": "Repair Recycling Cart",
    "date_created": "2025-04-16T14:13:35.000",
    "date_modified": "2025-04-16T14:13:37.000",
    "request_status": "Pending",
    "responsible_agency": "Department of Sanitation",
    "final_address": "8300 Panola St",
    "address_councildis": "A",
    "status": "Pending",
    "rowid": "1184550",
    "final_x": "3663491.07335",
    "final_y": "531209.551106",
    "longitude": "-90.12494663228509",
    "latitude": "29.955176556079877",
    "geocoded_column": {
      "latitude": "29.955176556079877",
      "longitude": "-90.12494663228509"
    }
  },
  {
    "service_request": "2025-1184549",
    "request_type": "Trash/Recycling",
    "request_reason": "Order Recycling Cart",
    "date_created": "2025-04-16T14:13:24.000",
    "date_modified": "2025-04-16T14:14:18.000",
    "request_status": "Pending",
    "responsible_agency": "Department of Sanitation",
    "final_address": "57 Oriole St",
    "address_councildis": "D",
    "status": "Pending",
    "rowid": "1184549",
    "final_x": "3675215.52046",
    "final_y": "556732.354842",
    "longitude": "-90.0870485640665",
    "latitude": "30.02501020288784",
    "geocoded_column": {
      "latitude": "30.02501020288784",
      "longitude": "-90.0870485640665"
    }
  },
  {
    "service_request": "2025-1184548",
    "request_type": "Trash/Recycling",
    "request_reason": "Repair Trash Cart",
    "date_created": "2025-04-16T14:08:55.000",
    "date_modified": "2025-04-16T14:09:27.000",
    "request_status": "Pending",
    "responsible_agency": "Department of Sanitation",
    "final_address": "1038 City Park Ave",
    "address_councildis": "A",
    "status": "Assigned to Contractor",
    "contractor": "IV Waste",
    "rowid": "1184548",
    "final_x": "3672867.78932",
    "final_y": "541498.44078",
    "longitude": "-90.09498726500946",
    "latitude": "29.983192299764855",
    "geocoded_column": {
      "latitude": "29.983192299764855",
      "longitude": "-90.09498726500946"
    }
  },
  {
    "service_request": "2025-1184547",
    "request_type": "Trash/Recycling",
    "request_reason": "Request a Large Item Pick Up",
    "date_created": "2025-04-16T14:00:57.000",
    "date_modified": "2025-04-16T14:00:59.000",
    "request_status": "Pending",
    "responsible_agency": "Department of Sanitation",
    "final_address": "7501 Morel St",
    "address_councildis": "E",
    "status": "Assigned to Contractor",
    "contractor": "Waste Pro",
    "rowid": "1184547",
    "final_x": "3719295.73823",
    "final_y": "571441.845992",
    "longitude": "-89.94720157124372",
    "latitude": "30.064063324095887",
    "geocoded_column": {
      "latitude": "30.064063324095887",
      "longitude": "-89.94720157124372"
    }
  },
  {
    "service_request": "2025-1184546",
    "request_type": "Abandoned Vehicles",
    "request_reason": "Abandoned/Junk Vehicles",
    "date_created": "2025-04-16T13:53:08.000",
    "date_modified": "2025-04-16T13:54:29.000",
    "request_status": "Pending",
    "responsible_agency": "Department of Public Works",
    "final_address": "1571 N Prieur St A",
    "address_councildis": "D",
    "status": "Inspected",
    "rowid": "1184546",
    "final_x": "3681224.65672",
    "final_y": "538349.212553",
    "longitude": "-90.06870175808608",
    "latitude": "29.974282035509688",
    "geocoded_column": {
      "latitude": "29.974282035509688",
      "longitude": "-90.06870175808608"
    }
  },
  {
    "service_request": "2025-1184545",
    "request_type": "Trash/Recycling",
    "request_reason": "Illegal Dumping",
    "date_created": "2025-04-16T13:51:27.000",
    "date_modified": "2025-04-16T13:51:29.000",
    "request_status": "Pending",
    "responsible_agency": "Department of Sanitation",
    "final_address": "2000 BLK Marais St",
    "address_councildis": "C",
    "status": "Pending",
    "rowid": "1184545",
    "final_x": "3684382.22798",
    "final_y": "536619.252337",
    "longitude": "-90.05879019645256",
    "latitude": "29.969429045592832",
    "geocoded_column": {
      "latitude": "29.969429045592832",
      "longitude": "-90.05879019645256"
    }
  },
  {
    "service_request": "2025-1184544",
    "request_type": "Trash/Recycling",
    "request_reason": "Return Trash Cart",
    "date_created": "2025-04-16T13:50:50.000",
    "date_modified": "2025-04-16T13:50:53.000",
    "request_status": "Pending",
    "responsible_agency": "Department of Sanitation",
    "final_address": "1111 Eighth St",
    "address_councildis": "B",
    "status": "Assigned to Contractor",
    "contractor": "IV Waste",
    "rowid": "1184544",
    "final_x": "3676100.54984",
    "final_y": "520286.189176",
    "longitude": "-90.085506153388",
    "latitude": "29.924769233213116",
    "geocoded_column": {
      "latitude": "29.924769233213116",
      "longitude": "-90.085506153388"
    }
  },
  {
    "service_request": "2025-1184543",
    "request_type": "Trash/Recycling",
    "request_reason": "Request a Large Item Pick Up",
    "date_created": "2025-04-16T13:38:31.000",
    "date_modified": "2025-04-16T13:38:32.000",
    "request_status": "Pending",
    "responsible_agency": "Department of Sanitation",
    "final_address": "8851 Gervais St",
    "address_councildis": "E",
    "status": "Assigned to Contractor",
    "contractor": "Waste Pro",
    "rowid": "1184543",
    "final_x": "3704790.57079",
    "final_y": "563227.13968",
    "longitude": "-89.99335685321489",
    "latitude": "30.04195066712997",
    "geocoded_column": {
      "latitude": "30.04195066712997",
      "longitude": "-89.99335685321489"
    }
  },
  {
    "service_request": "2025-1184542",
    "request_type": "Roads and Streets",
    "request_reason": "Sidewalk Damaged or Missing",
    "date_created": "2025-04-16T13:37:35.000",
    "date_modified": "2025-04-16T13:37:37.000",
    "request_status": "Pending",
    "responsible_agency": "Department of Public Works",
    "final_address": "1609 France St",
    "address_councildis": "D",
    "status": "Pending",
    "rowid": "1184542",
    "final_x": "3692918.65635",
    "final_y": "537116.318728",
    "longitude": "-90.03181374876252",
    "latitude": "29.970531954116094",
    "geocoded_column": {
      "latitude": "29.970531954116094",
      "longitude": "-90.03181374876252"
    }
  },
  {
    "service_request": "2025-1184541",
    "request_type": "Trash/Recycling",
    "request_reason": "Repair Trash Cart",
    "date_created": "2025-04-16T13:35:54.000",
    "date_modified": "2025-04-16T13:35:56.000",
    "request_status": "Pending",
    "responsible_agency": "Department of Sanitation",
    "final_address": "13450 Dwyer Blvd",
    "address_councildis": "E",
    "status": "Assigned to Contractor",
    "contractor": "Waste Pro",
    "rowid": "1184541",
    "final_x": "3725793.79609",
    "final_y": "561816.455967",
    "longitude": "-89.92703443047101",
    "latitude": "30.037379789364266",
    "geocoded_column": {
      "latitude": "30.037379789364266",
      "longitude": "-89.92703443047101"
    }
  },
  {
    "service_request": "2025-1184540",
    "request_type": "Safety & Permits",
    "request_reason": "Zoning Enforcement",
    "date_created": "2025-04-16T13:33:38.000",
    "date_modified": "2025-04-16T13:33:40.000",
    "request_status": "Pending",
    "responsible_agency": "Safety and Permits",
    "final_address": "3910 Bienville Ave",
    "address_councildis": "A",
    "status": "Pending",
    "rowid": "1184540",
    "final_x": "3672068.32283",
    "final_y": "538388.010761",
    "longitude": "-90.09761834783289",
    "latitude": "29.97466340933185",
    "geocoded_column": {
      "latitude": "29.97466340933185",
      "longitude": "-90.09761834783289"
    }
  },
  {
    "service_request": "2025-1184539",
    "request_type": "Trash/Recycling",
    "request_reason": "Order Recycling Cart",
    "date_created": "2025-04-16T13:27:10.000",
    "date_modified": "2025-04-16T13:27:12.000",
    "request_status": "Pending",
    "responsible_agency": "Department of Sanitation",
    "final_address": "3114 Gravier St Apt B",
    "address_councildis": "B",
    "status": "Pending",
    "rowid": "1184539",
    "final_x": "3672368.31015",
    "final_y": "534043.696197",
    "longitude": "-90.09681897362589",
    "latitude": "29.96270910780623",
    "geocoded_column": {
      "latitude": "29.96270910780623",
      "longitude": "-90.09681897362589"
    }
  },
  {
    "service_request": "2025-1184538",
    "request_type": "Trash/Recycling",
    "request_reason": "Order Trash Cart",
    "date_created": "2025-04-16T13:26:11.000",
    "date_modified": "2025-04-16T13:26:14.000",
    "request_status": "Pending",
    "responsible_agency": "Department of Sanitation",
    "final_address": "3114 Gravier St Apt A",
    "address_councildis": "B",
    "status": "Assigned to Contractor",
    "contractor": "IV Waste",
    "rowid": "1184538",
    "final_x": "3672378.83361",
    "final_y": "534036.083461",
    "longitude": "-90.09678600128943",
    "latitude": "29.962687863065618",
    "geocoded_column": {
      "latitude": "29.962687863065618",
      "longitude": "-90.09678600128943"
    }
  },
  {
    "service_request": "2025-1184537",
    "request_type": "Trash/Recycling",
    "request_reason": "Order Recycling Cart",
    "date_created": "2025-04-16T13:25:08.000",
    "date_modified": "2025-04-16T13:25:10.000",
    "request_status": "Pending",
    "responsible_agency": "Department of Sanitation",
    "final_address": "3112 Gravier St Apt B",
    "address_councildis": "B",
    "status": "Pending",
    "rowid": "1184537",
    "final_x": "3672410.40404",
    "final_y": "534101.015621",
    "longitude": "-90.09668409287718",
    "latitude": "29.962865467957364",
    "geocoded_column": {
      "latitude": "29.962865467957364",
      "longitude": "-90.09668409287718"
    }
  },
  {
    "service_request": "2025-1184536",
    "request_type": "Trash/Recycling",
    "request_reason": "Order Trash Cart",
    "date_created": "2025-04-16T13:24:37.000",
    "date_modified": "2025-04-16T13:24:40.000",
    "request_status": "Pending",
    "responsible_agency": "Department of Sanitation",
    "final_address": "3112 Gravier St Apt B",
    "address_councildis": "B",
    "status": "Assigned to Contractor",
    "contractor": "IV Waste",
    "rowid": "1184536",
    "final_x": "3672410.40404",
    "final_y": "534101.015621",
    "longitude": "-90.09668409287718",
    "latitude": "29.962865467957364",
    "geocoded_column": {
      "latitude": "29.962865467957364",
      "longitude": "-90.09668409287718"
    }
  },
  {
    "service_request": "2025-1184535",
    "request_type": "Trash/Recycling",
    "request_reason": "Order Recycling Cart",
    "date_created": "2025-04-16T13:24:04.000",
    "date_modified": "2025-04-16T13:24:06.000",
    "request_status": "Pending",
    "responsible_agency": "Department of Sanitation",
    "final_address": "3112 Gravier St Apt A",
    "address_councildis": "B",
    "status": "Pending",
    "rowid": "1184535",
    "final_x": "3672420.47975",
    "final_y": "534093.626757",
    "longitude": "-90.09665252682798",
    "latitude": "29.96284485204423",
    "geocoded_column": {
      "latitude": "29.96284485204423",
      "longitude": "-90.09665252682798"
    }
  },
  {
    "service_request": "2025-1184534",
    "request_type": "Trash/Recycling",
    "request_reason": "Order Trash Cart",
    "date_created": "2025-04-16T13:23:15.000",
    "date_modified": "2025-04-16T13:23:17.000",
    "request_status": "Pending",
    "responsible_agency": "Department of Sanitation",
    "final_address": "3112 Gravier St Apt A",
    "address_councildis": "B",
    "status": "Assigned to Contractor",
    "contractor": "IV Waste",
    "rowid": "1184534",
    "final_x": "3672420.47975",
    "final_y": "534093.626757",
    "longitude": "-90.09665252682798",
    "latitude": "29.96284485204423",
    "geocoded_column": {
      "latitude": "29.96284485204423",
      "longitude": "-90.09665252682798"
    }
  },
  {
    "service_request": "2025-1184533",
    "request_type": "Trash/Recycling",
    "request_reason": "Request a Large Item Pick Up",
    "date_created": "2025-04-16T13:22:50.000",
    "date_modified": "2025-04-16T13:22:53.000",
    "request_status": "Pending",
    "responsible_agency": "Department of Sanitation",
    "final_address": "8126 Lincoln Beach Blvd",
    "address_councildis": "E",
    "status": "Assigned to Contractor",
    "contractor": "Waste Pro",
    "rowid": "1184533",
    "final_x": "3702220.6369",
    "final_y": "562973.010208",
    "longitude": "-90.00148809218318",
    "latitude": "30.041334296213567",
    "geocoded_column": {
      "latitude": "30.041334296213567",
      "longitude": "-90.00148809218318"
    }
  },
  {
    "service_request": "2025-1184532",
    "request_type": "Health Related Request",
    "request_reason": "Homeless Encampment Complaint",
    "date_created": "2025-04-16T13:22:00.000",
    "date_modified": "2025-04-16T13:22:02.000",
    "request_status": "Pending",
    "responsible_agency": "Health Department",
    "final_address": "5301 Eads St",
    "address_councildis": "D",
    "status": "Pending",
    "rowid": "1184532",
    "final_x": "3687089.74332",
    "final_y": "552609.509974",
    "longitude": "-90.04967394201945",
    "latitude": "30.013313440241884",
    "geocoded_column": {
      "latitude": "30.013313440241884",
      "longitude": "-90.04967394201945"
    }
  },
  {
    "service_request": "2025-1184531",
    "request_type": "Property Maintenance",
    "request_reason": "Property Maintenance",
    "date_created": "2025-04-16T13:21:16.000",
    "date_modified": "2025-04-16T15:18:43.000",
    "case_close_date": "2025-04-16T10:18:42.000",
    "request_status": "Closed",
    "responsible_agency": "Department of Code Enforcement",
    "final_address": "5301 Eads St",
    "address_councildis": "D",
    "status": "Referred to Code Enforcement",
    "rowid": "1184531",
    "final_x": "3687089.74332",
    "final_y": "552609.509974",
    "longitude": "-90.04967394201945",
    "latitude": "30.013313440241884",
    "geocoded_column": {
      "latitude": "30.013313440241884",
      "longitude": "-90.04967394201945"
    }
  },
  {
    "service_request": "2025-1184530",
    "request_type": "Trash/Recycling",
    "request_reason": "Order Second Trash Cart",
    "date_created": "2025-04-16T13:20:53.000",
    "date_modified": "2025-04-16T13:20:56.000",
    "request_status": "Pending",
    "responsible_agency": "Department of Sanitation",
    "final_address": "7306 Malvern Dr",
    "address_councildis": "E",
    "status": "Assigned to Contractor",
    "contractor": "Waste Pro",
    "rowid": "1184530",
    "final_x": "3702745.10282",
    "final_y": "560576.410462",
    "longitude": "-89.99991874388358",
    "latitude": "30.034727813843553",
    "geocoded_column": {
      "latitude": "30.034727813843553",
      "longitude": "-89.99991874388358"
    }
  },
  {
    "service_request": "2025-1184529",
    "request_type": "Abandoned Vehicles",
    "request_reason": "Abandoned/Junk Vehicles",
    "date_created": "2025-04-16T13:20:09.000",
    "date_modified": "2025-04-16T13:20:11.000",
    "request_status": "Pending",
    "responsible_agency": "Department of Public Works",
    "final_address": "1013 Ninth St",
    "address_councildis": "B",
    "status": "Pending",
    "rowid": "1184529",
    "final_x": "3676032.52629",
    "final_y": "519860.751672",
    "longitude": "-90.08573550364137",
    "latitude": "29.923601454204288",
    "geocoded_column": {
      "latitude": "29.923601454204288",
      "longitude": "-90.08573550364137"
    }
  },
  {
    "service_request": "2025-1184528",
    "request_type": "Streetlights",
    "request_reason": "Streetlight Outage/Malfunction",
    "date_created": "2025-04-16T13:18:31.000",
    "date_modified": "2025-04-16T13:18:33.000",
    "request_status": "Pending",
    "responsible_agency": "Department of Public Works",
    "final_address": "2330 Valmont St",
    "address_councildis": "B",
    "status": "Pending",
    "contractor": "Legacy Professional Services",
    "rowid": "1184528",
    "final_x": "3668168.89204",
    "final_y": "524215.12038",
    "longitude": "-90.11041147932266",
    "latitude": "29.935807665462335",
    "geocoded_column": {
      "latitude": "29.935807665462335",
      "longitude": "-90.11041147932266"
    }
  },
  {
    "service_request": "2025-1184527",
    "request_type": "Trash/Recycling",
    "request_reason": "Request a Large Item Pick Up",
    "date_created": "2025-04-16T13:17:36.000",
    "date_modified": "2025-04-16T13:17:38.000",
    "request_status": "Pending",
    "responsible_agency": "Department of Sanitation",
    "final_address": "5441 Urquhart St",
    "address_councildis": "E",
    "status": "Assigned to Contractor",
    "contractor": "Waste Pro",
    "rowid": "1184527",
    "final_x": "3697705.59242",
    "final_y": "534643.904646",
    "longitude": "-90.01678585117743",
    "latitude": "29.963583323530717",
    "geocoded_column": {
      "latitude": "29.963583323530717",
      "longitude": "-90.01678585117743"
    }
  },
  {
    "service_request": "2025-1184526",
    "request_type": "Abandoned Vehicles",
    "request_reason": "Abandoned/Junk Vehicles",
    "date_created": "2025-04-16T13:16:53.000",
    "date_modified": "2025-04-16T13:16:55.000",
    "request_status": "Pending",
    "responsible_agency": "Department of Public Works",
    "final_address": "3949 Laurel St",
    "address_councildis": "B",
    "status": "Pending",
    "rowid": "1184526",
    "final_x": "3672818.55118",
    "final_y": "518255.899638",
    "longitude": "-90.09593556396143",
    "latitude": "29.91928445441337",
    "geocoded_column": {
      "latitude": "29.91928445441337",
      "longitude": "-90.09593556396143"
    }
  },
  {
    "service_request": "2025-1184525",
    "request_type": "Abandoned Vehicles",
    "request_reason": "Abandoned/Junk Vehicles",
    "date_created": "2025-04-16T13:16:38.000",
    "date_modified": "2025-04-16T13:16:39.000",
    "request_status": "Pending",
    "responsible_agency": "Department of Public Works",
    "final_address": "4905 Canal St",
    "address_councildis": "A",
    "status": "Pending",
    "rowid": "1184525",
    "final_x": "3668559.03028",
    "final_y": "540461.875531",
    "longitude": "-90.10863158830065",
    "latitude": "29.980469433711686",
    "geocoded_column": {
      "latitude": "29.980469433711686",
      "longitude": "-90.10863158830065"
    }
  },
  {
    "service_request": "2025-1184524",
    "request_type": "Abandoned Vehicles",
    "request_reason": "Abandoned/Junk Vehicles",
    "date_created": "2025-04-16T13:15:43.000",
    "date_modified": "2025-04-16T13:15:46.000",
    "request_status": "Pending",
    "responsible_agency": "Department of Public Works",
    "final_address": "1305 France St",
    "address_councildis": "D",
    "status": "Pending",
    "rowid": "1184524",
    "final_x": "3692629.96989",
    "final_y": "535937.037575",
    "longitude": "-90.03276772226381",
    "latitude": "29.967298361307485",
    "geocoded_column": {
      "latitude": "29.967298361307485",
      "longitude": "-90.03276772226381"
    }
  },
  {
    "service_request": "2025-1184523",
    "request_type": "Trash/Recycling",
    "request_reason": "Dead Animal Pick Up",
    "date_created": "2025-04-16T13:14:09.000",
    "date_modified": "2025-04-16T13:14:12.000",
    "request_status": "Pending",
    "responsible_agency": "Department of Sanitation",
    "final_address": "6501 Memphis St",
    "address_councildis": "A",
    "status": "Assigned to Contractor",
    "contractor": "IV Waste",
    "rowid": "1184523",
    "final_x": "3669591.56679",
    "final_y": "550687.182356",
    "longitude": "-90.10502418081875",
    "latitude": "30.00855511546219",
    "geocoded_column": {
      "latitude": "30.00855511546219",
      "longitude": "-90.10502418081875"
    }
  },
  {
    "service_request": "2025-1184522",
    "request_type": "Trash/Recycling",
    "request_reason": "Repair Trash Cart",
    "date_created": "2025-04-16T13:13:41.000",
    "date_modified": "2025-04-16T13:13:43.000",
    "request_status": "Pending",
    "responsible_agency": "Department of Sanitation",
    "final_address": "4017 Iberville St",
    "address_councildis": "A",
    "status": "Assigned to Contractor",
    "contractor": "IV Waste",
    "rowid": "1184522",
    "final_x": "3671636.85127",
    "final_y": "538520.429577",
    "longitude": "-90.0989765392868",
    "latitude": "29.97504030374381",
    "geocoded_column": {
      "latitude": "29.97504030374381",
      "longitude": "-90.0989765392868"
    }
  },
  {
    "service_request": "2025-1184521",
    "request_type": "Abandoned Vehicles",
    "request_reason": "Abandoned/Junk Vehicles",
    "date_created": "2025-04-16T13:08:43.000",
    "date_modified": "2025-04-16T13:09:42.000",
    "request_status": "Pending",
    "responsible_agency": "Department of Public Works",
    "final_address": "2434 Bienville Ave",
    "address_councildis": "B",
    "status": "Inspected",
    "rowid": "1184521",
    "final_x": "3676621.47521",
    "final_y": "535037.17063",
    "longitude": "-90.08335380474846",
    "latitude": "29.96531393894737",
    "geocoded_column": {
      "latitude": "29.96531393894737",
      "longitude": "-90.08335380474846"
    }
  },
  {
    "service_request": "2025-1184520",
    "request_type": "Streetlights",
    "request_reason": "Streetlight Outage/Malfunction",
    "date_created": "2025-04-16T13:05:59.000",
    "date_modified": "2025-04-16T13:06:01.000",
    "request_status": "Pending",
    "responsible_agency": "Department of Public Works",
    "final_address": "2330 Valmont St",
    "address_councildis": "B",
    "status": "Pending",
    "contractor": "Legacy Professional Services",
    "rowid": "1184520",
    "final_x": "3668168.89204",
    "final_y": "524215.12038",
    "longitude": "-90.11041147932266",
    "latitude": "29.935807665462335",
    "geocoded_column": {
      "latitude": "29.935807665462335",
      "longitude": "-90.11041147932266"
    }
  },
  {
    "service_request": "2025-1184519",
    "request_type": "Property Maintenance",
    "request_reason": "Property Maintenance",
    "date_created": "2025-04-16T13:04:56.000",
    "date_modified": "2025-04-16T13:58:11.000",
    "case_close_date": "2025-04-16T08:58:10.000",
    "request_status": "Closed",
    "responsible_agency": "Department of Code Enforcement",
    "final_address": "6057 St Anthony Ave",
    "address_councildis": "D",
    "status": "Referred to Code Enforcement",
    "rowid": "1184519",
    "final_x": "3682057.25519",
    "final_y": "555413.376473",
    "longitude": "-90.06547590465868",
    "latitude": "30.021177108681346",
    "geocoded_column": {
      "latitude": "30.021177108681346",
      "longitude": "-90.06547590465868"
    }
  },
  {
    "service_request": "2025-1184518",
    "request_type": "Abandoned Vehicles",
    "request_reason": "Abandoned/Junk Vehicles",
    "date_created": "2025-04-16T13:03:26.000",
    "date_modified": "2025-04-16T13:04:03.000",
    "request_status": "Pending",
    "responsible_agency": "Department of Public Works",
    "final_address": "2000 Annette St",
    "address_councildis": "D",
    "status": "Inspected",
    "rowid": "1184518",
    "final_x": "3682832.98408",
    "final_y": "539500.682954",
    "longitude": "-90.06358199011139",
    "latitude": "29.97739927203003",
    "geocoded_column": {
      "latitude": "29.97739927203003",
      "longitude": "-90.06358199011139"
    }
  },
  {
    "service_request": "2025-1184517",
    "request_type": "Trash/Recycling",
    "request_reason": "Request a Large Item Pick Up",
    "date_created": "2025-04-16T13:02:53.000",
    "date_modified": "2025-04-16T13:02:54.000",
    "request_status": "Pending",
    "responsible_agency": "Department of Sanitation",
    "final_address": "1916 Marigny St",
    "address_councildis": "D",
    "status": "Assigned to Contractor",
    "contractor": "IV Waste",
    "rowid": "1184517",
    "final_x": "3685128.77116",
    "final_y": "539447.097674",
    "longitude": "-90.05633302898109",
    "latitude": "29.977181778945464",
    "geocoded_column": {
      "latitude": "29.977181778945464",
      "longitude": "-90.05633302898109"
    }
  },
  {
    "service_request": "2025-1184516",
    "request_type": "Mosquito, Termite & Rodent Control",
    "request_reason": "Mosquito Complaint",
    "date_created": "2025-04-16T13:02:52.000",
    "date_modified": "2025-04-16T13:02:54.000",
    "request_status": "Pending",
    "responsible_agency": "Mosquito, Termite & Rodent Control Board",
    "final_address": "6057 St Anthony Ave",
    "address_councildis": "D",
    "status": "Pending",
    "rowid": "1184516",
    "final_x": "3682057.25519",
    "final_y": "555413.376473",
    "longitude": "-90.06547590465868",
    "latitude": "30.021177108681346",
    "geocoded_column": {
      "latitude": "30.021177108681346",
      "longitude": "-90.06547590465868"
    }
  },
  {
    "service_request": "2025-1184515",
    "request_type": "Trash/Recycling",
    "request_reason": "Illegal Dumping",
    "date_created": "2025-04-16T13:01:22.000",
    "date_modified": "2025-04-16T13:01:24.000",
    "request_status": "Pending",
    "responsible_agency": "Department of Sanitation",
    "final_address": "1201 Farragut St",
    "address_councildis": "C",
    "status": "Pending",
    "rowid": "1184515",
    "final_x": "3692326.33347",
    "final_y": "526881.288766",
    "longitude": "-90.03405088407331",
    "latitude": "29.94240767668299",
    "geocoded_column": {
      "latitude": "29.94240767668299",
      "longitude": "-90.03405088407331"
    }
  },
  {
    "service_request": "2025-1184514",
    "request_type": "Abandoned Vehicles",
    "request_reason": "Abandoned/Junk Vehicles",
    "date_created": "2025-04-16T13:00:15.000",
    "date_modified": "2025-04-16T13:01:20.000",
    "request_status": "Pending",
    "responsible_agency": "Department of Public Works",
    "final_address": "1305 France St",
    "address_councildis": "D",
    "status": "Pending",
    "rowid": "1184514",
    "final_x": "3692629.96989",
    "final_y": "535937.037575",
    "longitude": "-90.03276772226381",
    "latitude": "29.967298361307485",
    "geocoded_column": {
      "latitude": "29.967298361307485",
      "longitude": "-90.03276772226381"
    }
  },
  {
    "service_request": "2025-1184513",
    "request_type": "Trash/Recycling",
    "request_reason": "Request a Large Item Pick Up",
    "date_created": "2025-04-16T12:57:33.000",
    "date_modified": "2025-04-16T12:57:36.000",
    "request_status": "Pending",
    "responsible_agency": "Department of Sanitation",
    "final_address": "6231 Dauphine St",
    "address_councildis": "E",
    "status": "Assigned to Contractor",
    "contractor": "Waste Pro",
    "rowid": "1184513",
    "final_x": "3699636.50858",
    "final_y": "532025.279875",
    "longitude": "-90.0107837037598",
    "latitude": "29.956321893805317",
    "geocoded_column": {
      "latitude": "29.956321893805317",
      "longitude": "-90.0107837037598"
    }
  },
  {
    "service_request": "2025-1184512",
    "request_type": "Abandoned Vehicles",
    "request_reason": "Abandoned/Junk Vehicles",
    "date_created": "2025-04-16T12:49:18.000",
    "date_modified": "2025-04-16T12:49:20.000",
    "request_status": "Pending",
    "responsible_agency": "Department of Public Works",
    "final_address": "1025 St Ann St",
    "address_councildis": "C",
    "status": "Pending",
    "rowid": "1184512",
    "final_x": "3681780.36706",
    "final_y": "533561.377157",
    "longitude": "-90.06711379277237",
    "latitude": "29.961100259517657",
    "geocoded_column": {
      "latitude": "29.961100259517657",
      "longitude": "-90.06711379277237"
    }
  },
  {
    "service_request": "2025-1184511",
    "request_type": "Trash/Recycling",
    "request_reason": "Request a Large Item Pick Up",
    "date_created": "2025-04-16T12:48:47.000",
    "date_modified": "2025-04-16T12:48:49.000",
    "request_status": "Pending",
    "responsible_agency": "Department of Sanitation",
    "final_address": "913 Jourdan Ave",
    "address_councildis": "E",
    "status": "Assigned to Contractor",
    "contractor": "Waste Pro",
    "rowid": "1184511",
    "final_x": "3694901.88733",
    "final_y": "533817.520389",
    "longitude": "-90.02566939873377",
    "latitude": "29.961399338256193",
    "geocoded_column": {
      "latitude": "29.961399338256193",
      "longitude": "-90.02566939873377"
    }
  },
  {
    "service_request": "2025-1184510",
    "request_type": "Trash/Recycling",
    "request_reason": "Request a Large Item Pick Up",
    "date_created": "2025-04-16T12:41:39.000",
    "date_modified": "2025-04-16T12:41:42.000",
    "request_status": "Pending",
    "responsible_agency": "Department of Sanitation",
    "final_address": "6923 Bunker Hill Rd",
    "address_councildis": "E",
    "status": "Assigned to Contractor",
    "contractor": "Waste Pro",
    "rowid": "1184510",
    "final_x": "3706140.9715",
    "final_y": "560055.453917",
    "longitude": "-89.98920669558258",
    "latitude": "30.033186292000714",
    "geocoded_column": {
      "latitude": "30.033186292000714",
      "longitude": "-89.98920669558258"
    }
  },
  {
    "service_request": "2025-1184509",
    "request_type": "Trash/Recycling",
    "request_reason": "Request a Large Item Pick Up",
    "date_created": "2025-04-16T12:41:16.000",
    "date_modified": "2025-04-16T12:41:18.000",
    "request_status": "Pending",
    "responsible_agency": "Department of Sanitation",
    "final_address": "7801 Michigan St",
    "address_councildis": "E",
    "status": "Assigned to Contractor",
    "contractor": "Waste Pro",
    "rowid": "1184509",
    "final_x": "3711410.71237",
    "final_y": "567120.41866",
    "longitude": "-89.97228876643591",
    "latitude": "30.052441081508633",
    "geocoded_column": {
      "latitude": "30.052441081508633",
      "longitude": "-89.97228876643591"
    }
  },
  {
    "service_request": "2025-1184508",
    "request_type": "Trash/Recycling",
    "request_reason": "Request a Large Item Pick Up",
    "date_created": "2025-04-16T12:40:18.000",
    "date_modified": "2025-04-16T12:40:20.000",
    "request_status": "Pending",
    "responsible_agency": "Department of Sanitation",
    "final_address": "32 Maryland Dr",
    "address_councildis": "A",
    "status": "Assigned to Contractor",
    "contractor": "IV Waste",
    "rowid": "1184508",
    "final_x": "3663596.15514",
    "final_y": "541039.293196",
    "longitude": "-90.12428731279128",
    "latitude": "29.982202059551646",
    "geocoded_column": {
      "latitude": "29.982202059551646",
      "longitude": "-90.12428731279128"
    }
  },
  {
    "service_request": "2025-1184507",
    "request_type": "Trash/Recycling",
    "request_reason": "Request a Large Item Pick Up",
    "date_created": "2025-04-16T12:38:59.000",
    "date_modified": "2025-04-16T12:39:01.000",
    "request_status": "Pending",
    "responsible_agency": "Department of Sanitation",
    "final_address": "2213 Port St",
    "address_councildis": "D",
    "status": "Assigned to Contractor",
    "contractor": "IV Waste",
    "rowid": "1184507",
    "final_x": "3688538.73692",
    "final_y": "540639.253835",
    "longitude": "-90.04552095819025",
    "latitude": "29.980354850759085",
    "geocoded_column": {
      "latitude": "29.980354850759085",
      "longitude": "-90.04552095819025"
    }
  },