[
  {
    "service_request": "2026-1256412",
    "request_type": "Health Related Request",
    "request_reason": "Noise Ordinance Complaint",
    "date_created": "2026-02-03T23:25:43.000",
    "date_modified": "2026-02-03T23:25:45.000",
    "request_status": "Pending",
    "responsible_agency": "Health Department",
    "final_address": "7139 S Claiborne Ave, New Orleans, Louisiana, 70125",
    "address_councildis": "A",
    "status": "Pending",
    "rowid": "1256412",
    "final_x": "3666478.76743",
    "final_y": "529720.806785",
    "longitude": "-90.11556252470896",
    "latitude": "29.950996020138128",
    "geocoded_column": {
      "latitude": "29.950996020138128",
      "longitude": "-90.11556252470896"
    }
  },
  {
    "service_request": "2026-1256411",
    "request_type": "Roads and Streets",
    "request_reason": "Abandoned Service Cut",
    "date_created": "2026-02-03T23:21:21.000",
    "date_modified": "2026-02-03T23:21:22.000",
    "request_status": "Pending",
    "responsible_agency": "Department of Public Works",
    "final_address": "1416 Filmore Ave",
    "address_councildis": "D",
    "status": "Pending",
    "rowid": "1256411",
    "final_x": "3677832.10638",
    "final_y": "551660.344405",
    "longitude": "-90.0789560135442",
    "latitude": "30.010985495306983",
    "geocoded_column": {
      "latitude": "30.010985495306983",
      "longitude": "-90.0789560135442"
    }
  },
  {
    "service_request": "2026-1256410",
    "request_type": "Property Maintenance",
    "request_reason": "Property Maintenance",
    "date_created": "2026-02-03T23:10:17.000",
    "date_modified": "2026-02-03T23:10:19.000",
    "request_status": "Pending",
    "responsible_agency": "Department of Code Enforcement",
    "final_address": "7139 S Claiborne Ave",
    "address_councildis": "A",
    "status": "Pending",
    "rowid": "1256410",
    "final_x": "3666478.76743",
    "final_y": "529720.806785",
    "longitude": "-90.11556252470896",
    "latitude": "29.950996020138128",
    "geocoded_column": {
      "latitude": "29.950996020138128",
      "longitude": "-90.11556252470896"
    }
  },
  {
    "service_request": "2026-1256409",
    "request_type": "Streetlights",
    "request_reason": "Streetlight Outage/Malfunction",
    "date_created": "2026-02-03T23:09:59.000",
    "date_modified": "2026-02-03T23:10:01.000",
    "request_status": "Pending",
    "responsible_agency": "Department of Public Works",
    "final_address": "FLEUR DE LIS DR & W BROOKS ST",
    "address_councildis": "A",
    "status": "Pending",
    "rowid": "1256409",
    "final_x": "3665067.72",
    "final_y": "546633.8",
    "longitude": "-90.11945218299411",
    "latitude": "29.997542278168762",
    "geocoded_column": {
      "latitude": "29.997542278168762",
      "longitude": "-90.11945218299411"
    }
  },
  {
    "service_request": "2026-1256408",
    "request_type": "Streetlights",
    "request_reason": "Streetlight Outage/Malfunction",
    "date_created": "2026-02-03T22:59:57.000",
    "date_modified": "2026-02-03T23:00:00.000",
    "request_status": "Pending",
    "responsible_agency": "Department of Public Works",
    "final_address": "4623 Metropolitan Dr",
    "address_councildis": "D",
    "status": "Pending",
    "rowid": "1256408",
    "final_x": "3690758.19484",
    "final_y": "550734.076117",
    "longitude": "-90.03815059562498",
    "latitude": "30.008043178263232",
    "geocoded_column": {
      "latitude": "30.008043178263232",
      "longitude": "-90.03815059562498"
    }
  },
  {
    "service_request": "2026-1256407",
    "request_type": "General Services",
    "request_reason": "General Service Request",
    "date_created": "2026-02-03T22:46:53.000",
    "date_modified": "2026-02-03T22:46:55.000",
    "request_status": "Pending",
    "responsible_agency": "Orleans Parish Communication District",
    "final_address": "1533 Mithra St",
    "address_councildis": "D",
    "status": "Pending",
    "rowid": "1256407",
    "final_x": "3678981.69973",
    "final_y": "552297.134038",
    "longitude": "-90.07530190336767",
    "latitude": "30.012701783684992",
    "geocoded_column": {
      "latitude": "30.012701783684992",
      "longitude": "-90.07530190336767"
    }
  },
  {
    "service_request": "2026-1256406",
    "request_type": "Trash/Recycling",
    "request_reason": "Request a Large Item Pick Up",
    "date_created": "2026-02-03T22:42:51.000",
    "date_modified": "2026-02-03T22:42:52.000",
    "request_status": "Pending",
    "responsible_agency": "Department of Sanitation",
    "final_address": "717 Fats Domino Ave",
    "address_councildis": "E",
    "status": "Assigned to Contractor",
    "contractor": "Waste Pro",
    "rowid": "1256406",
    "final_x": "3697711.04919",
    "final_y": "532394.708675",
    "longitude": "-90.0168502241084",
    "latitude": "29.957398660337347",
    "geocoded_column": {
      "latitude": "29.957398660337347",
      "longitude": "-90.0168502241084"
    }
  },
  {
    "service_request": "2026-1256405",
    "request_type": "Streetlights",
    "request_reason": "Streetlight Outage/Malfunction",
    "date_created": "2026-02-03T22:37:09.000",
    "date_modified": "2026-02-03T22:37:11.000",
    "request_status": "Pending",
    "responsible_agency": "Department of Public Works",
    "final_address": "5400 BLK Paris Ave",
    "address_councildis": "D",
    "status": "Pending",
    "rowid": "1256405",
    "final_x": "3679167.28795",
    "final_y": "552370.676542",
    "longitude": "-90.07471299423668",
    "latitude": "30.012898395104607",
    "geocoded_column": {
      "latitude": "30.012898395104607",
      "longitude": "-90.07471299423668"
    }
  },
  {
    "service_request": "2026-1256404",
    "request_type": "Streetlights",
    "request_reason": "Streetlight Outage/Malfunction",
    "date_created": "2026-02-03T21:48:14.000",
    "date_modified": "2026-02-03T21:48:15.000",
    "request_status": "Pending",
    "responsible_agency": "Department of Public Works",
    "final_address": "7821 Swift St",
    "address_councildis": "E",
    "status": "Pending",
    "rowid": "1256404",
    "final_x": "3695298.73725",
    "final_y": "559357.865437",
    "longitude": "-90.0234942702357",
    "latitude": "30.031613443770002",
    "geocoded_column": {
      "latitude": "30.031613443770002",
      "longitude": "-90.0234942702357"
    }
  },
  {
    "service_request": "2026-1256403",
    "request_type": "Property Maintenance",
    "request_reason": "Property Maintenance",
    "date_created": "2026-02-03T21:24:54.000",
    "date_modified": "2026-02-03T21:24:57.000",
    "request_status": "Pending",
    "responsible_agency": "Department of Code Enforcement",
    "final_address": "320 N Galvez St",
    "address_councildis": "B",
    "status": "Pending",
    "rowid": "1256403",
    "final_x": "3677637.26254",
    "final_y": "534622.380806",
    "longitude": "-90.08016032287266",
    "latitude": "29.964142899468786",
    "geocoded_column": {
      "latitude": "29.964142899468786",
      "longitude": "-90.08016032287266"
    }
  },
  {
    "service_request": "2026-1256402",
    "request_type": "Trash/Recycling",
    "request_reason": "Request a Large Item Pick Up",
    "date_created": "2026-02-03T21:02:04.000",
    "date_modified": "2026-02-03T21:02:06.000",
    "request_status": "Pending",
    "responsible_agency": "Department of Sanitation",
    "final_address": "821 Hillary St",
    "address_councildis": "A",
    "status": "Assigned to Contractor",
    "contractor": "IV Waste",
    "rowid": "1256402",
    "final_x": "3662502.18835",
    "final_y": "526233.932414",
    "longitude": "-90.12823441762981",
    "latitude": "29.941523839381038",
    "geocoded_column": {
      "latitude": "29.941523839381038",
      "longitude": "-90.12823441762981"
    }
  },
  {
    "service_request": "2026-1256401",
    "request_type": "Trash/Recycling",
    "request_reason": "Missed Trash Pick-Up",
    "date_created": "2026-02-03T21:00:35.000",
    "date_modified": "2026-02-03T21:00:38.000",
    "request_status": "Pending",
    "responsible_agency": "Department of Sanitation",
    "final_address": "11511 Morrison Rd",
    "address_councildis": "E",
    "status": "Assigned to Contractor",
    "contractor": "Waste Pro",
    "rowid": "1256401",
    "final_x": "3712545.59979",
    "final_y": "566033.916643",
    "longitude": "-89.96874265081156",
    "latitude": "30.04941652807791",
    "geocoded_column": {
      "latitude": "30.04941652807791",
      "longitude": "-89.96874265081156"
    }
  },
  {
    "service_request": "2026-1256400",
    "request_type": "General Services",
    "request_reason": "General Service Request",
    "date_created": "2026-02-03T20:43:13.000",
    "date_modified": "2026-02-03T20:43:14.000",
    "request_status": "Pending",
    "responsible_agency": "Orleans Parish Communication District",
    "final_address": "2501 St Philip St",
    "address_councildis": "D",
    "status": "Pending",
    "rowid": "1256400",
    "final_x": "3678205.40424",
    "final_y": "537278.2114",
    "longitude": "-90.07827431697983",
    "latitude": "29.971428430152542",
    "geocoded_column": {
      "latitude": "29.971428430152542",
      "longitude": "-90.07827431697983"
    }
  },
  {
    "service_request": "2026-1256398",
    "request_type": "Trash/Recycling",
    "request_reason": "Order Recycling Cart",
    "date_created": "2026-02-03T20:33:23.000",
    "date_modified": "2026-02-03T20:33:24.000",
    "request_status": "Pending",
    "responsible_agency": "Department of Sanitation",
    "final_address": "3924 Cleveland Ave Unit A",
    "address_councildis": "A",
    "status": "Pending",
    "rowid": "1256398",
    "final_x": "3671313.21684",
    "final_y": "537584.984328",
    "longitude": "-90.10003046176736",
    "latitude": "29.972477727611732",
    "geocoded_column": {
      "latitude": "29.972477727611732",
      "longitude": "-90.10003046176736"
    }
  },
  {
    "service_request": "2026-1256397",
    "request_type": "Road Striping",
    "request_reason": "Crosswalks",
    "date_created": "2026-02-03T20:33:13.000",
    "date_modified": "2026-02-03T20:33:15.000",
    "request_status": "Pending",
    "responsible_agency": "Department of Public Works",
    "final_address": "2501 St Philip St",
    "address_councildis": "D",
    "status": "Pending",
    "rowid": "1256397",
    "final_x": "3678205.40424",
    "final_y": "537278.2114",
    "longitude": "-90.07827431697983",
    "latitude": "29.971428430152542",
    "geocoded_column": {
      "latitude": "29.971428430152542",
      "longitude": "-90.07827431697983"
    }
  },
  {
    "service_request": "2026-1256396",
    "request_type": "Street and Traffic Signs",
    "request_reason": "Disabled Parking Sign Missing or Damaged",
    "date_created": "2026-02-03T20:28:24.000",
    "date_modified": "2026-02-03T20:28:26.000",
    "request_status": "Pending",
    "responsible_agency": "Department of Public Works",
    "final_address": "3924 Cleveland Ave Unit A",
    "address_councildis": "A",
    "status": "Pending",
    "rowid": "1256396",
    "final_x": "3671313.21684",
    "final_y": "537584.984328",
    "longitude": "-90.10003046176736",
    "latitude": "29.972477727611732",
    "geocoded_column": {
      "latitude": "29.972477727611732",
      "longitude": "-90.10003046176736"
    }
  },
  {
    "service_request": "2026-1256395",
    "request_type": "Utility Poles",
    "request_reason": "Utility Pole Leaning",
    "date_created": "2026-02-03T20:23:30.000",
    "date_modified": "2026-02-03T20:23:32.000",
    "request_status": "Pending",
    "responsible_agency": "Utility Company Collective",
    "final_address": "6804 Memphis St",
    "address_councildis": "A",
    "status": "Pending",
    "rowid": "1256395",
    "final_x": "3669597.47188",
    "final_y": "552725.327894",
    "longitude": "-90.10493649376748",
    "latitude": "30.014159124246294",
    "geocoded_column": {
      "latitude": "30.014159124246294",
      "longitude": "-90.10493649376748"
    }
  },
  {
    "service_request": "2026-1256394",
    "request_type": "Trash/Recycling",
    "request_reason": "Request a Large Item Pick Up",
    "date_created": "2026-02-03T20:18:36.000",
    "date_modified": "2026-02-03T20:18:39.000",
    "request_status": "Pending",
    "responsible_agency": "Department of Sanitation",
    "final_address": "314 S Olympia St",
    "address_councildis": "A",
    "status": "Assigned to Contractor",
    "contractor": "IV Waste",
    "rowid": "1256394",
    "final_x": "3668879.35079",
    "final_y": "538847.749449",
    "longitude": "-90.10767440757911",
    "latitude": "29.976021714161657",
    "geocoded_column": {
      "latitude": "29.976021714161657",
      "longitude": "-90.10767440757911"
    }
  },
  {
    "service_request": "2026-1256393",
    "request_type": "General Services",
    "request_reason": "General Service Request",
    "date_created": "2026-02-03T20:10:20.000",
    "date_modified": "2026-02-03T20:10:23.000",
    "request_status": "Pending",
    "responsible_agency": "Orleans Parish Communication District",
    "final_address": "8946 Birch St",
    "address_councildis": "A",
    "status": "Pending",
    "rowid": "1256393",
    "final_x": "3660530.38906",
    "final_y": "531524.393859",
    "longitude": "-90.13428502559564",
    "latitude": "29.956127792868795",
    "geocoded_column": {
      "latitude": "29.956127792868795",
      "longitude": "-90.13428502559564"
    }
  },
  {
    "service_request": "2026-1256392",
    "request_type": "Trash/Recycling",
    "request_reason": "Request a Large Item Pick Up",
    "date_created": "2026-02-03T20:03:06.000",
    "date_modified": "2026-02-03T20:03:08.000",
    "request_status": "Pending",
    "responsible_agency": "Department of Sanitation",
    "final_address": "5860 W Louis Prima Dr",
    "address_councildis": "E",
    "status": "Assigned to Contractor",
    "contractor": "Waste Pro",
    "rowid": "1256392",
    "final_x": "3715168.22885",
    "final_y": "562951.864224",
    "longitude": "-89.96057032858108",
    "latitude": "30.040855996101165",
    "geocoded_column": {
      "latitude": "30.040855996101165",
      "longitude": "-89.96057032858108"
    }
  },
  {
    "service_request": "2026-1256391",
    "request_type": "Trash/Recycling",
    "request_reason": "Request a Large Item Pick Up",
    "date_created": "2026-02-03T19:59:32.000",
    "date_modified": "2026-02-03T19:59:34.000",
    "request_status": "Pending",
    "responsible_agency": "Department of Sanitation",
    "final_address": "14924 Curran Rd",
    "address_councildis": "E",
    "status": "Assigned to Contractor",
    "contractor": "Waste Pro",
    "rowid": "1256391",
    "final_x": "3720717.38726",
    "final_y": "574128.145578",
    "longitude": "-89.94260462229519",
    "latitude": "30.071402150853718",
    "geocoded_column": {
      "latitude": "30.071402150853718",
      "longitude": "-89.94260462229519"
    }
  },
  {
    "service_request": "2026-1256390",
    "request_type": "Trash/Recycling",
    "request_reason": "Replace Recycling Cart",
    "date_created": "2026-02-03T19:58:59.000",
    "date_modified": "2026-02-03T19:59:10.000",
    "request_status": "Pending",
    "responsible_agency": "Department of Sanitation",
    "final_address": "920 Opelousas Ave",
    "address_councildis": "C",
    "status": "Pending",
    "rowid": "1256390",
    "final_x": "3688349.69609",
    "final_y": "529168.847808",
    "longitude": "-90.04652488247459",
    "latitude": "29.948821071330748",
    "geocoded_column": {
      "latitude": "29.948821071330748",
      "longitude": "-90.04652488247459"
    }
  },
  {
    "service_request": "2026-1256389",
    "request_type": "Street and Traffic Signs",
    "request_reason": "Stop Sign Missing or Damaged",
    "date_created": "2026-02-03T19:55:41.000",
    "date_modified": "2026-02-03T19:55:43.000",
    "request_status": "Pending",
    "responsible_agency": "Department of Public Works",
    "final_address": "4040 Euphrosine St",
    "address_councildis": "B",
    "status": "Pending",
    "rowid": "1256389",
    "final_x": "3672092.45595",
    "final_y": "531958.447171",
    "longitude": "-90.09776109287601",
    "latitude": "29.956983549732936",
    "geocoded_column": {
      "latitude": "29.956983549732936",
      "longitude": "-90.09776109287601"
    }
  },
  {
    "service_request": "2026-1256388",
    "request_type": "Trash/Recycling",
    "request_reason": "Request a Large Item Pick Up",
    "date_created": "2026-02-03T19:54:30.000",
    "date_modified": "2026-02-03T19:54:32.000",
    "request_status": "Pending",
    "responsible_agency": "Department of Sanitation",
    "final_address": "8510 S Claiborne Ave",
    "address_councildis": "A",
    "status": "Assigned to Contractor",
    "contractor": "IV Waste",
    "rowid": "1256388",
    "final_x": "3663616.92941",
    "final_y": "532518.902212",
    "longitude": "-90.12450560635534",
    "latitude": "29.958773195935706",
    "geocoded_column": {
      "latitude": "29.958773195935706",
      "longitude": "-90.12450560635534"
    }
  },
  {
    "service_request": "2026-1256387",
    "request_type": "Trash/Recycling",
    "request_reason": "Request a Large Item Pick Up",
    "date_created": "2026-02-03T19:52:24.000",
    "date_modified": "2026-02-03T19:52:25.000",
    "request_status": "Pending",
    "responsible_agency": "Department of Sanitation",
    "final_address": "914 Lowerline St",
    "address_councildis": "A",
    "status": "Assigned to Contractor",
    "contractor": "IV Waste",
    "rowid": "1256387",
    "final_x": "3663136.68307",
    "final_y": "526082.05523",
    "longitude": "-90.12623623411938",
    "latitude": "29.941087861485936",
    "geocoded_column": {
      "latitude": "29.941087861485936",
      "longitude": "-90.12623623411938"
    }
  },
  {
    "service_request": "2026-1256386",
    "request_type": "Roads and Streets",
    "request_reason": "Abandoned Service Cut",
    "date_created": "2026-02-03T19:49:07.000",
    "date_modified": "2026-02-03T19:49:09.000",
    "request_status": "Pending",
    "responsible_agency": "Department of Public Works",
    "final_address": "919 Alix St",
    "address_councildis": "C",
    "status": "Pending",
    "rowid": "1256386",
    "final_x": "3688385.41699",
    "final_y": "530287.085377",
    "longitude": "-90.04637244064078",
    "latitude": "29.951894738074664",
    "geocoded_column": {
      "latitude": "29.951894738074664",
      "longitude": "-90.04637244064078"
    }
  },
  {
    "service_request": "2026-1256385",
    "request_type": "Abandoned Vehicles",
    "request_reason": "Abandoned/Junk Vehicles",
    "date_created": "2026-02-03T19:46:12.000",
    "date_modified": "2026-02-03T19:46:14.000",
    "request_status": "Pending",
    "responsible_agency": "Department of Public Works",
    "final_address": "2674 New York St",
    "address_councildis": "D",
    "status": "Pending",
    "rowid": "1256385",
    "final_x": "3686971.45686",
    "final_y": "556755.70345",
    "longitude": "-90.04990093590673",
    "latitude": "30.02471758238721",
    "geocoded_column": {
      "latitude": "30.02471758238721",
      "longitude": "-90.04990093590673"
    }
  },
  {
    "service_request": "2026-1256384",
    "request_type": "Trash/Recycling",
    "request_reason": "Order Trash Cart",
    "date_created": "2026-02-03T19:34:34.000",
    "date_modified": "2026-02-03T19:34:43.000",
    "request_status": "Pending",
    "responsible_agency": "Department of Sanitation",
    "final_address": "2756 Gladiolus St",
    "address_councildis": "D",
    "status": "Assigned to Contractor",
    "contractor": "IV Waste",
    "rowid": "1256384",
    "final_x": "3688231.49987",
    "final_y": "547558.549522",
    "longitude": "-90.04624586113033",
    "latitude": "29.999389924749448",
    "geocoded_column": {
      "latitude": "29.999389924749448",
      "longitude": "-90.04624586113033"
    }
  },
  {
    "service_request": "2026-1256383",
    "request_type": "Roads and Streets",
    "request_reason": "Street Subsidence (Sinking)",
    "date_created": "2026-02-03T19:34:17.000",
    "date_modified": "2026-02-03T19:34:19.000",
    "request_status": "Pending",
    "responsible_agency": "Sewerage & Water Board",
    "final_address": "11120 Winchester Park Dr",
    "address_councildis": "E",
    "status": "Pending",
    "rowid": "1256383",
    "final_x": "3715044.51826",
    "final_y": "561186.714142",
    "longitude": "-89.96102810195885",
    "latitude": "30.0360066194624",
    "geocoded_column": {
      "latitude": "30.0360066194624",
      "longitude": "-89.96102810195885"
    }
  },
  {
    "service_request": "2026-1256382",
    "request_type": "Trash/Recycling",
    "request_reason": "Order Recycling Cart",
    "date_created": "2026-02-03T19:30:33.000",
    "date_modified": "2026-02-03T19:30:34.000",
    "request_status": "Pending",
    "responsible_agency": "Department of Sanitation",
    "final_address": "11120 Winchester Park Dr",
    "address_councildis": "E",
    "status": "Pending",
    "rowid": "1256382",
    "final_x": "3715044.51826",
    "final_y": "561186.714142",
    "longitude": "-89.96102810195885",
    "latitude": "30.0360066194624",
    "geocoded_column": {
      "latitude": "30.0360066194624",
      "longitude": "-89.96102810195885"
    }
  },
  {
    "service_request": "2026-1256381",
    "request_type": "Abandoned Vehicles",
    "request_reason": "Abandoned/Junk Vehicles",
    "date_created": "2026-02-03T19:28:10.000",
    "date_modified": "2026-02-03T19:28:11.000",
    "request_status": "Pending",
    "responsible_agency": "Department of Public Works",
    "final_address": "2674 New York St",
    "address_councildis": "D",
    "status": "Pending",
    "rowid": "1256381",
    "final_x": "3686971.45686",
    "final_y": "556755.70345",
    "longitude": "-90.04990093590673",
    "latitude": "30.02471758238721",
    "geocoded_column": {
      "latitude": "30.02471758238721",
      "longitude": "-90.04990093590673"
    }
  },
  {
    "service_request": "2026-1256380",
    "request_type": "Trash/Recycling",
    "request_reason": "Request a Large Item Pick Up",
    "date_created": "2026-02-03T19:21:58.000",
    "date_modified": "2026-02-03T19:21:59.000",
    "request_status": "Pending",
    "responsible_agency": "Department of Sanitation",
    "final_address": "4801 Sierra Madre Dr",
    "address_councildis": "E",
    "status": "Assigned to Contractor",
    "contractor": "Waste Pro",
    "rowid": "1256380",
    "final_x": "3713958.19519",
    "final_y": "556561.809754",
    "longitude": "-89.96463563225764",
    "latitude": "30.02332570222577",
    "geocoded_column": {
      "latitude": "30.02332570222577",
      "longitude": "-89.96463563225764"
    }
  },
  {
    "service_request": "2026-1256379",
    "request_type": "Trash/Recycling",
    "request_reason": "Order Trash Cart",
    "date_created": "2026-02-03T19:21:14.000",
    "date_modified": "2026-02-03T19:21:17.000",
    "request_status": "Pending",
    "responsible_agency": "Department of Sanitation",
    "final_address": "1729 Prytania St",
    "address_councildis": "B",
    "status": "Assigned to Contractor",
    "contractor": "IV Waste",
    "rowid": "1256379",
    "final_x": "3679148.90645",
    "final_y": "524538.366524",
    "longitude": "-90.0757361850112",
    "latitude": "29.93636969466365",
    "geocoded_column": {
      "latitude": "29.93636969466365",
      "longitude": "-90.0757361850112"
    }
  },
  {
    "service_request": "2026-1256378",
    "request_type": "Drainage",
    "request_reason": "Ditch and Culvert Maintenance",
    "date_created": "2026-02-03T19:14:38.000",
    "date_modified": "2026-02-03T19:14:39.000",
    "request_status": "Pending",
    "responsible_agency": "Department of Public Works",
    "final_address": "3219 Behrman Hwy",
    "address_councildis": "C",
    "status": "Pending",
    "rowid": "1256378",
    "final_x": "3695130.36963",
    "final_y": "518505.785207",
    "longitude": "-90.02549976922538",
    "latitude": "29.91929017777863",
    "geocoded_column": {
      "latitude": "29.91929017777863",
      "longitude": "-90.02549976922538"
    }
  },
  {
    "service_request": "2026-1256377",
    "request_type": "Drainage",
    "request_reason": "Illegal Dumping (Sewer Odor)",
    "date_created": "2026-02-03T19:13:24.000",
    "date_modified": "2026-02-03T19:13:26.000",
    "request_status": "Pending",
    "responsible_agency": "Sewerage & Water Board",
    "final_address": "6127 Louis Xiv St",
    "address_councildis": "A",
    "status": "Pending",
    "rowid": "1256377",
    "final_x": "3668214.40135",
    "final_y": "548166.987282",
    "longitude": "-90.10946014436418",
    "latitude": "30.001665977176355",
    "geocoded_column": {
      "latitude": "30.001665977176355",
      "longitude": "-90.10946014436418"
    }
  },
  {
    "service_request": "2026-1256376",
    "request_type": "Trash/Recycling",
    "request_reason": "Order Trash Cart",
    "date_created": "2026-02-03T19:07:17.000",
    "date_modified": "2026-02-03T19:07:19.000",
    "request_status": "Pending",
    "responsible_agency": "Department of Sanitation",
    "final_address": "2034 Washington Ave",
    "address_councildis": "B",
    "status": "Assigned to Contractor",
    "contractor": "IV Waste",
    "rowid": "1256376",
    "final_x": "3674940.77729",
    "final_y": "523943.544124",
    "longitude": "-90.08904180475825",
    "latitude": "29.934860451456267",
    "geocoded_column": {
      "latitude": "29.934860451456267",
      "longitude": "-90.08904180475825"
    }
  },
  {
    "service_request": "2026-1256375",
    "request_type": "Trash/Recycling",
    "request_reason": "Replace Trash Cart",
    "date_created": "2026-02-03T19:07:14.000",
    "date_modified": "2026-02-03T19:07:16.000",
    "request_status": "Pending",
    "responsible_agency": "Department of Sanitation",
    "final_address": "287 Audubon Blvd",
    "address_councildis": "A",
    "status": "Assigned to Contractor",
    "contractor": "IV Waste",
    "rowid": "1256375",
    "final_x": "3667050.16647",
    "final_y": "529548.698177",
    "longitude": "-90.1137641111168",
    "latitude": "29.95050606722719",
    "geocoded_column": {
      "latitude": "29.95050606722719",
      "longitude": "-90.1137641111168"
    }
  },
  {
    "service_request": "2026-1256374",
    "request_type": "Trash/Recycling",
    "request_reason": "Start Trash Service",
    "date_created": "2026-02-03T19:05:23.000",
    "date_modified": "2026-02-03T19:05:24.000",
    "request_status": "Pending",
    "responsible_agency": "Department of Sanitation",
    "final_address": "2034 Washington Ave",
    "address_councildis": "B",
    "status": "Assigned to Contractor",
    "contractor": "IV Waste",
    "rowid": "1256374",
    "final_x": "3674940.77729",
    "final_y": "523943.544124",
    "longitude": "-90.08904180475825",
    "latitude": "29.934860451456267",
    "geocoded_column": {
      "latitude": "29.934860451456267",
      "longitude": "-90.08904180475825"
    }
  },
  {
    "service_request": "2026-1256373",
    "request_type": "Streetlights",
    "request_reason": "Streetlight Outage/Malfunction",
    "date_created": "2026-02-03T18:56:59.000",
    "date_modified": "2026-02-03T18:57:03.000",
    "request_status": "Pending",
    "responsible_agency": "Department of Public Works",
    "final_address": "88 E Park Pl",
    "address_councildis": "A",
    "status": "Pending",
    "rowid": "1256373",
    "final_x": "3670130.61466",
    "final_y": "544777.648143",
    "longitude": "-90.10352153502197",
    "latitude": "29.992290051843067",
    "geocoded_column": {
      "latitude": "29.992290051843067",
      "longitude": "-90.10352153502197"
    }
  },
  {
    "service_request": "2026-1256372",
    "request_type": "Trash/Recycling",
    "request_reason": "Order Second Trash Cart",
    "date_created": "2026-02-03T18:44:45.000",
    "date_modified": "2026-02-03T18:44:46.000",
    "request_status": "Pending",
    "responsible_agency": "Department of Sanitation",
    "final_address": "6557 Vicksburg St",
    "address_councildis": "A",
    "status": "Assigned to Contractor",
    "contractor": "IV Waste",
    "rowid": "1256372",
    "final_x": "3669310.76519",
    "final_y": "551114.034389",
    "longitude": "-90.10589687950475",
    "latitude": "30.00973708256956",
    "geocoded_column": {
      "latitude": "30.00973708256956",
      "longitude": "-90.10589687950475"
    }
  },
  {
    "service_request": "2026-1256371",
    "request_type": "Trash/Recycling",
    "request_reason": "Damaged Caused By Contractor",
    "date_created": "2026-02-03T18:43:33.000",
    "date_modified": "2026-02-03T18:43:35.000",
    "request_status": "Pending",
    "responsible_agency": "Department of Sanitation",
    "final_address": "6557 Vicksburg St",
    "address_councildis": "A",
    "status": "Assigned to Contractor",
    "contractor": "IV Waste",
    "rowid": "1256371",
    "final_x": "3669310.76519",
    "final_y": "551114.034389",
    "longitude": "-90.10589687950475",
    "latitude": "30.00973708256956",
    "geocoded_column": {
      "latitude": "30.00973708256956",
      "longitude": "-90.10589687950475"
    }
  },
  {
    "service_request": "2026-1256370",
    "request_type": "Streetlights",
    "request_reason": "Streetlight Outage/Malfunction",
    "date_created": "2026-02-03T18:03:44.000",
    "date_modified": "2026-02-03T18:03:46.000",
    "request_status": "Pending",
    "responsible_agency": "Department of Public Works",
    "final_address": "41 Oriole St",
    "address_councildis": "D",
    "status": "Pending",
    "rowid": "1256370",
    "final_x": "3675604.45749",
    "final_y": "556626.967898",
    "longitude": "-90.08582320910732",
    "latitude": "30.02470878947314",
    "geocoded_column": {
      "latitude": "30.02470878947314",
      "longitude": "-90.08582320910732"
    }
  },
  {
    "service_request": "2026-1256369",
    "request_type": "Roads and Streets",
    "request_reason": "Sidewalk Damaged or Missing",
    "date_created": "2026-02-03T17:55:35.000",
    "date_modified": "2026-02-03T17:55:37.000",
    "request_status": "Pending",
    "responsible_agency": "Department of Public Works",
    "final_address": "1800 BLK Saint Roch Ave",
    "address_councildis": "D",
    "status": "Pending",
    "rowid": "1256369",
    "final_x": "3686098.62252",
    "final_y": "539171.635683",
    "longitude": "-90.05327964745959",
    "latitude": "29.976394599523815",
    "geocoded_column": {
      "latitude": "29.976394599523815",
      "longitude": "-90.05327964745959"
    }
  },
  {
    "service_request": "2026-1256368",
    "request_type": "Trash/Recycling",
    "request_reason": "Request a Large Item Pick Up",
    "date_created": "2026-02-03T17:51:11.000",
    "date_modified": "2026-02-03T17:51:13.000",
    "request_status": "Pending",
    "responsible_agency": "Department of Sanitation",
    "final_address": "254 Hillary St",
    "address_councildis": "A",
    "status": "Assigned to Contractor",
    "contractor": "IV Waste",
    "rowid": "1256368",
    "final_x": "3661053.46624",
    "final_y": "524756.941436",
    "longitude": "-90.13285719965295",
    "latitude": "29.93750439724881",
    "geocoded_column": {
      "latitude": "29.93750439724881",
      "longitude": "-90.13285719965295"
    }
  },
  {
    "service_request": "2026-1256367",
    "request_type": "Trash/Recycling",
    "request_reason": "Request a Large Item Pick Up",
    "date_created": "2026-02-03T17:39:39.000",
    "date_modified": "2026-02-03T17:39:41.000",
    "request_status": "Pending",
    "responsible_agency": "Department of Sanitation",
    "final_address": "4515 Paris Ave",
    "address_councildis": "D",
    "status": "Assigned to Contractor",
    "contractor": "IV Waste",
    "rowid": "1256367",
    "final_x": "3679513.47938",
    "final_y": "549166.464467",
    "longitude": "-90.07373050399403",
    "latitude": "30.004077501456866",
    "geocoded_column": {
      "latitude": "30.004077501456866",
      "longitude": "-90.07373050399403"
    }
  },
  {
    "service_request": "2026-1256366",
    "request_type": "Trash/Recycling",
    "request_reason": "Request a Large Item Pick Up",
    "date_created": "2026-02-03T17:35:25.000",
    "date_modified": "2026-02-03T17:35:27.000",
    "request_status": "Pending",
    "responsible_agency": "Department of Sanitation",
    "final_address": "4153 Vincennes Pl",
    "address_councildis": "B",
    "status": "Assigned to Contractor",
    "contractor": "IV Waste",
    "rowid": "1256366",
    "final_x": "3668659.22119",
    "final_y": "530831.10701",
    "longitude": "-90.10864025539712",
    "latitude": "29.953985083245843",
    "geocoded_column": {
      "latitude": "29.953985083245843",
      "longitude": "-90.10864025539712"
    }
  },
  {
    "service_request": "2026-1256365",
    "request_type": "Trash/Recycling",
    "request_reason": "Replace Trash Cart",
    "date_created": "2026-02-03T17:31:48.000",
    "date_modified": "2026-02-03T17:31:59.000",
    "request_status": "Pending",
    "responsible_agency": "Department of Sanitation",
    "final_address": "4608 S Carrollton Ave",
    "address_councildis": "A",
    "status": "Assigned to Contractor",
    "contractor": "IV Waste",
    "rowid": "1256365",
    "final_x": "3670714.52705",
    "final_y": "537754.467976",
    "longitude": "-90.10191548273393",
    "latitude": "29.972961455431026",
    "geocoded_column": {
      "latitude": "29.972961455431026",
      "longitude": "-90.10191548273393"
    }
  },
  {
    "service_request": "2026-1256364",
    "request_type": "Safety & Permits",
    "request_reason": "Zoning Enforcement",
    "date_created": "2026-02-03T17:24:44.000",
    "date_modified": "2026-02-03T17:24:45.000",
    "request_status": "Pending",
    "responsible_agency": "Safety and Permits",
    "final_address": "2011 Magazine St",
    "address_councildis": "B",
    "status": "Pending",
    "rowid": "1256364",
    "final_x": "3679400.67727",
    "final_y": "522559.498298",
    "longitude": "-90.07500994215542",
    "latitude": "29.93092085792747",
    "geocoded_column": {
      "latitude": "29.93092085792747",
      "longitude": "-90.07500994215542"
    }
  },
  {
    "service_request": "2026-1256363",
    "request_type": "Safety & Permits",
    "request_reason": "Zoning Enforcement",
    "date_created": "2026-02-03T17:24:43.000",
    "date_modified": "2026-02-03T17:24:46.000",
    "request_status": "Pending",
    "responsible_agency": "Safety and Permits",
    "final_address": "2011 Magazine St",
    "address_councildis": "B",
    "status": "Pending",
    "rowid": "1256363",
    "final_x": "3679400.67727",
    "final_y": "522559.498298",
    "longitude": "-90.07500994215542",
    "latitude": "29.93092085792747",
    "geocoded_column": {
      "latitude": "29.93092085792747",
      "longitude": "-90.07500994215542"
    }
  },
  {
    "service_request": "2026-1256362",
    "request_type": "Utility Poles",
    "request_reason": "Wires Sagging/Hanging Low",
    "date_created": "2026-02-03T17:01:59.000",
    "date_modified": "2026-02-03T17:02:02.000",
    "request_status": "Pending",
    "responsible_agency": "Utility Company Collective",
    "final_address": "2508 Napoleon Ave",
    "address_councildis": "B",
    "status": "Pending",
    "rowid": "1256362",
    "final_x": "3670425.49146",
    "final_y": "524148.9095",
    "longitude": "-90.10328958160581",
    "latitude": "29.935559190820488",
    "geocoded_column": {
      "latitude": "29.935559190820488",
      "longitude": "-90.10328958160581"
    }
  },
  {
    "service_request": "2026-1256361",
    "request_type": "Utility Poles",
    "request_reason": "Wires Sagging/Hanging Low",
    "date_created": "2026-02-03T16:56:51.000",
    "date_modified": "2026-02-03T16:56:53.000",
    "request_status": "Pending",
    "responsible_agency": "Utility Company Collective",
    "final_address": "2508 Napoleon Ave",
    "address_councildis": "B",
    "status": "Pending",
    "rowid": "1256361",
    "final_x": "3670425.49146",
    "final_y": "524148.9095",
    "longitude": "-90.10328958160581",
    "latitude": "29.935559190820488",
    "geocoded_column": {
      "latitude": "29.935559190820488",
      "longitude": "-90.10328958160581"
    }
  },
  {
    "service_request": "2026-1256360",
    "request_type": "Roads and Streets",
    "request_reason": "Street Subsidence (Sinking)",
    "date_created": "2026-02-03T16:48:09.000",
    "date_modified": "2026-02-03T16:48:10.000",
    "request_status": "Pending",
    "responsible_agency": "Sewerage & Water Board",
    "final_address": "4628 Orleans Ave",
    "address_councildis": "A",
    "status": "Pending",
    "rowid": "1256360",
    "final_x": "3670585.00398",
    "final_y": "541587.43886",
    "longitude": "-90.10219447850392",
    "latitude": "29.983504652761667",
    "geocoded_column": {
      "latitude": "29.983504652761667",
      "longitude": "-90.10219447850392"
    }
  },
  {
    "service_request": "2026-1256359",
    "request_type": "Trash/Recycling",
    "request_reason": "Request a Large Item Pick Up",
    "date_created": "2026-02-03T16:44:53.000",
    "date_modified": "2026-02-03T16:44:55.000",
    "request_status": "Pending",
    "responsible_agency": "Department of Sanitation",
    "final_address": "2715 Chippewa St",
    "address_councildis": "B",
    "status": "Assigned to Contractor",
    "contractor": "IV Waste",
    "rowid": "1256359",
    "final_x": "3678005.65224",
    "final_y": "519699.36748",
    "longitude": "-90.07951264510021",
    "latitude": "29.923098479876728",
    "geocoded_column": {
      "latitude": "29.923098479876728",
      "longitude": "-90.07951264510021"
    }
  },
  {
    "service_request": "2026-1256358",
    "request_type": "Streetlights",
    "request_reason": "Streetlight Outage/Malfunction",
    "date_created": "2026-02-03T16:44:50.000",
    "date_modified": "2026-02-03T16:44:52.000",
    "request_status": "Pending",
    "responsible_agency": "Department of Public Works",
    "final_address": "5401 Provincial Pl",
    "address_councildis": "E",
    "status": "Pending",
    "rowid": "1256358",
    "final_x": "3726067.5648",
    "final_y": "564085.563105",
    "longitude": "-89.92608120227311",
    "latitude": "30.04360965278082",
    "geocoded_column": {
      "latitude": "30.04360965278082",
      "longitude": "-89.92608120227311"
    }
  },
  {
    "service_request": "2026-1256357",
    "request_type": "Trash/Recycling",
    "request_reason": "Request a Large Item Pick Up",
    "date_created": "2026-02-03T16:44:18.000",
    "date_modified": "2026-02-03T16:44:20.000",
    "request_status": "Pending",
    "responsible_agency": "Department of Sanitation",
    "final_address": "11247 Fernley Dr",
    "address_councildis": "E",
    "status": "Assigned to Contractor",
    "contractor": "Waste Pro",
    "rowid": "1256357",
    "final_x": "3717411.71026",
    "final_y": "559969.977117",
    "longitude": "-89.95359371756675",
    "latitude": "30.032582917970302",
    "geocoded_column": {
      "latitude": "30.032582917970302",
      "longitude": "-89.95359371756675"
    }
  },
  {
    "service_request": "2026-1256356",
    "request_type": "Trash/Recycling",
    "request_reason": "Illegal Dumping",
    "date_created": "2026-02-03T16:43:57.000",
    "date_modified": "2026-02-03T16:43:59.000",
    "request_status": "Pending",
    "responsible_agency": "Department of Sanitation",
    "final_address": "FRANKLIN AVE & PAINTERS ST",
    "address_councildis": "C",
    "status": "Pending",
    "rowid": "1256356",
    "final_x": "3687449.8",
    "final_y": "538042.08",
    "longitude": "-90.04905221757366",
    "latitude": "29.973247145014994",
    "geocoded_column": {
      "latitude": "29.973247145014994",
      "longitude": "-90.04905221757366"
    }
  },
  {
    "service_request": "2026-1256355",
    "request_type": "Street and Traffic Signs",
    "request_reason": "Additional Signage Request",
    "date_created": "2026-02-03T16:43:34.000",
    "date_modified": "2026-02-03T16:43:35.000",
    "request_status": "Pending",
    "responsible_agency": "Department of Public Works",
    "final_address": "3900 BLK S Front St",
    "address_councildis": "B",
    "status": "Pending",
    "rowid": "1256355",
    "final_x": "3672845.4466",
    "final_y": "517381.621849",
    "longitude": "-90.09588047150288",
    "latitude": "29.91687967000879",
    "geocoded_column": {
      "latitude": "29.91687967000879",
      "longitude": "-90.09588047150288"
    }
  },
  {
    "service_request": "2026-1256354",
    "request_type": "Trash/Recycling",
    "request_reason": "Request a Large Item Pick Up",
    "date_created": "2026-02-03T16:31:54.000",
    "date_modified": "2026-02-03T16:31:55.000",
    "request_status": "Pending",
    "responsible_agency": "Department of Sanitation",
    "final_address": "3700 Rue Delphine",
    "address_councildis": "C",
    "status": "Assigned to Contractor",
    "contractor": "Richards Disposal",
    "rowid": "1256354",
    "final_x": "3703075.93226",
    "final_y": "516947.119413",
    "longitude": "-90.00047705768716",
    "latitude": "29.914752627239714",
    "geocoded_column": {
      "latitude": "29.914752627239714",
      "longitude": "-90.00047705768716"
    }
  },
  {
    "service_request": "2026-1256353",
    "request_type": "Trash/Recycling",
    "request_reason": "Replace Trash Cart",
    "date_created": "2026-02-03T16:30:31.000",
    "date_modified": "2026-02-03T16:30:32.000",
    "request_status": "Pending",
    "responsible_agency": "Department of Sanitation",
    "final_address": "1236 Eighth St",
    "address_councildis": "B",
    "status": "Assigned to Contractor",
    "contractor": "IV Waste",
    "rowid": "1256353",
    "final_x": "3675706.60257",
    "final_y": "520744.351033",
    "longitude": "-90.08673398101112",
    "latitude": "29.926040820806495",
    "geocoded_column": {
      "latitude": "29.926040820806495",
      "longitude": "-90.08673398101112"
    }
  },
  {
    "service_request": "2026-1256352",
    "request_type": "Trash/Recycling",
    "request_reason": "Order Trash Cart",
    "date_created": "2026-02-03T16:28:47.000",
    "date_modified": "2026-02-03T16:28:48.000",
    "request_status": "Pending",
    "responsible_agency": "Department of Sanitation",
    "final_address": "2359 Prentiss Ave",
    "address_councildis": "D",
    "status": "Assigned to Contractor",
    "contractor": "IV Waste",
    "rowid": "1256352",
    "final_x": "3684814.84553",
    "final_y": "554004.910232",
    "longitude": "-90.05681228660552",
    "latitude": "30.017220158619228",
    "geocoded_column": {
      "latitude": "30.017220158619228",
      "longitude": "-90.05681228660552"
    }
  },
  {
    "service_request": "2026-1256351",
    "request_type": "Trash/Recycling",
    "request_reason": "Request a Large Item Pick Up",
    "date_created": "2026-02-03T16:27:35.000",
    "date_modified": "2026-02-03T16:27:36.000",
    "request_status": "Pending",
    "responsible_agency": "Department of Sanitation",
    "final_address": "5661 Catina St",
    "address_councildis": "A",
    "status": "Assigned to Contractor",
    "contractor": "IV Waste",
    "rowid": "1256351",
    "final_x": "3666704.69473",
    "final_y": "545226.211919",
    "longitude": "-90.11432831278773",
    "latitude": "29.993624108255926",
    "geocoded_column": {
      "latitude": "29.993624108255926",
      "longitude": "-90.11432831278773"
    }
  },
  {
    "service_request": "2026-1256350",
    "request_type": "Trash/Recycling",
    "request_reason": "Request a Large Item Pick Up",
    "date_created": "2026-02-03T16:27:09.000",
    "date_modified": "2026-02-03T16:27:11.000",
    "request_status": "Pending",
    "responsible_agency": "Department of Sanitation",
    "final_address": "6752 Manchester St",
    "address_councildis": "E",
    "status": "Assigned to Contractor",
    "contractor": "Waste Pro",
    "rowid": "1256350",
    "final_x": "3698246.07722",
    "final_y": "559759.400925",
    "longitude": "-90.01416597492097",
    "latitude": "30.032624542499143",
    "geocoded_column": {
      "latitude": "30.032624542499143",
      "longitude": "-90.01416597492097"
    }
  },
  {
    "service_request": "2026-1256349",
    "request_type": "Trash/Recycling",
    "request_reason": "Replace Trash Cart",
    "date_created": "2026-02-03T16:24:58.000",
    "date_modified": "2026-02-03T16:25:01.000",
    "request_status": "Pending",
    "responsible_agency": "Department of Sanitation",
    "final_address": "8931 Hickory St",
    "address_councildis": "A",
    "status": "Assigned to Contractor",
    "contractor": "IV Waste",
    "rowid": "1256349",
    "final_x": "3661168.28269",
    "final_y": "532003.198659",
    "longitude": "-90.13225491581325",
    "latitude": "29.95742598157078",
    "geocoded_column": {
      "latitude": "29.95742598157078",
      "longitude": "-90.13225491581325"
    }
  },
  {
    "service_request": "2026-1256348",
    "request_type": "Trash/Recycling",
    "request_reason": "Repair Trash Cart",
    "date_created": "2026-02-03T16:21:56.000",
    "date_modified": "2026-02-03T16:21:57.000",
    "request_status": "Pending",
    "responsible_agency": "Department of Sanitation",
    "final_address": "2003 S Lopez St",
    "address_councildis": "B",
    "status": "Assigned to Contractor",
    "contractor": "IV Waste",
    "rowid": "1256348",
    "final_x": "3669383.01185",
    "final_y": "529730.906241",
    "longitude": "-90.1063920117301",
    "latitude": "29.950938600677038",
    "geocoded_column": {
      "latitude": "29.950938600677038",
      "longitude": "-90.1063920117301"
    }
  },
  {
    "service_request": "2026-1256347",
    "request_type": "Street and Traffic Signs",
    "request_reason": "Street Name Sign Damaged or Missing",
    "date_created": "2026-02-03T16:19:27.000",
    "date_modified": "2026-02-03T16:19:29.000",
    "request_status": "Pending",
    "responsible_agency": "Department of Public Works",
    "final_address": "11319 Pressburg St",
    "address_councildis": "E",
    "status": "Pending",
    "rowid": "1256347",
    "final_x": "3717090.07909",
    "final_y": "557630.149915",
    "longitude": "-89.95469904801278",
    "latitude": "30.02615997602392",
    "geocoded_column": {
      "latitude": "30.02615997602392",
      "longitude": "-89.95469904801278"
    }
  },
  {
    "service_request": "2026-1256346",
    "request_type": "Roads and Streets",
    "request_reason": "Sidewalk Damaged or Missing",
    "date_created": "2026-02-03T16:18:15.000",
    "date_modified": "2026-02-03T16:18:17.000",
    "request_status": "Pending",
    "responsible_agency": "Department of Public Works",
    "final_address": "2616 Dublin St",
    "address_councildis": "A",
    "status": "Pending",
    "rowid": "1256346",
    "final_x": "3665175.0361",
    "final_y": "532476.953028",
    "longitude": "-90.11958688754254",
    "latitude": "29.95861255960889",
    "geocoded_column": {
      "latitude": "29.95861255960889",
      "longitude": "-90.11958688754254"
    }
  },
  {
    "service_request": "2026-1256345",
    "request_type": "Trash/Recycling",
    "request_reason": "Replace Recycling Cart",
    "date_created": "2026-02-03T16:16:06.000",
    "date_modified": "2026-02-03T16:16:08.000",
    "request_status": "Pending",
    "responsible_agency": "Department of Sanitation",
    "final_address": "29 Grand Canyon Dr",
    "address_councildis": "C",
    "status": "Pending",
    "rowid": "1256345",
    "final_x": "3699642.02832",
    "final_y": "517064.995253",
    "longitude": "-90.01131130345796",
    "latitude": "29.915186130980516",
    "geocoded_column": {
      "latitude": "29.915186130980516",
      "longitude": "-90.01131130345796"
    }
  },
  {
    "service_request": "2026-1256344",
    "request_type": "Streetlights",
    "request_reason": "Streetlight Outage/Malfunction",
    "date_created": "2026-02-03T16:12:53.000",
    "date_modified": "2026-02-03T16:12:54.000",
    "request_status": "Pending",
    "responsible_agency": "Department of Public Works",
    "final_address": "3450 Betty Parker Pl",
    "address_councildis": "D",
    "status": "Pending",
    "rowid": "1256344",
    "final_x": "3693053.83453",
    "final_y": "544936.679567",
    "longitude": "-90.03110615880169",
    "latitude": "29.992030915735434",
    "geocoded_column": {
      "latitude": "29.992030915735434",
      "longitude": "-90.03110615880169"
    }
  },
  {
    "service_request": "2026-1256343",
    "request_type": "Trash/Recycling",
    "request_reason": "Missed Trash Pick-Up",
    "date_created": "2026-02-03T16:11:33.000",
    "date_modified": "2026-02-03T16:11:36.000",
    "request_status": "Pending",
    "responsible_agency": "Department of Sanitation",
    "final_address": "11611 Morrison Rd",
    "address_councildis": "E",
    "status": "Assigned to Contractor",
    "contractor": "Waste Pro",
    "rowid": "1256343",
    "final_x": "3712718.89445",
    "final_y": "566166.163555",
    "longitude": "-89.96818995922405",
    "latitude": "30.049774477648665",
    "geocoded_column": {
      "latitude": "30.049774477648665",
      "longitude": "-89.96818995922405"
    }
  },
  {
    "service_request": "2026-1256342",
    "request_type": "Trash/Recycling",
    "request_reason": "Request a Large Item Pick Up",
    "date_created": "2026-02-03T16:10:20.000",
    "date_modified": "2026-02-03T16:10:24.000",
    "request_status": "Pending",
    "responsible_agency": "Department of Sanitation",
    "final_address": "919 Forstall St",
    "address_councildis": "E",
    "status": "Assigned to Contractor",
    "contractor": "Waste Pro",
    "rowid": "1256342",
    "final_x": "3696103.7672",
    "final_y": "533573.771077",
    "longitude": "-90.0218828998431",
    "latitude": "29.960691344355986",
    "geocoded_column": {
      "latitude": "29.960691344355986",
      "longitude": "-90.0218828998431"
    }
  },
  {
    "service_request": "2026-1256341",
    "request_type": "Roads and Streets",
    "request_reason": "Sidewalk Damaged or Missing",
    "date_created": "2026-02-03T16:05:54.000",
    "date_modified": "2026-02-03T16:05:57.000",
    "request_status": "Pending",
    "responsible_agency": "Department of Public Works",
    "final_address": "4500 Chantilly Dr",
    "address_councildis": "E",
    "status": "Pending",
    "rowid": "1256341",
    "final_x": "3700925.17169",
    "final_y": "552867.564759",
    "longitude": "-90.0059521653031",
    "latitude": "30.013589556398802",
    "geocoded_column": {
      "latitude": "30.013589556398802",
      "longitude": "-90.0059521653031"
    }
  },
  {
    "service_request": "2026-1256340",
    "request_type": "Trash/Recycling",
    "request_reason": "Request a Large Item Pick Up",
    "date_created": "2026-02-03T16:03:36.000",
    "date_modified": "2026-02-03T16:03:37.000",
    "request_status": "Pending",
    "responsible_agency": "Department of Sanitation",
    "final_address": "4742 Camelot Dr",
    "address_councildis": "E",
    "status": "Assigned to Contractor",
    "contractor": "Waste Pro",
    "rowid": "1256340",
    "final_x": "3708303.46238",
    "final_y": "555575.032665",
    "longitude": "-89.98253998069168",
    "latitude": "30.020796961962905",
    "geocoded_column": {
      "latitude": "30.020796961962905",
      "longitude": "-89.98253998069168"
    }
  },
  {
    "service_request": "2026-1256339",
    "request_type": "Trash/Recycling",
    "request_reason": "Repair Recycling Cart",
    "date_created": "2026-02-03T16:01:35.000",
    "date_modified": "2026-02-03T16:01:37.000",
    "request_status": "Pending",
    "responsible_agency": "Department of Sanitation",
    "final_address": "2717 Dauphine St",
    "address_councildis": "C",
    "status": "Pending",
    "rowid": "1256339",
    "final_x": "3687279.56598",
    "final_y": "535243.640454",
    "longitude": "-90.0496888589301",
    "latitude": "29.965557659236794",
    "geocoded_column": {
      "latitude": "29.965557659236794",
      "longitude": "-90.0496888589301"
    }
  },
  {
    "service_request": "2026-1256338",
    "request_type": "Streetlights",
    "request_reason": "Streetlight Outage/Malfunction",
    "date_created": "2026-02-03T16:01:07.000",
    "date_modified": "2026-02-03T16:01:08.000",
    "request_status": "Pending",
    "responsible_agency": "Department of Public Works",
    "final_address": "1555 Poydras St",
    "address_councildis": "B",
    "status": "Pending",
    "rowid": "1256338",
    "final_x": "3677963.7917",
    "final_y": "530354.310466",
    "longitude": "-90.079276682772",
    "latitude": "29.95239732174202",
    "geocoded_column": {
      "latitude": "29.95239732174202",
      "longitude": "-90.079276682772"
    }
  },
  {
    "service_request": "2026-1256337",
    "request_type": "Trash/Recycling",
    "request_reason": "Request a Large Item Pick Up",
    "date_created": "2026-02-03T16:00:51.000",
    "date_modified": "2026-02-03T16:00:53.000",
    "request_status": "Pending",
    "responsible_agency": "Department of Sanitation",
    "final_address": "8201 Curran Rd",
    "address_councildis": "E",
    "status": "Assigned to Contractor",
    "contractor": "Waste Pro",
    "rowid": "1256337",
    "final_x": "3702733.41898",
    "final_y": "561981.162015",
    "longitude": "-89.99990400658685",
    "latitude": "30.038590704883664",
    "geocoded_column": {
      "latitude": "30.038590704883664",
      "longitude": "-89.99990400658685"
    }
  },
  {
    "service_request": "2026-1256336",
    "request_type": "Trash/Recycling",
    "request_reason": "Repair Recycling Cart",
    "date_created": "2026-02-03T16:00:38.000",
    "date_modified": "2026-02-03T16:02:16.000",
    "request_status": "Pending",
    "responsible_agency": "Department of Sanitation",
    "final_address": "2715 Dauphine St",
    "address_councildis": "C",
    "status": "Pending",
    "rowid": "1256336",
    "final_x": "3687266.37154",
    "final_y": "535246.418182",
    "longitude": "-90.04973042805301",
    "latitude": "29.965565703449986",
    "geocoded_column": {
      "latitude": "29.965565703449986",
      "longitude": "-90.04973042805301"
    }
  },
  {
    "service_request": "2026-1256335",
    "request_type": "Trash/Recycling",
    "request_reason": "Request a Large Item Pick Up",
    "date_created": "2026-02-03T16:00:18.000",
    "date_modified": "2026-02-03T16:00:36.000",
    "request_status": "Pending",
    "responsible_agency": "Department of Sanitation",
    "final_address": "5236 Chartres St",
    "address_councildis": "E",
    "status": "Assigned to Contractor",
    "contractor": "Waste Pro",
    "rowid": "1256335",
    "final_x": "3696211.23018",
    "final_y": "532219.360451",
    "longitude": "-90.0215925165113",
    "latitude": "29.956963810735125",
    "geocoded_column": {
      "latitude": "29.956963810735125",
      "longitude": "-90.0215925165113"
    }
  },
  {
    "service_request": "2026-1256334",
    "request_type": "Trash/Recycling",
    "request_reason": "Request a Large Item Pick Up",
    "date_created": "2026-02-03T15:55:40.000",
    "date_modified": "2026-02-03T15:55:43.000",
    "request_status": "Pending",
    "responsible_agency": "Department of Sanitation",
    "final_address": "7540 Daniel Dr",
    "address_councildis": "E",
    "status": "Assigned to Contractor",
    "contractor": "Waste Pro",
    "rowid": "1256334",
    "final_x": "3705150.08452",
    "final_y": "562534.1128",
    "longitude": "-89.99224629747638",
    "latitude": "30.04003355219674",
    "geocoded_column": {
      "latitude": "30.04003355219674",
      "longitude": "-89.99224629747638"
    }
  },
  {
    "service_request": "2026-1256333",
    "request_type": "Trash/Recycling",
    "request_reason": "Replace Trash Cart",
    "date_created": "2026-02-03T15:54:13.000",
    "date_modified": "2026-02-03T15:54:15.000",
    "request_status": "Pending",
    "responsible_agency": "Department of Sanitation",
    "final_address": "2219 Pine St",
    "address_councildis": "A",
    "status": "Assigned to Contractor",
    "contractor": "IV Waste",
    "rowid": "1256333",
    "final_x": "3666020.07482",
    "final_y": "529687.271745",
    "longitude": "-90.11701197517648",
    "latitude": "29.950917205971965",
    "geocoded_column": {
      "latitude": "29.950917205971965",
      "longitude": "-90.11701197517648"
    }
  },
  {
    "service_request": "2026-1256332",
    "request_type": "Property Maintenance",
    "request_reason": "Property Maintenance",
    "date_created": "2026-02-03T15:53:50.000",
    "date_modified": "2026-02-03T15:53:52.000",
    "request_status": "Pending",
    "responsible_agency": "Department of Code Enforcement",
    "final_address": "4622 Palmyra St",
    "address_councildis": "A",
    "status": "Pending",
    "rowid": "1256332",
    "final_x": "3668733.41684",
    "final_y": "539092.241226",
    "longitude": "-90.10812705407402",
    "latitude": "29.97669827561499",
    "geocoded_column": {
      "latitude": "29.97669827561499",
      "longitude": "-90.10812705407402"
    }
  },
  {
    "service_request": "2026-1256331",
    "request_type": "Safety & Permits",
    "request_reason": "Licenses & Permits",
    "date_created": "2026-02-03T15:52:30.000",
    "date_modified": "2026-02-03T15:52:31.000",
    "request_status": "Pending",
    "responsible_agency": "Safety and Permits",
    "final_address": "5021 Willow St",
    "address_councildis": "B",
    "status": "Pending",
    "rowid": "1256331",
    "final_x": "3668716.92494",
    "final_y": "525361.379773",
    "longitude": "-90.10864264682077",
    "latitude": "29.938943415785275",
    "geocoded_column": {
      "latitude": "29.938943415785275",
      "longitude": "-90.10864264682077"
    }
  },
  {
    "service_request": "2026-1256330",
    "request_type": "Trash/Recycling",
    "request_reason": "Request a Large Item Pick Up",
    "date_created": "2026-02-03T15:52:25.000",
    "date_modified": "2026-02-03T15:52:27.000",
    "request_status": "Pending",
    "responsible_agency": "Department of Sanitation",
    "final_address": "4667 Lurline St",
    "address_councildis": "E",
    "status": "Assigned to Contractor",
    "contractor": "Waste Pro",
    "rowid": "1256330",
    "final_x": "3712093.73816",
    "final_y": "555705.472025",
    "longitude": "-89.97055904046204",
    "latitude": "30.021032214684656",
    "geocoded_column": {
      "latitude": "30.021032214684656",
      "longitude": "-89.97055904046204"
    }
  },
  {
    "service_request": "2026-1256329",
    "request_type": "Trash/Recycling",
    "request_reason": "Repair Trash Cart",
    "date_created": "2026-02-03T15:51:07.000",
    "date_modified": "2026-02-03T15:51:09.000",
    "request_status": "Pending",
    "responsible_agency": "Department of Sanitation",
    "final_address": "2119 Simon Bolivar Ave",
    "address_councildis": "B",
    "status": "Assigned to Contractor",
    "contractor": "IV Waste",
    "rowid": "1256329",
    "final_x": "3676355.46728",
    "final_y": "525676.755453",
    "longitude": "-90.08451600815327",
    "latitude": "29.939583896846422",
    "geocoded_column": {
      "latitude": "29.939583896846422",
      "longitude": "-90.08451600815327"
    }
  },
  {
    "service_request": "2026-1256328",
    "request_type": "Abandoned Vehicles",
    "request_reason": "Abandoned/Junk Vehicles",
    "date_created": "2026-02-03T15:44:30.000",
    "date_modified": "2026-02-03T15:44:31.000",
    "request_status": "Pending",
    "responsible_agency": "Department of Public Works",
    "final_address": "2700 BLK Dante St",
    "address_councildis": "A",
    "status": "Pending",
    "rowid": "1256328",
    "final_x": "3665173.82349",
    "final_y": "532978.823266",
    "longitude": "-90.11957392952574",
    "latitude": "29.959992573888943",
    "geocoded_column": {
      "latitude": "29.959992573888943",
      "longitude": "-90.11957392952574"
    }
  },
  {
    "service_request": "2026-1256327",
    "request_type": "Property Maintenance",
    "request_reason": "Property Maintenance",
    "date_created": "2026-02-03T15:44:22.000",
    "date_modified": "2026-02-03T15:44:25.000",
    "request_status": "Pending",
    "responsible_agency": "Department of Code Enforcement",
    "final_address": "1119 S Gayoso St",
    "address_councildis": "B",
    "status": "Pending",
    "rowid": "1256327",
    "final_x": "3671357.17902",
    "final_y": "531776.330243",
    "longitude": "-90.10008906206994",
    "latitude": "29.956504568921094",
    "geocoded_column": {
      "latitude": "29.956504568921094",
      "longitude": "-90.10008906206994"
    }
  },
  {
    "service_request": "2026-1256326",
    "request_type": "Trash/Recycling",
    "request_reason": "Request a Large Item Pick Up",
    "date_created": "2026-02-03T15:44:15.000",
    "date_modified": "2026-02-03T15:44:17.000",
    "request_status": "Pending",
    "responsible_agency": "Department of Sanitation",
    "final_address": "2431 Broadway St",
    "address_councildis": "A",
    "status": "Assigned to Contractor",
    "contractor": "IV Waste",
    "rowid": "1256326",
    "final_x": "3666818.88711",
    "final_y": "530336.705282",
    "longitude": "-90.11446790732798",
    "latitude": "29.952679596825135",
    "geocoded_column": {
      "latitude": "29.952679596825135",
      "longitude": "-90.11446790732798"
    }
  },
  {
    "service_request": "2026-1256325",
    "request_type": "Streetlights",
    "request_reason": "Streetlight Outage/Malfunction",
    "date_created": "2026-02-03T15:44:01.000",
    "date_modified": "2026-02-03T15:45:19.000",
    "request_status": "Pending",
    "responsible_agency": "Department of Public Works",
    "final_address": "1556 De Battista Pl",
    "address_councildis": "C",
    "status": "Pending",
    "rowid": "1256325",
    "final_x": "3699811.86519",
    "final_y": "525354.927037",
    "longitude": "-90.01047315624429",
    "latitude": "29.93797520228674",
    "geocoded_column": {
      "latitude": "29.93797520228674",
      "longitude": "-90.01047315624429"
    }
  },
  {
    "service_request": "2026-1256324",
    "request_type": "General Services",
    "request_reason": "General Service Request",
    "date_created": "2026-02-03T15:43:53.000",
    "date_modified": "2026-02-03T15:43:54.000",
    "request_status": "Pending",
    "responsible_agency": "Orleans Parish Communication District",
    "final_address": "New Orleans hamburger &seafood,",
    "status": "Pending",
    "rowid": "1256324",
    "longitude": "0.0",
    "latitude": "0.0",
    "geocoded_column": {
      "latitude": "0.0",
      "longitude": "0.0"
    }
  },
  {
    "service_request": "2026-1256323",
    "request_type": "Trash/Recycling",
    "request_reason": "Damaged Caused By Contractor",
    "date_created": "2026-02-03T15:43:47.000",
    "date_modified": "2026-02-03T15:43:50.000",
    "request_status": "Pending",
    "responsible_agency": "Department of Sanitation",
    "final_address": "3311 Octavia St",
    "address_councildis": "A",
    "status": "Assigned to Contractor",
    "contractor": "IV Waste",
    "rowid": "1256323",
    "final_x": "3668470.02906",
    "final_y": "527769.967295",
    "longitude": "-90.10934089988201",
    "latitude": "29.945573506311465",
    "geocoded_column": {
      "latitude": "29.945573506311465",
      "longitude": "-90.10934089988201"
    }
  },
  {
    "service_request": "2026-1256322",
    "request_type": "Trash/Recycling",
    "request_reason": "Order Second Trash Cart",
    "date_created": "2026-02-03T15:41:54.000",
    "date_modified": "2026-02-03T15:41:56.000",
    "request_status": "Pending",
    "responsible_agency": "Department of Sanitation",
    "final_address": "7141 Lake Barrington Dr",
    "address_councildis": "E",
    "status": "Assigned to Contractor",
    "contractor": "Waste Pro",
    "rowid": "1256322",
    "final_x": "3712405.50142",
    "final_y": "564286.648673",
    "longitude": "-89.96925118556554",
    "latitude": "30.044616834917623",
    "geocoded_column": {
      "latitude": "30.044616834917623",
      "longitude": "-89.96925118556554"
    }
  },
  {
    "service_request": "2026-1256321",
    "request_type": "Trash/Recycling",
    "request_reason": "Request a Large Item Pick Up",
    "date_created": "2026-02-03T15:38:29.000",
    "date_modified": "2026-02-03T15:38:31.000",
    "request_status": "Pending",
    "responsible_agency": "Department of Sanitation",
    "final_address": "2720 General Pershing St",
    "address_councildis": "B",
    "status": "Assigned to Contractor",
    "contractor": "IV Waste",
    "rowid": "1256321",
    "final_x": "3670807.18196",
    "final_y": "524937.999101",
    "longitude": "-90.10205780906398",
    "latitude": "29.937717660196043",
    "geocoded_column": {
      "latitude": "29.937717660196043",
      "longitude": "-90.10205780906398"
    }
  },
  {
    "service_request": "2026-1256320",
    "request_type": "Property Maintenance",
    "request_reason": "Property Maintenance",
    "date_created": "2026-02-03T15:38:18.000",
    "date_modified": "2026-02-03T15:38:19.000",
    "request_status": "Pending",
    "responsible_agency": "Department of Code Enforcement",
    "final_address": "3916 N Rampart St",
    "address_councildis": "C",
    "status": "Pending",
    "rowid": "1256320",
    "final_x": "3691529.18742",
    "final_y": "534876.219206",
    "longitude": "-90.03628191656986",
    "latitude": "29.964415792693533",
    "geocoded_column": {
      "latitude": "29.964415792693533",
      "longitude": "-90.03628191656986"
    }
  },
  {
    "service_request": "2026-1256319",
    "request_type": "Trash/Recycling",
    "request_reason": "Repair Trash Cart",
    "date_created": "2026-02-03T15:36:25.000",
    "date_modified": "2026-02-03T15:36:27.000",
    "request_status": "Pending",
    "responsible_agency": "Department of Sanitation",
    "final_address": "4410 Walmsley Ave",
    "address_councildis": "B",
    "status": "Assigned to Contractor",
    "contractor": "IV Waste",
    "rowid": "1256319",
    "final_x": "3669481.36257",
    "final_y": "530106.064577",
    "longitude": "-90.10606878147452",
    "latitude": "29.95196726709527",
    "geocoded_column": {
      "latitude": "29.95196726709527",
      "longitude": "-90.10606878147452"
    }
  },
  {
    "service_request": "2026-1256318",
    "request_type": "Streetlights",
    "request_reason": "Streetlight Outage/Malfunction",
    "date_created": "2026-02-03T15:36:08.000",
    "date_modified": "2026-02-03T15:36:10.000",
    "request_status": "Pending",
    "responsible_agency": "Department of Public Works",
    "final_address": "1641 Pace Blvd",
    "address_councildis": "C",
    "status": "Pending",
    "rowid": "1256318",
    "final_x": "3694277.49059",
    "final_y": "525046.373245",
    "longitude": "-90.02795666727418",
    "latitude": "29.937301311382637",
    "geocoded_column": {
      "latitude": "29.937301311382637",
      "longitude": "-90.02795666727418"
    }
  },
  {
    "service_request": "2026-1256317",
    "request_type": "Roads and Streets",
    "request_reason": "Sidewalk Damaged or Missing",
    "date_created": "2026-02-03T15:34:47.000",
    "date_modified": "2026-02-03T15:34:49.000",
    "request_status": "Pending",
    "responsible_agency": "Department of Public Works",
    "final_address": "4516 Freret St",
    "address_councildis": "B",
    "status": "Pending",
    "rowid": "1256317",
    "final_x": "3669970.10606",
    "final_y": "523956.404988",
    "longitude": "-90.10473375781446",
    "latitude": "29.935043299317307",
    "geocoded_column": {
      "latitude": "29.935043299317307",
      "longitude": "-90.10473375781446"
    }
  },
  {
    "service_request": "2026-1256316",
    "request_type": "Trash/Recycling",
    "request_reason": "Request a Large Item Pick Up",
    "date_created": "2026-02-03T15:29:57.000",
    "date_modified": "2026-02-03T15:34:08.000",
    "request_status": "Pending",
    "responsible_agency": "Department of Sanitation",
    "final_address": "2725 Lafitte Ave",
    "address_councildis": "A",
    "status": "Assigned to Contractor",
    "contractor": "IV Waste",
    "rowid": "1256316",
    "final_x": "3676108.77614",
    "final_y": "536665.671687",
    "longitude": "-90.08491685352178",
    "latitude": "29.969807133085112",
    "geocoded_column": {
      "latitude": "29.969807133085112",
      "longitude": "-90.08491685352178"
    }
  },
  {
    "service_request": "2026-1256315",
    "request_type": "Streetlights",
    "request_reason": "Streetlight Outage/Malfunction",
    "date_created": "2026-02-03T15:29:25.000",
    "date_modified": "2026-02-03T15:29:27.000",
    "request_status": "Pending",
    "responsible_agency": "Department of Public Works",
    "final_address": "1016 Joliet St",
    "address_councildis": "A",
    "status": "Pending",
    "rowid": "1256315",
    "final_x": "3660522.3559",
    "final_y": "528978.736192",
    "longitude": "-90.13439450005559",
    "latitude": "29.94912828231174",
    "geocoded_column": {
      "latitude": "29.94912828231174",
      "longitude": "-90.13439450005559"
    }
  },
  {
    "service_request": "2026-1256314",
    "request_type": "Roads and Streets",
    "request_reason": "Sidewalk Damaged or Missing",
    "date_created": "2026-02-03T15:24:44.000",
    "date_modified": "2026-02-03T15:29:29.000",
    "request_status": "Pending",
    "responsible_agency": "Department of Public Works",
    "final_address": "2700 Amelia St",
    "address_councildis": "B",
    "status": "Pending",
    "rowid": "1256314",
    "final_x": "3672126.54113",
    "final_y": "525067.963517",
    "longitude": "-90.09788805715311",
    "latitude": "29.938035971228565",
    "geocoded_column": {
      "latitude": "29.938035971228565",
      "longitude": "-90.09788805715311"
    }
  },
  {
    "service_request": "2026-1256313",
    "request_type": "Trash/Recycling",
    "request_reason": "Illegal Dumping",
    "date_created": "2026-02-03T15:19:41.000",
    "date_modified": "2026-02-03T15:19:43.000",
    "request_status": "Pending",
    "responsible_agency": "Department of Sanitation",
    "final_address": "1800 BLK Crete St",
    "address_councildis": "A",
    "status": "Pending",
    "rowid": "1256313",
    "final_x": "3678735.89348",
    "final_y": "543019.312699",
    "longitude": "-90.07640006425353",
    "latitude": "29.987198483799624",
    "geocoded_column": {
      "latitude": "29.987198483799624",
      "longitude": "-90.07640006425353"
    }
  },
  {
    "service_request": "2026-1256312",
    "request_type": "Trash/Recycling",
    "request_reason": "Request a Large Item Pick Up",
    "date_created": "2026-02-03T15:17:21.000",
    "date_modified": "2026-02-03T15:17:23.000",
    "request_status": "Pending",
    "responsible_agency": "Department of Sanitation",
    "final_address": "1839 Crete St",
    "address_councildis": "A",
    "status": "Assigned to Contractor",
    "contractor": "IV Waste",
    "rowid": "1256312",
    "final_x": "3678547.83547",
    "final_y": "542679.632525",
    "longitude": "-90.07700583640367",
    "latitude": "29.986270152806494",
    "geocoded_column": {
      "latitude": "29.986270152806494",
      "longitude": "-90.07700583640367"
    }
  },
  {
    "service_request": "2026-1256311",
    "request_type": "Trash/Recycling",
    "request_reason": "Request a Large Item Pick Up",
    "date_created": "2026-02-03T15:16:47.000",
    "date_modified": "2026-02-03T15:16:50.000",
    "request_status": "Pending",
    "responsible_agency": "Department of Sanitation",
    "final_address": "6901 Dorchester St",
    "address_councildis": "E",
    "status": "Assigned to Contractor",
    "contractor": "Waste Pro",
    "rowid": "1256311",
    "final_x": "3698854.49386",
    "final_y": "559587.002973",
    "longitude": "-90.01224962113002",
    "latitude": "30.03213124088495",
    "geocoded_column": {
      "latitude": "30.03213124088495",
      "longitude": "-90.01224962113002"
    }
  },
  {
    "service_request": "2026-1256310",
    "request_type": "Trash/Recycling",
    "request_reason": "Return Trash Cart",
    "date_created": "2026-02-03T15:13:04.000",
    "date_modified": "2026-02-03T15:13:05.000",
    "request_status": "Pending",
    "responsible_agency": "Department of Sanitation",
    "final_address": "130 S Telemachus St",
    "address_councildis": "B",
    "status": "Assigned to Contractor",
    "contractor": "IV Waste",
    "rowid": "1256310",
    "final_x": "3672212.00366",
    "final_y": "537114.909256",
    "longitude": "-90.09720794322331",
    "latitude": "29.97115854936369",
    "geocoded_column": {
      "latitude": "29.97115854936369",
      "longitude": "-90.09720794322331"
    }
  },
  {
    "service_request": "2026-1256309",
    "request_type": "Drainage",
    "request_reason": "Drainage Manhole Cover Missing or Damaged",
    "date_created": "2026-02-03T15:12:39.000",
    "date_modified": "2026-02-03T15:12:42.000",
    "request_status": "Pending",
    "responsible_agency": "Sewerage & Water Board",
    "final_address": "NEIL AVE & AURORA DR",
    "address_councildis": "C",
    "status": "Pending",
    "rowid": "1256309",
    "final_x": "3706913.6",
    "final_y": "518744.28",
    "longitude": "-89.98829754963364",
    "latitude": "29.91957089169886",
    "geocoded_column": {
      "latitude": "29.91957089169886",
      "longitude": "-89.98829754963364"
    }
  },
  {
    "service_request": "2026-1256308",
    "request_type": "Abandoned Vehicles",
    "request_reason": "Abandoned/Junk Vehicles",
    "date_created": "2026-02-03T15:11:59.000",
    "date_modified": "2026-02-03T15:12:21.000",
    "request_status": "Pending",
    "responsible_agency": "Department of Public Works",
    "final_address": "1423 Annunciation St",
    "address_councildis": "B",
    "status": "Pending",
    "rowid": "1256308",
    "final_x": "3681065.0445",
    "final_y": "524129.104764",
    "longitude": "-90.06970112256565",
    "latitude": "29.935186395131662",
    "geocoded_column": {
      "latitude": "29.935186395131662",
      "longitude": "-90.06970112256565"
    }
  },
  {
    "service_request": "2026-1256307",
    "request_type": "Trash/Recycling",
    "request_reason": "Request a Large Item Pick Up",
    "date_created": "2026-02-03T15:09:19.000",
    "date_modified": "2026-02-03T15:09:21.000",
    "request_status": "Pending",
    "responsible_agency": "Department of Sanitation",
    "final_address": "623 Egania St",
    "address_councildis": "E",
    "status": "Assigned to Contractor",
    "contractor": "Waste Pro",
    "rowid": "1256307",
    "final_x": "3696388.05399",
    "final_y": "532380.035971",
    "longitude": "-90.0210283546438",
    "latitude": "29.957400044605542",
    "geocoded_column": {
      "latitude": "29.957400044605542",
      "longitude": "-90.0210283546438"
    }
  },
  {
    "service_request": "2026-1256306",
    "request_type": "Trash/Recycling",
    "request_reason": "Request a Large Item Pick Up",
    "date_created": "2026-02-03T15:06:36.000",
    "date_modified": "2026-02-03T15:22:18.000",
    "request_status": "Pending",
    "responsible_agency": "Department of Sanitation",
    "final_address": "6024 S Robertson St",
    "address_councildis": "A",
    "status": "Assigned to Contractor",
    "contractor": "IV Waste",
    "rowid": "1256306",
    "final_x": "3666283.741",
    "final_y": "524781.710268",
    "longitude": "-90.11634395817154",
    "latitude": "29.937420794504234",
    "geocoded_column": {
      "latitude": "29.937420794504234",
      "longitude": "-90.11634395817154"
    }
  },
  {
    "service_request": "2026-1256305",
    "request_type": "Trash/Recycling",
    "request_reason": "Missed Trash Pick-Up",
    "date_created": "2026-02-03T15:04:24.000",
    "date_modified": "2026-02-03T15:13:47.000",
    "case_close_date": "2026-02-03T09:13:46.000",
    "request_status": "Closed",
    "responsible_agency": "Department of Sanitation",
    "final_address": "4025 Vendome Pl",
    "address_councildis": "B",
    "status": "Invalid Request",
    "contractor": "IV Waste",
    "contractor_action": "Invalid Request",
    "rowid": "1256305",
    "final_x": "3668828.6139",
    "final_y": "530050.280577",
    "longitude": "-90.10813174362715",
    "latitude": "29.951833087048655",
    "geocoded_column": {
      "latitude": "29.951833087048655",
      "longitude": "-90.10813174362715"
    }
  },
  {
    "service_request": "2026-1256304",
    "request_type": "Trash/Recycling",
    "request_reason": "Request a Large Item Pick Up",
    "date_created": "2026-02-03T14:59:45.000",
    "date_modified": "2026-02-03T15:21:55.000",
    "request_status": "Pending",
    "responsible_agency": "Department of Sanitation",
    "final_address": "8009 Spruce St",
    "address_councildis": "A",
    "status": "Assigned to Contractor",
    "contractor": "IV Waste",
    "rowid": "1256304",
    "final_x": "3664148.46746",
    "final_y": "530239.961921",
    "longitude": "-90.12290315764193",
    "latitude": "29.952491420980287",
    "geocoded_column": {
      "latitude": "29.952491420980287",
      "longitude": "-90.12290315764193"
    }
  },
  {
    "service_request": "2026-1256303",
    "request_type": "Streetlights",
    "request_reason": "Streetlight Outage/Malfunction",
    "date_created": "2026-02-03T14:58:46.000",
    "date_modified": "2026-02-03T14:58:48.000",
    "request_status": "Pending",
    "responsible_agency": "Department of Public Works",
    "final_address": "2200 BLK Simon Bolivar Ave",
    "address_councildis": "B",
    "status": "Pending",
    "rowid": "1256303",
    "final_x": "3676033.98156",
    "final_y": "525464.87143",
    "longitude": "-90.08553826811507",
    "latitude": "29.939010915689085",
    "geocoded_column": {
      "latitude": "29.939010915689085",
      "longitude": "-90.08553826811507"
    }
  },
  {
    "service_request": "2026-1256302",
    "request_type": "Trash/Recycling",
    "request_reason": "Request a Large Item Pick Up",
    "date_created": "2026-02-03T14:58:24.000",
    "date_modified": "2026-02-03T14:58:25.000",
    "request_status": "Pending",
    "responsible_agency": "Department of Sanitation",
    "final_address": "735 Hendee St",
    "address_councildis": "C",
    "status": "Assigned to Contractor",
    "contractor": "Richards Disposal",
    "rowid": "1256302",
    "final_x": "3690787.29008",
    "final_y": "528678.702784",
    "longitude": "-90.03884586415445",
    "latitude": "29.947397844592828",
    "geocoded_column": {
      "latitude": "29.947397844592828",
      "longitude": "-90.03884586415445"
    }
  },
  {
    "service_request": "2026-1256301",
    "request_type": "Streetlights",
    "request_reason": "Streetlight Outage/Malfunction",
    "date_created": "2026-02-03T14:56:29.000",
    "date_modified": "2026-02-03T14:56:31.000",
    "request_status": "Pending",
    "responsible_agency": "Department of Public Works",
    "final_address": "7900 BLK Arcadia Ln",
    "address_councildis": "E",
    "status": "Pending",
    "rowid": "1256301",
    "final_x": "3711700.3141",
    "final_y": "568083.644132",
    "longitude": "-89.97133724077344",
    "latitude": "30.055080097799664",
    "geocoded_column": {
      "latitude": "30.055080097799664",
      "longitude": "-89.97133724077344"
    }
  },
  {
    "service_request": "2026-1256300",
    "request_type": "Trash/Recycling",
    "request_reason": "MIssed Recycling Pick-Up",
    "date_created": "2026-02-03T14:55:22.000",
    "date_modified": "2026-02-03T15:10:29.000",
    "case_close_date": "2026-02-03T09:10:27.000",
    "request_status": "Closed",
    "responsible_agency": "Department of Sanitation",
    "final_address": "6950 Marshal Foch St",
    "address_councildis": "A",
    "status": "Invalid Request",
    "contractor": "IV Waste",
    "contractor_action": "Invalid Request",
    "rowid": "1256300",
    "final_x": "3670320.72052",
    "final_y": "553623.539671",
    "longitude": "-90.10262090463155",
    "latitude": "30.016607549004167",
    "geocoded_column": {
      "latitude": "30.016607549004167",
      "longitude": "-90.10262090463155"
    }
  },
  {
    "service_request": "2026-1256299",
    "request_type": "Healthy Homes",
    "request_reason": "Healthy Homes",
    "date_created": "2026-02-03T14:54:20.000",
    "date_modified": "2026-02-03T14:54:22.000",
    "request_status": "Pending",
    "responsible_agency": "Department of Code Enforcement",
    "final_address": "2546 Bienville Ave",
    "address_councildis": "B",
    "status": "Pending",
    "rowid": "1256299",
    "final_x": "3676266.63835",
    "final_y": "535303.762502",
    "longitude": "-90.08446518719452",
    "latitude": "29.966057615083372",
    "geocoded_column": {
      "latitude": "29.966057615083372",
      "longitude": "-90.08446518719452"
    }
  },
  {
    "service_request": "2026-1256298",
    "request_type": "Trash/Recycling",
    "request_reason": "Request a Large Item Pick Up",
    "date_created": "2026-02-03T14:48:57.000",
    "date_modified": "2026-02-03T15:21:18.000",
    "request_status": "Pending",
    "responsible_agency": "Department of Sanitation",
    "final_address": "5946 Laurel St",
    "address_councildis": "A",
    "status": "Assigned to Contractor",
    "contractor": "IV Waste",
    "rowid": "1256298",
    "final_x": "3664608.27917",
    "final_y": "518061.863414",
    "longitude": "-90.12185783096047",
    "latitude": "29.91899215727472",
    "geocoded_column": {
      "latitude": "29.91899215727472",
      "longitude": "-90.12185783096047"
    }
  },
  {
    "service_request": "2026-1256297",
    "request_type": "Roads and Streets",
    "request_reason": "Sidewalk Damaged or Missing",
    "date_created": "2026-02-03T14:43:38.000",
    "date_modified": "2026-02-03T15:01:28.000",
    "request_status": "Pending",
    "responsible_agency": "Department of Public Works",
    "final_address": "201 Camp St",
    "address_councildis": "B",
    "status": "Pending",
    "rowid": "1256297",
    "final_x": "3681287.87586",
    "final_y": "530106.436161",
    "longitude": "-90.0687893920125",
    "latitude": "29.951615299149175",
    "geocoded_column": {
      "latitude": "29.951615299149175",
      "longitude": "-90.0687893920125"
    }
  },
  {
    "service_request": "2026-1256296",
    "request_type": "Trash/Recycling",
    "request_reason": "Repair Trash Cart",
    "date_created": "2026-02-03T14:39:21.000",
    "date_modified": "2026-02-03T14:39:23.000",
    "request_status": "Pending",
    "responsible_agency": "Department of Sanitation",
    "final_address": "6139 S Laverne St",
    "address_councildis": "D",
    "status": "Assigned to Contractor",
    "contractor": "Waste Pro",
    "rowid": "1256296",
    "final_x": "3696755.56759",
    "final_y": "555463.878041",
    "longitude": "-90.01903178094749",
    "latitude": "30.02086059219807",
    "geocoded_column": {
      "latitude": "30.02086059219807",
      "longitude": "-90.01903178094749"
    }
  },
  {
    "service_request": "2026-1256295",
    "request_type": "Trash/Recycling",
    "request_reason": "Request a Large Item Pick Up",
    "date_created": "2026-02-03T14:38:34.000",
    "date_modified": "2026-02-03T14:38:35.000",
    "request_status": "Pending",
    "responsible_agency": "Department of Sanitation",
    "final_address": "1531 Feliciana St",
    "address_councildis": "D",
    "status": "Assigned to Contractor",
    "contractor": "IV Waste",
    "rowid": "1256295",
    "final_x": "3689212.03772",
    "final_y": "537830.110793",
    "longitude": "-90.04349426821116",
    "latitude": "29.97260987689356",
    "geocoded_column": {
      "latitude": "29.97260987689356",
      "longitude": "-90.04349426821116"
    }
  },
  {
    "service_request": "2026-1256294",
    "request_type": "Trash/Recycling",
    "request_reason": "Repair Recycling Cart",
    "date_created": "2026-02-03T14:38:22.000",
    "date_modified": "2026-02-03T14:38:24.000",
    "request_status": "Pending",
    "responsible_agency": "Department of Sanitation",
    "final_address": "3124 Ursulines Ave",
    "address_councildis": "A",
    "status": "Pending",
    "rowid": "1256294",
    "final_x": "3675936.90197",
    "final_y": "539389.542986",
    "longitude": "-90.08536595917953",
    "latitude": "29.97730199680778",
    "geocoded_column": {
      "latitude": "29.97730199680778",
      "longitude": "-90.08536595917953"
    }
  },
  {
    "service_request": "2026-1256293",
    "request_type": "Property Maintenance",
    "request_reason": "Property Maintenance",
    "date_created": "2026-02-03T14:38:04.000",
    "date_modified": "2026-02-03T14:38:05.000",
    "request_status": "Pending",
    "responsible_agency": "Department of Code Enforcement",
    "final_address": "2415 Feliciana St",
    "address_councildis": "D",
    "status": "Pending",
    "rowid": "1256293",
    "final_x": "3690025.53264",
    "final_y": "541079.578124",
    "longitude": "-90.04080935089824",
    "latitude": "29.98151955488722",
    "geocoded_column": {
      "latitude": "29.98151955488722",
      "longitude": "-90.04080935089824"
    }
  },
  {
    "service_request": "2026-1256292",
    "request_type": "Streetlights",
    "request_reason": "Streetlight Outage/Malfunction",
    "date_created": "2026-02-03T14:35:58.000",
    "date_modified": "2026-02-03T14:35:59.000",
    "request_status": "Pending",
    "responsible_agency": "Department of Public Works",
    "final_address": "4768 St Roch Ave",
    "address_councildis": "D",
    "status": "Pending",
    "rowid": "1256292",
    "final_x": "3685186.76322",
    "final_y": "550670.767124",
    "longitude": "-90.05575463675189",
    "latitude": "30.008041085627482",
    "geocoded_column": {
      "latitude": "30.008041085627482",
      "longitude": "-90.05575463675189"
    }
  },
  {
    "service_request": "2026-1256291",
    "request_type": "Street and Traffic Signs",
    "request_reason": "Street Name Sign Damaged or Missing",
    "date_created": "2026-02-03T14:31:43.000",
    "date_modified": "2026-02-03T14:31:45.000",
    "request_status": "Pending",
    "responsible_agency": "Department of Public Works",
    "final_address": "SERANTINE ST & GENTILLY BLVD",
    "address_councildis": "D",
    "status": "Pending",
    "rowid": "1256291",
    "final_x": "3678990.8",
    "final_y": "543036.38",
    "longitude": "-90.0755943136798",
    "latitude": "29.98723772186239",
    "geocoded_column": {
      "latitude": "29.98723772186239",
      "longitude": "-90.0755943136798"
    }
  },
  {
    "service_request": "2026-1256290",
    "request_type": "Trash/Recycling",
    "request_reason": "Repair Recycling Cart",
    "date_created": "2026-02-03T14:31:14.000",
    "date_modified": "2026-02-03T14:31:15.000",
    "request_status": "Pending",
    "responsible_agency": "Department of Sanitation",
    "final_address": "7620 Hickman St",
    "address_councildis": "E",
    "status": "Pending",
    "rowid": "1256290",
    "final_x": "3706105.29956",
    "final_y": "563269.538656",
    "longitude": "-89.98920027673803",
    "latitude": "30.04202490713701",
    "geocoded_column": {
      "latitude": "30.04202490713701",
      "longitude": "-89.98920027673803"
    }
  },
  {
    "service_request": "2026-1256289",
    "request_type": "Trash/Recycling",
    "request_reason": "Request a Large Item Pick Up",
    "date_created": "2026-02-03T14:27:21.000",
    "date_modified": "2026-02-03T14:27:23.000",
    "request_status": "Pending",
    "responsible_agency": "Department of Sanitation",
    "final_address": "915 Franklin Ave",
    "address_councildis": "C",
    "status": "Assigned to Contractor",
    "contractor": "IV Waste",
    "rowid": "1256289",
    "final_x": "3686985.40169",
    "final_y": "535799.561223",
    "longitude": "-90.0505981621494",
    "latitude": "29.967095305933835",
    "geocoded_column": {
      "latitude": "29.967095305933835",
      "longitude": "-90.0505981621494"
    }
  },
  {
    "service_request": "2026-1256288",
    "request_type": "Trash/Recycling",
    "request_reason": "Order Trash Cart",
    "date_created": "2026-02-03T14:23:29.000",
    "date_modified": "2026-02-03T14:23:31.000",
    "request_status": "Pending",
    "responsible_agency": "Department of Sanitation",
    "final_address": "2614 Soniat St",
    "address_councildis": "B",
    "status": "Assigned to Contractor",
    "contractor": "IV Waste",
    "rowid": "1256288",
    "final_x": "3668406.061",
    "final_y": "525037.084413",
    "longitude": "-90.10963501765586",
    "latitude": "29.938060840226274",
    "geocoded_column": {
      "latitude": "29.938060840226274",
      "longitude": "-90.10963501765586"
    }
  },
  {
    "service_request": "2026-1256287",
    "request_type": "General Services",
    "request_reason": "General Service Request",
    "date_created": "2026-02-03T14:22:45.000",
    "date_modified": "2026-02-03T15:31:27.000",
    "case_close_date": "2026-02-03T09:31:25.000",
    "request_status": "Closed",
    "responsible_agency": "Orleans Parish Communication District",
    "final_address": "3210 Dumaine St",
    "address_councildis": "A",
    "status": "Referred to External Agency",
    "rowid": "1256287",
    "final_x": "3675300.81461",
    "final_y": "538895.128778",
    "longitude": "-90.0873919147464",
    "latitude": "29.975961560687544",
    "geocoded_column": {
      "latitude": "29.975961560687544",
      "longitude": "-90.0873919147464"
    }
  },
  {
    "service_request": "2026-1256286",
    "request_type": "Roads and Streets",
    "request_reason": "Debris in Driving Lanes",
    "date_created": "2026-02-03T14:21:41.000",
    "date_modified": "2026-02-03T14:21:43.000",
    "request_status": "Pending",
    "responsible_agency": "Department of Public Works",
    "final_address": "2200 Upperline St",
    "address_councildis": "B",
    "status": "Pending",
    "rowid": "1256286",
    "final_x": "3669084.31879",
    "final_y": "522932.018043",
    "longitude": "-90.10756478611714",
    "latitude": "29.93225264941014",
    "geocoded_column": {
      "latitude": "29.93225264941014",
      "longitude": "-90.10756478611714"
    }
  },
  {
    "service_request": "2026-1256285",
    "request_type": "Trash/Recycling",
    "request_reason": "Request a Large Item Pick Up",
    "date_created": "2026-02-03T14:15:45.000",
    "date_modified": "2026-02-03T14:23:59.000",
    "request_status": "Pending",
    "responsible_agency": "Department of Sanitation",
    "final_address": "614 Esplanade Ave, New Orleans, Louisiana, 70116",
    "address_councildis": "C",
    "status": "Assigned to Contractor",
    "contractor": "IV Waste",
    "rowid": "1256285",
    "final_x": "3684193.25231",
    "final_y": "534226.798277",
    "longitude": "-90.05947099322388",
    "latitude": "29.962856401929088",
    "geocoded_column": {
      "latitude": "29.962856401929088",
      "longitude": "-90.05947099322388"
    }
  },
  {
    "service_request": "2026-1256284",
    "request_type": "Trash/Recycling",
    "request_reason": "Request a Large Item Pick Up",
    "date_created": "2026-02-03T14:15:20.000",
    "date_modified": "2026-02-03T14:15:22.000",
    "request_status": "Pending",
    "responsible_agency": "Department of Sanitation",
    "final_address": "3823 Cleveland Ave",
    "address_councildis": "A",
    "status": "Assigned to Contractor",
    "contractor": "IV Waste",
    "rowid": "1256284",
    "final_x": "3671679.53979",
    "final_y": "537415.542856",
    "longitude": "-90.09887931142859",
    "latitude": "29.972000974187385",
    "geocoded_column": {
      "latitude": "29.972000974187385",
      "longitude": "-90.09887931142859"
    }
  },
  {
    "service_request": "2026-1256283",
    "request_type": "Trash/Recycling",
    "request_reason": "Order Recycling Cart",
    "date_created": "2026-02-03T14:15:02.000",
    "date_modified": "2026-02-03T14:15:04.000",
    "request_status": "Pending",
    "responsible_agency": "Department of Sanitation",
    "final_address": "4113 Toulouse St",
    "address_councildis": "A",
    "status": "Pending",
    "rowid": "1256283",
    "final_x": "3672188.15035",
    "final_y": "539808.46561",
    "longitude": "-90.09719150525025",
    "latitude": "29.978565623875003",
    "geocoded_column": {
      "latitude": "29.978565623875003",
      "longitude": "-90.09719150525025"
    }
  },
  {
    "service_request": "2026-1256282",
    "request_type": "Healthy Homes",
    "request_reason": "Healthy Homes",
    "date_created": "2026-02-03T14:12:59.000",
    "date_modified": "2026-02-03T15:52:44.000",
    "request_status": "Pending",
    "responsible_agency": "Department of Code Enforcement",
    "final_address": "720 S Galvez St",
    "address_councildis": "B",
    "status": "Pending",
    "rowid": "1256282",
    "final_x": "3674975.1924",
    "final_y": "531065.169858",
    "longitude": "-90.08868894104444",
    "latitude": "29.95444154746983",
    "geocoded_column": {
      "latitude": "29.95444154746983",
      "longitude": "-90.08868894104444"
    }
  },
  {
    "service_request": "2026-1256281",
    "request_type": "Trash/Recycling",
    "request_reason": "Replace Recycling Cart",
    "date_created": "2026-02-03T14:12:41.000",
    "date_modified": "2026-02-03T14:12:43.000",
    "request_status": "Pending",
    "responsible_agency": "Department of Sanitation",
    "final_address": "9751 W Rockton Cir",
    "address_councildis": "E",
    "status": "Pending",
    "rowid": "1256281",
    "final_x": "3707956.27313",
    "final_y": "562636.94032",
    "longitude": "-89.98337410324929",
    "latitude": "30.040225681233032",
    "geocoded_column": {
      "latitude": "30.040225681233032",
      "longitude": "-89.98337410324929"
    }
  },
  {
    "service_request": "2026-1256280",
    "request_type": "Abandoned Vehicles",
    "request_reason": "Abandoned/Junk Vehicles",
    "date_created": "2026-02-03T14:11:44.000",
    "date_modified": "2026-02-03T14:11:46.000",
    "request_status": "Pending",
    "responsible_agency": "Department of Public Works",
    "final_address": "320 N Galvez St",
    "address_councildis": "B",
    "status": "Pending",
    "rowid": "1256280",
    "final_x": "3677637.26254",
    "final_y": "534622.380806",
    "longitude": "-90.08016032287266",
    "latitude": "29.964142899468786",
    "geocoded_column": {
      "latitude": "29.964142899468786",
      "longitude": "-90.08016032287266"
    }
  },
  {
    "service_request": "2026-1256279",
    "request_type": "Trash/Recycling",
    "request_reason": "Request a Large Item Pick Up",
    "date_created": "2026-02-03T14:08:51.000",
    "date_modified": "2026-02-03T14:08:53.000",
    "request_status": "Pending",
    "responsible_agency": "Department of Sanitation",
    "final_address": "1318 Andry St",
    "address_councildis": "E",
    "status": "Assigned to Contractor",
    "contractor": "Waste Pro",
    "rowid": "1256279",
    "final_x": "3697327.92496",
    "final_y": "534883.605446",
    "longitude": "-90.01796978961505",
    "latitude": "29.96425434166691",
    "geocoded_column": {
      "latitude": "29.96425434166691",
      "longitude": "-90.01796978961505"
    }
  },
  {
    "service_request": "2026-1256278",
    "request_type": "Street and Traffic Signs",
    "request_reason": "One Way Sign Missing or Damaged",
    "date_created": "2026-02-03T14:08:50.000",
    "date_modified": "2026-02-03T14:08:52.000",
    "request_status": "Pending",
    "responsible_agency": "Department of Public Works",
    "final_address": "BERMUDA ST & VERRET ST & ELIZA ST",
    "address_councildis": "C",
    "status": "Pending",
    "rowid": "1256278",
    "final_x": "3686961.4",
    "final_y": "529891.28",
    "longitude": "-90.05088278826737",
    "latitude": "29.95085030989243",
    "geocoded_column": {
      "latitude": "29.95085030989243",
      "longitude": "-90.05088278826737"
    }
  },
  {
    "service_request": "2026-1256277",
    "request_type": "Trash/Recycling",
    "request_reason": "Request a Large Item Pick Up",
    "date_created": "2026-02-03T14:06:13.000",
    "date_modified": "2026-02-03T14:06:14.000",
    "request_status": "Pending",
    "responsible_agency": "Department of Sanitation",
    "final_address": "4969 Major Dr",
    "address_councildis": "E",
    "status": "Assigned to Contractor",
    "contractor": "Waste Pro",
    "rowid": "1256277",
    "final_x": "3718199.90585",
    "final_y": "558358.267356",
    "longitude": "-89.95116442219314",
    "latitude": "30.02812524460292",
    "geocoded_column": {
      "latitude": "30.02812524460292",
      "longitude": "-89.95116442219314"
    }
  },
  {
    "service_request": "2026-1256276",
    "request_type": "Trash/Recycling",
    "request_reason": "Request a Large Item Pick Up",
    "date_created": "2026-02-03T14:02:41.000",
    "date_modified": "2026-02-03T14:03:00.000",
    "request_status": "Pending",
    "responsible_agency": "Department of Sanitation",
    "final_address": "216 Maumus Ave",
    "address_councildis": "C",
    "status": "Assigned to Contractor",
    "contractor": "Richards Disposal",
    "rowid": "1256276",
    "final_x": "3706585.17431",
    "final_y": "516832.821749",
    "longitude": "-89.9894049831792",
    "latitude": "29.91432564039068",
    "geocoded_column": {
      "latitude": "29.91432564039068",
      "longitude": "-89.9894049831792"
    }
  },
  {
    "service_request": "2026-1256275",
    "request_type": "Trash/Recycling",
    "request_reason": "Request a Large Item Pick Up",
    "date_created": "2026-02-03T13:58:48.000",
    "date_modified": "2026-02-03T13:58:50.000",
    "request_status": "Pending",
    "responsible_agency": "Department of Sanitation",
    "final_address": "4816 Coliseum St",
    "address_councildis": "B",
    "status": "Assigned to Contractor",
    "contractor": "IV Waste",
    "rowid": "1256275",
    "final_x": "3669328.24039",
    "final_y": "519615.026936",
    "longitude": "-90.10690682543013",
    "latitude": "29.923124803926513",
    "geocoded_column": {
      "latitude": "29.923124803926513",
      "longitude": "-90.10690682543013"
    }
  },
  {
    "service_request": "2026-1256274",
    "request_type": "Property Maintenance",
    "request_reason": "Property Maintenance",
    "date_created": "2026-02-03T13:56:38.000",
    "date_modified": "2026-02-03T13:56:41.000",
    "request_status": "Pending",
    "responsible_agency": "Department of Code Enforcement",
    "final_address": "1915 Robert St",
    "address_councildis": "B",
    "status": "Pending",
    "rowid": "1256274",
    "final_x": "3668813.00474",
    "final_y": "522623.284026",
    "longitude": "-90.10843172029529",
    "latitude": "29.9314117074526",
    "geocoded_column": {
      "latitude": "29.9314117074526",
      "longitude": "-90.10843172029529"
    }
  },
  {
    "service_request": "2026-1256273",
    "request_type": "Trash/Recycling",
    "request_reason": "Return Trash Cart",
    "date_created": "2026-02-03T13:52:50.000",
    "date_modified": "2026-02-03T14:39:00.000",
    "request_status": "Pending",
    "responsible_agency": "Department of Sanitation",
    "final_address": "2028 Camp St",
    "address_councildis": "B",
    "status": "Assigned to Contractor",
    "contractor": "IV Waste",
    "rowid": "1256273",
    "final_x": "3679094.39887",
    "final_y": "522698.36985",
    "longitude": "-90.0759720103262",
    "latitude": "29.931311953968205",
    "geocoded_column": {
      "latitude": "29.931311953968205",
      "longitude": "-90.0759720103262"
    }
  },