[
  {
    "service_request": "2023-996620",
    "request_type": "Trash/Recycling",
    "request_reason": "Replace Trash Cart",
    "date_created": "2023-05-04T00:39:34.000",
    "date_modified": "2023-05-04T00:39:34.000",
    "request_status": "Pending",
    "responsible_agency": "Department of Sanitation",
    "final_address": "2814 Wabash St",
    "address_councildis": "C",
    "status": "Assigned to Contractor",
    "contractor": "Richards Disposal",
    "rowid": "996620",
    "final_x": "3693539.24611",
    "final_y": "521276.169593",
    "longitude": "-90.03042268603214",
    "latitude": "29.926957640302625",
    "geocoded_column": {
      "latitude": "29.926957640302625",
      "longitude": "-90.03042268603214"
    }
  },
  {
    "service_request": "2023-996619",
    "request_type": "Trash/Recycling",
    "request_reason": "Replace Trash Cart",
    "date_created": "2023-05-04T00:10:54.000",
    "date_modified": "2023-05-04T00:10:54.000",
    "request_status": "Pending",
    "responsible_agency": "Department of Sanitation",
    "final_address": "2814 Wabash St",
    "address_councildis": "C",
    "status": "Assigned to Contractor",
    "contractor": "Richards Disposal",
    "rowid": "996619",
    "final_x": "3693539.24611",
    "final_y": "521276.169593",
    "longitude": "-90.03042268603214",
    "latitude": "29.926957640302625",
    "geocoded_column": {
      "latitude": "29.926957640302625",
      "longitude": "-90.03042268603214"
    }
  },
  {
    "service_request": "2023-996618",
    "request_type": "Property Maintenance",
    "request_reason": "Property Maintenance",
    "date_created": "2023-05-03T23:03:49.000",
    "date_modified": "2023-05-03T23:03:49.000",
    "request_status": "Pending",
    "responsible_agency": "Department of Code Enforcement",
    "final_address": "9701 Lake Forest Blvd Ste 120",
    "address_councildis": "E",
    "status": "Pending",
    "rowid": "996618",
    "final_x": "3708819.69976",
    "final_y": "559118.255132",
    "longitude": "-89.98077668431979",
    "latitude": "30.030522692157774",
    "geocoded_column": {
      "latitude": "30.030522692157774",
      "longitude": "-89.98077668431979"
    }
  },
  {
    "service_request": "2023-996617",
    "request_type": "Traffic Signals/Signs/Striping/Streetlights",
    "request_reason": "Street Name Sign Damaged or Missing",
    "date_created": "2023-05-03T22:44:24.000",
    "date_modified": "2023-05-03T22:44:24.000",
    "request_status": "Pending",
    "responsible_agency": "Department of Public Works",
    "final_address": "100 BLK N Rampart St",
    "address_councildis": "C",
    "status": "Pending",
    "rowid": "996617",
    "final_x": "3680136.90183",
    "final_y": "531766.477593",
    "longitude": "-90.07236592864875",
    "latitude": "29.956214729378335",
    "geocoded_column": {
      "latitude": "29.956214729378335",
      "longitude": "-90.07236592864875"
    }
  },
  {
    "service_request": "2023-996616",
    "request_type": "Roads/Drainage",
    "request_reason": "Catch Basin - Clogged",
    "date_created": "2023-05-03T22:16:16.000",
    "date_modified": "2023-05-03T22:16:16.000",
    "request_status": "Pending",
    "responsible_agency": "Department of Public Works",
    "final_address": "399 Broadway St",
    "address_councildis": "A",
    "status": "Pending",
    "rowid": "996616",
    "final_x": "3662071.74682",
    "final_y": "523249.358203",
    "longitude": "-90.12969239595746",
    "latitude": "29.93332964555626",
    "geocoded_column": {
      "latitude": "29.93332964555626",
      "longitude": "-90.12969239595746"
    }
  },
  {
    "service_request": "2023-996615",
    "request_type": "Trash/Recycling",
    "request_reason": "Missed Trash Pick-Up",
    "date_created": "2023-05-03T21:59:06.000",
    "date_modified": "2023-05-03T21:59:07.000",
    "request_status": "Pending",
    "responsible_agency": "Department of Sanitation",
    "final_address": "5420 S Eastover Dr",
    "address_councildis": "E",
    "status": "Assigned to Contractor",
    "contractor": "Waste Pro",
    "rowid": "996615",
    "final_x": "3720233.26342",
    "final_y": "560818.94115",
    "longitude": "-89.94464498414145",
    "latitude": "30.034823504145322",
    "geocoded_column": {
      "latitude": "30.034823504145322",
      "longitude": "-89.94464498414145"
    }
  },
  {
    "service_request": "2023-996614",
    "request_type": "Health Related Request",
    "request_reason": "Noise Ordinance Complaint",
    "date_created": "2023-05-03T21:34:17.000",
    "date_modified": "2023-05-03T21:34:17.000",
    "request_status": "Pending",
    "responsible_agency": "Health Department",
    "final_address": "711 Bourbon St, New Orleans, Louisiana, 70116",
    "address_councildis": "C",
    "status": "Pending",
    "rowid": "996614",
    "final_x": "3682299.38447",
    "final_y": "532765.705988",
    "longitude": "-90.06550263299877",
    "latitude": "29.95889665479323",
    "geocoded_column": {
      "latitude": "29.95889665479323",
      "longitude": "-90.06550263299877"
    }
  },
  {
    "service_request": "2023-996613",
    "request_type": "Traffic Signals/Signs/Striping/Streetlights",
    "request_reason": "Street Light Outage/Malfunction",
    "date_created": "2023-05-03T21:20:04.000",
    "date_modified": "2023-05-03T21:20:05.000",
    "request_status": "Pending",
    "responsible_agency": "Department of Public Works",
    "final_address": "5300 BLK Wingate Dr",
    "address_councildis": "D",
    "status": "Assigned to Contractor",
    "contractor": "Legacy Professional Services",
    "rowid": "996613",
    "final_x": "3681415.78379",
    "final_y": "552479.92862",
    "longitude": "-90.06760515961744",
    "latitude": "30.0131306963382",
    "geocoded_column": {
      "latitude": "30.0131306963382",
      "longitude": "-90.06760515961744"
    }
  },
  {
    "service_request": "2023-996612",
    "request_type": "Traffic Signals/Signs/Striping/Streetlights",
    "request_reason": "Street Light Outage/Malfunction",
    "date_created": "2023-05-03T21:15:32.000",
    "date_modified": "2023-05-03T21:15:33.000",
    "request_status": "Pending",
    "responsible_agency": "Department of Public Works",
    "final_address": "5320 Wingate Dr",
    "address_councildis": "D",
    "status": "Assigned to Contractor",
    "contractor": "Legacy Professional Services",
    "rowid": "996612",
    "final_x": "3681329.94594",
    "final_y": "552637.855574",
    "longitude": "-90.06787085054252",
    "latitude": "30.01356754510931",
    "geocoded_column": {
      "latitude": "30.01356754510931",
      "longitude": "-90.06787085054252"
    }
  },
  {
    "service_request": "2023-996611",
    "request_type": "Health Related Request",
    "request_reason": "Noise Ordinance Complaint",
    "date_created": "2023-05-03T21:09:02.000",
    "date_modified": "2023-05-03T21:09:02.000",
    "request_status": "Pending",
    "responsible_agency": "Health Department",
    "final_address": "711 Bourbon St, New Orleans, Louisiana, 70116",
    "address_councildis": "C",
    "status": "Pending",
    "rowid": "996611",
    "final_x": "3682299.38447",
    "final_y": "532765.705988",
    "longitude": "-90.06550263299877",
    "latitude": "29.95889665479323",
    "geocoded_column": {
      "latitude": "29.95889665479323",
      "longitude": "-90.06550263299877"
    }
  },
  {
    "service_request": "2023-996610",
    "request_type": "Trash/Recycling",
    "request_reason": "MIssed Recycling Pick-Up",
    "date_created": "2023-05-03T20:53:51.000",
    "date_modified": "2023-05-03T20:53:52.000",
    "request_status": "Pending",
    "responsible_agency": "Department of Sanitation",
    "final_address": "4956 Venus St",
    "address_councildis": "D",
    "status": "Assigned to Contractor",
    "contractor": "IV Waste",
    "rowid": "996610",
    "final_x": "3686336.67478",
    "final_y": "551460.660949",
    "longitude": "-90.05209382123702",
    "latitude": "30.010177701662567",
    "geocoded_column": {
      "latitude": "30.010177701662567",
      "longitude": "-90.05209382123702"
    }
  },
  {
    "service_request": "2023-996609",
    "request_type": "Trash/Recycling",
    "request_reason": "MIssed Recycling Pick-Up",
    "date_created": "2023-05-03T20:53:47.000",
    "date_modified": "2023-05-03T20:53:48.000",
    "request_status": "Pending",
    "responsible_agency": "Department of Sanitation",
    "final_address": "4956 Venus St",
    "address_councildis": "D",
    "status": "Assigned to Contractor",
    "contractor": "IV Waste",
    "rowid": "996609",
    "final_x": "3686336.67478",
    "final_y": "551460.660949",
    "longitude": "-90.05209382123702",
    "latitude": "30.010177701662567",
    "geocoded_column": {
      "latitude": "30.010177701662567",
      "longitude": "-90.05209382123702"
    }
  },
  {
    "service_request": "2023-996608",
    "request_type": "Trash/Recycling",
    "request_reason": "MIssed Recycling Pick-Up",
    "date_created": "2023-05-03T20:53:40.000",
    "date_modified": "2023-05-03T20:53:41.000",
    "request_status": "Pending",
    "responsible_agency": "Department of Sanitation",
    "final_address": "4956 Venus St",
    "address_councildis": "D",
    "status": "Assigned to Contractor",
    "contractor": "IV Waste",
    "rowid": "996608",
    "final_x": "3686336.67478",
    "final_y": "551460.660949",
    "longitude": "-90.05209382123702",
    "latitude": "30.010177701662567",
    "geocoded_column": {
      "latitude": "30.010177701662567",
      "longitude": "-90.05209382123702"
    }
  },
  {
    "service_request": "2023-996607",
    "request_type": "Trash/Recycling",
    "request_reason": "MIssed Recycling Pick-Up",
    "date_created": "2023-05-03T20:52:58.000",
    "date_modified": "2023-05-03T20:52:59.000",
    "request_status": "Pending",
    "responsible_agency": "Department of Sanitation",
    "final_address": "4956 Venus St",
    "address_councildis": "D",
    "status": "Assigned to Contractor",
    "contractor": "IV Waste",
    "rowid": "996607",
    "final_x": "3686336.67478",
    "final_y": "551460.660949",
    "longitude": "-90.05209382123702",
    "latitude": "30.010177701662567",
    "geocoded_column": {
      "latitude": "30.010177701662567",
      "longitude": "-90.05209382123702"
    }
  },
  {
    "service_request": "2023-996606",
    "request_type": "Trash/Recycling",
    "request_reason": "Replace Trash Cart",
    "date_created": "2023-05-03T20:43:14.000",
    "date_modified": "2023-05-03T20:43:14.000",
    "request_status": "Pending",
    "responsible_agency": "Department of Sanitation",
    "final_address": "6210 Franklin Ave",
    "address_councildis": "D",
    "status": "Assigned to Contractor",
    "contractor": "IV Waste",
    "rowid": "996606",
    "final_x": "3686230.80514",
    "final_y": "556101.05769",
    "longitude": "-90.05226439261324",
    "latitude": "30.022940339413896",
    "geocoded_column": {
      "latitude": "30.022940339413896",
      "longitude": "-90.05226439261324"
    }
  },
  {
    "service_request": "2023-996605",
    "request_type": "Traffic Signals/Signs/Striping/Streetlights",
    "request_reason": "Traffic Sign Missing/Damaged",
    "date_created": "2023-05-03T20:28:38.000",
    "date_modified": "2023-05-03T20:28:39.000",
    "request_status": "Pending",
    "responsible_agency": "Department of Public Works",
    "final_address": "BURGUNDY ST & FRENCHMEN ST",
    "address_councildis": "C",
    "status": "Pending",
    "rowid": "996605",
    "final_x": "3684651.7",
    "final_y": "535550.98",
    "longitude": "-90.05797673365942",
    "latitude": "29.966483422338076",
    "geocoded_column": {
      "latitude": "29.966483422338076",
      "longitude": "-90.05797673365942"
    }
  },
  {
    "service_request": "2023-996604",
    "request_type": "Traffic Signals/Signs/Striping/Streetlights",
    "request_reason": "Traffic Sign Missing/Damaged",
    "date_created": "2023-05-03T20:20:12.000",
    "date_modified": "2023-05-03T20:20:12.000",
    "request_status": "Pending",
    "responsible_agency": "Department of Public Works",
    "final_address": "MILAN ST & CARONDELET ST",
    "address_councildis": "B",
    "status": "Pending",
    "rowid": "996604",
    "final_x": "3671559.1",
    "final_y": "521318.68",
    "longitude": "-90.09980694903872",
    "latitude": "29.927743461138068",
    "geocoded_column": {
      "latitude": "29.927743461138068",
      "longitude": "-90.09980694903872"
    }
  },
  {
    "service_request": "2023-996603",
    "request_type": "Trash/Recycling",
    "request_reason": "MIssed Recycling Pick-Up",
    "date_created": "2023-05-03T20:10:37.000",
    "date_modified": "2023-05-03T20:10:38.000",
    "request_status": "Pending",
    "responsible_agency": "Department of Sanitation",
    "final_address": "1123 Louisiana Ave",
    "address_councildis": "B",
    "status": "Assigned to Contractor",
    "contractor": "Richards Disposal",
    "rowid": "996603",
    "final_x": "3675017.26952",
    "final_y": "519856.663736",
    "longitude": "-90.08894043886947",
    "latitude": "29.92362057005257",
    "geocoded_column": {
      "latitude": "29.92362057005257",
      "longitude": "-90.08894043886947"
    }
  },
  {
    "service_request": "2023-996602",
    "request_type": "Traffic Signals/Signs/Striping/Streetlights",
    "request_reason": "Street Light Outage/Malfunction",
    "date_created": "2023-05-03T20:07:41.000",
    "date_modified": "2023-05-03T20:07:42.000",
    "request_status": "Pending",
    "responsible_agency": "Department of Public Works",
    "final_address": "8922 Dinkins St",
    "address_councildis": "E",
    "status": "Assigned to Contractor",
    "contractor": "Legacy Professional Services",
    "rowid": "996602",
    "final_x": "3704873.78065",
    "final_y": "563444.16368",
    "longitude": "-89.99308585829084",
    "latitude": "30.0425447214048",
    "geocoded_column": {
      "latitude": "30.0425447214048",
      "longitude": "-89.99308585829084"
    }
  },
  {
    "service_request": "2023-996599",
    "request_type": "Trash/Recycling",
    "request_reason": "Replace Trash Cart",
    "date_created": "2023-05-03T19:47:03.000",
    "date_modified": "2023-05-03T19:47:04.000",
    "request_status": "Pending",
    "responsible_agency": "Department of Sanitation",
    "final_address": "1523 Nashville Ave, New Orleans, Louisiana, 70115",
    "address_councildis": "A",
    "status": "Assigned to Contractor",
    "contractor": "Richards Disposal",
    "rowid": "996599",
    "final_x": "3666228.28653",
    "final_y": "521830.005434",
    "longitude": "-90.11661798385923",
    "latitude": "29.92930616505468",
    "geocoded_column": {
      "latitude": "29.92930616505468",
      "longitude": "-90.11661798385923"
    }
  },
  {
    "service_request": "2023-996598",
    "request_type": "Trash/Recycling",
    "request_reason": "Damaged Caused By Contractor",
    "date_created": "2023-05-03T19:42:59.000",
    "date_modified": "2023-05-03T19:42:59.000",
    "request_status": "Pending",
    "responsible_agency": "Department of Sanitation",
    "final_address": "1823 Broadway St",
    "address_councildis": "A",
    "status": "Assigned to Contractor",
    "contractor": "Richards Disposal",
    "rowid": "996598",
    "final_x": "3665541.54452",
    "final_y": "528434.266368",
    "longitude": "-90.11856488195491",
    "latitude": "29.947485805332526",
    "geocoded_column": {
      "latitude": "29.947485805332526",
      "longitude": "-90.11856488195491"
    }
  },
  {
    "service_request": "2023-996597",
    "request_type": "Roads/Drainage",
    "request_reason": "Debris in Roadway",
    "date_created": "2023-05-03T19:39:28.000",
    "date_modified": "2023-05-03T19:39:28.000",
    "request_status": "Pending",
    "responsible_agency": "Department of Public Works",
    "final_address": "1903 Franklin Ave",
    "address_councildis": "D",
    "status": "Pending",
    "rowid": "996597",
    "final_x": "3687753.65417",
    "final_y": "539527.204106",
    "longitude": "-90.04803997588037",
    "latitude": "29.977321345507114",
    "geocoded_column": {
      "latitude": "29.977321345507114",
      "longitude": "-90.04803997588037"
    }
  },
  {
    "service_request": "2023-996596",
    "request_type": "Trash/Recycling",
    "request_reason": "MIssed Recycling Pick-Up",
    "date_created": "2023-05-03T19:35:57.000",
    "date_modified": "2023-05-03T19:35:58.000",
    "request_status": "Pending",
    "responsible_agency": "Department of Sanitation",
    "final_address": "930 Marengo St",
    "address_councildis": "B",
    "status": "Assigned to Contractor",
    "contractor": "Richards Disposal",
    "rowid": "996596",
    "final_x": "3672073.32654",
    "final_y": "519195.803831",
    "longitude": "-90.09825588793635",
    "latitude": "29.92189099923054",
    "geocoded_column": {
      "latitude": "29.92189099923054",
      "longitude": "-90.09825588793635"
    }
  },
  {
    "service_request": "2023-996595",
    "request_type": "Trash/Recycling",
    "request_reason": "Replace Trash Cart",
    "date_created": "2023-05-03T19:29:45.000",
    "date_modified": "2023-05-03T19:29:46.000",
    "request_status": "Pending",
    "responsible_agency": "Department of Sanitation",
    "final_address": "5709 Wildair Dr, New Orleans, Louisiana, 70122",
    "address_councildis": "D",
    "status": "Assigned to Contractor",
    "contractor": "IV Waste",
    "rowid": "996595",
    "final_x": "3681633.35048",
    "final_y": "553834.301655",
    "longitude": "-90.06687047035255",
    "latitude": "30.016848119881896",
    "geocoded_column": {
      "latitude": "30.016848119881896",
      "longitude": "-90.06687047035255"
    }
  },
  {
    "service_request": "2023-996594",
    "request_type": "Roads/Drainage",
    "request_reason": "Catch Basin - Broken/Damage",
    "date_created": "2023-05-03T19:27:12.000",
    "date_modified": "2023-05-03T19:27:13.000",
    "request_status": "Pending",
    "responsible_agency": "Department of Public Works",
    "final_address": "11436 Maxine Dr",
    "address_councildis": "E",
    "status": "Pending",
    "rowid": "996594",
    "final_x": "3718877.76044",
    "final_y": "560837.844062",
    "longitude": "-89.94892780370914",
    "latitude": "30.034920580187183",
    "geocoded_column": {
      "latitude": "30.034920580187183",
      "longitude": "-89.94892780370914"
    }
  },
  {
    "service_request": "2023-996593",
    "request_type": "Roads/Drainage",
    "request_reason": "Catch Basin - Clogged",
    "date_created": "2023-05-03T18:50:16.000",
    "date_modified": "2023-05-03T18:50:16.000",
    "request_status": "Pending",
    "responsible_agency": "Department of Public Works",
    "final_address": "1206 Second St",
    "address_councildis": "B",
    "status": "Pending",
    "rowid": "996593",
    "final_x": "3677533.16629",
    "final_y": "521663.045881",
    "longitude": "-90.08093635205609",
    "latitude": "29.928512165403795",
    "geocoded_column": {
      "latitude": "29.928512165403795",
      "longitude": "-90.08093635205609"
    }
  },
  {
    "service_request": "2023-996592",
    "request_type": "Trash/Recycling",
    "request_reason": "Repair Recycling Cart",
    "date_created": "2023-05-03T18:42:03.000",
    "date_modified": "2023-05-03T18:42:03.000",
    "request_status": "Pending",
    "responsible_agency": "Department of Sanitation",
    "final_address": "4020 Camp St",
    "address_councildis": "B",
    "status": "Pending",
    "rowid": "996592",
    "final_x": "3672329.72443",
    "final_y": "519227.943799",
    "longitude": "-90.09744545234194",
    "latitude": "29.92197177222624",
    "geocoded_column": {
      "latitude": "29.92197177222624",
      "longitude": "-90.09744545234194"
    }
  },
  {
    "service_request": "2023-996591",
    "request_type": "Trash/Recycling",
    "request_reason": "Request a Large Item Pick Up",
    "date_created": "2023-05-03T18:40:53.000",
    "date_modified": "2023-05-03T18:40:54.000",
    "request_status": "Pending",
    "responsible_agency": "Department of Sanitation",
    "final_address": "1464 N Roman St",
    "address_councildis": "D",
    "status": "Assigned to Contractor",
    "contractor": "IV Waste",
    "rowid": "996591",
    "final_x": "3681075.30498",
    "final_y": "537464.765192",
    "longitude": "-90.06920426214435",
    "latitude": "29.97185464248054",
    "geocoded_column": {
      "latitude": "29.97185464248054",
      "longitude": "-90.06920426214435"
    }
  },
  {
    "service_request": "2023-996590",
    "request_type": "Trash/Recycling",
    "request_reason": "Missed Trash Pick-Up",
    "date_created": "2023-05-03T18:39:34.000",
    "date_modified": "2023-05-03T18:39:35.000",
    "request_status": "Pending",
    "responsible_agency": "Department of Sanitation",
    "final_address": "1368 Constance St",
    "address_councildis": "B",
    "status": "Assigned to Contractor",
    "contractor": "Richards Disposal",
    "rowid": "996590",
    "final_x": "3680798.42715",
    "final_y": "524587.2887",
    "longitude": "-90.07052689103854",
    "latitude": "29.93645433127923",
    "geocoded_column": {
      "latitude": "29.93645433127923",
      "longitude": "-90.07052689103854"
    }
  },
  {
    "service_request": "2023-996589",
    "request_type": "Trash/Recycling",
    "request_reason": "Missed Trash Pick-Up",
    "date_created": "2023-05-03T18:34:48.000",
    "date_modified": "2023-05-03T18:34:48.000",
    "request_status": "Pending",
    "responsible_agency": "Department of Sanitation",
    "final_address": "3015 N. Rampart St",
    "address_councildis": "C",
    "status": "Assigned to Contractor",
    "contractor": "IV Waste",
    "rowid": "996589",
    "final_x": "3688464.65359",
    "final_y": "535698.395783",
    "longitude": "-90.04593027709045",
    "latitude": "29.96677151966559",
    "geocoded_column": {
      "latitude": "29.96677151966559",
      "longitude": "-90.04593027709045"
    }
  },
  {
    "service_request": "2023-996588",
    "request_type": "Trash/Recycling",
    "request_reason": "Illegal Dumping",
    "date_created": "2023-05-03T18:28:59.000",
    "date_modified": "2023-05-03T18:28:59.000",
    "request_status": "Pending",
    "responsible_agency": "Department of Sanitation",
    "final_address": "1315 St Andrew St",
    "address_councildis": "B",
    "status": "Pending",
    "rowid": "996588",
    "final_x": "3678976.02146",
    "final_y": "523267.033787",
    "longitude": "-90.07632601935202",
    "latitude": "29.93287916439355",
    "geocoded_column": {
      "latitude": "29.93287916439355",
      "longitude": "-90.07632601935202"
    }
  },
  {
    "service_request": "2023-996587",
    "request_type": "Trash/Recycling",
    "request_reason": "Request a Large Item Pick Up",
    "date_created": "2023-05-03T18:27:05.000",
    "date_modified": "2023-05-03T18:27:06.000",
    "request_status": "Pending",
    "responsible_agency": "Department of Sanitation",
    "final_address": "1912 Clouet St",
    "address_councildis": "D",
    "status": "Assigned to Contractor",
    "contractor": "IV Waste",
    "rowid": "996587",
    "final_x": "3689749.15606",
    "final_y": "539134.758922",
    "longitude": "-90.04175151269149",
    "latitude": "29.976180562281296",
    "geocoded_column": {
      "latitude": "29.976180562281296",
      "longitude": "-90.04175151269149"
    }
  },
  {
    "service_request": "2023-996585",
    "request_type": "Trash/Recycling",
    "request_reason": "Request a Large Item Pick Up",
    "date_created": "2023-05-03T18:24:46.000",
    "date_modified": "2023-05-03T18:24:47.000",
    "request_status": "Pending",
    "responsible_agency": "Department of Sanitation",
    "final_address": "2469 Gladiolus St",
    "address_councildis": "D",
    "status": "Assigned to Contractor",
    "contractor": "IV Waste",
    "rowid": "996585",
    "final_x": "3686146.28457",
    "final_y": "547480.060882",
    "longitude": "-90.05283587442428",
    "latitude": "29.99923834823161",
    "geocoded_column": {
      "latitude": "29.99923834823161",
      "longitude": "-90.05283587442428"
    }
  },
  {
    "service_request": "2023-996584",
    "request_type": "Traffic Signals/Signs/Striping/Streetlights",
    "request_reason": "Traffic Sign Missing/Damaged",
    "date_created": "2023-05-03T18:24:03.000",
    "date_modified": "2023-05-03T18:24:04.000",
    "request_status": "Pending",
    "responsible_agency": "Department of Public Works",
    "final_address": "2800 Gentilly Blvd",
    "address_councildis": "D",
    "status": "Pending",
    "rowid": "996584",
    "final_x": "3682801.87746",
    "final_y": "545840.740304",
    "longitude": "-90.06345831949349",
    "latitude": "29.994833143836278",
    "geocoded_column": {
      "latitude": "29.994833143836278",
      "longitude": "-90.06345831949349"
    }
  },
  {
    "service_request": "2023-996583",
    "request_type": "Trash/Recycling",
    "request_reason": "Missed Trash Pick-Up",
    "date_created": "2023-05-03T18:14:50.000",
    "date_modified": "2023-05-03T18:14:51.000",
    "request_status": "Pending",
    "responsible_agency": "Department of Sanitation",
    "final_address": "1020 Reynes St",
    "address_councildis": "E",
    "status": "Assigned to Contractor",
    "contractor": "Waste Pro",
    "rowid": "996583",
    "final_x": "3695847.58998",
    "final_y": "534034.089477",
    "longitude": "-90.02267522643442",
    "latitude": "29.961965116792644",
    "geocoded_column": {
      "latitude": "29.961965116792644",
      "longitude": "-90.02267522643442"
    }
  },
  {
    "service_request": "2023-996582",
    "request_type": "Trash/Recycling",
    "request_reason": "Missed Trash Pick-Up",
    "date_created": "2023-05-03T18:14:19.000",
    "date_modified": "2023-05-03T21:07:23.000",
    "request_status": "Pending",
    "responsible_agency": "Department of Sanitation",
    "final_address": "1816 Jackson Ave, New Orleans, Louisiana, 70113",
    "address_councildis": "B",
    "status": "Assigned to Contractor",
    "contractor": "Richards Disposal",
    "rowid": "996582",
    "final_x": "3676951.77192",
    "final_y": "524636.301884",
    "longitude": "-90.0826692453066",
    "latitude": "29.93670510818005",
    "geocoded_column": {
      "latitude": "29.93670510818005",
      "longitude": "-90.0826692453066"
    }
  },
  {
    "service_request": "2023-996581",
    "request_type": "Trash/Recycling",
    "request_reason": "Missed Trash Pick-Up",
    "date_created": "2023-05-03T18:11:18.000",
    "date_modified": "2023-05-03T18:11:19.000",
    "request_status": "Pending",
    "responsible_agency": "Department of Sanitation",
    "final_address": "2201 Baronne St, New Orleans, Louisiana, 70113",
    "address_councildis": "B",
    "status": "Assigned to Contractor",
    "contractor": "Richards Disposal",
    "rowid": "996581",
    "final_x": "3676954.11726",
    "final_y": "524507.461948",
    "longitude": "-90.08266628060909",
    "latitude": "29.936350770250172",
    "geocoded_column": {
      "latitude": "29.936350770250172",
      "longitude": "-90.08266628060909"
    }
  },
  {
    "service_request": "2023-996580",
    "request_type": "Trash/Recycling",
    "request_reason": "Repair Trash Cart",
    "date_created": "2023-05-03T18:04:41.000",
    "date_modified": "2023-05-03T18:04:42.000",
    "request_status": "Pending",
    "responsible_agency": "Department of Sanitation",
    "final_address": "2801 Washington Ave",
    "address_councildis": "B",
    "status": "Assigned to Contractor",
    "contractor": "Richards Disposal",
    "rowid": "996580",
    "final_x": "3673605.96616",
    "final_y": "526136.670846",
    "longitude": "-90.09318085783896",
    "latitude": "29.9409306240864",
    "geocoded_column": {
      "latitude": "29.9409306240864",
      "longitude": "-90.09318085783896"
    }
  },
  {
    "service_request": "2023-996579",
    "request_type": "Trash/Recycling",
    "request_reason": "Order Recycling Cart",
    "date_created": "2023-05-03T18:00:39.000",
    "date_modified": "2023-05-03T18:00:39.000",
    "request_status": "Pending",
    "responsible_agency": "Department of Sanitation",
    "final_address": "3308 Napoleon Ave",
    "address_councildis": "B",
    "status": "Pending",
    "rowid": "996579",
    "final_x": "3670105.14599",
    "final_y": "526977.030462",
    "longitude": "-90.10420514403502",
    "latitude": "29.943345060011662",
    "geocoded_column": {
      "latitude": "29.943345060011662",
      "longitude": "-90.10420514403502"
    }
  },
  {
    "service_request": "2023-996577",
    "request_type": "Trash/Recycling",
    "request_reason": "MIssed Recycling Pick-Up",
    "date_created": "2023-05-03T17:46:30.000",
    "date_modified": "2023-05-03T17:46:30.000",
    "request_status": "Pending",
    "responsible_agency": "Department of Sanitation",
    "final_address": "717 Fern St",
    "address_councildis": "A",
    "status": "Assigned to Contractor",
    "contractor": "Richards Disposal",
    "rowid": "996577",
    "final_x": "3661507.27315",
    "final_y": "526659.942014",
    "longitude": "-90.1313614693624",
    "latitude": "29.942723964633444",
    "geocoded_column": {
      "latitude": "29.942723964633444",
      "longitude": "-90.1313614693624"
    }
  },
  {
    "service_request": "2023-996576",
    "request_type": "Trash/Recycling",
    "request_reason": "MIssed Recycling Pick-Up",
    "date_created": "2023-05-03T17:39:30.000",
    "date_modified": "2023-05-03T17:39:31.000",
    "request_status": "Pending",
    "responsible_agency": "Department of Sanitation",
    "final_address": "2015 Sixth St",
    "address_councildis": "B",
    "status": "Assigned to Contractor",
    "contractor": "Richards Disposal",
    "rowid": "996576",
    "final_x": "3674655.1611",
    "final_y": "523585.780283",
    "longitude": "-90.08995574861271",
    "latitude": "29.933885242539358",
    "geocoded_column": {
      "latitude": "29.933885242539358",
      "longitude": "-90.08995574861271"
    }
  },
  {
    "service_request": "2023-996575",
    "request_type": "Trash/Recycling",
    "request_reason": "Missed Trash Pick-Up",
    "date_created": "2023-05-03T17:37:39.000",
    "date_modified": "2023-05-03T17:37:40.000",
    "request_status": "Pending",
    "responsible_agency": "Department of Sanitation",
    "final_address": "1830 Dumaine St",
    "address_councildis": "D",
    "status": "Assigned to Contractor",
    "contractor": "Richards Disposal",
    "rowid": "996575",
    "final_x": "3679679.50875",
    "final_y": "535538.101318",
    "longitude": "-90.07367929688871",
    "latitude": "29.966599245318136",
    "geocoded_column": {
      "latitude": "29.966599245318136",
      "longitude": "-90.07367929688871"
    }
  },
  {
    "service_request": "2023-996574",
    "request_type": "Trash/Recycling",
    "request_reason": "Missed Trash Pick-Up",
    "date_created": "2023-05-03T17:36:12.000",
    "date_modified": "2023-05-03T17:36:13.000",
    "request_status": "Pending",
    "responsible_agency": "Department of Sanitation",
    "final_address": "2139 Soniat St",
    "address_councildis": "B",
    "status": "Assigned to Contractor",
    "contractor": "Richards Disposal",
    "rowid": "996574",
    "final_x": "3668535.03918",
    "final_y": "523537.878075",
    "longitude": "-90.1092783829786",
    "latitude": "29.93393471610713",
    "geocoded_column": {
      "latitude": "29.93393471610713",
      "longitude": "-90.1092783829786"
    }
  },
  {
    "service_request": "2023-996572",
    "request_type": "Trash/Recycling",
    "request_reason": "Order Trash Cart",
    "date_created": "2023-05-03T17:17:49.000",
    "date_modified": "2023-05-03T17:17:50.000",
    "request_status": "Pending",
    "responsible_agency": "Department of Sanitation",
    "final_address": "403 S Lopez St",
    "address_councildis": "B",
    "status": "Assigned to Contractor",
    "contractor": "Richards Disposal",
    "rowid": "996572",
    "final_x": "3673029.18792",
    "final_y": "535202.07911",
    "longitude": "-90.09469246207483",
    "latitude": "29.96587464576639",
    "geocoded_column": {
      "latitude": "29.96587464576639",
      "longitude": "-90.09469246207483"
    }
  },
  {
    "service_request": "2023-996571",
    "request_type": "Traffic Signals/Signs/Striping/Streetlights",
    "request_reason": "Street Light Outage/Malfunction",
    "date_created": "2023-05-03T17:17:13.000",
    "date_modified": "2023-05-03T17:17:14.000",
    "request_status": "Pending",
    "responsible_agency": "Department of Public Works",
    "final_address": "510 Natchez St",
    "address_councildis": "B",
    "status": "Assigned to Contractor",
    "contractor": "Legacy Professional Services",
    "rowid": "996571",
    "final_x": "3681444.46511",
    "final_y": "529415.183809",
    "longitude": "-90.06831905558312",
    "latitude": "29.949709835611817",
    "geocoded_column": {
      "latitude": "29.949709835611817",
      "longitude": "-90.06831905558312"
    }
  },
  {
    "service_request": "2023-996570",
    "request_type": "Property Maintenance",
    "request_reason": "Property Maintenance",
    "date_created": "2023-05-03T17:10:43.000",
    "date_modified": "2023-05-03T17:10:43.000",
    "request_status": "Pending",
    "responsible_agency": "Department of Code Enforcement",
    "final_address": "3618 River Oaks Dr",
    "address_councildis": "C",
    "status": "Pending",
    "rowid": "996570",
    "final_x": "3701432.91185",
    "final_y": "517606.368438",
    "longitude": "-90.00563886083162",
    "latitude": "29.91661778586536",
    "geocoded_column": {
      "latitude": "29.91661778586536",
      "longitude": "-90.00563886083162"
    }
  },
  {
    "service_request": "2023-996569",
    "request_type": "Trash/Recycling",
    "request_reason": "Order Recycling Cart",
    "date_created": "2023-05-03T17:08:11.000",
    "date_modified": "2023-05-03T17:08:11.000",
    "request_status": "Pending",
    "responsible_agency": "Department of Sanitation",
    "final_address": "5313 Wickfield Dr",
    "address_councildis": "D",
    "status": "Pending",
    "rowid": "996569",
    "final_x": "3681239.49544",
    "final_y": "552472.044694",
    "longitude": "-90.06816241110495",
    "latitude": "30.01311437167892",
    "geocoded_column": {
      "latitude": "30.01311437167892",
      "longitude": "-90.06816241110495"
    }
  },
  {
    "service_request": "2023-996567",
    "request_type": "Roads/Drainage",
    "request_reason": "Damaged Sidewalk",
    "date_created": "2023-05-03T17:00:59.000",
    "date_modified": "2023-05-03T17:00:59.000",
    "request_status": "Pending",
    "responsible_agency": "Department of Public Works",
    "final_address": "1703 Shirley Dr",
    "address_councildis": "C",
    "status": "Pending",
    "rowid": "996567",
    "final_x": "3692917.99696",
    "final_y": "523927.446652",
    "longitude": "-90.03228876798997",
    "latitude": "29.934267161411977",
    "geocoded_column": {
      "latitude": "29.934267161411977",
      "longitude": "-90.03228876798997"
    }
  },
  {
    "service_request": "2023-996566",
    "request_type": "Trash/Recycling",
    "request_reason": "Order Trash Cart",
    "date_created": "2023-05-03T16:56:19.000",
    "date_modified": "2023-05-03T16:56:20.000",
    "request_status": "Pending",
    "responsible_agency": "Department of Sanitation",
    "final_address": "25050 Chef Menteur Hwy",
    "address_councildis": "E",
    "status": "Assigned to Contractor",
    "contractor": "Waste Pro",
    "rowid": "996566",
    "final_x": "3778170.66027",
    "final_y": "597315.437184",
    "longitude": "-89.75997649190272",
    "latitude": "30.13311317847123",
    "geocoded_column": {
      "latitude": "30.13311317847123",
      "longitude": "-89.75997649190272"
    }
  },
  {
    "service_request": "2023-996565",
    "request_type": "Trash/Recycling",
    "request_reason": "Request a Large Item Pick Up",
    "date_created": "2023-05-03T16:54:02.000",
    "date_modified": "2023-05-03T16:54:20.000",
    "request_status": "Pending",
    "responsible_agency": "Department of Sanitation",
    "final_address": "4706 Deanne St",
    "address_councildis": "D",
    "status": "Assigned to Contractor",
    "contractor": "Waste Pro",
    "rowid": "996565",
    "final_x": "3696281.43344",
    "final_y": "553930.620759",
    "longitude": "-90.02058540248804",
    "latitude": "30.01665965877806",
    "geocoded_column": {
      "latitude": "30.01665965877806",
      "longitude": "-90.02058540248804"
    }
  },
  {
    "service_request": "2023-996564",
    "request_type": "Roads/Drainage",
    "request_reason": "Pothole",
    "date_created": "2023-05-03T16:52:02.000",
    "date_modified": "2023-05-03T16:52:02.000",
    "request_status": "Pending",
    "responsible_agency": "Department of Public Works",
    "final_address": "6000 Constance St",
    "address_councildis": "A",
    "status": "Pending",
    "rowid": "996564",
    "final_x": "3664482.37876",
    "final_y": "518895.116343",
    "longitude": "-90.12222743584903",
    "latitude": "29.921287002303277",
    "geocoded_column": {
      "latitude": "29.921287002303277",
      "longitude": "-90.12222743584903"
    }
  },
  {
    "service_request": "2023-996563",
    "request_type": "Trash/Recycling",
    "request_reason": "Request a Large Item Pick Up",
    "date_created": "2023-05-03T16:50:43.000",
    "date_modified": "2023-05-03T16:50:44.000",
    "request_status": "Pending",
    "responsible_agency": "Department of Sanitation",
    "final_address": "5023 S Johnson St",
    "address_councildis": "B",
    "status": "Assigned to Contractor",
    "contractor": "Richards Disposal",
    "rowid": "996563",
    "final_x": "3668720.14382",
    "final_y": "527045.801278",
    "longitude": "-90.10857564261143",
    "latitude": "29.94357493593448",
    "geocoded_column": {
      "latitude": "29.94357493593448",
      "longitude": "-90.10857564261143"
    }
  },
  {
    "service_request": "2023-996561",
    "request_type": "Roads/Drainage",
    "request_reason": "Damaged Sidewalk",
    "date_created": "2023-05-03T16:48:48.000",
    "date_modified": "2023-05-03T16:48:48.000",
    "request_status": "Pending",
    "responsible_agency": "Department of Public Works",
    "final_address": "2606 Elysian Fields Ave",
    "address_councildis": "D",
    "status": "Pending",
    "rowid": "996561",
    "final_x": "3684458.06185",
    "final_y": "541923.707468",
    "longitude": "-90.05836431019885",
    "latitude": "29.984012121588982",
    "geocoded_column": {
      "latitude": "29.984012121588982",
      "longitude": "-90.05836431019885"
    }
  },
  {
    "service_request": "2023-996560",
    "request_type": "Mosquito, Termite & Rodent Control",
    "request_reason": "Mosquito Complaint",
    "date_created": "2023-05-03T16:46:25.000",
    "date_modified": "2023-05-03T16:46:25.000",
    "request_status": "Pending",
    "responsible_agency": "Mosquito, Termite & Rodent Control Board",
    "final_address": "5127 Patterson St",
    "address_councildis": "C",
    "status": "Pending",
    "rowid": "996560",
    "final_x": "3703217.19671",
    "final_y": "523688.479419",
    "longitude": "-89.99978354306798",
    "latitude": "29.933284515043837",
    "geocoded_column": {
      "latitude": "29.933284515043837",
      "longitude": "-89.99978354306798"
    }
  },
  {
    "service_request": "2023-996559",
    "request_type": "Traffic Signals/Signs/Striping/Streetlights",
    "request_reason": "Traffic Signal Malfunctioning/Damaged",
    "date_created": "2023-05-03T16:42:34.000",
    "date_modified": "2023-05-03T16:42:35.000",
    "request_status": "Pending",
    "responsible_agency": "Department of Public Works",
    "final_address": "TULANE AVE & S RAMPART ST & COMMON ST",
    "address_councildis": "B",
    "status": "Pending",
    "rowid": "996559",
    "final_x": "3679627.79",
    "final_y": "531022.73",
    "longitude": "-90.07399934305039",
    "latitude": "29.954185069998477",
    "geocoded_column": {
      "latitude": "29.954185069998477",
      "longitude": "-90.07399934305039"
    }
  },
  {
    "service_request": "2023-996558",
    "request_type": "Traffic Signals/Signs/Striping/Streetlights",
    "request_reason": "Traffic Sign Missing/Damaged",
    "date_created": "2023-05-03T16:33:07.000",
    "date_modified": "2023-05-03T16:33:07.000",
    "request_status": "Pending",
    "responsible_agency": "Department of Public Works",
    "final_address": "2200 BLK Octavia St",
    "address_councildis": "A",
    "status": "Pending",
    "rowid": "996558",
    "final_x": "3667547.43062",
    "final_y": "523895.196092",
    "longitude": "-90.11238421258058",
    "latitude": "29.934946199130533",
    "geocoded_column": {
      "latitude": "29.934946199130533",
      "longitude": "-90.11238421258058"
    }
  },
  {
    "service_request": "2023-996556",
    "request_type": "Trash/Recycling",
    "request_reason": "Request a Large Item Pick Up",
    "date_created": "2023-05-03T16:31:51.000",
    "date_modified": "2023-05-03T16:31:51.000",
    "request_status": "Pending",
    "responsible_agency": "Department of Sanitation",
    "final_address": "1440 Magazine St",
    "address_councildis": "B",
    "status": "Assigned to Contractor",
    "contractor": "Richards Disposal",
    "rowid": "996556",
    "final_x": "3680317.01781",
    "final_y": "524161.851132",
    "longitude": "-90.07206150215748",
    "latitude": "29.93529909829683",
    "geocoded_column": {
      "latitude": "29.93529909829683",
      "longitude": "-90.07206150215748"
    }
  },
  {
    "service_request": "2023-996555",
    "request_type": "Parks & Parkways",
    "request_reason": "Request Tree Service (Right of Way/Public Property)",
    "date_created": "2023-05-03T16:27:02.000",
    "date_modified": "2023-05-03T16:32:03.000",
    "request_status": "Pending",
    "responsible_agency": "Department of Parks & Parkway",
    "final_address": "2606 Elysian Fields Ave",
    "address_councildis": "D",
    "rowid": "996555",
    "final_x": "3684458.06185",
    "final_y": "541923.707468",
    "longitude": "-90.05836431019885",
    "latitude": "29.984012121588982",
    "geocoded_column": {
      "latitude": "29.984012121588982",
      "longitude": "-90.05836431019885"
    }
  },
  {
    "service_request": "2023-996554",
    "request_type": "Trash/Recycling",
    "request_reason": "Request a Large Item Pick Up",
    "date_created": "2023-05-03T16:26:14.000",
    "date_modified": "2023-05-03T16:26:14.000",
    "request_status": "Pending",
    "responsible_agency": "Department of Sanitation",
    "final_address": "2734 Orchid St",
    "address_councildis": "A",
    "status": "Assigned to Contractor",
    "contractor": "Richards Disposal",
    "rowid": "996554",
    "final_x": "3677533.39598",
    "final_y": "538643.906761",
    "longitude": "-90.0803494533462",
    "latitude": "29.975203846387743",
    "geocoded_column": {
      "latitude": "29.975203846387743",
      "longitude": "-90.0803494533462"
    }
  },
  {
    "service_request": "2023-996553",
    "request_type": "Trash/Recycling",
    "request_reason": "Order Recycling Cart",
    "date_created": "2023-05-03T16:26:11.000",
    "date_modified": "2023-05-03T16:26:11.000",
    "request_status": "Pending",
    "responsible_agency": "Department of Sanitation",
    "final_address": "1209 Feliciana St",
    "address_councildis": "C",
    "status": "Pending",
    "rowid": "996553",
    "final_x": "3688881.7238",
    "final_y": "536505.971783",
    "longitude": "-90.04458449070357",
    "latitude": "29.96897917951747",
    "geocoded_column": {
      "latitude": "29.96897917951747",
      "longitude": "-90.04458449070357"
    }
  },
  {
    "service_request": "2023-996552",
    "request_type": "Trash/Recycling",
    "request_reason": "Report a Missed Trash/Recycling Pick Up",
    "date_created": "2023-05-03T16:23:09.000",
    "date_modified": "2023-05-03T16:23:10.000",
    "request_status": "Pending",
    "responsible_agency": "Department of Sanitation",
    "final_address": "5828 Prytania St",
    "address_councildis": "A",
    "contractor": "Richards Disposal",
    "rowid": "996552",
    "final_x": "3665688.3856",
    "final_y": "520629.61292",
    "longitude": "-90.11836253654725",
    "latitude": "29.926021217445097",
    "geocoded_column": {
      "latitude": "29.926021217445097",
      "longitude": "-90.11836253654725"
    }
  },
  {
    "service_request": "2023-996551",
    "request_type": "Trash/Recycling",
    "request_reason": "Request a Large Item Pick Up",
    "date_created": "2023-05-03T16:18:29.000",
    "date_modified": "2023-05-03T16:18:29.000",
    "request_status": "Pending",
    "responsible_agency": "Department of Sanitation",
    "final_address": "5979 Argonne Blvd",
    "address_councildis": "A",
    "status": "Assigned to Contractor",
    "contractor": "IV Waste",
    "rowid": "996551",
    "final_x": "3670205.19316",
    "final_y": "547067.167761",
    "longitude": "-90.1032083142158",
    "latitude": "29.99858323808711",
    "geocoded_column": {
      "latitude": "29.99858323808711",
      "longitude": "-90.1032083142158"
    }
  },
  {
    "service_request": "2023-996550",
    "request_type": "Trash/Recycling",
    "request_reason": "Order Recycling Cart",
    "date_created": "2023-05-03T16:13:55.000",
    "date_modified": "2023-05-03T16:13:55.000",
    "request_status": "Pending",
    "responsible_agency": "Department of Sanitation",
    "final_address": "3104 Toledano St",
    "address_councildis": "B",
    "status": "Pending",
    "rowid": "996550",
    "final_x": "3672213.98439",
    "final_y": "527100.753279",
    "longitude": "-90.09754277556769",
    "latitude": "29.943622887925084",
    "geocoded_column": {
      "latitude": "29.943622887925084",
      "longitude": "-90.09754277556769"
    }
  },
  {
    "service_request": "2023-996549",
    "request_type": "Roads/Drainage",
    "request_reason": "Accessibility Ramps, Curbs and Sidewalk Repair",
    "date_created": "2023-05-03T16:08:52.000",
    "date_modified": "2023-05-03T16:08:52.000",
    "request_status": "Pending",
    "responsible_agency": "Department of Public Works",
    "final_address": "1624 Gentilly Blvd",
    "address_councildis": "D",
    "status": "Pending",
    "rowid": "996549",
    "final_x": "3678525.56142",
    "final_y": "540852.335755",
    "longitude": "-90.07713946742246",
    "latitude": "29.98124639366151",
    "geocoded_column": {
      "latitude": "29.98124639366151",
      "longitude": "-90.07713946742246"
    }
  },
  {
    "service_request": "2023-996548",
    "request_type": "Utility Poles",
    "request_reason": "Utility Pole Leaning",
    "date_created": "2023-05-03T16:08:22.000",
    "date_modified": "2023-05-03T16:08:26.000",
    "request_status": "Pending",
    "responsible_agency": "Utility Company Collective",
    "final_address": "1701 Jefferson Ave",
    "address_councildis": "B",
    "status": "Pending",
    "rowid": "996548",
    "final_x": "3667543.84218",
    "final_y": "521978.104634",
    "longitude": "-90.11246002691936",
    "latitude": "29.929674914221707",
    "geocoded_column": {
      "latitude": "29.929674914221707",
      "longitude": "-90.11246002691936"
    }
  },
  {
    "service_request": "2023-996547",
    "request_type": "Roads/Drainage",
    "request_reason": "Accessibility Ramps, Curbs and Sidewalk Repair",
    "date_created": "2023-05-03T16:04:17.000",
    "date_modified": "2023-05-03T16:04:17.000",
    "request_status": "Pending",
    "responsible_agency": "Department of Public Works",
    "final_address": "1600 N Dupre St",
    "address_councildis": "D",
    "status": "Pending",
    "rowid": "996547",
    "final_x": "3678560.76923",
    "final_y": "540617.526475",
    "longitude": "-90.07703639638592",
    "latitude": "29.980599688162833",
    "geocoded_column": {
      "latitude": "29.980599688162833",
      "longitude": "-90.07703639638592"
    }
  },
  {
    "service_request": "2023-996546",
    "request_type": "Traffic Signals/Signs/Striping/Streetlights",
    "request_reason": "Street Name Sign Damaged or Missing",
    "date_created": "2023-05-03T16:02:34.000",
    "date_modified": "2023-05-03T16:02:34.000",
    "request_status": "Pending",
    "responsible_agency": "Department of Public Works",
    "final_address": "SANDALWOOD ST & GRANT ST",
    "address_councildis": "E",
    "status": "Pending",
    "rowid": "996546",
    "final_x": "3712326.6",
    "final_y": "555181.58",
    "longitude": "-89.9698429688472",
    "latitude": "30.019584100158898",
    "geocoded_column": {
      "latitude": "30.019584100158898",
      "longitude": "-89.9698429688472"
    }
  },
  {
    "service_request": "2023-996545",
    "request_type": "Traffic Signals/Signs/Striping/Streetlights",
    "request_reason": "Street Name Sign Damaged or Missing",
    "date_created": "2023-05-03T16:01:33.000",
    "date_modified": "2023-05-03T16:01:33.000",
    "request_status": "Pending",
    "responsible_agency": "Department of Public Works",
    "final_address": "EUNICE DR & HAMMOND ST",
    "address_councildis": "E",
    "status": "Pending",
    "rowid": "996545",
    "final_x": "3710507.8",
    "final_y": "556193.18",
    "longitude": "-89.97555184305692",
    "latitude": "30.02242498857672",
    "geocoded_column": {
      "latitude": "30.02242498857672",
      "longitude": "-89.97555184305692"
    }
  },
  {
    "service_request": "2023-996544",
    "request_type": "Traffic Signals/Signs/Striping/Streetlights",
    "request_reason": "Street Name Sign Damaged or Missing",
    "date_created": "2023-05-03T16:00:23.000",
    "date_modified": "2023-05-03T16:00:24.000",
    "request_status": "Pending",
    "responsible_agency": "Department of Public Works",
    "final_address": "HAMMOND ST & READ BLVD",
    "address_councildis": "E",
    "status": "Pending",
    "rowid": "996544",
    "final_x": "3712769.4",
    "final_y": "556392.19",
    "longitude": "-89.96839831714604",
    "latitude": "30.022898306043732",
    "geocoded_column": {
      "latitude": "30.022898306043732",
      "longitude": "-89.96839831714604"
    }
  },
  {
    "service_request": "2023-996543",
    "request_type": "Trash/Recycling",
    "request_reason": "Repair Trash Cart",
    "date_created": "2023-05-03T15:58:04.000",
    "date_modified": "2023-05-03T15:58:05.000",
    "request_status": "Pending",
    "responsible_agency": "Department of Sanitation",
    "final_address": "321 22Nd St",
    "address_councildis": "A",
    "status": "Assigned to Contractor",
    "contractor": "IV Waste",
    "rowid": "996543",
    "final_x": "3665035.51424",
    "final_y": "549386.228499",
    "longitude": "-90.11946180961557",
    "latitude": "30.005111447725866",
    "geocoded_column": {
      "latitude": "30.005111447725866",
      "longitude": "-90.11946180961557"
    }
  },
  {
    "service_request": "2023-996542",
    "request_type": "Traffic Signals/Signs/Striping/Streetlights",
    "request_reason": "Request for Traffic Calming due to Speeding",
    "date_created": "2023-05-03T15:56:26.000",
    "date_modified": "2023-05-03T15:56:26.000",
    "request_status": "Pending",
    "responsible_agency": "Department of Public Works",
    "final_address": "1600 BLK Gentilly Blvd",
    "address_councildis": "A",
    "status": "Pending",
    "rowid": "996542",
    "final_x": "3678466.33922",
    "final_y": "540986.456857",
    "longitude": "-90.07732187465622",
    "latitude": "29.981616965282427",
    "geocoded_column": {
      "latitude": "29.981616965282427",
      "longitude": "-90.07732187465622"
    }
  },
  {
    "service_request": "2023-996541",
    "request_type": "Parks & Parkways",
    "request_reason": "Request Tree Service (Right of Way/Public Property)",
    "date_created": "2023-05-03T15:56:13.000",
    "date_modified": "2023-05-03T15:56:14.000",
    "request_status": "Pending",
    "responsible_agency": "Department of Parks & Parkway",
    "final_address": "3046 St Peter St",
    "address_councildis": "A",
    "status": "Pending",
    "rowid": "996541",
    "final_x": "3675279.45032",
    "final_y": "537834.632201",
    "longitude": "-90.08749580591306",
    "latitude": "29.973046195849616",
    "geocoded_column": {
      "latitude": "29.973046195849616",
      "longitude": "-90.08749580591306"
    }
  },
  {
    "service_request": "2023-996540",
    "request_type": "Abandoned Vehicles",
    "request_reason": "Abandoned/Junk Vehicles",
    "date_created": "2023-05-03T15:54:31.000",
    "date_modified": "2023-05-03T15:54:31.000",
    "request_status": "Pending",
    "responsible_agency": "Department of Public Works",
    "final_address": "221 N Alexander St, New Orleans, Louisiana, 70119",
    "address_councildis": "A",
    "status": "Pending",
    "rowid": "996540",
    "final_x": "3670311.76058",
    "final_y": "539701.24225",
    "longitude": "-90.10312149011716",
    "latitude": "29.978326322848872",
    "geocoded_column": {
      "latitude": "29.978326322848872",
      "longitude": "-90.10312149011716"
    }
  },
  {
    "service_request": "2023-996539",
    "request_type": "Property Maintenance",
    "request_reason": "Property Maintenance",
    "date_created": "2023-05-03T15:54:11.000",
    "date_modified": "2023-05-03T15:54:11.000",
    "request_status": "Pending",
    "responsible_agency": "Department of Code Enforcement",
    "final_address": "4431 Macarthur Blvd",
    "address_councildis": "C",
    "status": "Pending",
    "rowid": "996539",
    "final_x": "3700270.09015",
    "final_y": "520176.40268",
    "longitude": "-90.00921543719888",
    "latitude": "29.923721497773414",
    "geocoded_column": {
      "latitude": "29.923721497773414",
      "longitude": "-90.00921543719888"
    }
  },
  {
    "service_request": "2023-996537",
    "request_type": "Trash/Recycling",
    "request_reason": "Order Recycling Cart",
    "date_created": "2023-05-03T15:49:16.000",
    "date_modified": "2023-05-03T15:49:17.000",
    "request_status": "Pending",
    "responsible_agency": "Department of Sanitation",
    "final_address": "5903 Perrier St",
    "address_councildis": "A",
    "status": "Pending",
    "rowid": "996537",
    "final_x": "3665482.85453",
    "final_y": "520449.337208",
    "longitude": "-90.11901737154504",
    "latitude": "29.92553150681425",
    "geocoded_column": {
      "latitude": "29.92553150681425",
      "longitude": "-90.11901737154504"
    }
  },
  {
    "service_request": "2023-996536",
    "request_type": "Trash/Recycling",
    "request_reason": "Request a Large Item Pick Up",
    "date_created": "2023-05-03T15:45:52.000",
    "date_modified": "2023-05-03T15:45:53.000",
    "request_status": "Pending",
    "responsible_agency": "Department of Sanitation",
    "final_address": "4910 Gawain Dr",
    "address_councildis": "E",
    "status": "Assigned to Contractor",
    "contractor": "Waste Pro",
    "rowid": "996536",
    "final_x": "3706800.06231",
    "final_y": "556474.035546",
    "longitude": "-89.98725687431639",
    "latitude": "30.02331751697708",
    "geocoded_column": {
      "latitude": "30.02331751697708",
      "longitude": "-89.98725687431639"
    }
  },
  {
    "service_request": "2023-996535",
    "request_type": "Abandoned Vehicles",
    "request_reason": "Abandoned/Junk Vehicles",
    "date_created": "2023-05-03T15:42:05.000",
    "date_modified": "2023-05-03T15:42:05.000",
    "request_status": "Pending",
    "responsible_agency": "Department of Public Works",
    "final_address": "10200 Almonaster Ave",
    "address_councildis": "E",
    "status": "Pending",
    "rowid": "996535",
    "final_x": "3713684.56383",
    "final_y": "551626.395989",
    "longitude": "-89.96568637555853",
    "latitude": "30.00976423388402",
    "geocoded_column": {
      "latitude": "30.00976423388402",
      "longitude": "-89.96568637555853"
    }
  },
  {
    "service_request": "2023-996534",
    "request_type": "Abandoned Vehicles",
    "request_reason": "Abandoned/Junk Vehicles",
    "date_created": "2023-05-03T15:41:03.000",
    "date_modified": "2023-05-03T15:41:03.000",
    "request_status": "Pending",
    "responsible_agency": "Department of Public Works",
    "final_address": "1102 Constance St",
    "address_councildis": "B",
    "status": "Pending",
    "rowid": "996534",
    "final_x": "3681252.33301",
    "final_y": "526141.49171",
    "longitude": "-90.06903975498467",
    "latitude": "29.94071411001548",
    "geocoded_column": {
      "latitude": "29.94071411001548",
      "longitude": "-90.06903975498467"
    }
  },
  {
    "service_request": "2023-996533",
    "request_type": "Trash/Recycling",
    "request_reason": "Request a Large Item Pick Up",
    "date_created": "2023-05-03T15:40:49.000",
    "date_modified": "2023-05-03T15:40:49.000",
    "request_status": "Pending",
    "responsible_agency": "Department of Sanitation",
    "final_address": "10241 Deer Park Blvd",
    "address_councildis": "E",
    "status": "Assigned to Contractor",
    "contractor": "Waste Pro",
    "rowid": "996533",
    "final_x": "3712401.59934",
    "final_y": "560891.587678",
    "longitude": "-89.96939124063088",
    "latitude": "30.035281907524798",
    "geocoded_column": {
      "latitude": "30.035281907524798",
      "longitude": "-89.96939124063088"
    }
  },
  {
    "service_request": "2023-996532",
    "request_type": "Trash/Recycling",
    "request_reason": "Repair Recycling Cart",
    "date_created": "2023-05-03T15:38:43.000",
    "date_modified": "2023-05-03T15:38:44.000",
    "request_status": "Pending",
    "responsible_agency": "Department of Sanitation",
    "final_address": "4724 Toulouse St",
    "address_councildis": "A",
    "status": "Pending",
    "rowid": "996532",
    "final_x": "3669984.52161",
    "final_y": "541322.2507",
    "longitude": "-90.10410010879279",
    "latitude": "29.98279320226491",
    "geocoded_column": {
      "latitude": "29.98279320226491",
      "longitude": "-90.10410010879279"
    }
  },
  {
    "service_request": "2023-996529",
    "request_type": "Abandoned Vehicles",
    "request_reason": "Abandoned/Junk Vehicles",
    "date_created": "2023-05-03T15:37:29.000",
    "date_modified": "2023-05-03T15:37:29.000",
    "request_status": "Pending",
    "responsible_agency": "Department of Public Works",
    "final_address": "4801 Coliseum St",
    "address_councildis": "B",
    "status": "Pending",
    "rowid": "996529",
    "final_x": "3669454.4635",
    "final_y": "519710.223928",
    "longitude": "-90.10650516898384",
    "latitude": "29.92338285002891",
    "geocoded_column": {
      "latitude": "29.92338285002891",
      "longitude": "-90.10650516898384"
    }
  },
  {
    "service_request": "2023-996528",
    "request_type": "Trash/Recycling",
    "request_reason": "Request a Large Item Pick Up",
    "date_created": "2023-05-03T15:29:53.000",
    "date_modified": "2023-05-03T15:29:53.000",
    "request_status": "Pending",
    "responsible_agency": "Department of Sanitation",
    "final_address": "1118 Fourth St",
    "address_councildis": "B",
    "status": "Assigned to Contractor",
    "contractor": "Richards Disposal",
    "rowid": "996528",
    "final_x": "3677169.36782",
    "final_y": "521105.730297",
    "longitude": "-90.08210399821482",
    "latitude": "29.926990657273855",
    "geocoded_column": {
      "latitude": "29.926990657273855",
      "longitude": "-90.08210399821482"
    }
  },
  {
    "service_request": "2023-996527",
    "request_type": "Trash/Recycling",
    "request_reason": "Missed Trash Pick-Up",
    "date_created": "2023-05-03T15:29:40.000",
    "date_modified": "2023-05-03T15:29:40.000",
    "request_status": "Pending",
    "responsible_agency": "Department of Sanitation",
    "final_address": "4801 Evangeline Dr",
    "address_councildis": "E",
    "status": "Assigned to Contractor",
    "contractor": "Waste Pro",
    "rowid": "996527",
    "final_x": "3709140.2172",
    "final_y": "556112.342938",
    "longitude": "-89.97987605158069",
    "latitude": "30.022247206080003",
    "geocoded_column": {
      "latitude": "30.022247206080003",
      "longitude": "-89.97987605158069"
    }
  },
  {
    "service_request": "2023-996526",
    "request_type": "Roads/Drainage",
    "request_reason": "Debris in Roadway",
    "date_created": "2023-05-03T15:28:17.000",
    "date_modified": "2023-05-03T15:28:17.000",
    "request_status": "Pending",
    "responsible_agency": "Department of Public Works",
    "final_address": "1400 BLK N Broad St",
    "address_councildis": "D",
    "status": "Pending",
    "rowid": "996526",
    "final_x": "3678633.68666",
    "final_y": "539480.658359",
    "longitude": "-90.07684546602188",
    "latitude": "29.977471495684313",
    "geocoded_column": {
      "latitude": "29.977471495684313",
      "longitude": "-90.07684546602188"
    }
  },
  {
    "service_request": "2023-996525",
    "request_type": "Roads/Drainage",
    "request_reason": "Pothole",
    "date_created": "2023-05-03T15:23:53.000",
    "date_modified": "2023-05-03T15:23:54.000",
    "request_status": "Pending",
    "responsible_agency": "Department of Public Works",
    "final_address": "FLEUR DE LIS DR & 16TH ST",
    "address_councildis": "A",
    "status": "Pending",
    "rowid": "996525",
    "final_x": "3665239.7",
    "final_y": "548423.38",
    "longitude": "-90.11884898185234",
    "latitude": "30.002457997447138",
    "geocoded_column": {
      "latitude": "30.002457997447138",
      "longitude": "-90.11884898185234"
    }
  },
  {
    "service_request": "2023-996523",
    "request_type": "Trash/Recycling",
    "request_reason": "Request a Large Item Pick Up",
    "date_created": "2023-05-03T15:19:09.000",
    "date_modified": "2023-05-03T15:19:10.000",
    "request_status": "Pending",
    "responsible_agency": "Department of Sanitation",
    "final_address": "2657 Jonquil St",
    "address_councildis": "D",
    "status": "Assigned to Contractor",
    "contractor": "IV Waste",
    "rowid": "996523",
    "final_x": "3687534.18716",
    "final_y": "547337.703313",
    "longitude": "-90.04845650998622",
    "latitude": "29.998804196249136",
    "geocoded_column": {
      "latitude": "29.998804196249136",
      "longitude": "-90.04845650998622"
    }
  },
  {
    "service_request": "2023-996522",
    "request_type": "Traffic Signals/Signs/Striping/Streetlights",
    "request_reason": "Street Light Outage/Malfunction",
    "date_created": "2023-05-03T15:16:17.000",
    "date_modified": "2023-05-03T15:16:18.000",
    "request_status": "Pending",
    "responsible_agency": "Department of Public Works",
    "final_address": "ORIOLE ST & BEAUREGARD AVE",
    "address_councildis": "D",
    "status": "Assigned to Contractor",
    "contractor": "Legacy Professional Services",
    "rowid": "996522",
    "final_x": "3676301.5",
    "final_y": "556760.78",
    "longitude": "-90.08361605880705",
    "latitude": "30.025055838985292",
    "geocoded_column": {
      "latitude": "30.025055838985292",
      "longitude": "-90.08361605880705"
    }
  },
  {
    "service_request": "2023-996521",
    "request_type": "Trash/Recycling",
    "request_reason": "Additional signage",
    "date_created": "2023-05-03T15:14:58.000",
    "date_modified": "2023-05-03T15:14:58.000",
    "request_status": "Pending",
    "responsible_agency": "Department of Public Works",
    "final_address": "3600 BLK MacArthur Blvd",
    "address_councildis": "C",
    "status": "Pending",
    "rowid": "996521",
    "final_x": "3697252.0697",
    "final_y": "520458.622912",
    "longitude": "-90.0187319518489",
    "latitude": "29.92459305922843",
    "geocoded_column": {
      "latitude": "29.92459305922843",
      "longitude": "-90.0187319518489"
    }
  },
  {
    "service_request": "2023-996520",
    "request_type": "Trash/Recycling",
    "request_reason": "Repair Trash Cart",
    "date_created": "2023-05-03T15:14:55.000",
    "date_modified": "2023-05-03T15:14:56.000",
    "request_status": "Pending",
    "responsible_agency": "Department of Sanitation",
    "final_address": "3116 Toledano St",
    "address_councildis": "B",
    "status": "Assigned to Contractor",
    "contractor": "Richards Disposal",
    "rowid": "996520",
    "final_x": "3672190.81153",
    "final_y": "527174.652735",
    "longitude": "-90.09761342234607",
    "latitude": "29.943826774445",
    "geocoded_column": {
      "latitude": "29.943826774445",
      "longitude": "-90.09761342234607"
    }
  },
  {
    "service_request": "2023-996519",
    "request_type": "Property Maintenance",
    "request_reason": "Property Maintenance",
    "date_created": "2023-05-03T15:14:41.000",
    "date_modified": "2023-05-03T15:14:41.000",
    "request_status": "Pending",
    "responsible_agency": "Department of Code Enforcement",
    "final_address": "7730 Green St",
    "address_councildis": "A",
    "status": "Pending",
    "rowid": "996519",
    "final_x": "3664034.8649",
    "final_y": "528804.985344",
    "longitude": "-90.12330971253472",
    "latitude": "29.948548998018904",
    "geocoded_column": {
      "latitude": "29.948548998018904",
      "longitude": "-90.12330971253472"
    }
  },
  {
    "service_request": "2023-996518",
    "request_type": "Traffic Signals/Signs/Striping/Streetlights",
    "request_reason": "Street Light Outage/Malfunction",
    "date_created": "2023-05-03T15:14:33.000",
    "date_modified": "2023-05-03T15:14:33.000",
    "request_status": "Pending",
    "responsible_agency": "Department of Public Works",
    "final_address": "BEAUREGARD AVE & JAY ST",
    "address_councildis": "D",
    "status": "Assigned to Contractor",
    "contractor": "Legacy Professional Services",
    "rowid": "996518",
    "final_x": "3676248.0",
    "final_y": "555753.68",
    "longitude": "-90.08381981256498",
    "latitude": "30.022288283660878",
    "geocoded_column": {
      "latitude": "30.022288283660878",
      "longitude": "-90.08381981256498"
    }
  },
  {
    "service_request": "2023-996517",
    "request_type": "Roads/Drainage",
    "request_reason": "Catch Basin - Broken/Damage",
    "date_created": "2023-05-03T15:09:53.000",
    "date_modified": "2023-05-03T15:09:54.000",
    "request_status": "Pending",
    "responsible_agency": "Department of Public Works",
    "final_address": "2310 Calhoun St",
    "address_councildis": "A",
    "status": "Pending",
    "rowid": "996517",
    "final_x": "3665901.63738",
    "final_y": "525511.710653",
    "longitude": "-90.11752583618245",
    "latitude": "29.939439215514884",
    "geocoded_column": {
      "latitude": "29.939439215514884",
      "longitude": "-90.11752583618245"
    }
  },
  {
    "service_request": "2023-996516",
    "request_type": "Trash/Recycling",
    "request_reason": "Replace Trash Cart",
    "date_created": "2023-05-03T15:09:33.000",
    "date_modified": "2023-05-03T15:09:34.000",
    "request_status": "Pending",
    "responsible_agency": "Department of Sanitation",
    "final_address": "2227 DAbadie St",
    "address_councildis": "D",
    "status": "Assigned to Contractor",
    "contractor": "IV Waste",
    "rowid": "996516",
    "final_x": "3680769.60187",
    "final_y": "539837.915274",
    "longitude": "-90.07008709312517",
    "latitude": "29.978389253719765",
    "geocoded_column": {
      "latitude": "29.978389253719765",
      "longitude": "-90.07008709312517"
    }
  },
  {
    "service_request": "2023-996515",
    "request_type": "Traffic Signals/Signs/Striping/Streetlights",
    "request_reason": "Street Light Outage/Malfunction",
    "date_created": "2023-05-03T15:09:17.000",
    "date_modified": "2023-05-03T15:09:17.000",
    "request_status": "Pending",
    "responsible_agency": "Department of Public Works",
    "final_address": "3600 BLK MacArthur Blvd",
    "address_councildis": "C",
    "status": "Assigned to Contractor",
    "contractor": "Legacy Professional Services",
    "rowid": "996515",
    "final_x": "3697252.0697",
    "final_y": "520458.622912",
    "longitude": "-90.0187319518489",
    "latitude": "29.92459305922843",
    "geocoded_column": {
      "latitude": "29.92459305922843",
      "longitude": "-90.0187319518489"
    }
  },
  {
    "service_request": "2023-996514",
    "request_type": "Trash/Recycling",
    "request_reason": "Missed Trash Pick-Up",
    "date_created": "2023-05-03T15:07:39.000",
    "date_modified": "2023-05-03T15:07:40.000",
    "request_status": "Pending",
    "responsible_agency": "Department of Sanitation",
    "final_address": "5120 Norgate Dr",
    "address_councildis": "E",
    "status": "Assigned to Contractor",
    "contractor": "Waste Pro",
    "rowid": "996514",
    "final_x": "3707484.63243",
    "final_y": "557131.220058",
    "longitude": "-89.98506936351576",
    "latitude": "30.02510238792494",
    "geocoded_column": {
      "latitude": "30.02510238792494",
      "longitude": "-89.98506936351576"
    }
  },
  {
    "service_request": "2023-996513",
    "request_type": "Trash/Recycling",
    "request_reason": "Request a Large Item Pick Up",
    "date_created": "2023-05-03T15:06:49.000",
    "date_modified": "2023-05-03T15:06:50.000",
    "request_status": "Pending",
    "responsible_agency": "Department of Sanitation",
    "final_address": "3138 Hudson Pl",
    "address_councildis": "C",
    "status": "Assigned to Contractor",
    "contractor": "Richards Disposal",
    "rowid": "996513",
    "final_x": "3702991.71818",
    "final_y": "519111.303479",
    "longitude": "-90.00066341805007",
    "latitude": "29.920706082952442",
    "geocoded_column": {
      "latitude": "29.920706082952442",
      "longitude": "-90.00066341805007"
    }
  },
  {
    "service_request": "2023-996512",
    "request_type": "Trash/Recycling",
    "request_reason": "Request a Large Item Pick Up",
    "date_created": "2023-05-03T15:06:31.000",
    "date_modified": "2023-05-03T15:06:32.000",
    "request_status": "Pending",
    "responsible_agency": "Department of Sanitation",
    "final_address": "4484 Painters Street, New Orleans, LA 70122",
    "address_councildis": "D",
    "status": "Assigned to Contractor",
    "contractor": "IV Waste",
    "rowid": "996512",
    "final_x": "3686206.55369",
    "final_y": "549511.675795",
    "longitude": "-90.05257374713486",
    "latitude": "30.004822702146402",
    "geocoded_column": {
      "latitude": "30.004822702146402",
      "longitude": "-90.05257374713486"
    }
  },
  {
    "service_request": "2023-996511",
    "request_type": "Trash/Recycling",
    "request_reason": "Request a Large Item Pick Up",
    "date_created": "2023-05-03T15:00:20.000",
    "date_modified": "2023-05-03T15:00:21.000",
    "request_status": "Pending",
    "responsible_agency": "Department of Sanitation",
    "final_address": "28 St Claude Ct",
    "address_councildis": "E",
    "status": "Assigned to Contractor",
    "contractor": "Waste Pro",
    "rowid": "996511",
    "final_x": "3697413.61706",
    "final_y": "533566.957445",
    "longitude": "-90.01774692065975",
    "latitude": "29.960631322418738",
    "geocoded_column": {
      "latitude": "29.960631322418738",
      "longitude": "-90.01774692065975"
    }
  },
  {
    "service_request": "2023-996510",
    "request_type": "Abandoned Vehicles",
    "request_reason": "Abandoned/Junk Vehicles",
    "date_created": "2023-05-03T14:59:00.000",
    "date_modified": "2023-05-03T15:07:12.000",
    "request_status": "Pending",
    "responsible_agency": "Department of Public Works",
    "final_address": "1700 BLK Painters St",
    "address_councildis": "D",
    "status": "Inspected",
    "rowid": "996510",
    "final_x": "3687370.69346",
    "final_y": "538902.20676",
    "longitude": "-90.04927161002061",
    "latitude": "29.97561462904353",
    "geocoded_column": {
      "latitude": "29.97561462904353",
      "longitude": "-90.04927161002061"
    }
  },
  {
    "service_request": "2023-996509",
    "request_type": "Trash/Recycling",
    "request_reason": "Illegal Dumping",
    "date_created": "2023-05-03T14:53:14.000",
    "date_modified": "2023-05-03T14:53:14.000",
    "request_status": "Pending",
    "responsible_agency": "Department of Sanitation",
    "final_address": "2223 Independence St",
    "address_councildis": "D",
    "status": "Pending",
    "rowid": "996509",
    "final_x": "3692057.68419",
    "final_y": "539813.069706",
    "longitude": "-90.03443624513646",
    "latitude": "29.977973923020002",
    "geocoded_column": {
      "latitude": "29.977973923020002",
      "longitude": "-90.03443624513646"
    }
  },
  {
    "service_request": "2023-996508",
    "request_type": "Trash/Recycling",
    "request_reason": "Request a Large Item Pick Up",
    "date_created": "2023-05-03T14:52:16.000",
    "date_modified": "2023-05-03T14:52:17.000",
    "request_status": "Pending",
    "responsible_agency": "Department of Sanitation",
    "final_address": "4858 Ken Ct, New Orleans, Louisiana, 70131",
    "address_councildis": "C",
    "status": "Assigned to Contractor",
    "contractor": "Richards Disposal",
    "rowid": "996508",
    "final_x": "3702215.20765",
    "final_y": "518558.344887",
    "longitude": "-90.00313474927131",
    "latitude": "29.919210446905453",
    "geocoded_column": {
      "latitude": "29.919210446905453",
      "longitude": "-90.00313474927131"
    }
  },
  {
    "service_request": "2023-996507",
    "request_type": "Trash/Recycling",
    "request_reason": "Missed Trash Pick-Up",
    "date_created": "2023-05-03T14:51:15.000",
    "date_modified": "2023-05-03T14:51:16.000",
    "request_status": "Pending",
    "responsible_agency": "Department of Sanitation",
    "final_address": "6346 Marshal Foch St",
    "address_councildis": "A",
    "status": "Assigned to Contractor",
    "contractor": "IV Waste",
    "rowid": "996507",
    "final_x": "3669950.39604",
    "final_y": "549595.722963",
    "longitude": "-90.10392751889502",
    "latitude": "30.00554340307737",
    "geocoded_column": {
      "latitude": "30.00554340307737",
      "longitude": "-90.10392751889502"
    }
  },
  {
    "service_request": "2023-996506",
    "request_type": "Trash/Recycling",
    "request_reason": "Dead Animal Pick Up",
    "date_created": "2023-05-03T14:50:28.000",
    "date_modified": "2023-05-03T14:50:29.000",
    "request_status": "Pending",
    "responsible_agency": "Department of Sanitation",
    "final_address": "2121 Burdette St",
    "address_councildis": "A",
    "status": "Assigned to Contractor",
    "contractor": "Richards Disposal",
    "rowid": "996506",
    "final_x": "3665113.62298",
    "final_y": "530034.530497",
    "longitude": "-90.11986249249206",
    "latitude": "29.951898481390913",
    "geocoded_column": {
      "latitude": "29.951898481390913",
      "longitude": "-90.11986249249206"
    }
  },
  {
    "service_request": "2023-996505",
    "request_type": "Traffic Signals/Signs/Striping/Streetlights",
    "request_reason": "Traffic Signal Malfunctioning/Damaged",
    "date_created": "2023-05-03T14:44:13.000",
    "date_modified": "2023-05-03T14:44:14.000",
    "request_status": "Pending",
    "responsible_agency": "Department of Public Works",
    "final_address": "4800 BLK Read Blvd",
    "address_councildis": "E",
    "status": "Pending",
    "rowid": "996505",
    "final_x": "3712760.25587",
    "final_y": "556514.703031",
    "longitude": "-89.9684225989934",
    "latitude": "30.023235468096516",
    "geocoded_column": {
      "latitude": "30.023235468096516",
      "longitude": "-89.9684225989934"
    }
  },
  {
    "service_request": "2023-996504",
    "request_type": "Trash/Recycling",
    "request_reason": "Illegal Dumping",
    "date_created": "2023-05-03T14:42:49.000",
    "date_modified": "2023-05-03T16:10:49.000",
    "request_status": "Pending",
    "responsible_agency": "Department of Sanitation",
    "final_address": "4419 St Claude Ave",
    "address_councildis": "D",
    "status": "Pending",
    "rowid": "996504",
    "final_x": "3693265.29033",
    "final_y": "535094.68775",
    "longitude": "-90.03079161989614",
    "latitude": "29.964962353499946",
    "geocoded_column": {
      "latitude": "29.964962353499946",
      "longitude": "-90.03079161989614"
    }
  },
  {
    "service_request": "2023-996503",
    "request_type": "Trash/Recycling",
    "request_reason": "Request a Large Item Pick Up",
    "date_created": "2023-05-03T14:42:26.000",
    "date_modified": "2023-05-03T14:42:27.000",
    "request_status": "Pending",
    "responsible_agency": "Department of Sanitation",
    "final_address": "2009 Chartres St",
    "address_councildis": "C",
    "status": "Assigned to Contractor",
    "contractor": "IV Waste",
    "rowid": "996503",
    "final_x": "3684605.17711",
    "final_y": "534496.638853",
    "longitude": "-90.05816070621944",
    "latitude": "29.963585772067354",
    "geocoded_column": {
      "latitude": "29.963585772067354",
      "longitude": "-90.05816070621944"
    }
  },
  {
    "service_request": "2023-996502",
    "request_type": "Property Maintenance",
    "request_reason": "Property Maintenance",
    "date_created": "2023-05-03T14:37:50.000",
    "date_modified": "2023-05-03T14:37:51.000",
    "request_status": "Pending",
    "responsible_agency": "Department of Code Enforcement",
    "final_address": "2567 St Nick Dr",
    "address_councildis": "C",
    "status": "Pending",
    "rowid": "996502",
    "final_x": "3699298.18839",
    "final_y": "521608.166137",
    "longitude": "-90.01223124873901",
    "latitude": "29.927689202025288",
    "geocoded_column": {
      "latitude": "29.927689202025288",
      "longitude": "-90.01223124873901"
    }
  },
  {
    "service_request": "2023-996497",
    "request_type": "Abandoned Vehicles",
    "request_reason": "Abandoned/Junk Vehicles",
    "date_created": "2023-05-03T14:17:19.000",
    "date_modified": "2023-05-03T14:17:19.000",
    "request_status": "Pending",
    "responsible_agency": "Department of Public Works",
    "final_address": "3109 Bienville Ave",
    "address_councildis": "B",
    "status": "Pending",
    "rowid": "996497",
    "final_x": "3674495.0578",
    "final_y": "536812.099784",
    "longitude": "-90.09000811524638",
    "latitude": "29.97025800596094",
    "geocoded_column": {
      "latitude": "29.97025800596094",
      "longitude": "-90.09000811524638"
    }
  },
  {
    "service_request": "2023-996496",
    "request_type": "Trash/Recycling",
    "request_reason": "Missed Trash Pick-Up",
    "date_created": "2023-05-03T14:16:52.000",
    "date_modified": "2023-05-03T14:16:53.000",
    "request_status": "Pending",
    "responsible_agency": "Department of Sanitation",
    "final_address": "4100 BLK Martin Luther King, Jr. Blvd",
    "address_councildis": "B",
    "status": "Assigned to Contractor",
    "contractor": "Richards Disposal",
    "rowid": "996496",
    "final_x": "3671209.97316",
    "final_y": "530516.39676",
    "longitude": "-90.10059669268992",
    "latitude": "29.95304452360657",
    "geocoded_column": {
      "latitude": "29.95304452360657",
      "longitude": "-90.10059669268992"
    }
  },
  {
    "service_request": "2023-996495",
    "request_type": "Trash/Recycling",
    "request_reason": "Return Trash Cart",
    "date_created": "2023-05-03T14:16:31.000",
    "date_modified": "2023-05-03T14:16:32.000",
    "request_status": "Pending",
    "responsible_agency": "Department of Sanitation",
    "final_address": "4115 Elba St",
    "address_councildis": "B",
    "status": "Assigned to Contractor",
    "contractor": "Richards Disposal",
    "rowid": "996495",
    "final_x": "3670493.31956",
    "final_y": "530029.115905",
    "longitude": "-90.10287609944935",
    "latitude": "29.951725841999114",
    "geocoded_column": {
      "latitude": "29.951725841999114",
      "longitude": "-90.10287609944935"
    }
  },
  {
    "service_request": "2023-996494",
    "request_type": "Traffic Signals/Signs/Striping/Streetlights",
    "request_reason": "Street Light Outage/Malfunction",
    "date_created": "2023-05-03T14:14:11.000",
    "date_modified": "2023-05-03T14:59:01.000",
    "request_status": "Pending",
    "responsible_agency": "Department of Public Works",
    "final_address": "0 BLK Agriculture Pl",
    "address_councildis": "D",
    "status": "Assigned to Contractor",
    "contractor": "Legacy Professional Services",
    "rowid": "996494",
    "final_x": "3689891.40135",
    "final_y": "543419.290574",
    "longitude": "-90.04114966127275",
    "latitude": "29.987957086684915",
    "geocoded_column": {
      "latitude": "29.987957086684915",
      "longitude": "-90.04114966127275"
    }
  },
  {
    "service_request": "2023-996493",
    "request_type": "Trash/Recycling",
    "request_reason": "Repair Trash Cart",
    "date_created": "2023-05-03T14:12:03.000",
    "date_modified": "2023-05-03T14:12:03.000",
    "request_status": "Pending",
    "responsible_agency": "Department of Sanitation",
    "final_address": "1221 Constantinople St",
    "address_councildis": "B",
    "status": "Assigned to Contractor",
    "contractor": "Richards Disposal",
    "rowid": "996493",
    "final_x": "3672464.70081",
    "final_y": "520181.419896",
    "longitude": "-90.09698691327688",
    "latitude": "29.92458952289487",
    "geocoded_column": {
      "latitude": "29.92458952289487",
      "longitude": "-90.09698691327688"
    }
  },
  {
    "service_request": "2023-996492",
    "request_type": "Property Maintenance",
    "request_reason": "Property Maintenance",
    "date_created": "2023-05-03T14:10:23.000",
    "date_modified": "2023-05-03T14:10:24.000",
    "request_status": "Pending",
    "responsible_agency": "Department of Code Enforcement",
    "final_address": "6929 Virgilian St",
    "address_councildis": "D",
    "status": "Pending",
    "rowid": "996492",
    "final_x": "3696992.31946",
    "final_y": "556647.003546",
    "longitude": "-90.01824081280056",
    "latitude": "30.02410626890233",
    "geocoded_column": {
      "latitude": "30.02410626890233",
      "longitude": "-90.01824081280056"
    }
  },
  {
    "service_request": "2023-996491",
    "request_type": "Property Maintenance",
    "request_reason": "Property Maintenance",
    "date_created": "2023-05-03T14:09:47.000",
    "date_modified": "2023-05-03T14:09:47.000",
    "request_status": "Pending",
    "responsible_agency": "Department of Code Enforcement",
    "final_address": "6929 Virgilian St",
    "address_councildis": "D",
    "status": "Pending",
    "rowid": "996491",
    "final_x": "3696992.31946",
    "final_y": "556647.003546",
    "longitude": "-90.01824081280056",
    "latitude": "30.02410626890233",
    "geocoded_column": {
      "latitude": "30.02410626890233",
      "longitude": "-90.01824081280056"
    }
  },
  {
    "service_request": "2023-996490",
    "request_type": "Property Maintenance",
    "request_reason": "Property Maintenance",
    "date_created": "2023-05-03T14:08:49.000",
    "date_modified": "2023-05-03T14:11:55.000",
    "request_status": "Pending",
    "responsible_agency": "Department of Code Enforcement",
    "final_address": "6945 Virgilian St",
    "address_councildis": "D",
    "status": "Pending",
    "rowid": "996490",
    "final_x": "3696956.27421",
    "final_y": "556761.926234",
    "longitude": "-90.01835054102796",
    "latitude": "30.024423400010118",
    "geocoded_column": {
      "latitude": "30.024423400010118",
      "longitude": "-90.01835054102796"
    }
  },
  {
    "service_request": "2023-996489",
    "request_type": "Roads/Drainage",
    "request_reason": "Street Flooding / Drainage",
    "date_created": "2023-05-03T14:08:10.000",
    "date_modified": "2023-05-03T14:08:11.000",
    "request_status": "Pending",
    "responsible_agency": "Department of Public Works",
    "final_address": "PORT ST & ST CLAUDE AVE",
    "address_councildis": "C",
    "status": "Pending",
    "rowid": "996489",
    "final_x": "3687420.8",
    "final_y": "536399.48",
    "longitude": "-90.04920194272945",
    "latitude": "29.968731463821154",
    "geocoded_column": {
      "latitude": "29.968731463821154",
      "longitude": "-90.04920194272945"
    }
  },
  {
    "service_request": "2023-996488",
    "request_type": "Roads/Drainage",
    "request_reason": "Catch Basin - Clogged",
    "date_created": "2023-05-03T14:06:43.000",
    "date_modified": "2023-05-03T15:52:33.000",
    "request_status": "Pending",
    "responsible_agency": "Department of Public Works",
    "final_address": "2112 St Bernard Ave",
    "address_councildis": "D",
    "status": "Inspected",
    "rowid": "996488",
    "final_x": "3681181.52796",
    "final_y": "539603.134538",
    "longitude": "-90.06879426456699",
    "latitude": "29.977731194806548",
    "geocoded_column": {
      "latitude": "29.977731194806548",
      "longitude": "-90.06879426456699"
    }
  },
  {
    "service_request": "2023-996487",
    "request_type": "Trash/Recycling",
    "request_reason": "MIssed Recycling Pick-Up",
    "date_created": "2023-05-03T14:04:34.000",
    "date_modified": "2023-05-03T14:04:35.000",
    "request_status": "Pending",
    "responsible_agency": "Department of Sanitation",
    "final_address": "936 Mazant St",
    "address_councildis": "C",
    "status": "Assigned to Contractor",
    "contractor": "IV Waste",
    "rowid": "996487",
    "final_x": "3691957.16502",
    "final_y": "534737.252934",
    "longitude": "-90.03493537463662",
    "latitude": "29.964020356462267",
    "geocoded_column": {
      "latitude": "29.964020356462267",
      "longitude": "-90.03493537463662"
    }
  },
  {
    "service_request": "2023-996486",
    "request_type": "Trash/Recycling",
    "request_reason": "Repair Trash Cart",
    "date_created": "2023-05-03T13:57:26.000",
    "date_modified": "2023-05-03T13:57:27.000",
    "request_status": "Pending",
    "responsible_agency": "Department of Sanitation",
    "final_address": "2025 Farragut St",
    "address_councildis": "C",
    "status": "Assigned to Contractor",
    "contractor": "Richards Disposal",
    "rowid": "996486",
    "final_x": "3692167.40541",
    "final_y": "523388.482043",
    "longitude": "-90.03467763643869",
    "latitude": "29.932808604887843",
    "geocoded_column": {
      "latitude": "29.932808604887843",
      "longitude": "-90.03467763643869"
    }
  },
  {
    "service_request": "2023-996485",
    "request_type": "Trash/Recycling",
    "request_reason": "Repair Trash Cart",
    "date_created": "2023-05-03T13:56:55.000",
    "date_modified": "2023-05-03T13:56:55.000",
    "request_status": "Pending",
    "responsible_agency": "Department of Sanitation",
    "final_address": "2027 Farragut St",
    "address_councildis": "C",
    "status": "Assigned to Contractor",
    "contractor": "Richards Disposal",
    "rowid": "996485",
    "final_x": "3692167.25737",
    "final_y": "523368.197051",
    "longitude": "-90.03467882957194",
    "latitude": "29.932752832662803",
    "geocoded_column": {
      "latitude": "29.932752832662803",
      "longitude": "-90.03467882957194"
    }
  },
  {
    "service_request": "2023-996484",
    "request_type": "Trash/Recycling",
    "request_reason": "Request a Large Item Pick Up",
    "date_created": "2023-05-03T13:56:00.000",
    "date_modified": "2023-05-03T13:56:01.000",
    "request_status": "Pending",
    "responsible_agency": "Department of Sanitation",
    "final_address": "2118 S Lopez St, New Orleans, Louisiana, 70125",
    "address_councildis": "A",
    "status": "Assigned to Contractor",
    "contractor": "Richards Disposal",
    "rowid": "996484",
    "final_x": "3669205.60372",
    "final_y": "529322.999233",
    "longitude": "-90.10696596362524",
    "latitude": "29.949822212000104",
    "geocoded_column": {
      "latitude": "29.949822212000104",
      "longitude": "-90.10696596362524"
    }
  },
  {
    "service_request": "2023-996483",
    "request_type": "Trash/Recycling",
    "request_reason": "Replace Trash Cart",
    "date_created": "2023-05-03T13:55:53.000",
    "date_modified": "2023-05-03T13:55:53.000",
    "request_status": "Closed",
    "responsible_agency": "Department of Sanitation",
    "final_address": "2025 Farragut St",
    "address_councildis": "C",
    "status": "Resolved",
    "rowid": "996483",
    "final_x": "3692167.40541",
    "final_y": "523388.482043",
    "longitude": "-90.03467763643869",
    "latitude": "29.932808604887843",
    "geocoded_column": {
      "latitude": "29.932808604887843",
      "longitude": "-90.03467763643869"
    }
  },
  {
    "service_request": "2023-996482",
    "request_type": "Trash/Recycling",
    "request_reason": "Request a Large Item Pick Up",
    "date_created": "2023-05-03T13:54:04.000",
    "date_modified": "2023-05-03T13:54:05.000",
    "request_status": "Pending",
    "responsible_agency": "Department of Sanitation",
    "final_address": "2600 St Claude Ave",
    "address_councildis": "C",
    "status": "Assigned to Contractor",
    "contractor": "IV Waste",
    "rowid": "996482",
    "final_x": "3687162.51471",
    "final_y": "536415.847367",
    "longitude": "-90.05001704195975",
    "latitude": "29.96878442492724",
    "geocoded_column": {
      "latitude": "29.96878442492724",
      "longitude": "-90.05001704195975"
    }
  },
  {
    "service_request": "2023-996481",
    "request_type": "Trash/Recycling",
    "request_reason": "Request a Large Item Pick Up",
    "date_created": "2023-05-03T13:53:46.000",
    "date_modified": "2023-05-03T13:53:46.000",
    "request_status": "Pending",
    "responsible_agency": "Department of Sanitation",
    "final_address": "1520 St Mary St",
    "address_councildis": "B",
    "status": "Assigned to Contractor",
    "contractor": "Richards Disposal",
    "rowid": "996481",
    "final_x": "3678589.49954",
    "final_y": "524032.812284",
    "longitude": "-90.07751974480391",
    "latitude": "29.93499645716778",
    "geocoded_column": {
      "latitude": "29.93499645716778",
      "longitude": "-90.07751974480391"
    }
  },
  {
    "service_request": "2023-996480",
    "request_type": "Trash/Recycling",
    "request_reason": "Repair Trash Cart",
    "date_created": "2023-05-03T13:52:54.000",
    "date_modified": "2023-05-03T13:52:55.000",
    "request_status": "Pending",
    "responsible_agency": "Department of Sanitation",
    "final_address": "8613 Birch St",
    "address_councildis": "A",
    "status": "Assigned to Contractor",
    "contractor": "Richards Disposal",
    "rowid": "996480",
    "final_x": "3661517.1911",
    "final_y": "530726.506626",
    "longitude": "-90.1311954565181",
    "latitude": "29.953905429724035",
    "geocoded_column": {
      "latitude": "29.953905429724035",
      "longitude": "-90.1311954565181"
    }
  },
  {
    "service_request": "2023-996479",
    "request_type": "Trash/Recycling",
    "request_reason": "Order Trash Cart",
    "date_created": "2023-05-03T13:51:23.000",
    "date_modified": "2023-05-03T13:51:24.000",
    "request_status": "Pending",
    "responsible_agency": "Department of Sanitation",
    "final_address": "2706 Soniat St",
    "address_councildis": "B",
    "status": "Assigned to Contractor",
    "contractor": "Richards Disposal",
    "rowid": "996479",
    "final_x": "3668517.98388",
    "final_y": "525397.311677",
    "longitude": "-90.10926951702203",
    "latitude": "29.939048062101445",
    "geocoded_column": {
      "latitude": "29.939048062101445",
      "longitude": "-90.10926951702203"
    }
  },
  {
    "service_request": "2023-996478",
    "request_type": "Property Maintenance",
    "request_reason": "Property Maintenance",
    "date_created": "2023-05-03T13:46:31.000",
    "date_modified": "2023-05-03T13:46:31.000",
    "request_status": "Pending",
    "responsible_agency": "Department of Code Enforcement",
    "final_address": "4431 Macarthur Blvd",
    "address_councildis": "C",
    "status": "Pending",
    "rowid": "996478",
    "final_x": "3700270.09015",
    "final_y": "520176.40268",
    "longitude": "-90.00921543719888",
    "latitude": "29.923721497773414",
    "geocoded_column": {
      "latitude": "29.923721497773414",
      "longitude": "-90.00921543719888"
    }
  },
  {
    "service_request": "2023-996477",
    "request_type": "Property Maintenance",
    "request_reason": "Property Maintenance",
    "date_created": "2023-05-03T13:44:30.000",
    "date_modified": "2023-05-03T13:44:30.000",
    "request_status": "Pending",
    "responsible_agency": "Department of Code Enforcement",
    "final_address": "11314 Hayne Blvd",
    "address_councildis": "E",
    "status": "Pending",
    "rowid": "996477",
    "final_x": "3710525.622",
    "final_y": "567636.124644",
    "longitude": "-89.97506693138888",
    "latitude": "30.053887941295947",
    "geocoded_column": {
      "latitude": "30.053887941295947",
      "longitude": "-89.97506693138888"
    }
  },
  {
    "service_request": "2023-996476",
    "request_type": "Traffic Signals/Signs/Striping/Streetlights",
    "request_reason": "Traffic Sign Missing/Damaged",
    "date_created": "2023-05-03T13:40:39.000",
    "date_modified": "2023-05-03T13:40:40.000",
    "request_status": "Pending",
    "responsible_agency": "Department of Public Works",
    "final_address": "4638 Clara St",
    "address_councildis": "B",
    "status": "Pending",
    "rowid": "996476",
    "final_x": "3669378.29748",
    "final_y": "524949.598525",
    "longitude": "-90.10656852926327",
    "latitude": "29.93779169664329",
    "geocoded_column": {
      "latitude": "29.93779169664329",
      "longitude": "-90.10656852926327"
    }
  },
  {
    "service_request": "2023-996474",
    "request_type": "Traffic Signals/Signs/Striping/Streetlights",
    "request_reason": "Street Light Outage/Malfunction",
    "date_created": "2023-05-03T13:37:31.000",
    "date_modified": "2023-05-03T13:37:32.000",
    "request_status": "Pending",
    "responsible_agency": "Department of Public Works",
    "final_address": "4638 Clara St",
    "address_councildis": "B",
    "status": "Assigned to Contractor",
    "contractor": "Legacy Professional Services",
    "rowid": "996474",
    "final_x": "3669378.29748",
    "final_y": "524949.598525",
    "longitude": "-90.10656852926327",
    "latitude": "29.93779169664329",
    "geocoded_column": {
      "latitude": "29.93779169664329",
      "longitude": "-90.10656852926327"
    }
  },
  {
    "service_request": "2023-996472",
    "request_type": "Trash/Recycling",
    "request_reason": "Missed Trash Pick-Up",
    "date_created": "2023-05-03T13:35:07.000",
    "date_modified": "2023-05-03T15:06:01.000",
    "case_close_date": "2023-05-03T10:06:01.000",
    "request_status": "Closed",
    "responsible_agency": "Department of Sanitation",
    "final_address": "5460 Bullard Ave",
    "address_councildis": "E",
    "status": "Assigned to Contractor",
    "contractor": "Waste Pro",
    "contractor_action": "Completed",
    "rowid": "996472",
    "final_x": "3717530.71948",
    "final_y": "561284.34627",
    "longitude": "-89.95316761448615",
    "latitude": "30.036192961996797",
    "geocoded_column": {
      "latitude": "30.036192961996797",
      "longitude": "-89.95316761448615"
    }
  },
  {
    "service_request": "2023-996471",
    "request_type": "Trash/Recycling",
    "request_reason": "Request a Large Item Pick Up",
    "date_created": "2023-05-03T13:27:37.000",
    "date_modified": "2023-05-03T13:27:37.000",
    "request_status": "Pending",
    "responsible_agency": "Department of Sanitation",
    "final_address": "4601 San Marco Rd",
    "address_councildis": "E",
    "status": "Assigned to Contractor",
    "contractor": "Waste Pro",
    "rowid": "996471",
    "final_x": "3762826.30563",
    "final_y": "573071.935337",
    "longitude": "-89.80953331283133",
    "latitude": "30.067025533351874",
    "geocoded_column": {
      "latitude": "30.067025533351874",
      "longitude": "-89.80953331283133"
    }
  },
  {
    "service_request": "2023-996470",
    "request_type": "Roads/Drainage",
    "request_reason": "Catch Basin - Clogged",
    "date_created": "2023-05-03T13:26:45.000",
    "date_modified": "2023-05-03T15:21:28.000",
    "request_status": "Pending",
    "responsible_agency": "Department of Public Works",
    "final_address": "MITHRA ST & ST ROCH AVE",
    "address_councildis": "D",
    "status": "Inspected",
    "rowid": "996470",
    "final_x": "3685197.1",
    "final_y": "552782.28",
    "longitude": "-90.0556475949007",
    "latitude": "30.013846658982413",
    "geocoded_column": {
      "latitude": "30.013846658982413",
      "longitude": "-90.0556475949007"
    }
  },
  {
    "service_request": "2023-996468",
    "request_type": "Parks & Parkways",
    "request_reason": "Request Tree Service (Right of Way/Public Property)",
    "date_created": "2023-05-03T13:16:32.000",
    "date_modified": "2023-05-03T15:38:23.000",
    "case_close_date": "2023-05-03T10:38:23.000",
    "request_status": "Closed",
    "responsible_agency": "Department of Parks & Parkway",
    "final_address": "5334 Tullis Dr",
    "address_councildis": "C",
    "status": "Duplicate Request",
    "rowid": "996468",
    "final_x": "3703548.15486",
    "final_y": "511979.035952",
    "longitude": "-89.99916915066947",
    "latitude": "29.901076978296985",
    "geocoded_column": {
      "latitude": "29.901076978296985",
      "longitude": "-89.99916915066947"
    }
  },
  {
    "service_request": "2023-996467",
    "request_type": "Trash/Recycling",
    "request_reason": "Order Trash Cart",
    "date_created": "2023-05-03T13:15:58.000",
    "date_modified": "2023-05-03T13:15:58.000",
    "request_status": "Pending",
    "responsible_agency": "Department of Sanitation",
    "final_address": "2183 N Dorgenois St",
    "address_councildis": "D",
    "status": "Assigned to Contractor",
    "contractor": "IV Waste",
    "rowid": "996467",
    "final_x": "3684359.1501",
    "final_y": "541477.51886",
    "longitude": "-90.05869240387678",
    "latitude": "29.9827882860526",
    "geocoded_column": {
      "latitude": "29.9827882860526",
      "longitude": "-90.05869240387678"
    }
  },
  {
    "service_request": "2023-996465",
    "request_type": "Trash/Recycling",
    "request_reason": "Request a Large Item Pick Up",
    "date_created": "2023-05-03T13:15:51.000",
    "date_modified": "2023-05-03T13:15:52.000",
    "request_status": "Pending",
    "responsible_agency": "Department of Sanitation",
    "final_address": "1423 Lamanche St",
    "address_councildis": "E",
    "status": "Assigned to Contractor",
    "contractor": "Waste Pro",
    "rowid": "996465",
    "final_x": "3698758.62775",
    "final_y": "534971.094534",
    "longitude": "-90.01344859377957",
    "latitude": "29.964449668344933",
    "geocoded_column": {
      "latitude": "29.964449668344933",
      "longitude": "-90.01344859377957"
    }
  },
  {
    "service_request": "2023-996464",
    "request_type": "Trash/Recycling",
    "request_reason": "Request a Large Item Pick Up",
    "date_created": "2023-05-03T13:15:18.000",
    "date_modified": "2023-05-03T13:15:20.000",
    "request_status": "Pending",
    "responsible_agency": "Department of Sanitation",
    "final_address": "1339 Lamanche St",
    "address_councildis": "E",
    "status": "Assigned to Contractor",
    "contractor": "Waste Pro",
    "rowid": "996464",
    "final_x": "3698697.82416",
    "final_y": "534730.019014",
    "longitude": "-90.01364937367012",
    "latitude": "29.96378872245283",
    "geocoded_column": {
      "latitude": "29.96378872245283",
      "longitude": "-90.01364937367012"
    }
  },