[
  {
    "service_request": "2023-1031773",
    "request_type": "Abandoned Vehicles",
    "request_reason": "Vehicle Blocking Your Driveway",
    "date_created": "2023-09-04T02:08:50.000",
    "date_modified": "2023-09-04T02:08:50.000",
    "request_status": "Pending",
    "responsible_agency": "Department of Public Works",
    "final_address": "1633 Bordeaux St",
    "address_councildis": "B",
    "status": "Pending",
    "rowid": "1031773",
    "final_x": "3669394.45505",
    "final_y": "521037.132665",
    "longitude": "-90.10664975292396",
    "latitude": "29.927033193771294",
    "geocoded_column": {
      "latitude": "29.927033193771294",
      "longitude": "-90.10664975292396"
    }
  },
  {
    "service_request": "2023-1031772",
    "request_type": "Tax and Revenue",
    "request_reason": "Sales Tax Question",
    "date_created": "2023-09-04T01:44:09.000",
    "date_modified": "2023-09-04T01:44:09.000",
    "request_status": "Pending",
    "responsible_agency": "Bureau of Revenue",
    "final_address": "1224 St Bernard Ave",
    "address_councildis": "C",
    "status": "Pending",
    "rowid": "1031772",
    "final_x": "3682916.67836",
    "final_y": "536293.198663",
    "longitude": "-90.06342992731621",
    "latitude": "29.968577253130643",
    "geocoded_column": {
      "latitude": "29.968577253130643",
      "longitude": "-90.06342992731621"
    }
  },
  {
    "service_request": "2023-1031771",
    "request_type": "Tax and Revenue",
    "request_reason": "Occupational License Tax",
    "date_created": "2023-09-04T01:43:40.000",
    "date_modified": "2023-09-04T01:43:40.000",
    "request_status": "Pending",
    "responsible_agency": "Bureau of Revenue",
    "final_address": "1224 St Bernard Ave",
    "address_councildis": "C",
    "status": "Pending",
    "rowid": "1031771",
    "final_x": "3682916.67836",
    "final_y": "536293.198663",
    "longitude": "-90.06342992731621",
    "latitude": "29.968577253130643",
    "geocoded_column": {
      "latitude": "29.968577253130643",
      "longitude": "-90.06342992731621"
    }
  },
  {
    "service_request": "2023-1031770",
    "request_type": "Safety & Permits",
    "request_reason": "Licenses & Permits",
    "date_created": "2023-09-04T01:43:12.000",
    "date_modified": "2023-09-04T01:43:12.000",
    "request_status": "Pending",
    "responsible_agency": "Safety and Permits",
    "final_address": "1224 St Bernard Ave",
    "address_councildis": "C",
    "status": "Pending",
    "rowid": "1031770",
    "final_x": "3682916.67836",
    "final_y": "536293.198663",
    "longitude": "-90.06342992731621",
    "latitude": "29.968577253130643",
    "geocoded_column": {
      "latitude": "29.968577253130643",
      "longitude": "-90.06342992731621"
    }
  },
  {
    "service_request": "2023-1031769",
    "request_type": "Trash/Recycling",
    "request_reason": "Illegal Dumping",
    "date_created": "2023-09-04T01:40:59.000",
    "date_modified": "2023-09-04T01:40:59.000",
    "request_status": "Pending",
    "responsible_agency": "Department of Sanitation",
    "final_address": "1662 Valmont St",
    "address_councildis": "B",
    "status": "Pending",
    "rowid": "1031769",
    "final_x": "3667832.85639",
    "final_y": "521780.610426",
    "longitude": "-90.11155430482025",
    "latitude": "29.92912339747289",
    "geocoded_column": {
      "latitude": "29.92912339747289",
      "longitude": "-90.11155430482025"
    }
  },
  {
    "service_request": "2023-1031768",
    "request_type": "Health Related Request",
    "request_reason": "Noise Ordinance Complaint",
    "date_created": "2023-09-04T01:39:04.000",
    "date_modified": "2023-09-04T01:39:04.000",
    "request_status": "Pending",
    "responsible_agency": "Health Department",
    "final_address": "1224 St Bernard Ave",
    "address_councildis": "C",
    "status": "Pending",
    "rowid": "1031768",
    "final_x": "3682916.67836",
    "final_y": "536293.198663",
    "longitude": "-90.06342992731621",
    "latitude": "29.968577253130643",
    "geocoded_column": {
      "latitude": "29.968577253130643",
      "longitude": "-90.06342992731621"
    }
  },
  {
    "service_request": "2023-1031767",
    "request_type": "Roads/Drainage",
    "request_reason": "Pothole",
    "date_created": "2023-09-04T00:46:23.000",
    "date_modified": "2023-09-04T00:46:23.000",
    "request_status": "Pending",
    "responsible_agency": "Department of Public Works",
    "final_address": "1660 Robert St",
    "address_councildis": "B",
    "status": "Pending",
    "rowid": "1031767",
    "final_x": "3668683.23905",
    "final_y": "521388.005817",
    "longitude": "-90.1088830476268",
    "latitude": "29.928018900042137",
    "geocoded_column": {
      "latitude": "29.928018900042137",
      "longitude": "-90.1088830476268"
    }
  },
  {
    "service_request": "2023-1031766",
    "request_type": "Roads/Drainage",
    "request_reason": "Pothole",
    "date_created": "2023-09-04T00:21:19.000",
    "date_modified": "2023-09-04T00:21:19.000",
    "request_status": "Pending",
    "responsible_agency": "Department of Public Works",
    "final_address": "1836 Valence St",
    "address_councildis": "B",
    "status": "Pending",
    "rowid": "1031766",
    "final_x": "3669548.88276",
    "final_y": "521749.076666",
    "longitude": "-90.10613819354518",
    "latitude": "29.928986265896693",
    "geocoded_column": {
      "latitude": "29.928986265896693",
      "longitude": "-90.10613819354518"
    }
  },
  {
    "service_request": "2023-1031765",
    "request_type": "Traffic Signals/Signs/Striping/Streetlights",
    "request_reason": "Street Light Outage/Malfunction",
    "date_created": "2023-09-03T22:32:58.000",
    "date_modified": "2023-09-03T22:32:59.000",
    "request_status": "Pending",
    "responsible_agency": "Department of Public Works",
    "final_address": "7644 Lucerne St",
    "address_councildis": "E",
    "status": "Assigned to Contractor",
    "contractor": "Legacy Professional Services",
    "rowid": "1031765",
    "final_x": "3710613.20683",
    "final_y": "565959.030307",
    "longitude": "-89.97485294563732",
    "latitude": "30.049273756240908",
    "geocoded_column": {
      "latitude": "30.049273756240908",
      "longitude": "-89.97485294563732"
    }
  },
  {
    "service_request": "2023-1031764",
    "request_type": "Roads/Drainage",
    "request_reason": "Street Flooding / Drainage",
    "date_created": "2023-09-03T22:31:40.000",
    "date_modified": "2023-09-03T22:31:40.000",
    "request_status": "Pending",
    "responsible_agency": "Department of Public Works",
    "final_address": "1600 Fats Domino Ave",
    "address_councildis": "E",
    "status": "Pending",
    "rowid": "1031764",
    "final_x": "3698423.39856",
    "final_y": "535762.119687",
    "longitude": "-90.01447846379962",
    "latitude": "29.96663531824476",
    "geocoded_column": {
      "latitude": "29.96663531824476",
      "longitude": "-90.01447846379962"
    }
  },
  {
    "service_request": "2023-1031763",
    "request_type": "Abandoned Vehicles",
    "request_reason": "Abandoned/Junk Vehicles",
    "date_created": "2023-09-03T22:30:23.000",
    "date_modified": "2023-09-03T22:30:23.000",
    "request_status": "Pending",
    "responsible_agency": "Department of Public Works",
    "final_address": "1102 Valence St, New Orleans, Louisiana, 70115",
    "address_councildis": "B",
    "status": "Pending",
    "rowid": "1031763",
    "final_x": "3669814.65114",
    "final_y": "519454.991735",
    "longitude": "-90.10537682290095",
    "latitude": "29.922670433598512",
    "geocoded_column": {
      "latitude": "29.922670433598512",
      "longitude": "-90.10537682290095"
    }
  },
  {
    "service_request": "2023-1031762",
    "request_type": "Property Maintenance",
    "request_reason": "Property Maintenance",
    "date_created": "2023-09-03T22:29:11.000",
    "date_modified": "2023-09-03T22:29:11.000",
    "request_status": "Pending",
    "responsible_agency": "Department of Code Enforcement",
    "final_address": "1102 Valence St, New Orleans, Louisiana, 70115",
    "address_councildis": "B",
    "status": "Pending",
    "rowid": "1031762",
    "final_x": "3669814.65114",
    "final_y": "519454.991735",
    "longitude": "-90.10537682290095",
    "latitude": "29.922670433598512",
    "geocoded_column": {
      "latitude": "29.922670433598512",
      "longitude": "-90.10537682290095"
    }
  },
  {
    "service_request": "2023-1031761",
    "request_type": "Traffic Signals/Signs/Striping/Streetlights",
    "request_reason": "Street Light Outage/Malfunction",
    "date_created": "2023-09-03T22:27:23.000",
    "date_modified": "2023-09-03T22:27:24.000",
    "request_status": "Pending",
    "responsible_agency": "Department of Public Works",
    "final_address": "7664 Lucerne St",
    "address_councildis": "E",
    "status": "Assigned to Contractor",
    "contractor": "Legacy Professional Services",
    "rowid": "1031761",
    "final_x": "3710769.654",
    "final_y": "565865.383843",
    "longitude": "-89.9743619923955",
    "latitude": "30.049011165396067",
    "geocoded_column": {
      "latitude": "30.049011165396067",
      "longitude": "-89.9743619923955"
    }
  },
  {
    "service_request": "2023-1031760",
    "request_type": "Roads/Drainage",
    "request_reason": "Pothole",
    "date_created": "2023-09-03T21:37:45.000",
    "date_modified": "2023-09-03T21:37:45.000",
    "request_status": "Pending",
    "responsible_agency": "Department of Public Works",
    "final_address": "4315 Pitt St",
    "address_councildis": "B",
    "status": "Pending",
    "rowid": "1031760",
    "final_x": "3671135.74062",
    "final_y": "520647.281017",
    "longitude": "-90.10116618834792",
    "latitude": "29.92590985375874",
    "geocoded_column": {
      "latitude": "29.92590985375874",
      "longitude": "-90.10116618834792"
    }
  },
  {
    "service_request": "2023-1031759",
    "request_type": "Roads/Drainage",
    "request_reason": "Pothole",
    "date_created": "2023-09-03T21:16:30.000",
    "date_modified": "2023-09-03T21:16:30.000",
    "request_status": "Pending",
    "responsible_agency": "Department of Public Works",
    "final_address": "4200 Perrier St",
    "address_councildis": "B",
    "status": "Pending",
    "rowid": "1031759",
    "final_x": "3671579.76411",
    "final_y": "520095.16844",
    "longitude": "-90.09978329705561",
    "latitude": "29.924378584144126",
    "geocoded_column": {
      "latitude": "29.924378584144126",
      "longitude": "-90.09978329705561"
    }
  },
  {
    "service_request": "2023-1031758",
    "request_type": "Traffic Signals/Signs/Striping/Streetlights",
    "request_reason": "Street Light Outage/Malfunction",
    "date_created": "2023-09-03T20:54:22.000",
    "date_modified": "2023-09-03T20:54:23.000",
    "request_status": "Pending",
    "responsible_agency": "Department of Public Works",
    "final_address": "3274 Ridgeway Blvd",
    "address_councildis": "E",
    "status": "Assigned to Contractor",
    "contractor": "Legacy Professional Services",
    "rowid": "1031758",
    "final_x": "3744795.09832",
    "final_y": "598456.256385",
    "longitude": "-89.86550391694674",
    "latitude": "30.13746767762111",
    "geocoded_column": {
      "latitude": "30.13746767762111",
      "longitude": "-89.86550391694674"
    }
  },
  {
    "service_request": "2023-1031757",
    "request_type": "Trash/Recycling",
    "request_reason": "MIssed Recycling Pick-Up",
    "date_created": "2023-09-03T20:40:36.000",
    "date_modified": "2023-09-03T20:40:37.000",
    "request_status": "Pending",
    "responsible_agency": "Department of Sanitation",
    "final_address": "8216 Fig St",
    "address_councildis": "A",
    "status": "Assigned to Contractor",
    "contractor": "Richards Disposal",
    "rowid": "1031757",
    "final_x": "3665904.06144",
    "final_y": "533452.210308",
    "longitude": "-90.11725212309928",
    "latitude": "29.961272943385364",
    "geocoded_column": {
      "latitude": "29.961272943385364",
      "longitude": "-90.11725212309928"
    }
  },
  {
    "service_request": "2023-1031755",
    "request_type": "Property Maintenance",
    "request_reason": "Property Maintenance",
    "date_created": "2023-09-03T20:28:34.000",
    "date_modified": "2023-09-03T20:28:34.000",
    "request_status": "Pending",
    "responsible_agency": "Department of Code Enforcement",
    "final_address": "4537 Mark Twain Dr",
    "address_councildis": "D",
    "status": "Pending",
    "rowid": "1031755",
    "final_x": "3691559.28899",
    "final_y": "550963.099221",
    "longitude": "-90.03561151114029",
    "latitude": "30.008647984865522",
    "geocoded_column": {
      "latitude": "30.008647984865522",
      "longitude": "-90.03561151114029"
    }
  },
  {
    "service_request": "2023-1031754",
    "request_type": "Trash/Recycling",
    "request_reason": "Replace Trash Cart",
    "date_created": "2023-09-03T20:25:13.000",
    "date_modified": "2023-09-03T20:25:14.000",
    "request_status": "Pending",
    "responsible_agency": "Department of Sanitation",
    "final_address": "11409 Melvin Pl",
    "address_councildis": "E",
    "status": "Assigned to Contractor",
    "contractor": "Waste Pro",
    "rowid": "1031754",
    "final_x": "3717707.99244",
    "final_y": "561605.063263",
    "longitude": "-89.95259519118791",
    "latitude": "30.03706893162001",
    "geocoded_column": {
      "latitude": "30.03706893162001",
      "longitude": "-89.95259519118791"
    }
  },
  {
    "service_request": "2023-1031753",
    "request_type": "Property Maintenance",
    "request_reason": "Property Maintenance",
    "date_created": "2023-09-03T20:08:34.000",
    "date_modified": "2023-09-03T20:08:34.000",
    "request_status": "Pending",
    "responsible_agency": "Department of Code Enforcement",
    "final_address": "4537 Mark Twain Dr",
    "address_councildis": "D",
    "status": "Pending",
    "rowid": "1031753",
    "final_x": "3691559.28899",
    "final_y": "550963.099221",
    "longitude": "-90.03561151114029",
    "latitude": "30.008647984865522",
    "geocoded_column": {
      "latitude": "30.008647984865522",
      "longitude": "-90.03561151114029"
    }
  },
  {
    "service_request": "2023-1031752",
    "request_type": "Abandoned Vehicles",
    "request_reason": "Abandoned/Junk Vehicles",
    "date_created": "2023-09-03T19:57:06.000",
    "date_modified": "2023-09-03T19:57:06.000",
    "request_status": "Pending",
    "responsible_agency": "Department of Public Works",
    "final_address": "2001 Simon Bolivar Ave",
    "address_councildis": "B",
    "status": "Pending",
    "rowid": "1031752",
    "final_x": "3676717.90139",
    "final_y": "525952.084605",
    "longitude": "-90.08336227086328",
    "latitude": "29.940330095023615",
    "geocoded_column": {
      "latitude": "29.940330095023615",
      "longitude": "-90.08336227086328"
    }
  },
  {
    "service_request": "2023-1031751",
    "request_type": "Trash/Recycling",
    "request_reason": "Request a Large Item Pick Up",
    "date_created": "2023-09-03T19:56:58.000",
    "date_modified": "2023-09-03T19:56:59.000",
    "request_status": "Pending",
    "responsible_agency": "Department of Sanitation",
    "final_address": "601 Exposition Blvd",
    "address_councildis": "A",
    "status": "Assigned to Contractor",
    "contractor": "Richards Disposal",
    "rowid": "1031751",
    "final_x": "3662905.93146",
    "final_y": "519277.023479",
    "longitude": "-90.12719091744219",
    "latitude": "29.92238285009363",
    "geocoded_column": {
      "latitude": "29.92238285009363",
      "longitude": "-90.12719091744219"
    }
  },
  {
    "service_request": "2023-1031750",
    "request_type": "Abandoned Vehicles",
    "request_reason": "Abandoned/Junk Vehicles",
    "date_created": "2023-09-03T19:43:58.000",
    "date_modified": "2023-09-03T19:43:58.000",
    "request_status": "Pending",
    "responsible_agency": "Department of Public Works",
    "final_address": "PLEASANT ST & LAUREL ST",
    "address_councildis": "B",
    "status": "Pending",
    "rowid": "1031750",
    "final_x": "3675887.5",
    "final_y": "519210.68",
    "longitude": "-90.0862156326923",
    "latitude": "29.921818307721793",
    "geocoded_column": {
      "latitude": "29.921818307721793",
      "longitude": "-90.0862156326923"
    }
  },
  {
    "service_request": "2023-1031749",
    "request_type": "Abandoned Vehicles",
    "request_reason": "Abandoned/Junk Vehicles",
    "date_created": "2023-09-03T19:41:53.000",
    "date_modified": "2023-09-03T19:41:53.000",
    "request_status": "Pending",
    "responsible_agency": "Department of Public Works",
    "final_address": "PLEASANT ST & LAUREL ST",
    "address_councildis": "B",
    "status": "Pending",
    "rowid": "1031749",
    "final_x": "3675887.5",
    "final_y": "519210.68",
    "longitude": "-90.0862156326923",
    "latitude": "29.921818307721793",
    "geocoded_column": {
      "latitude": "29.921818307721793",
      "longitude": "-90.0862156326923"
    }
  },
  {
    "service_request": "2023-1031748",
    "request_type": "Traffic Signals/Signs/Striping/Streetlights",
    "request_reason": "Street Light Outage/Malfunction",
    "date_created": "2023-09-03T19:34:50.000",
    "date_modified": "2023-09-03T19:34:51.000",
    "request_status": "Pending",
    "responsible_agency": "Department of Public Works",
    "final_address": "2100 Almonaster Ave",
    "address_councildis": "D",
    "status": "Assigned to Contractor",
    "contractor": "Legacy Professional Services",
    "rowid": "1031748",
    "final_x": "3687843.45494",
    "final_y": "540346.737867",
    "longitude": "-90.04772731535871",
    "latitude": "29.979572003659232",
    "geocoded_column": {
      "latitude": "29.979572003659232",
      "longitude": "-90.04772731535871"
    }
  },
  {
    "service_request": "2023-1031747",
    "request_type": "Trash/Recycling",
    "request_reason": "Request a Large Item Pick Up",
    "date_created": "2023-09-03T19:33:49.000",
    "date_modified": "2023-09-03T19:33:50.000",
    "request_status": "Pending",
    "responsible_agency": "Department of Sanitation",
    "final_address": "10136 Rosewood Pl",
    "address_councildis": "E",
    "status": "Assigned to Contractor",
    "contractor": "Waste Pro",
    "rowid": "1031747",
    "final_x": "3713002.49291",
    "final_y": "557595.788123",
    "longitude": "-89.96761647546153",
    "latitude": "30.02620008874544",
    "geocoded_column": {
      "latitude": "30.02620008874544",
      "longitude": "-89.96761647546153"
    }
  },
  {
    "service_request": "2023-1031746",
    "request_type": "Traffic Signals/Signs/Striping/Streetlights",
    "request_reason": "Street Name Sign Damaged or Missing",
    "date_created": "2023-09-03T19:17:39.000",
    "date_modified": "2023-09-03T19:17:39.000",
    "request_status": "Pending",
    "responsible_agency": "Department of Public Works",
    "final_address": "BREVARD AVE & MORRISON RD",
    "address_councildis": "E",
    "status": "Pending",
    "rowid": "1031746",
    "final_x": "3706853.1",
    "final_y": "562563.68",
    "longitude": "-89.98686317724372",
    "latitude": "30.04005993481337",
    "geocoded_column": {
      "latitude": "30.04005993481337",
      "longitude": "-89.98686317724372"
    }
  },
  {
    "service_request": "2023-1031745",
    "request_type": "Abandoned Vehicles",
    "request_reason": "Abandoned/Junk Vehicles",
    "date_created": "2023-09-03T19:12:18.000",
    "date_modified": "2023-09-03T19:12:18.000",
    "request_status": "Pending",
    "responsible_agency": "Department of Public Works",
    "final_address": "1437 N Derbigny St",
    "address_councildis": "D",
    "status": "Pending",
    "rowid": "1031745",
    "final_x": "3681150.26613",
    "final_y": "537118.165768",
    "longitude": "-90.06897960146306",
    "latitude": "29.970899339466794",
    "geocoded_column": {
      "latitude": "29.970899339466794",
      "longitude": "-90.06897960146306"
    }
  },
  {
    "service_request": "2023-1031744",
    "request_type": "Roads/Drainage",
    "request_reason": "Street Flooding / Drainage",
    "date_created": "2023-09-03T19:06:56.000",
    "date_modified": "2023-09-03T19:06:56.000",
    "request_status": "Pending",
    "responsible_agency": "Department of Public Works",
    "final_address": "8133 Cohn St",
    "address_councildis": "A",
    "status": "Pending",
    "rowid": "1031744",
    "final_x": "3663452.04128",
    "final_y": "530411.346498",
    "longitude": "-90.12509645857202",
    "latitude": "29.952982883627534",
    "geocoded_column": {
      "latitude": "29.952982883627534",
      "longitude": "-90.12509645857202"
    }
  },
  {
    "service_request": "2023-1031743",
    "request_type": "Trash/Recycling",
    "request_reason": "Request a Large Item Pick Up",
    "date_created": "2023-09-03T19:01:02.000",
    "date_modified": "2023-09-03T19:01:03.000",
    "request_status": "Pending",
    "responsible_agency": "Department of Sanitation",
    "final_address": "45 Neron Pl",
    "address_councildis": "A",
    "status": "Assigned to Contractor",
    "contractor": "Richards Disposal",
    "rowid": "1031743",
    "final_x": "3665506.46138",
    "final_y": "530438.817346",
    "longitude": "-90.11860855704514",
    "latitude": "29.952998693768492",
    "geocoded_column": {
      "latitude": "29.952998693768492",
      "longitude": "-90.11860855704514"
    }
  },
  {
    "service_request": "2023-1031742",
    "request_type": "Trash/Recycling",
    "request_reason": "Request a Large Item Pick Up",
    "date_created": "2023-09-03T18:48:14.000",
    "date_modified": "2023-09-03T18:48:14.000",
    "request_status": "Pending",
    "responsible_agency": "Department of Sanitation",
    "final_address": "2925 Elmwood Park Dr",
    "address_councildis": "C",
    "status": "Assigned to Contractor",
    "contractor": "Richards Disposal",
    "rowid": "1031742",
    "final_x": "3693390.98896",
    "final_y": "519648.89964",
    "longitude": "-90.03094907934016",
    "latitude": "29.922487832150946",
    "geocoded_column": {
      "latitude": "29.922487832150946",
      "longitude": "-90.03094907934016"
    }
  },
  {
    "service_request": "2023-1031741",
    "request_type": "Traffic Signals/Signs/Striping/Streetlights",
    "request_reason": "Street Name Sign Damaged or Missing",
    "date_created": "2023-09-03T18:34:01.000",
    "date_modified": "2023-09-03T18:34:01.000",
    "request_status": "Pending",
    "responsible_agency": "Department of Public Works",
    "final_address": "TRAPIER AVE & MORRISON RD",
    "address_councildis": "E",
    "status": "Pending",
    "rowid": "1031741",
    "final_x": "3707067.4",
    "final_y": "562681.78",
    "longitude": "-89.98618153898612",
    "latitude": "30.040377737059277",
    "geocoded_column": {
      "latitude": "30.040377737059277",
      "longitude": "-89.98618153898612"
    }
  },
  {
    "service_request": "2023-1031740",
    "request_type": "Traffic Signals/Signs/Striping/Streetlights",
    "request_reason": "Street Name Sign Damaged or Missing",
    "date_created": "2023-09-03T18:25:12.000",
    "date_modified": "2023-09-03T18:25:12.000",
    "request_status": "Pending",
    "responsible_agency": "Department of Public Works",
    "final_address": "LUCERNE ST & MORRISON RD & WRIGHT RD",
    "address_councildis": "E",
    "status": "Pending",
    "rowid": "1031740",
    "final_x": "3711342.1",
    "final_y": "565182.68",
    "longitude": "-89.97257836152811",
    "latitude": "30.047115325517222",
    "geocoded_column": {
      "latitude": "30.047115325517222",
      "longitude": "-89.97257836152811"
    }
  },
  {
    "service_request": "2023-1031739",
    "request_type": "Traffic Signals/Signs/Striping/Streetlights",
    "request_reason": "Street Light Outage/Malfunction",
    "date_created": "2023-09-03T18:10:57.000",
    "date_modified": "2023-09-03T18:10:58.000",
    "request_status": "Pending",
    "responsible_agency": "Department of Public Works",
    "final_address": "ST CHARLES AVE & NASHVILLE AVE",
    "address_councildis": "A",
    "status": "Assigned to Contractor",
    "contractor": "Legacy Professional Services",
    "rowid": "1031739",
    "final_x": "3666231.1",
    "final_y": "522124.98",
    "longitude": "-90.11659921430268",
    "latitude": "29.93011716947148",
    "geocoded_column": {
      "latitude": "29.93011716947148",
      "longitude": "-90.11659921430268"
    }
  },
  {
    "service_request": "2023-1031738",
    "request_type": "Trash/Recycling",
    "request_reason": "Replace Trash Cart",
    "date_created": "2023-09-03T17:45:47.000",
    "date_modified": "2023-09-03T17:45:48.000",
    "request_status": "Pending",
    "responsible_agency": "Department of Sanitation",
    "final_address": "909 Lamarque St",
    "address_councildis": "C",
    "status": "Assigned to Contractor",
    "contractor": "Richards Disposal",
    "rowid": "1031738",
    "final_x": "3688163.48995",
    "final_y": "526737.274174",
    "longitude": "-90.04719898877468",
    "latitude": "29.942140821407836",
    "geocoded_column": {
      "latitude": "29.942140821407836",
      "longitude": "-90.04719898877468"
    }
  },
  {
    "service_request": "2023-1031737",
    "request_type": "Roads/Drainage",
    "request_reason": "Accessibility Ramps, Curbs and Sidewalk Repair",
    "date_created": "2023-09-03T17:31:07.000",
    "date_modified": "2023-09-03T17:31:07.000",
    "request_status": "Pending",
    "responsible_agency": "Department of Public Works",
    "final_address": "632 First St",
    "address_councildis": "B",
    "status": "Pending",
    "rowid": "1031737",
    "final_x": "3678888.13218",
    "final_y": "520203.057144",
    "longitude": "-90.076709558527",
    "latitude": "29.924456881159387",
    "geocoded_column": {
      "latitude": "29.924456881159387",
      "longitude": "-90.076709558527"
    }
  },
  {
    "service_request": "2023-1031736",
    "request_type": "Property Maintenance",
    "request_reason": "Property Maintenance",
    "date_created": "2023-09-03T17:18:36.000",
    "date_modified": "2023-09-03T17:18:36.000",
    "request_status": "Pending",
    "responsible_agency": "Department of Code Enforcement",
    "final_address": "635 N Scott St",
    "address_councildis": "A",
    "status": "Pending",
    "rowid": "1031736",
    "final_x": "3673034.16641",
    "final_y": "539562.001418",
    "longitude": "-90.09452788433894",
    "latitude": "29.97786280846396",
    "geocoded_column": {
      "latitude": "29.97786280846396",
      "longitude": "-90.09452788433894"
    }
  },
  {
    "service_request": "2023-1031735",
    "request_type": "Property Maintenance",
    "request_reason": "Property Maintenance",
    "date_created": "2023-09-03T17:16:30.000",
    "date_modified": "2023-09-03T17:16:30.000",
    "request_status": "Pending",
    "responsible_agency": "Department of Code Enforcement",
    "final_address": "633 N Scott St",
    "address_councildis": "A",
    "status": "Pending",
    "rowid": "1031735",
    "final_x": "3672987.90638",
    "final_y": "539499.06497",
    "longitude": "-90.09467613864246",
    "latitude": "29.97769112978986",
    "geocoded_column": {
      "latitude": "29.97769112978986",
      "longitude": "-90.09467613864246"
    }
  },
  {
    "service_request": "2023-1031734",
    "request_type": "Trash/Recycling",
    "request_reason": "Request a Large Item Pick Up",
    "date_created": "2023-09-03T17:00:35.000",
    "date_modified": "2023-09-03T17:00:36.000",
    "request_status": "Pending",
    "responsible_agency": "Department of Sanitation",
    "final_address": "6131 Dover Pl",
    "address_councildis": "C",
    "status": "Assigned to Contractor",
    "contractor": "Richards Disposal",
    "rowid": "1031734",
    "final_x": "3706760.00747",
    "final_y": "519020.310839",
    "longitude": "-89.98877213687213",
    "latitude": "29.920334837084024",
    "geocoded_column": {
      "latitude": "29.920334837084024",
      "longitude": "-89.98877213687213"
    }
  },
  {
    "service_request": "2023-1031733",
    "request_type": "Trash/Recycling",
    "request_reason": "Request a Large Item Pick Up",
    "date_created": "2023-09-03T16:55:22.000",
    "date_modified": "2023-09-03T16:55:23.000",
    "request_status": "Pending",
    "responsible_agency": "Department of Sanitation",
    "final_address": "2233 Marengo St",
    "address_councildis": "B",
    "status": "Assigned to Contractor",
    "contractor": "Richards Disposal",
    "rowid": "1031733",
    "final_x": "3671758.07796",
    "final_y": "523411.239099",
    "longitude": "-90.09910766904835",
    "latitude": "29.933491433924548",
    "geocoded_column": {
      "latitude": "29.933491433924548",
      "longitude": "-90.09910766904835"
    }
  },
  {
    "service_request": "2023-1031730",
    "request_type": "Trash/Recycling",
    "request_reason": "Request a Large Item Pick Up",
    "date_created": "2023-09-03T16:19:30.000",
    "date_modified": "2023-09-03T16:19:31.000",
    "request_status": "Pending",
    "responsible_agency": "Department of Sanitation",
    "final_address": "8140 Zimple St",
    "address_councildis": "A",
    "status": "Assigned to Contractor",
    "contractor": "Richards Disposal",
    "rowid": "1031730",
    "final_x": "3661485.85178",
    "final_y": "528281.0416",
    "longitude": "-90.13137541337191",
    "latitude": "29.947182089602926",
    "geocoded_column": {
      "latitude": "29.947182089602926",
      "longitude": "-90.13137541337191"
    }
  },
  {
    "service_request": "2023-1031729",
    "request_type": "Trash/Recycling",
    "request_reason": "Request a Large Item Pick Up",
    "date_created": "2023-09-03T16:08:50.000",
    "date_modified": "2023-09-03T16:08:51.000",
    "request_status": "Pending",
    "responsible_agency": "Department of Sanitation",
    "final_address": "3530 Rue Mignon",
    "address_councildis": "C",
    "status": "Assigned to Contractor",
    "contractor": "Richards Disposal",
    "rowid": "1031729",
    "final_x": "3703388.43287",
    "final_y": "517644.477366",
    "longitude": "-89.99946508049301",
    "latitude": "29.91666012332781",
    "geocoded_column": {
      "latitude": "29.91666012332781",
      "longitude": "-89.99946508049301"
    }
  },
  {
    "service_request": "2023-1031728",
    "request_type": "Traffic Signals/Signs/Striping/Streetlights",
    "request_reason": "Traffic Sign Missing/Damaged",
    "date_created": "2023-09-03T16:02:59.000",
    "date_modified": "2023-09-03T16:02:59.000",
    "request_status": "Pending",
    "responsible_agency": "Department of Public Works",
    "final_address": "6136 Perrier St",
    "address_councildis": "A",
    "status": "Pending",
    "rowid": "1031728",
    "final_x": "3664372.85024",
    "final_y": "520758.442617",
    "longitude": "-90.12251101784565",
    "latitude": "29.926413748434932",
    "geocoded_column": {
      "latitude": "29.926413748434932",
      "longitude": "-90.12251101784565"
    }
  },
  {
    "service_request": "2023-1031727",
    "request_type": "Traffic Signals/Signs/Striping/Streetlights",
    "request_reason": "Street Light Outage/Malfunction",
    "date_created": "2023-09-03T15:59:28.000",
    "date_modified": "2023-09-03T15:59:29.000",
    "request_status": "Pending",
    "responsible_agency": "Department of Public Works",
    "final_address": "8000 BLK Sycamore St",
    "address_councildis": "A",
    "status": "Assigned to Contractor",
    "contractor": "Legacy Professional Services",
    "rowid": "1031727",
    "final_x": "3664538.81885",
    "final_y": "530778.633768",
    "longitude": "-90.1216526140947",
    "latitude": "29.953961249689772",
    "geocoded_column": {
      "latitude": "29.953961249689772",
      "longitude": "-90.1216526140947"
    }
  },
  {
    "service_request": "2023-1031726",
    "request_type": "Traffic Signals/Signs/Striping/Streetlights",
    "request_reason": "Street Name Sign Damaged or Missing",
    "date_created": "2023-09-03T15:49:14.000",
    "date_modified": "2023-09-03T15:49:14.000",
    "request_status": "Pending",
    "responsible_agency": "Department of Public Works",
    "final_address": "7901 Lamb Rd",
    "address_councildis": "E",
    "status": "Pending",
    "rowid": "1031726",
    "final_x": "3696814.51101",
    "final_y": "560087.564637",
    "longitude": "-90.018677919151",
    "latitude": "30.03357210580188",
    "geocoded_column": {
      "latitude": "30.03357210580188",
      "longitude": "-90.018677919151"
    }
  },
  {
    "service_request": "2023-1031725",
    "request_type": "Roads/Drainage",
    "request_reason": "Catch Basin - Clogged",
    "date_created": "2023-09-03T15:45:42.000",
    "date_modified": "2023-09-03T15:45:43.000",
    "request_status": "Pending",
    "responsible_agency": "Department of Public Works",
    "final_address": "207 S Pierce St",
    "address_councildis": "A",
    "status": "Pending",
    "rowid": "1031725",
    "final_x": "3671113.28743",
    "final_y": "537703.842184",
    "longitude": "-90.1006578376127",
    "latitude": "29.97281046211514",
    "geocoded_column": {
      "latitude": "29.97281046211514",
      "longitude": "-90.1006578376127"
    }
  },
  {
    "service_request": "2023-1031724",
    "request_type": "Trash/Recycling",
    "request_reason": "Request a Large Item Pick Up",
    "date_created": "2023-09-03T15:41:14.000",
    "date_modified": "2023-09-03T15:41:15.000",
    "request_status": "Pending",
    "responsible_agency": "Department of Sanitation",
    "final_address": "720 Belleville St",
    "address_councildis": "C",
    "status": "Assigned to Contractor",
    "contractor": "Richards Disposal",
    "rowid": "1031724",
    "final_x": "3687855.88233",
    "final_y": "528912.802112",
    "longitude": "-90.04809312808595",
    "latitude": "29.94813227262319",
    "geocoded_column": {
      "latitude": "29.94813227262319",
      "longitude": "-90.04809312808595"
    }
  },
  {
    "service_request": "2023-1031723",
    "request_type": "Trash/Recycling",
    "request_reason": "Request a Large Item Pick Up",
    "date_created": "2023-09-03T15:36:51.000",
    "date_modified": "2023-09-03T15:36:52.000",
    "request_status": "Pending",
    "responsible_agency": "Department of Sanitation",
    "final_address": "310 Florida Blvd, New Orleans, Louisiana, 70124",
    "address_councildis": "A",
    "status": "Assigned to Contractor",
    "contractor": "IV Waste",
    "rowid": "1031723",
    "final_x": "3666959.51572",
    "final_y": "545426.857744",
    "longitude": "-90.11351662208831",
    "latitude": "29.99416835901886",
    "geocoded_column": {
      "latitude": "29.99416835901886",
      "longitude": "-90.11351662208831"
    }
  },
  {
    "service_request": "2023-1031722",
    "request_type": "Roads/Drainage",
    "request_reason": "Pothole",
    "date_created": "2023-09-03T15:36:47.000",
    "date_modified": "2023-09-03T15:36:47.000",
    "request_status": "Pending",
    "responsible_agency": "Department of Public Works",
    "final_address": "1315 Peniston St",
    "address_councildis": "B",
    "status": "Pending",
    "rowid": "1031722",
    "final_x": "3673101.31451",
    "final_y": "520423.11276",
    "longitude": "-90.09496908964098",
    "latitude": "29.925235197927364",
    "geocoded_column": {
      "latitude": "29.925235197927364",
      "longitude": "-90.09496908964098"
    }
  },
  {
    "service_request": "2023-1031721",
    "request_type": "Roads/Drainage",
    "request_reason": "Pothole",
    "date_created": "2023-09-03T15:32:38.000",
    "date_modified": "2023-09-03T15:32:38.000",
    "request_status": "Pending",
    "responsible_agency": "Department of Public Works",
    "final_address": "1312 Milan St",
    "address_councildis": "B",
    "status": "Pending",
    "rowid": "1031721",
    "final_x": "3671625.82823",
    "final_y": "520286.919608",
    "longitude": "-90.09963137110304",
    "latitude": "29.92490447494246",
    "geocoded_column": {
      "latitude": "29.92490447494246",
      "longitude": "-90.09963137110304"
    }
  },
  {
    "service_request": "2023-1031720",
    "request_type": "Roads/Drainage",
    "request_reason": "Pothole",
    "date_created": "2023-09-03T15:25:15.000",
    "date_modified": "2023-09-03T15:25:15.000",
    "request_status": "Pending",
    "responsible_agency": "Department of Public Works",
    "final_address": "1421 Constantinople St",
    "address_councildis": "B",
    "status": "Pending",
    "rowid": "1031720",
    "final_x": "3672433.24257",
    "final_y": "520667.657465",
    "longitude": "-90.09706965638372",
    "latitude": "29.925927453713577",
    "geocoded_column": {
      "latitude": "29.925927453713577",
      "longitude": "-90.09706965638372"
    }
  },
  {
    "service_request": "2023-1031719",
    "request_type": "Roads/Drainage",
    "request_reason": "Pothole",
    "date_created": "2023-09-03T15:25:08.000",
    "date_modified": "2023-09-03T15:25:08.000",
    "request_status": "Pending",
    "responsible_agency": "Department of Public Works",
    "final_address": "5717 Hurst St",
    "address_councildis": "A",
    "status": "Pending",
    "rowid": "1031719",
    "final_x": "3666238.39418",
    "final_y": "521686.968249",
    "longitude": "-90.11659087061466",
    "latitude": "29.928912562979253",
    "geocoded_column": {
      "latitude": "29.928912562979253",
      "longitude": "-90.11659087061466"
    }
  },
  {
    "service_request": "2023-1031718",
    "request_type": "Roads/Drainage",
    "request_reason": "Pothole",
    "date_created": "2023-09-03T15:20:40.000",
    "date_modified": "2023-09-03T15:20:40.000",
    "request_status": "Pending",
    "responsible_agency": "Department of Public Works",
    "final_address": "1423 General Pershing St",
    "address_councildis": "B",
    "status": "Pending",
    "rowid": "1031718",
    "final_x": "3671330.69185",
    "final_y": "520571.244024",
    "longitude": "-90.1005533659415",
    "latitude": "29.925695010510914",
    "geocoded_column": {
      "latitude": "29.925695010510914",
      "longitude": "-90.1005533659415"
    }
  },
  {
    "service_request": "2023-1031717",
    "request_type": "Roads/Drainage",
    "request_reason": "Pothole",
    "date_created": "2023-09-03T15:15:16.000",
    "date_modified": "2023-09-03T15:15:16.000",
    "request_status": "Pending",
    "responsible_agency": "Department of Public Works",
    "final_address": "4216 Chestnut St",
    "address_councildis": "B",
    "status": "Pending",
    "rowid": "1031717",
    "final_x": "3671574.31393",
    "final_y": "519539.203703",
    "longitude": "-90.09981939416457",
    "latitude": "29.922850019854593",
    "geocoded_column": {
      "latitude": "29.922850019854593",
      "longitude": "-90.09981939416457"
    }
  },
  {
    "service_request": "2023-1031716",
    "request_type": "Trash/Recycling",
    "request_reason": "Replace Trash Cart",
    "date_created": "2023-09-03T15:09:50.000",
    "date_modified": "2023-09-03T15:09:51.000",
    "request_status": "Pending",
    "responsible_agency": "Department of Sanitation",
    "status": "Assigned to Contractor",
    "rowid": "1031716",
    "longitude": "0.0",
    "latitude": "0.0",
    "geocoded_column": {
      "latitude": "0.0",
      "longitude": "0.0"
    }
  },
  {
    "service_request": "2023-1031715",
    "request_type": "Property Maintenance",
    "request_reason": "Property Maintenance",
    "date_created": "2023-09-03T15:09:07.000",
    "date_modified": "2023-09-03T15:09:07.000",
    "request_status": "Pending",
    "responsible_agency": "Department of Code Enforcement",
    "final_address": "232 S Murat St",
    "address_councildis": "A",
    "status": "Pending",
    "rowid": "1031715",
    "final_x": "3669300.7689",
    "final_y": "538812.372617",
    "longitude": "-90.10634463967642",
    "latitude": "29.975912038331177",
    "geocoded_column": {
      "latitude": "29.975912038331177",
      "longitude": "-90.10634463967642"
    }
  },
  {
    "service_request": "2023-1031714",
    "request_type": "Trash/Recycling",
    "request_reason": "Request a Large Item Pick Up",
    "date_created": "2023-09-03T15:01:49.000",
    "date_modified": "2023-09-03T15:01:49.000",
    "request_status": "Pending",
    "responsible_agency": "Department of Sanitation",
    "final_address": "2713 Marais St",
    "address_councildis": "C",
    "status": "Assigned to Contractor",
    "contractor": "IV Waste",
    "rowid": "1031714",
    "final_x": "3687643.15222",
    "final_y": "536745.419335",
    "longitude": "-90.04848749287028",
    "latitude": "29.969675822375024",
    "geocoded_column": {
      "latitude": "29.969675822375024",
      "longitude": "-90.04848749287028"
    }
  },
  {
    "service_request": "2023-1031713",
    "request_type": "Roads/Drainage",
    "request_reason": "Pothole",
    "date_created": "2023-09-03T15:01:26.000",
    "date_modified": "2023-09-03T15:01:26.000",
    "request_status": "Pending",
    "responsible_agency": "Department of Public Works",
    "final_address": "LAUREL ST & LEONTINE ST",
    "address_councildis": "B",
    "status": "Pending",
    "rowid": "1031713",
    "final_x": "3667059.4",
    "final_y": "517891.08",
    "longitude": "-90.11412661198831",
    "latitude": "29.918451070309054",
    "geocoded_column": {
      "latitude": "29.918451070309054",
      "longitude": "-90.11412661198831"
    }
  },
  {
    "service_request": "2023-1031712",
    "request_type": "Abandoned Vehicles",
    "request_reason": "Abandoned/Junk Vehicles",
    "date_created": "2023-09-03T14:51:31.000",
    "date_modified": "2023-09-03T14:51:31.000",
    "request_status": "Pending",
    "responsible_agency": "Department of Public Works",
    "final_address": "5317 St Charles Ave",
    "address_councildis": "B",
    "status": "Pending",
    "rowid": "1031712",
    "final_x": "3667752.33588",
    "final_y": "521447.037625",
    "longitude": "-90.11181971898309",
    "latitude": "29.92820853882004",
    "geocoded_column": {
      "latitude": "29.92820853882004",
      "longitude": "-90.11181971898309"
    }
  },
  {
    "service_request": "2023-1031711",
    "request_type": "Abandoned Vehicles",
    "request_reason": "Abandoned/Junk Vehicles",
    "date_created": "2023-09-03T14:38:03.000",
    "date_modified": "2023-09-03T14:38:03.000",
    "request_status": "Pending",
    "responsible_agency": "Department of Public Works",
    "final_address": "300 BLK N Claiborne Ave",
    "address_councildis": "B",
    "status": "Pending",
    "rowid": "1031711",
    "final_x": "3678935.02726",
    "final_y": "533604.424049",
    "longitude": "-90.07609736511225",
    "latitude": "29.961304773702416",
    "geocoded_column": {
      "latitude": "29.961304773702416",
      "longitude": "-90.07609736511225"
    }
  },
  {
    "service_request": "2023-1031710",
    "request_type": "Roads/Drainage",
    "request_reason": "Debris in Roadway",
    "date_created": "2023-09-03T14:35:43.000",
    "date_modified": "2023-09-03T14:35:43.000",
    "request_status": "Pending",
    "responsible_agency": "Department of Public Works",
    "final_address": "4807 Carondelet St",
    "address_councildis": "B",
    "status": "Pending",
    "rowid": "1031710",
    "final_x": "3669233.08615",
    "final_y": "521157.452217",
    "longitude": "-90.10715508955495",
    "latitude": "29.927368783411108",
    "geocoded_column": {
      "latitude": "29.927368783411108",
      "longitude": "-90.10715508955495"
    }
  },
  {
    "service_request": "2023-1031709",
    "request_type": "Roads/Drainage",
    "request_reason": "Pothole",
    "date_created": "2023-09-03T14:35:23.000",
    "date_modified": "2023-09-03T14:35:23.000",
    "request_status": "Pending",
    "responsible_agency": "Department of Public Works",
    "final_address": "5902 Hurst St",
    "address_councildis": "A",
    "status": "Pending",
    "rowid": "1031709",
    "final_x": "3665757.45908",
    "final_y": "521688.420601",
    "longitude": "-90.11810904350683",
    "latitude": "29.92893059016598",
    "geocoded_column": {
      "latitude": "29.92893059016598",
      "longitude": "-90.11810904350683"
    }
  },
  {
    "service_request": "2023-1031708",
    "request_type": "Abandoned Vehicles",
    "request_reason": "Abandoned/Junk Vehicles",
    "date_created": "2023-09-03T14:27:55.000",
    "date_modified": "2023-09-03T14:29:25.000",
    "request_status": "Closed",
    "responsible_agency": "Department of Public Works",
    "final_address": "LOYOLA AVE & CALLIOPE ST",
    "address_councildis": "B",
    "status": "Inspected",
    "rowid": "1031708",
    "final_x": "3678483.23",
    "final_y": "527674.85",
    "longitude": "-90.07772924389585",
    "latitude": "29.94501405841703",
    "geocoded_column": {
      "latitude": "29.94501405841703",
      "longitude": "-90.07772924389585"
    }
  },
  {
    "service_request": "2023-1031707",
    "request_type": "Trash/Recycling",
    "request_reason": "Replace Recycling Cart",
    "date_created": "2023-09-03T14:20:59.000",
    "date_modified": "2023-09-03T14:20:59.000",
    "request_status": "Pending",
    "responsible_agency": "Department of Sanitation",
    "final_address": "7811 St Charles Ave",
    "address_councildis": "A",
    "status": "Pending",
    "rowid": "1031707",
    "final_x": "3661369.38669",
    "final_y": "526185.045118",
    "longitude": "-90.13181253396668",
    "latitude": "29.941422125431757",
    "geocoded_column": {
      "latitude": "29.941422125431757",
      "longitude": "-90.13181253396668"
    }
  },
  {
    "service_request": "2023-1031705",
    "request_type": "Trash/Recycling",
    "request_reason": "Request a Large Item Pick Up",
    "date_created": "2023-09-03T13:21:22.000",
    "date_modified": "2023-09-03T13:21:23.000",
    "request_status": "Pending",
    "responsible_agency": "Department of Sanitation",
    "final_address": "2471 Verbena St",
    "address_councildis": "D",
    "status": "Assigned to Contractor",
    "contractor": "IV Waste",
    "rowid": "1031705",
    "final_x": "3686114.60822",
    "final_y": "547769.592786",
    "longitude": "-90.0529257200556",
    "latitude": "30.000035429837247",
    "geocoded_column": {
      "latitude": "30.000035429837247",
      "longitude": "-90.0529257200556"
    }
  },
  {
    "service_request": "2023-1031704",
    "request_type": "Trash/Recycling",
    "request_reason": "Missed Trash Pick-Up",
    "date_created": "2023-09-03T13:01:43.000",
    "date_modified": "2023-09-03T13:01:43.000",
    "request_status": "Pending",
    "responsible_agency": "Department of Sanitation",
    "final_address": "7031 Yorktown Dr",
    "address_councildis": "E",
    "status": "Assigned to Contractor",
    "contractor": "Waste Pro",
    "rowid": "1031704",
    "final_x": "3706227.63812",
    "final_y": "560577.831198",
    "longitude": "-89.98891345427019",
    "latitude": "30.034619828521222",
    "geocoded_column": {
      "latitude": "30.034619828521222",
      "longitude": "-89.98891345427019"
    }
  },
  {
    "service_request": "2023-1031703",
    "request_type": "Trash/Recycling",
    "request_reason": "Request a Large Item Pick Up",
    "date_created": "2023-09-03T13:01:15.000",
    "date_modified": "2023-09-03T13:01:16.000",
    "request_status": "Pending",
    "responsible_agency": "Department of Sanitation",
    "final_address": "1608 Killdeer St",
    "address_councildis": "D",
    "status": "Assigned to Contractor",
    "contractor": "IV Waste",
    "rowid": "1031703",
    "final_x": "3678588.30818",
    "final_y": "557001.429914",
    "longitude": "-90.07638176246313",
    "latitude": "30.025648760843076",
    "geocoded_column": {
      "latitude": "30.025648760843076",
      "longitude": "-90.07638176246313"
    }
  },
  {
    "service_request": "2023-1031702",
    "request_type": "Trash/Recycling",
    "request_reason": "Request a Large Item Pick Up",
    "date_created": "2023-09-03T12:57:21.000",
    "date_modified": "2023-09-03T12:57:21.000",
    "request_status": "Pending",
    "responsible_agency": "Department of Sanitation",
    "final_address": "3411 Somerset Dr",
    "address_councildis": "C",
    "status": "Assigned to Contractor",
    "contractor": "Richards Disposal",
    "rowid": "1031702",
    "final_x": "3702441.43261",
    "final_y": "518599.834743",
    "longitude": "-90.00241915596122",
    "latitude": "29.919317306544524",
    "geocoded_column": {
      "latitude": "29.919317306544524",
      "longitude": "-90.00241915596122"
    }
  },
  {
    "service_request": "2023-1031700",
    "request_type": "Utility Poles",
    "request_reason": "Utility Pole Leaning",
    "date_created": "2023-09-03T12:37:26.000",
    "date_modified": "2023-09-03T12:37:28.000",
    "request_status": "Pending",
    "responsible_agency": "Utility Company Collective",
    "final_address": "4300 BLK S Johnson St",
    "address_councildis": "B",
    "status": "Pending",
    "rowid": "1031700",
    "final_x": "3670435.03737",
    "final_y": "527240.208759",
    "longitude": "-90.1031546691244",
    "latitude": "29.94405898028185",
    "geocoded_column": {
      "latitude": "29.94405898028185",
      "longitude": "-90.1031546691244"
    }
  },
  {
    "service_request": "2023-1031699",
    "request_type": "Trash/Recycling",
    "request_reason": "Return Trash Cart",
    "date_created": "2023-09-03T12:34:42.000",
    "date_modified": "2023-09-03T12:34:42.000",
    "request_status": "Pending",
    "responsible_agency": "Department of Sanitation",
    "final_address": "5512 Camp St",
    "address_councildis": "A",
    "status": "Assigned to Contractor",
    "contractor": "Richards Disposal",
    "rowid": "1031699",
    "final_x": "3666380.47412",
    "final_y": "519170.566007",
    "longitude": "-90.1162267296249",
    "latitude": "29.921989101601685",
    "geocoded_column": {
      "latitude": "29.921989101601685",
      "longitude": "-90.1162267296249"
    }
  },
  {
    "service_request": "2023-1031698",
    "request_type": "Roads/Drainage",
    "request_reason": "Damaged Sidewalk",
    "date_created": "2023-09-03T12:33:14.000",
    "date_modified": "2023-09-03T12:33:14.000",
    "request_status": "Pending",
    "responsible_agency": "Department of Public Works",
    "final_address": "832 Lafayette St",
    "address_councildis": "B",
    "status": "Pending",
    "rowid": "1031698",
    "final_x": "3679949.49352",
    "final_y": "529042.4672",
    "longitude": "-90.07305230652852",
    "latitude": "29.94873028731025",
    "geocoded_column": {
      "latitude": "29.94873028731025",
      "longitude": "-90.07305230652852"
    }
  },
  {
    "service_request": "2023-1031697",
    "request_type": "Trash/Recycling",
    "request_reason": "Order Recycling Cart",
    "date_created": "2023-09-03T12:31:06.000",
    "date_modified": "2023-09-03T12:31:06.000",
    "request_status": "Pending",
    "responsible_agency": "Department of Sanitation",
    "final_address": "5512 Camp St",
    "address_councildis": "A",
    "status": "Pending",
    "rowid": "1031697",
    "final_x": "3666380.47412",
    "final_y": "519170.566007",
    "longitude": "-90.1162267296249",
    "latitude": "29.921989101601685",
    "geocoded_column": {
      "latitude": "29.921989101601685",
      "longitude": "-90.1162267296249"
    }
  },
  {
    "service_request": "2023-1031695",
    "request_type": "Traffic Signals/Signs/Striping/Streetlights",
    "request_reason": "Traffic Signal Malfunctioning/Damaged",
    "date_created": "2023-09-03T12:24:26.000",
    "date_modified": "2023-09-03T12:24:27.000",
    "request_status": "Pending",
    "responsible_agency": "Department of Public Works",
    "final_address": "GENERAL DE GAULLE DR & KABEL DR",
    "address_councildis": "C",
    "status": "Pending",
    "rowid": "1031695",
    "final_x": "3700602.7",
    "final_y": "517489.68",
    "longitude": "-90.00826359187937",
    "latitude": "29.916323357455582",
    "geocoded_column": {
      "latitude": "29.916323357455582",
      "longitude": "-90.00826359187937"
    }
  },
  {
    "service_request": "2023-1031694",
    "request_type": "Roads/Drainage",
    "request_reason": "Pothole",
    "date_created": "2023-09-03T12:19:35.000",
    "date_modified": "2023-09-03T12:19:35.000",
    "request_status": "Pending",
    "responsible_agency": "Department of Public Works",
    "final_address": "621 Webster St",
    "address_councildis": "A",
    "status": "Pending",
    "rowid": "1031694",
    "final_x": "3663977.83341",
    "final_y": "518922.748599",
    "longitude": "-90.12381914894016",
    "latitude": "29.921377636327936",
    "geocoded_column": {
      "latitude": "29.921377636327936",
      "longitude": "-90.12381914894016"
    }
  },
  {
    "service_request": "2023-1031693",
    "request_type": "Abandoned Vehicles",
    "request_reason": "Abandoned/Junk Vehicles",
    "date_created": "2023-09-03T12:15:32.000",
    "date_modified": "2023-09-03T12:15:32.000",
    "request_status": "Pending",
    "responsible_agency": "Department of Public Works",
    "final_address": "3219 Gibson St",
    "address_councildis": "D",
    "status": "Pending",
    "rowid": "1031693",
    "final_x": "3679084.43375",
    "final_y": "544239.709646",
    "longitude": "-90.0752568260211",
    "latitude": "29.990543630464742",
    "geocoded_column": {
      "latitude": "29.990543630464742",
      "longitude": "-90.0752568260211"
    }
  },
  {
    "service_request": "2023-1031692",
    "request_type": "Trash/Recycling",
    "request_reason": "Request a Large Item Pick Up",
    "date_created": "2023-09-03T12:14:07.000",
    "date_modified": "2023-09-03T12:14:08.000",
    "request_status": "Pending",
    "responsible_agency": "Department of Sanitation",
    "final_address": "7425 Freret St",
    "address_councildis": "A",
    "status": "Assigned to Contractor",
    "contractor": "Richards Disposal",
    "rowid": "1031692",
    "final_x": "3663171.05427",
    "final_y": "526380.32275",
    "longitude": "-90.12611779612935",
    "latitude": "29.94190700640826",
    "geocoded_column": {
      "latitude": "29.94190700640826",
      "longitude": "-90.12611779612935"
    }
  },
  {
    "service_request": "2023-1031691",
    "request_type": "Trash/Recycling",
    "request_reason": "Request a Large Item Pick Up",
    "date_created": "2023-09-03T11:38:36.000",
    "date_modified": "2023-09-03T11:38:37.000",
    "request_status": "Pending",
    "responsible_agency": "Department of Sanitation",
    "final_address": "3576 Desaix Blvd",
    "address_councildis": "A",
    "status": "Assigned to Contractor",
    "contractor": "IV Waste",
    "rowid": "1031691",
    "final_x": "3675718.41973",
    "final_y": "543597.915854",
    "longitude": "-90.08591130137981",
    "latitude": "29.9888801106967",
    "geocoded_column": {
      "latitude": "29.9888801106967",
      "longitude": "-90.08591130137981"
    }
  },
  {
    "service_request": "2023-1031690",
    "request_type": "Abandoned Vehicles",
    "request_reason": "Abandoned/Junk Vehicles",
    "date_created": "2023-09-03T11:20:49.000",
    "date_modified": "2023-09-03T11:20:49.000",
    "request_status": "Pending",
    "responsible_agency": "Department of Public Works",
    "final_address": "1440 St Denis St",
    "address_councildis": "D",
    "status": "Pending",
    "rowid": "1031690",
    "final_x": "3678445.66939",
    "final_y": "545719.76776",
    "longitude": "-90.07722327248925",
    "latitude": "29.994632538987357",
    "geocoded_column": {
      "latitude": "29.994632538987357",
      "longitude": "-90.07722327248925"
    }
  },
  {
    "service_request": "2023-1031689",
    "request_type": "Trash/Recycling",
    "request_reason": "Request a Large Item Pick Up",
    "date_created": "2023-09-03T11:18:15.000",
    "date_modified": "2023-09-03T11:19:01.000",
    "request_status": "Pending",
    "responsible_agency": "Department of Sanitation",
    "final_address": "4035 Chestnut St",
    "address_councildis": "B",
    "status": "Assigned to Contractor",
    "contractor": "Richards Disposal",
    "rowid": "1031689",
    "final_x": "3672144.94548",
    "final_y": "519669.303928",
    "longitude": "-90.09801370318543",
    "latitude": "29.92319085051685",
    "geocoded_column": {
      "latitude": "29.92319085051685",
      "longitude": "-90.09801370318543"
    }
  },
  {
    "service_request": "2023-1031687",
    "request_type": "Trash/Recycling",
    "request_reason": "Request a Large Item Pick Up",
    "date_created": "2023-09-03T11:04:42.000",
    "date_modified": "2023-09-03T11:04:42.000",
    "request_status": "Pending",
    "responsible_agency": "Department of Sanitation",
    "final_address": "7032 E Tamaron Blvd",
    "address_councildis": "E",
    "status": "Assigned to Contractor",
    "contractor": "Waste Pro",
    "rowid": "1031687",
    "final_x": "3718914.33522",
    "final_y": "568354.888613",
    "longitude": "-89.94852513246578",
    "latitude": "30.0555881577649",
    "geocoded_column": {
      "latitude": "30.0555881577649",
      "longitude": "-89.94852513246578"
    }
  },
  {
    "service_request": "2023-1031685",
    "request_type": "Property Maintenance",
    "request_reason": "Property Maintenance",
    "date_created": "2023-09-03T10:51:06.000",
    "date_modified": "2023-09-03T10:51:06.000",
    "request_status": "Pending",
    "responsible_agency": "Department of Code Enforcement",
    "final_address": "3000 BLK Higgins Blvd",
    "address_councildis": "D",
    "status": "Pending",
    "rowid": "1031685",
    "final_x": "3690890.9315",
    "final_y": "545310.976095",
    "longitude": "-90.03792493789399",
    "latitude": "29.99312750748072",
    "geocoded_column": {
      "latitude": "29.99312750748072",
      "longitude": "-90.03792493789399"
    }
  },
  {
    "service_request": "2023-1031684",
    "request_type": "Property Maintenance",
    "request_reason": "Property Maintenance",
    "date_created": "2023-09-03T10:50:35.000",
    "date_modified": "2023-09-03T10:50:35.000",
    "request_status": "Pending",
    "responsible_agency": "Department of Code Enforcement",
    "final_address": "1683 St Thomas St",
    "address_councildis": "B",
    "status": "Pending",
    "rowid": "1031684",
    "final_x": "3681334.58012",
    "final_y": "522081.53049",
    "longitude": "-90.06892153082875",
    "latitude": "29.92954806622691",
    "geocoded_column": {
      "latitude": "29.92954806622691",
      "longitude": "-90.06892153082875"
    }
  },
  {
    "service_request": "2023-1031683",
    "request_type": "Abandoned Vehicles",
    "request_reason": "Abandoned/Junk Vehicles",
    "date_created": "2023-09-03T10:50:18.000",
    "date_modified": "2023-09-03T10:50:18.000",
    "request_status": "Pending",
    "responsible_agency": "Department of Public Works",
    "final_address": "1511 N Prieur St",
    "address_councildis": "D",
    "status": "Pending",
    "rowid": "1031683",
    "final_x": "3680874.98581",
    "final_y": "537965.756041",
    "longitude": "-90.06981945438787",
    "latitude": "29.973238269549082",
    "geocoded_column": {
      "latitude": "29.973238269549082",
      "longitude": "-90.06981945438787"
    }
  },
  {
    "service_request": "2023-1031682",
    "request_type": "Abandoned Vehicles",
    "request_reason": "Abandoned/Junk Vehicles",
    "date_created": "2023-09-03T10:47:41.000",
    "date_modified": "2023-09-03T10:47:41.000",
    "request_status": "Pending",
    "responsible_agency": "Department of Public Works",
    "final_address": "639 St James St",
    "address_councildis": "B",
    "status": "Pending",
    "rowid": "1031682",
    "final_x": "3681399.82197",
    "final_y": "522053.061882",
    "longitude": "-90.0687165661078",
    "latitude": "29.929467807196026",
    "geocoded_column": {
      "latitude": "29.929467807196026",
      "longitude": "-90.0687165661078"
    }
  },
  {
    "service_request": "2023-1031681",
    "request_type": "Trash/Recycling",
    "request_reason": "Replace Trash Cart",
    "date_created": "2023-09-03T10:46:39.000",
    "date_modified": "2023-09-03T10:46:40.000",
    "request_status": "Pending",
    "responsible_agency": "Department of Sanitation",
    "final_address": "2012 Mediamolle Dr",
    "address_councildis": "C",
    "status": "Assigned to Contractor",
    "contractor": "Richards Disposal",
    "rowid": "1031681",
    "final_x": "3699300.55632",
    "final_y": "523907.95814",
    "longitude": "-90.01214006493375",
    "latitude": "29.934012761278595",
    "geocoded_column": {
      "latitude": "29.934012761278595",
      "longitude": "-90.01214006493375"
    }
  },
  {
    "service_request": "2023-1031679",
    "request_type": "Trash/Recycling",
    "request_reason": "Replace Trash Cart",
    "date_created": "2023-09-03T10:42:13.000",
    "date_modified": "2023-09-03T10:42:13.000",
    "request_status": "Pending",
    "responsible_agency": "Department of Sanitation",
    "final_address": "2012 Mediamolle Dr",
    "address_councildis": "C",
    "status": "Assigned to Contractor",
    "contractor": "Richards Disposal",
    "rowid": "1031679",
    "final_x": "3699300.55632",
    "final_y": "523907.95814",
    "longitude": "-90.01214006493375",
    "latitude": "29.934012761278595",
    "geocoded_column": {
      "latitude": "29.934012761278595",
      "longitude": "-90.01214006493375"
    }
  },
  {
    "service_request": "2023-1031678",
    "request_type": "Trash/Recycling",
    "request_reason": "Request a Large Item Pick Up",
    "date_created": "2023-09-03T10:28:52.000",
    "date_modified": "2023-09-03T10:28:52.000",
    "request_status": "Pending",
    "responsible_agency": "Department of Sanitation",
    "final_address": "7328 Freret St",
    "address_councildis": "A",
    "status": "Assigned to Contractor",
    "contractor": "Richards Disposal",
    "rowid": "1031678",
    "final_x": "3663280.78419",
    "final_y": "526154.90899",
    "longitude": "-90.1257788541946",
    "latitude": "29.941284011180407",
    "geocoded_column": {
      "latitude": "29.941284011180407",
      "longitude": "-90.1257788541946"
    }
  },
  {
    "service_request": "2023-1031677",
    "request_type": "Traffic Signals/Signs/Striping/Streetlights",
    "request_reason": "Request for Stop Sign",
    "date_created": "2023-09-03T10:23:48.000",
    "date_modified": "2023-09-03T10:23:48.000",
    "request_status": "Pending",
    "responsible_agency": "Department of Public Works",
    "final_address": "2100 Adams St, New Orleans, Louisiana, 70118",
    "address_councildis": "A",
    "status": "Pending",
    "rowid": "1031677",
    "final_x": "3665179.34317",
    "final_y": "529758.929217",
    "longitude": "-90.11966419573811",
    "latitude": "29.951138753307497",
    "geocoded_column": {
      "latitude": "29.951138753307497",
      "longitude": "-90.11966419573811"
    }
  },
  {
    "service_request": "2023-1031676",
    "request_type": "Property Maintenance",
    "request_reason": "Property Maintenance",
    "date_created": "2023-09-03T10:20:48.000",
    "date_modified": "2023-09-03T10:20:48.000",
    "request_status": "Pending",
    "responsible_agency": "Department of Code Enforcement",
    "status": "Pending",
    "rowid": "1031676",
    "longitude": "0.0",
    "latitude": "0.0",
    "geocoded_column": {
      "latitude": "0.0",
      "longitude": "0.0"
    }
  },
  {
    "service_request": "2023-1031675",
    "request_type": "Trash/Recycling",
    "request_reason": "Dead Animal Pick Up",
    "date_created": "2023-09-03T10:12:09.000",
    "date_modified": "2023-09-03T10:12:10.000",
    "request_status": "Pending",
    "responsible_agency": "Department of Sanitation",
    "final_address": "3655 Clematis St",
    "address_councildis": "D",
    "status": "Assigned to Contractor",
    "contractor": "IV Waste",
    "rowid": "1031675",
    "final_x": "3686203.54767",
    "final_y": "546430.747217",
    "longitude": "-90.05269202698167",
    "latitude": "29.996351353722122",
    "geocoded_column": {
      "latitude": "29.996351353722122",
      "longitude": "-90.05269202698167"
    }
  },
  {
    "service_request": "2023-1031674",
    "request_type": "Trash/Recycling",
    "request_reason": "Request a Large Item Pick Up",
    "date_created": "2023-09-03T10:11:04.000",
    "date_modified": "2023-09-03T10:11:05.000",
    "request_status": "Pending",
    "responsible_agency": "Department of Sanitation",
    "status": "Assigned to Contractor",
    "rowid": "1031674",
    "longitude": "0.0",
    "latitude": "0.0",
    "geocoded_column": {
      "latitude": "0.0",
      "longitude": "0.0"
    }
  },
  {
    "service_request": "2023-1031673",
    "request_type": "Trash/Recycling",
    "request_reason": "Dead Animal Pick Up",
    "date_created": "2023-09-03T10:06:15.000",
    "date_modified": "2023-09-03T10:06:16.000",
    "request_status": "Pending",
    "responsible_agency": "Department of Sanitation",
    "final_address": "3655 Clematis St",
    "address_councildis": "D",
    "status": "Assigned to Contractor",
    "contractor": "IV Waste",
    "rowid": "1031673",
    "final_x": "3686203.54767",
    "final_y": "546430.747217",
    "longitude": "-90.05269202698167",
    "latitude": "29.996351353722122",
    "geocoded_column": {
      "latitude": "29.996351353722122",
      "longitude": "-90.05269202698167"
    }
  },
  {
    "service_request": "2023-1031672",
    "request_type": "Trash/Recycling",
    "request_reason": "Dead Animal Pick Up",
    "date_created": "2023-09-03T09:51:52.000",
    "date_modified": "2023-09-03T09:51:53.000",
    "request_status": "Pending",
    "responsible_agency": "Department of Sanitation",
    "final_address": "3640 Clematis St",
    "address_councildis": "D",
    "status": "Assigned to Contractor",
    "contractor": "IV Waste",
    "rowid": "1031672",
    "final_x": "3686164.35382",
    "final_y": "546346.65352",
    "longitude": "-90.05281880615448",
    "latitude": "29.996121330689036",
    "geocoded_column": {
      "latitude": "29.996121330689036",
      "longitude": "-90.05281880615448"
    }
  },
  {
    "service_request": "2023-1031671",
    "request_type": "Trash/Recycling",
    "request_reason": "Illegal Dumping",
    "date_created": "2023-09-03T09:44:38.000",
    "date_modified": "2023-09-03T09:44:38.000",
    "request_status": "Pending",
    "responsible_agency": "Department of Sanitation",
    "final_address": "CHEF MENTEUR HWY & E ADAMS CT",
    "address_councildis": "E",
    "status": "Pending",
    "rowid": "1031671",
    "final_x": "3718816.1",
    "final_y": "556663.78",
    "longitude": "-89.94928198640791",
    "latitude": "30.023445631678054",
    "geocoded_column": {
      "latitude": "30.023445631678054",
      "longitude": "-89.94928198640791"
    }
  },
  {
    "service_request": "2023-1031670",
    "request_type": "Traffic Signals/Signs/Striping/Streetlights",
    "request_reason": "Traffic Signal Malfunctioning/Damaged",
    "date_created": "2023-09-03T09:42:42.000",
    "date_modified": "2023-09-03T09:42:42.000",
    "request_status": "Pending",
    "responsible_agency": "Department of Public Works",
    "status": "Pending",
    "rowid": "1031670",
    "longitude": "0.0",
    "latitude": "0.0",
    "geocoded_column": {
      "latitude": "0.0",
      "longitude": "0.0"
    }
  },
  {
    "service_request": "2023-1031669",
    "request_type": "Abandoned Vehicles",
    "request_reason": "Abandoned/Junk Vehicles",
    "date_created": "2023-09-03T09:41:23.000",
    "date_modified": "2023-09-03T09:41:23.000",
    "request_status": "Pending",
    "responsible_agency": "Department of Public Works",
    "final_address": "8800 BLK Peach St",
    "address_councildis": "A",
    "status": "Pending",
    "rowid": "1031669",
    "final_x": "3666699.07569",
    "final_y": "537514.504483",
    "longitude": "-90.11460515952483",
    "latitude": "29.97241968220673",
    "geocoded_column": {
      "latitude": "29.97241968220673",
      "longitude": "-90.11460515952483"
    }
  },
  {
    "service_request": "2023-1031668",
    "request_type": "Abandoned Vehicles",
    "request_reason": "Abandoned/Junk Vehicles",
    "date_created": "2023-09-03T09:36:36.000",
    "date_modified": "2023-09-03T09:36:36.000",
    "request_status": "Pending",
    "responsible_agency": "Department of Public Works",
    "final_address": "1464 N Robertson St",
    "address_councildis": "C",
    "status": "Pending",
    "rowid": "1031668",
    "final_x": "3681958.82504",
    "final_y": "536781.805256",
    "longitude": "-90.06643781652477",
    "latitude": "29.969949907335696",
    "geocoded_column": {
      "latitude": "29.969949907335696",
      "longitude": "-90.06643781652477"
    }
  },
  {
    "service_request": "2023-1031667",
    "request_type": "Trash/Recycling",
    "request_reason": "Request a Large Item Pick Up",
    "date_created": "2023-09-03T09:24:30.000",
    "date_modified": "2023-09-03T09:24:30.000",
    "request_status": "Pending",
    "responsible_agency": "Department of Sanitation",
    "final_address": "1602 Ursulines Ave",
    "address_councildis": "D",
    "status": "Assigned to Contractor",
    "contractor": "Richards Disposal",
    "rowid": "1031667",
    "final_x": "3680913.62543",
    "final_y": "535548.700998",
    "longitude": "-90.06978160008182",
    "latitude": "29.96659102852155",
    "geocoded_column": {
      "latitude": "29.96659102852155",
      "longitude": "-90.06978160008182"
    }
  },
  {
    "service_request": "2023-1031666",
    "request_type": "Trash/Recycling",
    "request_reason": "Order Recycling Cart",
    "date_created": "2023-09-03T09:12:10.000",
    "date_modified": "2023-09-03T09:12:10.000",
    "request_status": "Pending",
    "responsible_agency": "Department of Sanitation",
    "final_address": "4300 Willow St",
    "address_councildis": "B",
    "status": "Pending",
    "rowid": "1031666",
    "final_x": "3670744.53243",
    "final_y": "525434.628733",
    "longitude": "-90.10223875342358",
    "latitude": "29.93908508183742",
    "geocoded_column": {
      "latitude": "29.93908508183742",
      "longitude": "-90.10223875342358"
    }
  },
  {
    "service_request": "2023-1031665",
    "request_type": "Trash/Recycling",
    "request_reason": "Request a Large Item Pick Up",
    "date_created": "2023-09-03T08:50:46.000",
    "date_modified": "2023-09-03T08:50:47.000",
    "request_status": "Pending",
    "responsible_agency": "Department of Sanitation",
    "final_address": "2631 N Prieur St",
    "address_councildis": "D",
    "status": "Assigned to Contractor",
    "contractor": "IV Waste",
    "rowid": "1031665",
    "final_x": "3688170.88739",
    "final_y": "539430.66817",
    "longitude": "-90.04672564251624",
    "latitude": "29.97704303048397",
    "geocoded_column": {
      "latitude": "29.97704303048397",
      "longitude": "-90.04672564251624"
    }
  },
  {
    "service_request": "2023-1031664",
    "request_type": "Abandoned Vehicles",
    "request_reason": "Abandoned/Junk Vehicles",
    "date_created": "2023-09-03T08:43:51.000",
    "date_modified": "2023-09-03T08:43:51.000",
    "request_status": "Pending",
    "responsible_agency": "Department of Public Works",
    "final_address": "1500 BLK Kerlerec St",
    "address_councildis": "C",
    "status": "Pending",
    "rowid": "1031664",
    "final_x": "3681686.13626",
    "final_y": "536746.595258",
    "longitude": "-90.06730022218548",
    "latitude": "29.96986137931504",
    "geocoded_column": {
      "latitude": "29.96986137931504",
      "longitude": "-90.06730022218548"
    }
  },
  {
    "service_request": "2023-1031661",
    "request_type": "Traffic Signals/Signs/Striping/Streetlights",
    "request_reason": "Street Light Outage/Malfunction",
    "date_created": "2023-09-03T07:42:11.000",
    "date_modified": "2023-09-03T07:42:12.000",
    "request_status": "Pending",
    "responsible_agency": "Department of Public Works",
    "final_address": "2700 BLK Martin Luther King, Jr. Blvd",
    "address_councildis": "B",
    "status": "Assigned to Contractor",
    "contractor": "Legacy Professional Services",
    "rowid": "1031661",
    "final_x": "3675745.88666",
    "final_y": "527669.204948",
    "longitude": "-90.0863720836785",
    "latitude": "29.94508073050618",
    "geocoded_column": {
      "latitude": "29.94508073050618",
      "longitude": "-90.0863720836785"
    }
  },
  {
    "service_request": "2023-1031659",
    "request_type": "Traffic Signals/Signs/Striping/Streetlights",
    "request_reason": "Traffic Signal Malfunctioning/Damaged",
    "date_created": "2023-09-03T06:49:24.000",
    "date_modified": "2023-09-03T06:49:24.000",
    "request_status": "Pending",
    "responsible_agency": "Department of Public Works",
    "final_address": "GENERAL MEYER AVE & KABEL DR",
    "address_councildis": "C",
    "status": "Pending",
    "rowid": "1031659",
    "final_x": "3700839.5",
    "final_y": "523835.28",
    "longitude": "-90.00728436873588",
    "latitude": "29.933764040385416",
    "geocoded_column": {
      "latitude": "29.933764040385416",
      "longitude": "-90.00728436873588"
    }
  },
  {
    "service_request": "2023-1031658",
    "request_type": "Abandoned Vehicles",
    "request_reason": "Abandoned/Junk Vehicles",
    "date_created": "2023-09-03T06:49:14.000",
    "date_modified": "2023-09-03T06:49:14.000",
    "request_status": "Pending",
    "responsible_agency": "Department of Public Works",
    "final_address": "2541 St Peter St",
    "address_councildis": "D",
    "status": "Pending",
    "rowid": "1031658",
    "final_x": "3677215.54638",
    "final_y": "536489.044359",
    "longitude": "-90.08142766268782",
    "latitude": "29.969288265028716",
    "geocoded_column": {
      "latitude": "29.969288265028716",
      "longitude": "-90.08142766268782"
    }
  },
  {
    "service_request": "2023-1031657",
    "request_type": "Abandoned Vehicles",
    "request_reason": "Abandoned/Junk Vehicles",
    "date_created": "2023-09-03T03:08:39.000",
    "date_modified": "2023-09-03T03:08:39.000",
    "request_status": "Pending",
    "responsible_agency": "Department of Public Works",
    "final_address": "1619 Valence St",
    "address_councildis": "B",
    "status": "Pending",
    "rowid": "1031657",
    "final_x": "3669784.15822",
    "final_y": "520960.768697",
    "longitude": "-90.1054221413149",
    "latitude": "29.92681173985706",
    "geocoded_column": {
      "latitude": "29.92681173985706",
      "longitude": "-90.1054221413149"
    }
  },
  {
    "service_request": "2023-1031656",
    "request_type": "Roads/Drainage",
    "request_reason": "Pothole",
    "date_created": "2023-09-03T02:43:14.000",
    "date_modified": "2023-09-03T02:43:14.000",
    "request_status": "Pending",
    "responsible_agency": "Department of Public Works",
    "final_address": "5324 Pitt St",
    "address_councildis": "B",
    "status": "Pending",
    "rowid": "1031656",
    "final_x": "3667498.25857",
    "final_y": "520439.124024",
    "longitude": "-90.1126556828187",
    "latitude": "29.92544454110643",
    "geocoded_column": {
      "latitude": "29.92544454110643",
      "longitude": "-90.1126556828187"
    }
  },
  {
    "service_request": "2023-1031655",
    "request_type": "Abandoned Vehicles",
    "request_reason": "Abandoned/Junk Vehicles",
    "date_created": "2023-09-03T01:05:48.000",
    "date_modified": "2023-09-03T01:05:48.000",
    "request_status": "Pending",
    "responsible_agency": "Department of Public Works",
    "final_address": "7735 Maple St",
    "address_councildis": "A",
    "status": "Pending",
    "rowid": "1031655",
    "final_x": "3661926.80525",
    "final_y": "526564.443518",
    "longitude": "-90.13004006710285",
    "latitude": "29.942449266630643",
    "geocoded_column": {
      "latitude": "29.942449266630643",
      "longitude": "-90.13004006710285"
    }
  },
  {
    "service_request": "2023-1031654",
    "request_type": "Trash/Recycling",
    "request_reason": "Order Trash Cart",
    "date_created": "2023-09-03T00:29:12.000",
    "date_modified": "2023-09-03T00:29:13.000",
    "request_status": "Pending",
    "responsible_agency": "Department of Sanitation",
    "final_address": "7808 Edward St",
    "address_councildis": "E",
    "status": "Assigned to Contractor",
    "contractor": "Waste Pro",
    "rowid": "1031654",
    "final_x": "3700775.25565",
    "final_y": "561420.14563",
    "longitude": "-90.00611282857383",
    "latitude": "30.037110639991226",
    "geocoded_column": {
      "latitude": "30.037110639991226",
      "longitude": "-90.00611282857383"
    }
  },
  {
    "service_request": "2023-1031653",
    "request_type": "Abandoned Vehicles",
    "request_reason": "Vehicle Blocking Your Driveway",
    "date_created": "2023-09-03T00:27:01.000",
    "date_modified": "2023-09-03T00:27:01.000",
    "request_status": "Pending",
    "responsible_agency": "Department of Public Works",
    "final_address": "1659 Soniat St",
    "address_councildis": "B",
    "status": "Pending",
    "rowid": "1031653",
    "final_x": "3668484.81825",
    "final_y": "521390.738361",
    "longitude": "-90.10950932647604",
    "latitude": "29.928032242407706",
    "geocoded_column": {
      "latitude": "29.928032242407706",
      "longitude": "-90.10950932647604"
    }
  },
  {
    "service_request": "2023-1031652",
    "request_type": "Abandoned Vehicles",
    "request_reason": "Abandoned/Junk Vehicles",
    "date_created": "2023-09-02T23:37:22.000",
    "date_modified": "2023-09-02T23:37:22.000",
    "request_status": "Pending",
    "responsible_agency": "Department of Public Works",
    "final_address": "5317 St Charles Ave",
    "address_councildis": "B",
    "status": "Pending",
    "rowid": "1031652",
    "final_x": "3667752.33588",
    "final_y": "521447.037625",
    "longitude": "-90.11181971898309",
    "latitude": "29.92820853882004",
    "geocoded_column": {
      "latitude": "29.92820853882004",
      "longitude": "-90.11181971898309"
    }
  },
  {
    "service_request": "2023-1031651",
    "request_type": "Roads/Drainage",
    "request_reason": "Pothole",
    "date_created": "2023-09-02T22:53:32.000",
    "date_modified": "2023-09-02T22:53:32.000",
    "request_status": "Pending",
    "responsible_agency": "Department of Public Works",
    "final_address": "4726 Danneel St",
    "address_councildis": "B",
    "status": "Pending",
    "rowid": "1031651",
    "final_x": "3669365.26324",
    "final_y": "522125.33817",
    "longitude": "-90.10670513030526",
    "latitude": "29.930026270988865",
    "geocoded_column": {
      "latitude": "29.930026270988865",
      "longitude": "-90.10670513030526"
    }
  },
  {
    "service_request": "2023-1031650",
    "request_type": "Abandoned Vehicles",
    "request_reason": "Abandoned/Junk Vehicles",
    "date_created": "2023-09-02T22:34:51.000",
    "date_modified": "2023-09-03T07:57:43.000",
    "case_close_date": "2023-09-03T02:57:43.000",
    "request_status": "Closed",
    "responsible_agency": "Department of Public Works",
    "final_address": "7040 Crowder Blvd",
    "address_councildis": "E",
    "status": "Resolved",
    "rowid": "1031650",
    "final_x": "3704304.90295",
    "final_y": "559611.840029",
    "longitude": "-89.99502518370585",
    "latitude": "30.032025620679985",
    "geocoded_column": {
      "latitude": "30.032025620679985",
      "longitude": "-89.99502518370585"
    }
  },
  {
    "service_request": "2023-1031649",
    "request_type": "Traffic Signals/Signs/Striping/Streetlights",
    "request_reason": "Street Light Outage/Malfunction",
    "date_created": "2023-09-02T22:33:59.000",
    "date_modified": "2023-09-02T22:33:59.000",
    "request_status": "Pending",
    "responsible_agency": "Department of Public Works",
    "final_address": "417 33Rd St",
    "address_councildis": "A",
    "status": "Assigned to Contractor",
    "contractor": "Legacy Professional Services",
    "rowid": "1031649",
    "final_x": "3664744.51796",
    "final_y": "551020.426069",
    "longitude": "-90.12032647797665",
    "latitude": "30.00961339825496",
    "geocoded_column": {
      "latitude": "30.00961339825496",
      "longitude": "-90.12032647797665"
    }
  },
  {
    "service_request": "2023-1031648",
    "request_type": "Abandoned Vehicles",
    "request_reason": "Abandoned/Junk Vehicles",
    "date_created": "2023-09-02T22:29:59.000",
    "date_modified": "2023-09-02T22:29:59.000",
    "request_status": "Pending",
    "responsible_agency": "Department of Public Works",
    "final_address": "7040 Crowder Blvd",
    "address_councildis": "E",
    "status": "Pending",
    "rowid": "1031648",
    "final_x": "3704304.90295",
    "final_y": "559611.840029",
    "longitude": "-89.99502518370585",
    "latitude": "30.032025620679985",
    "geocoded_column": {
      "latitude": "30.032025620679985",
      "longitude": "-89.99502518370585"
    }
  },
  {
    "service_request": "2023-1031647",
    "request_type": "Traffic Signals/Signs/Striping/Streetlights",
    "request_reason": "Street Light Outage/Malfunction",
    "date_created": "2023-09-02T22:29:41.000",
    "date_modified": "2023-09-02T22:29:42.000",
    "request_status": "Pending",
    "responsible_agency": "Department of Public Works",
    "final_address": "417 33Rd St",
    "address_councildis": "A",
    "status": "Assigned to Contractor",
    "contractor": "Legacy Professional Services",
    "rowid": "1031647",
    "final_x": "3664744.51796",
    "final_y": "551020.426069",
    "longitude": "-90.12032647797665",
    "latitude": "30.00961339825496",
    "geocoded_column": {
      "latitude": "30.00961339825496",
      "longitude": "-90.12032647797665"
    }
  },
  {
    "service_request": "2023-1031646",
    "request_type": "Traffic Signals/Signs/Striping/Streetlights",
    "request_reason": "Street Light Outage/Malfunction",
    "date_created": "2023-09-02T22:11:59.000",
    "date_modified": "2023-09-02T22:12:00.000",
    "request_status": "Pending",
    "responsible_agency": "Department of Public Works",
    "final_address": "2113 First St",
    "address_councildis": "B",
    "status": "Assigned to Contractor",
    "contractor": "Legacy Professional Services",
    "rowid": "1031646",
    "final_x": "3675920.33672",
    "final_y": "524829.473148",
    "longitude": "-90.08591889722783",
    "latitude": "29.93726718118712",
    "geocoded_column": {
      "latitude": "29.93726718118712",
      "longitude": "-90.08591889722783"
    }
  },
  {
    "service_request": "2023-1031645",
    "request_type": "Safety & Permits",
    "request_reason": "Licenses & Permits",
    "date_created": "2023-09-02T22:08:31.000",
    "date_modified": "2023-09-02T22:08:31.000",
    "request_status": "Pending",
    "responsible_agency": "Safety and Permits",
    "final_address": "2109 First St",
    "address_councildis": "B",
    "status": "Pending",
    "rowid": "1031645",
    "final_x": "3675939.38177",
    "final_y": "524799.688636",
    "longitude": "-90.08585979446124",
    "latitude": "29.93718471342496",
    "geocoded_column": {
      "latitude": "29.93718471342496",
      "longitude": "-90.08585979446124"
    }
  },
  {
    "service_request": "2023-1031644",
    "request_type": "Roads/Drainage",
    "request_reason": "Debris in Roadway",
    "date_created": "2023-09-02T22:08:04.000",
    "date_modified": "2023-09-02T22:08:04.000",
    "request_status": "Pending",
    "responsible_agency": "Department of Public Works",
    "final_address": "1511 Robert St",
    "address_councildis": "B",
    "status": "Pending",
    "rowid": "1031644",
    "final_x": "3668809.38618",
    "final_y": "520502.155",
    "longitude": "-90.10851472059463",
    "latitude": "29.92557938477827",
    "geocoded_column": {
      "latitude": "29.92557938477827",
      "longitude": "-90.10851472059463"
    }
  },
  {
    "service_request": "2023-1031643",
    "request_type": "Roads/Drainage",
    "request_reason": "Pothole",
    "date_created": "2023-09-02T21:55:37.000",
    "date_modified": "2023-09-02T21:55:37.000",
    "request_status": "Pending",
    "responsible_agency": "Department of Public Works",
    "final_address": "1700 Valmont St",
    "address_councildis": "B",
    "status": "Pending",
    "rowid": "1031643",
    "final_x": "3667867.92033",
    "final_y": "521862.805306",
    "longitude": "-90.11144084744744",
    "latitude": "29.92934837915848",
    "geocoded_column": {
      "latitude": "29.92934837915848",
      "longitude": "-90.11144084744744"
    }
  },
  {
    "service_request": "2023-1031642",
    "request_type": "Roads/Drainage",
    "request_reason": "Pothole",
    "date_created": "2023-09-02T21:44:12.000",
    "date_modified": "2023-09-02T21:44:12.000",
    "request_status": "Pending",
    "responsible_agency": "Department of Public Works",
    "final_address": "1312 Milan St",
    "address_councildis": "B",
    "status": "Pending",
    "rowid": "1031642",
    "final_x": "3671625.82823",
    "final_y": "520286.919608",
    "longitude": "-90.09963137110304",
    "latitude": "29.92490447494246",
    "geocoded_column": {
      "latitude": "29.92490447494246",
      "longitude": "-90.09963137110304"
    }
  },
  {
    "service_request": "2023-1031641",
    "request_type": "Roads/Drainage",
    "request_reason": "Pothole",
    "date_created": "2023-09-02T21:30:43.000",
    "date_modified": "2023-09-02T21:30:43.000",
    "request_status": "Pending",
    "responsible_agency": "Department of Public Works",
    "final_address": "1422 General Pershing St",
    "address_councildis": "B",
    "status": "Pending",
    "rowid": "1031641",
    "final_x": "3671239.44116",
    "final_y": "520532.324984",
    "longitude": "-90.10084273889387",
    "latitude": "29.925590694745555",
    "geocoded_column": {
      "latitude": "29.925590694745555",
      "longitude": "-90.10084273889387"
    }
  },
  {
    "service_request": "2023-1031640",
    "request_type": "Trash/Recycling",
    "request_reason": "Replace Trash Cart",
    "date_created": "2023-09-02T20:46:40.000",
    "date_modified": "2023-09-02T20:46:41.000",
    "request_status": "Pending",
    "responsible_agency": "Department of Sanitation",
    "final_address": "1634 Bartholomew St",
    "address_councildis": "D",
    "status": "Assigned to Contractor",
    "contractor": "IV Waste",
    "rowid": "1031640",
    "final_x": "3692300.12957",
    "final_y": "537459.551688",
    "longitude": "-90.03375482600372",
    "latitude": "29.97149502669012",
    "geocoded_column": {
      "latitude": "29.97149502669012",
      "longitude": "-90.03375482600372"
    }
  },
  {
    "service_request": "2023-1031639",
    "request_type": "Trash/Recycling",
    "request_reason": "Replace Trash Cart",
    "date_created": "2023-09-02T20:23:56.000",
    "date_modified": "2023-09-02T20:23:57.000",
    "request_status": "Pending",
    "responsible_agency": "Department of Sanitation",
    "final_address": "1212 Hillary St",
    "address_councildis": "A",
    "status": "Assigned to Contractor",
    "contractor": "Richards Disposal",
    "rowid": "1031639",
    "final_x": "3663360.22714",
    "final_y": "527294.358015",
    "longitude": "-90.12549011524817",
    "latitude": "29.944414829667835",
    "geocoded_column": {
      "latitude": "29.944414829667835",
      "longitude": "-90.12549011524817"
    }
  },
  {
    "service_request": "2023-1031638",
    "request_type": "Abandoned Vehicles",
    "request_reason": "Vehicle Blocking Your Driveway",
    "date_created": "2023-09-02T20:02:31.000",
    "date_modified": "2023-09-02T20:02:31.000",
    "request_status": "Pending",
    "responsible_agency": "Department of Public Works",
    "final_address": "1920 Washington Ave",
    "address_councildis": "B",
    "status": "Pending",
    "rowid": "1031638",
    "final_x": "3675184.59573",
    "final_y": "523574.369979",
    "longitude": "-90.0882847360212",
    "latitude": "29.933838060393562",
    "geocoded_column": {
      "latitude": "29.933838060393562",
      "longitude": "-90.0882847360212"
    }
  },
  {
    "service_request": "2023-1031636",
    "request_type": "Trash/Recycling",
    "request_reason": "Request a Large Item Pick Up",
    "date_created": "2023-09-02T19:38:26.000",
    "date_modified": "2023-09-02T19:38:27.000",
    "request_status": "Pending",
    "responsible_agency": "Department of Sanitation",
    "final_address": "14112 Willowbrook Dr",
    "address_councildis": "E",
    "status": "Assigned to Contractor",
    "contractor": "Waste Pro",
    "rowid": "1031636",
    "final_x": "3724779.88243",
    "final_y": "564278.460577",
    "longitude": "-89.93014330778207",
    "latitude": "30.04418346184826",
    "geocoded_column": {
      "latitude": "30.04418346184826",
      "longitude": "-89.93014330778207"
    }
  },
  {
    "service_request": "2023-1031635",
    "request_type": "Roads/Drainage",
    "request_reason": "Pothole",
    "date_created": "2023-09-02T19:38:17.000",
    "date_modified": "2023-09-02T19:38:17.000",
    "request_status": "Pending",
    "responsible_agency": "Department of Public Works",
    "final_address": "1537 Calhoun St",
    "address_councildis": "A",
    "status": "Pending",
    "rowid": "1031635",
    "final_x": "3664675.05306",
    "final_y": "522467.451642",
    "longitude": "-90.12149998825737",
    "latitude": "29.931104199993758",
    "geocoded_column": {
      "latitude": "29.931104199993758",
      "longitude": "-90.12149998825737"
    }
  },
  {
    "service_request": "2023-1031634",
    "request_type": "Trash/Recycling",
    "request_reason": "Request a Large Item Pick Up",
    "date_created": "2023-09-02T18:42:40.000",
    "date_modified": "2023-09-02T18:42:40.000",
    "request_status": "Pending",
    "responsible_agency": "Department of Sanitation",
    "final_address": "928 Independence St",
    "address_councildis": "C",
    "status": "Assigned to Contractor",
    "contractor": "IV Waste",
    "rowid": "1031634",
    "final_x": "3690786.50275",
    "final_y": "534971.233222",
    "longitude": "-90.03862385832427",
    "latitude": "29.96470014320912",
    "geocoded_column": {
      "latitude": "29.96470014320912",
      "longitude": "-90.03862385832427"
    }
  },
  {
    "service_request": "2023-1031633",
    "request_type": "Trash/Recycling",
    "request_reason": "Order Recycling Cart",
    "date_created": "2023-09-02T18:40:26.000",
    "date_modified": "2023-09-02T18:40:26.000",
    "request_status": "Pending",
    "responsible_agency": "Department of Sanitation",
    "final_address": "928 Independence St",
    "address_councildis": "C",
    "status": "Pending",
    "rowid": "1031633",
    "final_x": "3690786.50275",
    "final_y": "534971.233222",
    "longitude": "-90.03862385832427",
    "latitude": "29.96470014320912",
    "geocoded_column": {
      "latitude": "29.96470014320912",
      "longitude": "-90.03862385832427"
    }
  },
  {
    "service_request": "2023-1031632",
    "request_type": "Abandoned Vehicles",
    "request_reason": "Abandoned/Junk Vehicles",
    "date_created": "2023-09-02T18:39:10.000",
    "date_modified": "2023-09-02T18:39:10.000",
    "request_status": "Pending",
    "responsible_agency": "Department of Public Works",
    "final_address": "821 Washington Ave",
    "address_councildis": "B",
    "status": "Pending",
    "rowid": "1031632",
    "final_x": "3677628.84802",
    "final_y": "520034.669688",
    "longitude": "-90.08069050083319",
    "latitude": "29.924031784183395",
    "geocoded_column": {
      "latitude": "29.924031784183395",
      "longitude": "-90.08069050083319"
    }
  },
  {
    "service_request": "2023-1031631",
    "request_type": "Abandoned Vehicles",
    "request_reason": "Abandoned/Junk Vehicles",
    "date_created": "2023-09-02T17:43:38.000",
    "date_modified": "2023-09-03T13:18:07.000",
    "request_status": "Pending",
    "responsible_agency": "Department of Public Works",
    "final_address": "7735 Maple St",
    "address_councildis": "A",
    "status": "Inspected",
    "rowid": "1031631",
    "final_x": "3661926.80525",
    "final_y": "526564.443518",
    "longitude": "-90.13004006710285",
    "latitude": "29.942449266630643",
    "geocoded_column": {
      "latitude": "29.942449266630643",
      "longitude": "-90.13004006710285"
    }
  },
  {
    "service_request": "2023-1031630",
    "request_type": "Abandoned Vehicles",
    "request_reason": "Vehicle Blocking Your Driveway",
    "date_created": "2023-09-02T16:45:52.000",
    "date_modified": "2023-09-02T16:45:52.000",
    "request_status": "Pending",
    "responsible_agency": "Department of Public Works",
    "final_address": "225 Baronne St",
    "address_councildis": "B",
    "status": "Pending",
    "rowid": "1031630",
    "final_x": "3680112.84251",
    "final_y": "530444.840962",
    "longitude": "-90.07248782128232",
    "latitude": "29.952581402696044",
    "geocoded_column": {
      "latitude": "29.952581402696044",
      "longitude": "-90.07248782128232"
    }
  },
  {
    "service_request": "2023-1031629",
    "request_type": "Abandoned Vehicles",
    "request_reason": "Vehicle Blocking Your Driveway",
    "date_created": "2023-09-02T16:41:15.000",
    "date_modified": "2023-09-02T16:43:33.000",
    "request_status": "Pending",
    "responsible_agency": "Department of Public Works",
    "final_address": "HUNTINGTON PARK DR & PARKSIDE CT",
    "address_councildis": "E",
    "status": "Pending",
    "rowid": "1031629",
    "final_x": "3704647.9",
    "final_y": "559849.68",
    "longitude": "-89.99393251446455",
    "latitude": "30.03266856786681",
    "geocoded_column": {
      "latitude": "30.03266856786681",
      "longitude": "-89.99393251446455"
    }
  },
  {
    "service_request": "2023-1031628",
    "request_type": "Roads/Drainage",
    "request_reason": "Pothole",
    "date_created": "2023-09-02T16:34:38.000",
    "date_modified": "2023-09-02T16:34:38.000",
    "request_status": "Pending",
    "responsible_agency": "Department of Public Works",
    "final_address": "6019 Chestnut St",
    "address_councildis": "A",
    "status": "Pending",
    "rowid": "1031628",
    "final_x": "3664762.62535",
    "final_y": "519948.884408",
    "longitude": "-90.12130763332809",
    "latitude": "29.92417638659354",
    "geocoded_column": {
      "latitude": "29.92417638659354",
      "longitude": "-90.12130763332809"
    }
  },
  {
    "service_request": "2023-1031627",
    "request_type": "Trash/Recycling",
    "request_reason": "Missed Trash Pick-Up",
    "date_created": "2023-09-02T16:31:38.000",
    "date_modified": "2023-09-02T16:31:38.000",
    "request_status": "Pending",
    "responsible_agency": "Department of Sanitation",
    "final_address": "723 Jackson Ave",
    "address_councildis": "B",
    "status": "Assigned to Contractor",
    "contractor": "Richards Disposal",
    "rowid": "1031627",
    "final_x": "3679659.74875",
    "final_y": "521108.552633",
    "longitude": "-90.07424242070145",
    "latitude": "29.926923407305818",
    "geocoded_column": {
      "latitude": "29.926923407305818",
      "longitude": "-90.07424242070145"
    }
  },
  {
    "service_request": "2023-1031626",
    "request_type": "Roads/Drainage",
    "request_reason": "Pothole",
    "date_created": "2023-09-02T16:10:03.000",
    "date_modified": "2023-09-02T16:10:03.000",
    "request_status": "Pending",
    "responsible_agency": "Department of Public Works",
    "final_address": "5902 Hurst St",
    "address_councildis": "A",
    "status": "Pending",
    "rowid": "1031626",
    "final_x": "3665757.45908",
    "final_y": "521688.420601",
    "longitude": "-90.11810904350683",
    "latitude": "29.92893059016598",
    "geocoded_column": {
      "latitude": "29.92893059016598",
      "longitude": "-90.11810904350683"
    }
  },
  {
    "service_request": "2023-1031625",
    "request_type": "Trash/Recycling",
    "request_reason": "Replace Recycling Cart",
    "date_created": "2023-09-02T15:43:28.000",
    "date_modified": "2023-09-02T15:43:28.000",
    "request_status": "Pending",
    "responsible_agency": "Department of Sanitation",
    "final_address": "7716 Willow St",
    "address_councildis": "A",
    "status": "Pending",
    "rowid": "1031625",
    "final_x": "3663388.50791",
    "final_y": "527960.747775",
    "longitude": "-90.1253786438315",
    "latitude": "29.94624636824677",
    "geocoded_column": {
      "latitude": "29.94624636824677",
      "longitude": "-90.1253786438315"
    }
  },
  {
    "service_request": "2023-1031624",
    "request_type": "Abandoned Vehicles",
    "request_reason": "Abandoned/Junk Vehicles",
    "date_created": "2023-09-02T15:39:19.000",
    "date_modified": "2023-09-02T15:39:19.000",
    "request_status": "Pending",
    "responsible_agency": "Department of Public Works",
    "final_address": "1435 N Derbigny St",
    "address_councildis": "D",
    "status": "Pending",
    "rowid": "1031624",
    "final_x": "3681142.98991",
    "final_y": "537106.385224",
    "longitude": "-90.06900299119621",
    "latitude": "29.97086716779469",
    "geocoded_column": {
      "latitude": "29.97086716779469",
      "longitude": "-90.06900299119621"
    }
  },
  {
    "service_request": "2023-1031623",
    "request_type": "Abandoned Vehicles",
    "request_reason": "Abandoned/Junk Vehicles",
    "date_created": "2023-09-02T15:36:04.000",
    "date_modified": "2023-09-02T15:36:04.000",
    "request_status": "Pending",
    "responsible_agency": "Department of Public Works",
    "final_address": "1435 N Derbigny St",
    "address_councildis": "D",
    "status": "Pending",
    "rowid": "1031623",
    "final_x": "3681142.98991",
    "final_y": "537106.385224",
    "longitude": "-90.06900299119621",
    "latitude": "29.97086716779469",
    "geocoded_column": {
      "latitude": "29.97086716779469",
      "longitude": "-90.06900299119621"
    }
  },
  {
    "service_request": "2023-1031622",
    "request_type": "Trash/Recycling",
    "request_reason": "Request a Large Item Pick Up",
    "date_created": "2023-09-02T15:23:02.000",
    "date_modified": "2023-09-02T15:23:03.000",
    "request_status": "Pending",
    "responsible_agency": "Department of Sanitation",
    "final_address": "2011 General Pershing St",
    "address_councildis": "B",
    "status": "Assigned to Contractor",
    "contractor": "Richards Disposal",
    "rowid": "1031622",
    "final_x": "3671136.25396",
    "final_y": "522447.210298",
    "longitude": "-90.10110346562882",
    "latitude": "29.930859067322874",
    "geocoded_column": {
      "latitude": "29.930859067322874",
      "longitude": "-90.10110346562882"
    }
  },
  {
    "service_request": "2023-1031621",
    "request_type": "Traffic Signals/Signs/Striping/Streetlights",
    "request_reason": "Traffic Sign Missing/Damaged",
    "date_created": "2023-09-02T15:11:50.000",
    "date_modified": "2023-09-02T15:11:50.000",
    "request_status": "Pending",
    "responsible_agency": "Department of Public Works",
    "final_address": "SHAW AVE & MORRISON RD",
    "address_councildis": "E",
    "status": "Pending",
    "rowid": "1031621",
    "final_x": "3707817.8",
    "final_y": "563112.68",
    "longitude": "-89.98379401150294",
    "latitude": "30.041538261188805",
    "geocoded_column": {
      "latitude": "30.041538261188805",
      "longitude": "-89.98379401150294"
    }
  },