[
  {
    "service_request": "2023-1054057",
    "request_type": "Roads/Drainage",
    "request_reason": "Pothole",
    "date_created": "2023-12-06T01:31:51.000",
    "date_modified": "2023-12-06T01:31:51.000",
    "request_status": "Pending",
    "responsible_agency": "Department of Public Works",
    "final_address": "1503 Napoleon Ave",
    "address_councildis": "B",
    "status": "Pending",
    "rowid": "1054057",
    "final_x": "3670967.88622",
    "final_y": "520626.232376",
    "longitude": "-90.10169677051358",
    "latitude": "29.925856938828442",
    "geocoded_column": {
      "latitude": "29.925856938828442",
      "longitude": "-90.10169677051358"
    }
  },
  {
    "service_request": "2023-1054056",
    "request_type": "Roads/Drainage",
    "request_reason": "Alley Way",
    "date_created": "2023-12-05T23:42:54.000",
    "date_modified": "2023-12-05T23:42:54.000",
    "request_status": "Pending",
    "responsible_agency": "Department of Public Works",
    "final_address": "6449 Milne Blvd",
    "address_councildis": "A",
    "status": "Pending",
    "rowid": "1054056",
    "final_x": "3667421.75489",
    "final_y": "550578.74306",
    "longitude": "-90.1118829863393",
    "latitude": "30.0083207228975",
    "geocoded_column": {
      "latitude": "30.0083207228975",
      "longitude": "-90.1118829863393"
    }
  },
  {
    "service_request": "2023-1054055",
    "request_type": "Roads/Drainage",
    "request_reason": "Pothole",
    "date_created": "2023-12-05T23:30:24.000",
    "date_modified": "2023-12-05T23:30:24.000",
    "request_status": "Pending",
    "responsible_agency": "Department of Public Works",
    "final_address": "4200 BLK Perrier St",
    "address_councildis": "B",
    "status": "Pending",
    "rowid": "1054055",
    "final_x": "3671500.64253",
    "final_y": "520125.882108",
    "longitude": "-90.1000320136845",
    "latitude": "29.924465378806524",
    "geocoded_column": {
      "latitude": "29.924465378806524",
      "longitude": "-90.1000320136845"
    }
  },
  {
    "service_request": "2023-1054054",
    "request_type": "Trash/Recycling",
    "request_reason": "Order Recycling Cart",
    "date_created": "2023-12-05T22:23:57.000",
    "date_modified": "2023-12-05T22:23:57.000",
    "request_status": "Pending",
    "responsible_agency": "Department of Sanitation",
    "final_address": "330 Lakeshore Prkwy",
    "address_councildis": "D",
    "status": "Pending",
    "rowid": "1054054",
    "final_x": "3667623.21281",
    "final_y": "556828.456602",
    "longitude": "-90.11103589261756",
    "latitude": "30.025499323865176",
    "geocoded_column": {
      "latitude": "30.025499323865176",
      "longitude": "-90.11103589261756"
    }
  },
  {
    "service_request": "2023-1054053",
    "request_type": "Trash/Recycling",
    "request_reason": "Replace Trash Cart",
    "date_created": "2023-12-05T22:22:59.000",
    "date_modified": "2023-12-05T22:23:00.000",
    "request_status": "Pending",
    "responsible_agency": "Department of Sanitation",
    "final_address": "330 Lakeshore Prkwy",
    "address_councildis": "D",
    "status": "Assigned to Contractor",
    "contractor": "IV Waste",
    "rowid": "1054053",
    "final_x": "3667623.21281",
    "final_y": "556828.456602",
    "longitude": "-90.11103589261756",
    "latitude": "30.025499323865176",
    "geocoded_column": {
      "latitude": "30.025499323865176",
      "longitude": "-90.11103589261756"
    }
  },
  {
    "service_request": "2023-1054052",
    "request_type": "Safety & Permits",
    "request_reason": "Construction permit",
    "date_created": "2023-12-05T22:15:55.000",
    "date_modified": "2023-12-05T22:15:55.000",
    "request_status": "Pending",
    "responsible_agency": "Department of Code Enforcement",
    "final_address": "9200 BLK Forshey St",
    "address_councildis": "A",
    "status": "Pending",
    "rowid": "1054052",
    "final_x": "3664012.57843",
    "final_y": "536644.931419",
    "longitude": "-90.1231186331791",
    "latitude": "29.97010693899257",
    "geocoded_column": {
      "latitude": "29.97010693899257",
      "longitude": "-90.1231186331791"
    }
  },
  {
    "service_request": "2023-1054051",
    "request_type": "Roads/Drainage",
    "request_reason": "Catch Basin - Clogged",
    "date_created": "2023-12-05T21:53:03.000",
    "date_modified": "2023-12-05T21:53:03.000",
    "request_status": "Pending",
    "responsible_agency": "Department of Public Works",
    "final_address": "6156 Milne Blvd",
    "address_councildis": "A",
    "status": "Pending",
    "rowid": "1054051",
    "final_x": "3667034.20724",
    "final_y": "548627.802451",
    "longitude": "-90.11317300897724",
    "latitude": "30.002967667758124",
    "geocoded_column": {
      "latitude": "30.002967667758124",
      "longitude": "-90.11317300897724"
    }
  },
  {
    "service_request": "2023-1054050",
    "request_type": "Abandoned Vehicles",
    "request_reason": "Abandoned/Junk Vehicles",
    "date_created": "2023-12-05T21:37:12.000",
    "date_modified": "2023-12-05T21:37:12.000",
    "request_status": "Pending",
    "responsible_agency": "Department of Public Works",
    "final_address": "5900 BLK Freret St",
    "address_councildis": "A",
    "status": "Pending",
    "rowid": "1054050",
    "final_x": "3666540.68296",
    "final_y": "524334.193573",
    "longitude": "-90.11554778736847",
    "latitude": "29.93618276044425",
    "geocoded_column": {
      "latitude": "29.93618276044425",
      "longitude": "-90.11554778736847"
    }
  },
  {
    "service_request": "2023-1054049",
    "request_type": "Trash/Recycling",
    "request_reason": "Replace Trash Cart",
    "date_created": "2023-12-05T21:32:17.000",
    "date_modified": "2023-12-05T21:32:18.000",
    "request_status": "Pending",
    "responsible_agency": "Department of Sanitation",
    "final_address": "2016 Jena St",
    "address_councildis": "B",
    "status": "Assigned to Contractor",
    "contractor": "Richards Disposal",
    "rowid": "1054049",
    "final_x": "3670211.40564",
    "final_y": "522376.62873",
    "longitude": "-90.10402548114287",
    "latitude": "29.930692305845735",
    "geocoded_column": {
      "latitude": "29.930692305845735",
      "longitude": "-90.10402548114287"
    }
  },
  {
    "service_request": "2023-1054048",
    "request_type": "Trash/Recycling",
    "request_reason": "Replace Trash Cart",
    "date_created": "2023-12-05T21:31:16.000",
    "date_modified": "2023-12-05T21:31:17.000",
    "request_status": "Pending",
    "responsible_agency": "Department of Sanitation",
    "final_address": "2016 Jena St",
    "address_councildis": "B",
    "status": "Assigned to Contractor",
    "contractor": "Richards Disposal",
    "rowid": "1054048",
    "final_x": "3670211.40564",
    "final_y": "522376.62873",
    "longitude": "-90.10402548114287",
    "latitude": "29.930692305845735",
    "geocoded_column": {
      "latitude": "29.930692305845735",
      "longitude": "-90.10402548114287"
    }
  },
  {
    "service_request": "2023-1054047",
    "request_type": "Trash/Recycling",
    "request_reason": "Request a Large Item Pick Up",
    "date_created": "2023-12-05T20:45:33.000",
    "date_modified": "2023-12-05T20:45:34.000",
    "request_status": "Pending",
    "responsible_agency": "Department of Sanitation",
    "final_address": "1215 Josephine St",
    "address_councildis": "B",
    "status": "Assigned to Contractor",
    "contractor": "Richards Disposal",
    "rowid": "1054047",
    "final_x": "3678874.94882",
    "final_y": "522754.195258",
    "longitude": "-90.07666285394889",
    "latitude": "29.93147207515156",
    "geocoded_column": {
      "latitude": "29.93147207515156",
      "longitude": "-90.07666285394889"
    }
  },
  {
    "service_request": "2023-1054046",
    "request_type": "Trash/Recycling",
    "request_reason": "Missed Trash Pick-Up",
    "date_created": "2023-12-05T20:19:15.000",
    "date_modified": "2023-12-05T20:19:16.000",
    "request_status": "Pending",
    "responsible_agency": "Department of Sanitation",
    "final_address": "1515 Robert St",
    "address_councildis": "B",
    "status": "Assigned to Contractor",
    "contractor": "Richards Disposal",
    "rowid": "1054046",
    "final_x": "3668795.80602",
    "final_y": "520564.551928",
    "longitude": "-90.10855548375804",
    "latitude": "29.925751355656217",
    "geocoded_column": {
      "latitude": "29.925751355656217",
      "longitude": "-90.10855548375804"
    }
  },
  {
    "service_request": "2023-1054045",
    "request_type": "Traffic Signals/Signs/Striping/Streetlights",
    "request_reason": "Street Light Outage/Malfunction",
    "date_created": "2023-12-05T19:56:08.000",
    "date_modified": "2023-12-05T19:56:09.000",
    "request_status": "Pending",
    "responsible_agency": "Department of Public Works",
    "final_address": "1716 Peniston St",
    "address_councildis": "B",
    "status": "Assigned to Contractor",
    "contractor": "Legacy Professional Services",
    "rowid": "1054045",
    "final_x": "3672703.25512",
    "final_y": "521676.042169",
    "longitude": "-90.09618293650352",
    "latitude": "29.928692174491566",
    "geocoded_column": {
      "latitude": "29.928692174491566",
      "longitude": "-90.09618293650352"
    }
  },
  {
    "service_request": "2023-1054044",
    "request_type": "Trash/Recycling",
    "request_reason": "Request a Large Item Pick Up",
    "date_created": "2023-12-05T19:42:12.000",
    "date_modified": "2023-12-05T19:42:12.000",
    "request_status": "Pending",
    "responsible_agency": "Department of Sanitation",
    "final_address": "3 Park Island Dr",
    "address_councildis": "A",
    "status": "Assigned to Contractor",
    "contractor": "IV Waste",
    "rowid": "1054044",
    "final_x": "3676066.52021",
    "final_y": "548480.206802",
    "longitude": "-90.08464369745035",
    "latitude": "30.00229427435717",
    "geocoded_column": {
      "latitude": "30.00229427435717",
      "longitude": "-90.08464369745035"
    }
  },
  {
    "service_request": "2023-1054043",
    "request_type": "Roads/Drainage",
    "request_reason": "Man hole cover issue",
    "date_created": "2023-12-05T19:17:52.000",
    "date_modified": "2023-12-05T19:17:52.000",
    "request_status": "Pending",
    "responsible_agency": "Department of Public Works",
    "final_address": "27 Warbler St",
    "address_councildis": "D",
    "status": "Pending",
    "rowid": "1054043",
    "final_x": "3672974.25608",
    "final_y": "556755.438746",
    "longitude": "-90.09412982748401",
    "latitude": "30.02514051364006",
    "geocoded_column": {
      "latitude": "30.02514051364006",
      "longitude": "-90.09412982748401"
    }
  },
  {
    "service_request": "2023-1054042",
    "request_type": "Trash/Recycling",
    "request_reason": "Repair Trash Cart",
    "date_created": "2023-12-05T18:36:47.000",
    "date_modified": "2023-12-05T18:36:47.000",
    "request_status": "Pending",
    "responsible_agency": "Department of Sanitation",
    "final_address": "421 38Th St",
    "address_councildis": "A",
    "status": "Assigned to Contractor",
    "contractor": "IV Waste",
    "rowid": "1054042",
    "final_x": "3664850.0642",
    "final_y": "552758.575446",
    "longitude": "-90.1199348666331",
    "latitude": "30.01438963074565",
    "geocoded_column": {
      "latitude": "30.01438963074565",
      "longitude": "-90.1199348666331"
    }
  },
  {
    "service_request": "2023-1054041",
    "request_type": "Traffic Signals/Signs/Striping/Streetlights",
    "request_reason": "Street Light Outage/Malfunction",
    "date_created": "2023-12-05T18:22:36.000",
    "date_modified": "2023-12-05T18:22:36.000",
    "request_status": "Pending",
    "responsible_agency": "Department of Public Works",
    "final_address": "5312 Wilton Dr",
    "address_councildis": "D",
    "status": "Assigned to Contractor",
    "contractor": "Legacy Professional Services",
    "rowid": "1054041",
    "final_x": "3681845.3862",
    "final_y": "552464.31791",
    "longitude": "-90.06624839250364",
    "latitude": "30.013074717112026",
    "geocoded_column": {
      "latitude": "30.013074717112026",
      "longitude": "-90.06624839250364"
    }
  },
  {
    "service_request": "2023-1054040",
    "request_type": "Trash/Recycling",
    "request_reason": "Replace Trash Cart",
    "date_created": "2023-12-05T18:11:27.000",
    "date_modified": "2023-12-05T18:11:28.000",
    "request_status": "Pending",
    "responsible_agency": "Department of Sanitation",
    "final_address": "4238 Chestnut St",
    "address_councildis": "B",
    "status": "Assigned to Contractor",
    "contractor": "Richards Disposal",
    "rowid": "1054040",
    "final_x": "3671429.01435",
    "final_y": "519501.100535",
    "longitude": "-90.10027934326166",
    "latitude": "29.92274954845116",
    "geocoded_column": {
      "latitude": "29.92274954845116",
      "longitude": "-90.10027934326166"
    }
  },
  {
    "service_request": "2023-1054039",
    "request_type": "Trash/Recycling",
    "request_reason": "Replace Trash Cart",
    "date_created": "2023-12-05T17:57:26.000",
    "date_modified": "2023-12-05T17:57:27.000",
    "request_status": "Pending",
    "responsible_agency": "Department of Sanitation",
    "final_address": "7119 Westhaven Rd",
    "address_councildis": "E",
    "status": "Assigned to Contractor",
    "contractor": "Waste Pro",
    "rowid": "1054039",
    "final_x": "3703906.74257",
    "final_y": "559804.984861",
    "longitude": "-89.996276263959",
    "latitude": "30.03256947441503",
    "geocoded_column": {
      "latitude": "30.03256947441503",
      "longitude": "-89.996276263959"
    }
  },
  {
    "service_request": "2023-1054038",
    "request_type": "Trash/Recycling",
    "request_reason": "Request a Large Item Pick Up",
    "date_created": "2023-12-05T17:33:27.000",
    "date_modified": "2023-12-05T17:33:28.000",
    "request_status": "Pending",
    "responsible_agency": "Department of Sanitation",
    "final_address": "13649 N Cavelier Dr",
    "address_councildis": "E",
    "status": "Assigned to Contractor",
    "contractor": "Waste Pro",
    "rowid": "1054038",
    "final_x": "3723900.86719",
    "final_y": "570002.614566",
    "longitude": "-89.93270021506997",
    "latitude": "30.059952064255846",
    "geocoded_column": {
      "latitude": "30.059952064255846",
      "longitude": "-89.93270021506997"
    }
  },
  {
    "service_request": "2023-1054037",
    "request_type": "Trash/Recycling",
    "request_reason": "Replace Trash Cart",
    "date_created": "2023-12-05T17:17:41.000",
    "date_modified": "2023-12-05T17:17:42.000",
    "request_status": "Pending",
    "responsible_agency": "Department of Sanitation",
    "final_address": "4839 Constance St",
    "address_councildis": "B",
    "status": "Assigned to Contractor",
    "contractor": "Richards Disposal",
    "rowid": "1054037",
    "final_x": "3669330.31207",
    "final_y": "518318.385782",
    "longitude": "-90.10694409317796",
    "latitude": "29.919559390119236",
    "geocoded_column": {
      "latitude": "29.919559390119236",
      "longitude": "-90.10694409317796"
    }
  },
  {
    "service_request": "2023-1054036",
    "request_type": "Roads/Drainage",
    "request_reason": "Catch Basin - Clogged",
    "date_created": "2023-12-05T17:06:38.000",
    "date_modified": "2023-12-05T17:06:38.000",
    "request_status": "Pending",
    "responsible_agency": "Department of Public Works",
    "final_address": "3300 BLK Palmyra St",
    "address_councildis": "B",
    "status": "Pending",
    "rowid": "1054036",
    "final_x": "3672953.41849",
    "final_y": "535926.453197",
    "longitude": "-90.09490701608497",
    "latitude": "29.967868682729392",
    "geocoded_column": {
      "latitude": "29.967868682729392",
      "longitude": "-90.09490701608497"
    }
  },
  {
    "service_request": "2023-1054035",
    "request_type": "Trash/Recycling",
    "request_reason": "Repair Trash Cart",
    "date_created": "2023-12-05T16:58:41.000",
    "date_modified": "2023-12-05T16:58:44.000",
    "request_status": "Pending",
    "responsible_agency": "Department of Sanitation",
    "final_address": "49 Oriole St",
    "address_councildis": "D",
    "status": "Assigned to Contractor",
    "contractor": "IV Waste",
    "rowid": "1054035",
    "final_x": "3675465.65653",
    "final_y": "556633.646874",
    "longitude": "-90.0862615675458",
    "latitude": "30.024731308662584",
    "geocoded_column": {
      "latitude": "30.024731308662584",
      "longitude": "-90.0862615675458"
    }
  },
  {
    "service_request": "2023-1054034",
    "request_type": "Trash/Recycling",
    "request_reason": "Request a Large Item Pick Up",
    "date_created": "2023-12-05T16:56:16.000",
    "date_modified": "2023-12-05T16:56:17.000",
    "request_status": "Pending",
    "responsible_agency": "Department of Sanitation",
    "final_address": "7510 E Oak Ridge Ct",
    "address_councildis": "E",
    "status": "Assigned to Contractor",
    "contractor": "Waste Pro",
    "rowid": "1054034",
    "final_x": "3713825.18277",
    "final_y": "567986.668389",
    "longitude": "-89.9646247034881",
    "latitude": "30.054743835742233",
    "geocoded_column": {
      "latitude": "30.054743835742233",
      "longitude": "-89.9646247034881"
    }
  },
  {
    "service_request": "2023-1054033",
    "request_type": "EMS",
    "request_reason": "EMS General",
    "date_created": "2023-12-05T16:51:26.000",
    "date_modified": "2023-12-05T16:52:51.000",
    "request_status": "Pending",
    "responsible_agency": "Emergency Medical Services",
    "final_address": "3109 Milan St",
    "address_councildis": "B",
    "status": "Pending",
    "rowid": "1054033",
    "final_x": "3671087.49735",
    "final_y": "526417.534398",
    "longitude": "-90.10112259851958",
    "latitude": "29.94177761664842",
    "geocoded_column": {
      "latitude": "29.94177761664842",
      "longitude": "-90.10112259851958"
    }
  },
  {
    "service_request": "2023-1054031",
    "request_type": "Trash/Recycling",
    "request_reason": "Replace Trash Cart",
    "date_created": "2023-12-05T16:50:20.000",
    "date_modified": "2023-12-05T16:50:20.000",
    "request_status": "Pending",
    "responsible_agency": "Department of Sanitation",
    "final_address": "3930 Perrier St",
    "address_councildis": "B",
    "status": "Assigned to Contractor",
    "contractor": "Richards Disposal",
    "rowid": "1054031",
    "final_x": "3672516.81671",
    "final_y": "520195.171",
    "longitude": "-90.0968219322253",
    "latitude": "29.924625787717115",
    "geocoded_column": {
      "latitude": "29.924625787717115",
      "longitude": "-90.0968219322253"
    }
  },
  {
    "service_request": "2023-1054030",
    "request_type": "Roads/Drainage",
    "request_reason": "Culvert Issue",
    "date_created": "2023-12-05T16:48:54.000",
    "date_modified": "2023-12-05T16:48:54.000",
    "request_status": "Pending",
    "responsible_agency": "Department of Public Works",
    "final_address": "706 Dumaine St",
    "address_councildis": "C",
    "status": "Pending",
    "rowid": "1054030",
    "final_x": "3682874.22485",
    "final_y": "533103.209476",
    "longitude": "-90.0636756251108",
    "latitude": "29.959807172596726",
    "geocoded_column": {
      "latitude": "29.959807172596726",
      "longitude": "-90.0636756251108"
    }
  },
  {
    "service_request": "2023-1054029",
    "request_type": "Trash/Recycling",
    "request_reason": "Illegal Dumping",
    "date_created": "2023-12-05T16:47:14.000",
    "date_modified": "2023-12-05T16:47:15.000",
    "request_status": "Pending",
    "responsible_agency": "Department of Sanitation",
    "final_address": "1722 N Derbigny St",
    "address_councildis": "D",
    "status": "Pending",
    "rowid": "1054029",
    "final_x": "3682783.01186",
    "final_y": "538252.593545",
    "longitude": "-90.06378349347169",
    "latitude": "29.973968983132107",
    "geocoded_column": {
      "latitude": "29.973968983132107",
      "longitude": "-90.06378349347169"
    }
  },
  {
    "service_request": "2023-1054028",
    "request_type": "Trash/Recycling",
    "request_reason": "Request a Large Item Pick Up",
    "date_created": "2023-12-05T16:43:37.000",
    "date_modified": "2023-12-05T16:43:37.000",
    "request_status": "Pending",
    "responsible_agency": "Department of Sanitation",
    "final_address": "832 Alix St",
    "address_councildis": "C",
    "status": "Assigned to Contractor",
    "contractor": "Richards Disposal",
    "rowid": "1054028",
    "final_x": "3688147.72188",
    "final_y": "530359.483138",
    "longitude": "-90.04712040104731",
    "latitude": "29.95210114567319",
    "geocoded_column": {
      "latitude": "29.95210114567319",
      "longitude": "-90.04712040104731"
    }
  },
  {
    "service_request": "2023-1054027",
    "request_type": "Roads/Drainage",
    "request_reason": "Pothole",
    "date_created": "2023-12-05T16:36:30.000",
    "date_modified": "2023-12-05T16:36:30.000",
    "request_status": "Pending",
    "responsible_agency": "Department of Public Works",
    "final_address": "4216 Chestnut St",
    "address_councildis": "B",
    "status": "Pending",
    "rowid": "1054027",
    "final_x": "3671574.31393",
    "final_y": "519539.203703",
    "longitude": "-90.09981939416457",
    "latitude": "29.922850019854593",
    "geocoded_column": {
      "latitude": "29.922850019854593",
      "longitude": "-90.09981939416457"
    }
  },
  {
    "service_request": "2023-1054026",
    "request_type": "Trash/Recycling",
    "request_reason": "Request a Large Item Pick Up",
    "date_created": "2023-12-05T16:31:14.000",
    "date_modified": "2023-12-05T16:31:15.000",
    "request_status": "Pending",
    "responsible_agency": "Department of Sanitation",
    "final_address": "2328 Iberville St",
    "address_councildis": "B",
    "status": "Assigned to Contractor",
    "contractor": "Richards Disposal",
    "rowid": "1054026",
    "final_x": "3676752.98798",
    "final_y": "534542.920773",
    "longitude": "-90.08295552574566",
    "latitude": "29.963950973766103",
    "geocoded_column": {
      "latitude": "29.963950973766103",
      "longitude": "-90.08295552574566"
    }
  },
  {
    "service_request": "2023-1054025",
    "request_type": "Trash/Recycling",
    "request_reason": "Repair Recycling Cart",
    "date_created": "2023-12-05T16:31:14.000",
    "date_modified": "2023-12-05T16:31:15.000",
    "request_status": "Pending",
    "responsible_agency": "Department of Sanitation",
    "final_address": "5705 St Charles Ave",
    "address_councildis": "A",
    "status": "Pending",
    "rowid": "1054025",
    "final_x": "3666469.5433",
    "final_y": "522162.059834",
    "longitude": "-90.11584524104951",
    "latitude": "29.930212163029758",
    "geocoded_column": {
      "latitude": "29.930212163029758",
      "longitude": "-90.11584524104951"
    }
  },
  {
    "service_request": "2023-1054024",
    "request_type": "Roads/Drainage",
    "request_reason": "Road Shoulder Repair",
    "date_created": "2023-12-05T16:31:12.000",
    "date_modified": "2023-12-05T16:31:12.000",
    "request_status": "Pending",
    "responsible_agency": "Department of Public Works",
    "final_address": "1725 Dufossat St",
    "address_councildis": "B",
    "status": "Pending",
    "rowid": "1054024",
    "final_x": "3668192.68743",
    "final_y": "522036.060218",
    "longitude": "-90.11040977787289",
    "latitude": "29.92981524824353",
    "geocoded_column": {
      "latitude": "29.92981524824353",
      "longitude": "-90.11040977787289"
    }
  },
  {
    "service_request": "2023-1054023",
    "request_type": "Parks & Parkways",
    "request_reason": "Request Tree Service (Right of Way/Public Property)",
    "date_created": "2023-12-05T16:30:59.000",
    "date_modified": "2023-12-05T16:31:00.000",
    "request_status": "Pending",
    "responsible_agency": "Department of Parks & Parkway",
    "final_address": "2427 Marengo St",
    "address_councildis": "B",
    "status": "Pending",
    "rowid": "1054023",
    "final_x": "3671700.23291",
    "final_y": "524017.205436",
    "longitude": "-90.09926968009744",
    "latitude": "29.93515935869871",
    "geocoded_column": {
      "latitude": "29.93515935869871",
      "longitude": "-90.09926968009744"
    }
  },
  {
    "service_request": "2023-1054022",
    "request_type": "Trash/Recycling",
    "request_reason": "Return Trash Cart",
    "date_created": "2023-12-05T16:28:06.000",
    "date_modified": "2023-12-05T16:28:06.000",
    "request_status": "Pending",
    "responsible_agency": "Department of Sanitation",
    "final_address": "3132 Upperline St",
    "address_councildis": "B",
    "status": "Assigned to Contractor",
    "contractor": "Richards Disposal",
    "rowid": "1054022",
    "final_x": "3669217.05223",
    "final_y": "526603.796734",
    "longitude": "-90.10702170283145",
    "latitude": "29.942344953018036",
    "geocoded_column": {
      "latitude": "29.942344953018036",
      "longitude": "-90.10702170283145"
    }
  },
  {
    "service_request": "2023-1054021",
    "request_type": "Abandoned Vehicles",
    "request_reason": "Abandoned/Junk Vehicles",
    "date_created": "2023-12-05T16:24:00.000",
    "date_modified": "2023-12-05T16:24:00.000",
    "request_status": "Pending",
    "responsible_agency": "Department of Public Works",
    "final_address": "10200 BLK Almonaster Ave",
    "address_councildis": "E",
    "status": "Inspected",
    "rowid": "1054021",
    "final_x": "3714488.88923",
    "final_y": "551896.847109",
    "longitude": "-89.96313503455288",
    "latitude": "30.010481447366526",
    "geocoded_column": {
      "latitude": "30.010481447366526",
      "longitude": "-89.96313503455288"
    }
  },
  {
    "service_request": "2023-1054020",
    "request_type": "Roads/Drainage",
    "request_reason": "Catch Basin - Clogged",
    "date_created": "2023-12-05T16:19:57.000",
    "date_modified": "2023-12-05T16:19:58.000",
    "request_status": "Pending",
    "responsible_agency": "Department of Public Works",
    "final_address": "AUDUBON ST & SPRUCE ST",
    "address_councildis": "A",
    "status": "Pending",
    "rowid": "1054020",
    "final_x": "3665995.0",
    "final_y": "528677.98",
    "longitude": "-90.11712497457401",
    "latitude": "29.948142712633544",
    "geocoded_column": {
      "latitude": "29.948142712633544",
      "longitude": "-90.11712497457401"
    }
  },
  {
    "service_request": "2023-1054019",
    "request_type": "Trash/Recycling",
    "request_reason": "Request a Large Item Pick Up",
    "date_created": "2023-12-05T16:14:22.000",
    "date_modified": "2023-12-05T16:14:23.000",
    "request_status": "Pending",
    "responsible_agency": "Department of Sanitation",
    "final_address": "4558 Burton Rd",
    "address_councildis": "E",
    "status": "Assigned to Contractor",
    "contractor": "Waste Pro",
    "rowid": "1054019",
    "final_x": "3762579.1919",
    "final_y": "573887.672426",
    "longitude": "-89.81028018459227",
    "latitude": "30.069277466610174",
    "geocoded_column": {
      "latitude": "30.069277466610174",
      "longitude": "-89.81028018459227"
    }
  },
  {
    "service_request": "2023-1054018",
    "request_type": "Roads/Drainage",
    "request_reason": "Catch Basin - Clogged",
    "date_created": "2023-12-05T16:13:53.000",
    "date_modified": "2023-12-05T16:13:53.000",
    "request_status": "Pending",
    "responsible_agency": "Department of Public Works",
    "final_address": "403 S Lopez St",
    "address_councildis": "B",
    "status": "Pending",
    "rowid": "1054018",
    "final_x": "3673029.18792",
    "final_y": "535202.07911",
    "longitude": "-90.09469246207483",
    "latitude": "29.96587464576639",
    "geocoded_column": {
      "latitude": "29.96587464576639",
      "longitude": "-90.09469246207483"
    }
  },
  {
    "service_request": "2023-1054017",
    "request_type": "Traffic Signals/Signs/Striping/Streetlights",
    "request_reason": "Traffic Signal Malfunctioning/Damaged",
    "date_created": "2023-12-05T16:12:48.000",
    "date_modified": "2023-12-05T16:12:49.000",
    "request_status": "Pending",
    "responsible_agency": "Department of Public Works",
    "final_address": "3400 S Claiborne Ave",
    "address_councildis": "B",
    "status": "Pending",
    "rowid": "1054017",
    "final_x": "3672139.41991",
    "final_y": "526001.76147",
    "longitude": "-90.09781560952406",
    "latitude": "29.940603230055334",
    "geocoded_column": {
      "latitude": "29.940603230055334",
      "longitude": "-90.09781560952406"
    }
  },
  {
    "service_request": "2023-1054016",
    "request_type": "Trash/Recycling",
    "request_reason": "Illegal Dumping",
    "date_created": "2023-12-05T16:06:28.000",
    "date_modified": "2023-12-05T16:06:28.000",
    "request_status": "Pending",
    "responsible_agency": "Department of Sanitation",
    "final_address": "CROWDER BLVD & I 10 E ONRAMP & CROWDER EXIT",
    "address_councildis": "E",
    "status": "Pending",
    "rowid": "1054016",
    "final_x": "3704803.6",
    "final_y": "558652.58",
    "longitude": "-89.9934847277084",
    "latitude": "30.029372005085413",
    "geocoded_column": {
      "latitude": "30.029372005085413",
      "longitude": "-89.9934847277084"
    }
  },
  {
    "service_request": "2023-1054015",
    "request_type": "Trash/Recycling",
    "request_reason": "Request a Large Item Pick Up",
    "date_created": "2023-12-05T16:00:56.000",
    "date_modified": "2023-12-05T16:00:57.000",
    "request_status": "Pending",
    "responsible_agency": "Department of Sanitation",
    "final_address": "6070 Wright Rd",
    "address_councildis": "E",
    "status": "Assigned to Contractor",
    "contractor": "Waste Pro",
    "rowid": "1054015",
    "final_x": "3712874.50597",
    "final_y": "562930.13072",
    "longitude": "-89.96782002134972",
    "latitude": "30.040871596930888",
    "geocoded_column": {
      "latitude": "30.040871596930888",
      "longitude": "-89.96782002134972"
    }
  },
  {
    "service_request": "2023-1054014",
    "request_type": "Trash/Recycling",
    "request_reason": "Request a Large Item Pick Up",
    "date_created": "2023-12-05T15:56:33.000",
    "date_modified": "2023-12-05T15:56:34.000",
    "request_status": "Pending",
    "responsible_agency": "Department of Sanitation",
    "final_address": "1422 Felicity St, New Orleans, Louisiana, 70130",
    "address_councildis": "B",
    "status": "Assigned to Contractor",
    "contractor": "Richards Disposal",
    "rowid": "1054014",
    "final_x": "3679117.64559",
    "final_y": "523890.281788",
    "longitude": "-90.07585733027642",
    "latitude": "29.934588618612867",
    "geocoded_column": {
      "latitude": "29.934588618612867",
      "longitude": "-90.07585733027642"
    }
  },
  {
    "service_request": "2023-1054013",
    "request_type": "Abandoned Vehicles",
    "request_reason": "Abandoned/Junk Vehicles",
    "date_created": "2023-12-05T15:56:29.000",
    "date_modified": "2023-12-05T16:55:05.000",
    "request_status": "Pending",
    "responsible_agency": "Department of Public Works",
    "final_address": "10200 Almonaster Ave",
    "address_councildis": "E",
    "status": "Inspected",
    "rowid": "1054013",
    "final_x": "3713684.56383",
    "final_y": "551626.395989",
    "longitude": "-89.96568637555853",
    "latitude": "30.00976423388402",
    "geocoded_column": {
      "latitude": "30.00976423388402",
      "longitude": "-89.96568637555853"
    }
  },
  {
    "service_request": "2023-1054012",
    "request_type": "Traffic Signals/Signs/Striping/Streetlights",
    "request_reason": "Street Light Outage/Malfunction",
    "date_created": "2023-12-05T15:55:16.000",
    "date_modified": "2023-12-05T15:55:17.000",
    "request_status": "Pending",
    "responsible_agency": "Department of Public Works",
    "final_address": "2920 Camp St",
    "address_councildis": "B",
    "status": "Assigned to Contractor",
    "contractor": "Legacy Professional Services",
    "rowid": "1054012",
    "final_x": "3676294.88833",
    "final_y": "520707.719673",
    "longitude": "-90.08487819280465",
    "latitude": "29.92592248495284",
    "geocoded_column": {
      "latitude": "29.92592248495284",
      "longitude": "-90.08487819280465"
    }
  },
  {
    "service_request": "2023-1054011",
    "request_type": "Trash/Recycling",
    "request_reason": "Replace Trash Cart",
    "date_created": "2023-12-05T15:52:27.000",
    "date_modified": "2023-12-05T15:52:28.000",
    "request_status": "Pending",
    "responsible_agency": "Department of Sanitation",
    "final_address": "1455 Eleonore St",
    "address_councildis": "A",
    "status": "Assigned to Contractor",
    "contractor": "Richards Disposal",
    "rowid": "1054011",
    "final_x": "3665825.16071",
    "final_y": "521482.021433",
    "longitude": "-90.11790223351068",
    "latitude": "29.928361083253083",
    "geocoded_column": {
      "latitude": "29.928361083253083",
      "longitude": "-90.11790223351068"
    }
  },
  {
    "service_request": "2023-1054010",
    "request_type": "Trash/Recycling",
    "request_reason": "Illegal Dumping",
    "date_created": "2023-12-05T15:51:18.000",
    "date_modified": "2023-12-05T15:51:18.000",
    "request_status": "Pending",
    "responsible_agency": "Department of Sanitation",
    "final_address": "8701 Curran Rd",
    "address_councildis": "E",
    "status": "Pending",
    "rowid": "1054010",
    "final_x": "3704377.19562",
    "final_y": "562767.795104",
    "longitude": "-89.99468022444094",
    "latitude": "30.04070093640636",
    "geocoded_column": {
      "latitude": "30.04070093640636",
      "longitude": "-89.99468022444094"
    }
  },
  {
    "service_request": "2023-1054009",
    "request_type": "Roads/Drainage",
    "request_reason": "Pothole",
    "date_created": "2023-12-05T15:50:33.000",
    "date_modified": "2023-12-05T15:50:33.000",
    "request_status": "Pending",
    "responsible_agency": "Department of Public Works",
    "final_address": "1301 Constantinople St",
    "address_councildis": "B",
    "status": "Pending",
    "rowid": "1054009",
    "final_x": "3672430.66305",
    "final_y": "520250.7726",
    "longitude": "-90.09709199725775",
    "latitude": "29.924781230435865",
    "geocoded_column": {
      "latitude": "29.924781230435865",
      "longitude": "-90.09709199725775"
    }
  },
  {
    "service_request": "2023-1054008",
    "request_type": "Trash/Recycling",
    "request_reason": "Missed Trash Pick-Up",
    "date_created": "2023-12-05T15:46:05.000",
    "date_modified": "2023-12-05T15:46:06.000",
    "request_status": "Pending",
    "responsible_agency": "Department of Sanitation",
    "final_address": "2016 Coliseum St",
    "address_councildis": "B",
    "status": "Assigned to Contractor",
    "contractor": "Richards Disposal",
    "rowid": "1054008",
    "final_x": "3678753.67118",
    "final_y": "523272.877371",
    "longitude": "-90.07702776022164",
    "latitude": "29.932901937516956",
    "geocoded_column": {
      "latitude": "29.932901937516956",
      "longitude": "-90.07702776022164"
    }
  },
  {
    "service_request": "2023-1054007",
    "request_type": "Trash/Recycling",
    "request_reason": "Request a Large Item Pick Up",
    "date_created": "2023-12-05T15:44:04.000",
    "date_modified": "2023-12-05T15:44:05.000",
    "request_status": "Pending",
    "responsible_agency": "Department of Sanitation",
    "final_address": "820 Navarre St",
    "address_councildis": "A",
    "status": "Assigned to Contractor",
    "contractor": "IV Waste",
    "rowid": "1054007",
    "final_x": "3668872.6747",
    "final_y": "543756.433102",
    "longitude": "-90.10752964315608",
    "latitude": "29.989519124318836",
    "geocoded_column": {
      "latitude": "29.989519124318836",
      "longitude": "-90.10752964315608"
    }
  },
  {
    "service_request": "2023-1054006",
    "request_type": "Health Related Request",
    "request_reason": "Noise Ordinance Complaint",
    "date_created": "2023-12-05T15:42:28.000",
    "date_modified": "2023-12-05T15:42:29.000",
    "request_status": "Pending",
    "responsible_agency": "Health Department",
    "final_address": "3821 Franklin Ave Apt A204",
    "address_councildis": "D",
    "status": "Pending",
    "rowid": "1054006",
    "final_x": "3687197.96802",
    "final_y": "547122.074705",
    "longitude": "-90.04952625919651",
    "latitude": "29.99822165776239",
    "geocoded_column": {
      "latitude": "29.99822165776239",
      "longitude": "-90.04952625919651"
    }
  },
  {
    "service_request": "2023-1054005",
    "request_type": "Traffic Signals/Signs/Striping/Streetlights",
    "request_reason": "Street Name Sign Damaged or Missing",
    "date_created": "2023-12-05T15:42:20.000",
    "date_modified": "2023-12-05T15:42:20.000",
    "request_status": "Pending",
    "responsible_agency": "Department of Public Works",
    "final_address": "100 BLK 28th St",
    "address_councildis": "A",
    "status": "Pending",
    "rowid": "1054005",
    "final_x": "3665782.88395",
    "final_y": "550197.116257",
    "longitude": "-90.11707350982435",
    "latitude": "30.007319316634398",
    "geocoded_column": {
      "latitude": "30.007319316634398",
      "longitude": "-90.11707350982435"
    }
  },
  {
    "service_request": "2023-1054004",
    "request_type": "Trash/Recycling",
    "request_reason": "Missed Trash Pick-Up",
    "date_created": "2023-12-05T15:39:37.000",
    "date_modified": "2023-12-05T15:39:38.000",
    "request_status": "Pending",
    "responsible_agency": "Department of Sanitation",
    "final_address": "7050 E Renaissance Ct",
    "address_councildis": "E",
    "status": "Assigned to Contractor",
    "contractor": "Waste Pro",
    "rowid": "1054004",
    "final_x": "3717417.67768",
    "final_y": "567522.681444",
    "longitude": "-89.95328740627944",
    "latitude": "30.05334958110673",
    "geocoded_column": {
      "latitude": "30.05334958110673",
      "longitude": "-89.95328740627944"
    }
  },
  {
    "service_request": "2023-1054003",
    "request_type": "Trash/Recycling",
    "request_reason": "Order Recycling Cart",
    "date_created": "2023-12-05T15:36:56.000",
    "date_modified": "2023-12-05T15:36:56.000",
    "request_status": "Pending",
    "responsible_agency": "Department of Sanitation",
    "final_address": "3120 Dumaine St",
    "address_councildis": "A",
    "status": "Pending",
    "rowid": "1054003",
    "final_x": "3675531.95969",
    "final_y": "538719.029897",
    "longitude": "-90.0866679423964",
    "latitude": "29.97547043604384",
    "geocoded_column": {
      "latitude": "29.97547043604384",
      "longitude": "-90.0866679423964"
    }
  },
  {
    "service_request": "2023-1054002",
    "request_type": "Trash/Recycling",
    "request_reason": "Request a Large Item Pick Up",
    "date_created": "2023-12-05T15:36:23.000",
    "date_modified": "2023-12-05T15:36:24.000",
    "request_status": "Pending",
    "responsible_agency": "Department of Sanitation",
    "final_address": "8023 Benson St",
    "address_councildis": "E",
    "status": "Assigned to Contractor",
    "contractor": "Waste Pro",
    "rowid": "1054002",
    "final_x": "3703899.70276",
    "final_y": "563611.358817",
    "longitude": "-89.99615814068312",
    "latitude": "30.043035733599485",
    "geocoded_column": {
      "latitude": "30.043035733599485",
      "longitude": "-89.99615814068312"
    }
  },
  {
    "service_request": "2023-1054001",
    "request_type": "Trash/Recycling",
    "request_reason": "Request a Large Item Pick Up",
    "date_created": "2023-12-05T15:34:48.000",
    "date_modified": "2023-12-05T15:34:48.000",
    "request_status": "Pending",
    "responsible_agency": "Department of Sanitation",
    "final_address": "6964 Neptune Ct",
    "address_councildis": "E",
    "status": "Assigned to Contractor",
    "contractor": "Waste Pro",
    "rowid": "1054001",
    "final_x": "3701976.63287",
    "final_y": "558652.857436",
    "longitude": "-90.00241781138857",
    "latitude": "30.0294633569712",
    "geocoded_column": {
      "latitude": "30.0294633569712",
      "longitude": "-90.00241781138857"
    }
  },
  {
    "service_request": "2023-1054000",
    "request_type": "Trash/Recycling",
    "request_reason": "Order Recycling Cart",
    "date_created": "2023-12-05T15:33:06.000",
    "date_modified": "2023-12-05T15:34:12.000",
    "request_status": "Pending",
    "responsible_agency": "Department of Sanitation",
    "final_address": "550 Audubon St",
    "address_councildis": "A",
    "status": "Pending",
    "rowid": "1054000",
    "final_x": "3662865.30483",
    "final_y": "524139.743676",
    "longitude": "-90.12715758077313",
    "latitude": "29.935754979417755",
    "geocoded_column": {
      "latitude": "29.935754979417755",
      "longitude": "-90.12715758077313"
    }
  },
  {
    "service_request": "2023-1053999",
    "request_type": "Abandoned Vehicles",
    "request_reason": "Abandoned/Junk Vehicles",
    "date_created": "2023-12-05T15:33:06.000",
    "date_modified": "2023-12-05T15:33:06.000",
    "request_status": "Pending",
    "responsible_agency": "Department of Public Works",
    "final_address": "2700 BLK New Orleans St",
    "address_councildis": "D",
    "status": "Pending",
    "rowid": "1053999",
    "final_x": "3681891.86551",
    "final_y": "542538.896009",
    "longitude": "-90.06644826001335",
    "latitude": "29.985781937773673",
    "geocoded_column": {
      "latitude": "29.985781937773673",
      "longitude": "-90.06644826001335"
    }
  },
  {
    "service_request": "2023-1053998",
    "request_type": "Parks & Parkways",
    "request_reason": "Request Tree Service (Right of Way/Public Property)",
    "date_created": "2023-12-05T15:30:49.000",
    "date_modified": "2023-12-05T15:30:49.000",
    "request_status": "Pending",
    "responsible_agency": "Department of Parks & Parkway",
    "final_address": "5234 Perrier St",
    "address_councildis": "B",
    "status": "Pending",
    "rowid": "1053998",
    "final_x": "3667779.62036",
    "final_y": "519868.887928",
    "longitude": "-90.11178669793934",
    "latitude": "29.92386832742766",
    "geocoded_column": {
      "latitude": "29.92386832742766",
      "longitude": "-90.11178669793934"
    }
  },
  {
    "service_request": "2023-1053997",
    "request_type": "Roads/Drainage",
    "request_reason": "Pothole",
    "date_created": "2023-12-05T15:29:58.000",
    "date_modified": "2023-12-05T15:29:58.000",
    "request_status": "Pending",
    "responsible_agency": "Department of Public Works",
    "final_address": "1312 Milan St",
    "address_councildis": "B",
    "status": "Pending",
    "rowid": "1053997",
    "final_x": "3671625.82823",
    "final_y": "520286.919608",
    "longitude": "-90.09963137110304",
    "latitude": "29.92490447494246",
    "geocoded_column": {
      "latitude": "29.92490447494246",
      "longitude": "-90.09963137110304"
    }
  },
  {
    "service_request": "2023-1053996",
    "request_type": "Roads/Drainage",
    "request_reason": "Road Shoulder Repair",
    "date_created": "2023-12-05T15:29:43.000",
    "date_modified": "2023-12-05T15:29:44.000",
    "request_status": "Pending",
    "responsible_agency": "Department of Public Works",
    "final_address": "4415 Laine Ave",
    "address_councildis": "E",
    "status": "Pending",
    "rowid": "1053996",
    "final_x": "3705991.00107",
    "final_y": "553466.850391",
    "longitude": "-89.98992471836071",
    "latitude": "30.01507502852345",
    "geocoded_column": {
      "latitude": "30.01507502852345",
      "longitude": "-89.98992471836071"
    }
  },
  {
    "service_request": "2023-1053995",
    "request_type": "Traffic Signals/Signs/Striping/Streetlights",
    "request_reason": "Street Light Outage/Malfunction",
    "date_created": "2023-12-05T15:29:08.000",
    "date_modified": "2023-12-05T15:29:09.000",
    "request_status": "Pending",
    "responsible_agency": "Department of Public Works",
    "final_address": "6627 E Hermes St",
    "address_councildis": "D",
    "status": "Assigned to Contractor",
    "contractor": "Legacy Professional Services",
    "rowid": "1053995",
    "final_x": "3697855.44643",
    "final_y": "555999.758297",
    "longitude": "-90.01553703020684",
    "latitude": "30.022299324418853",
    "geocoded_column": {
      "latitude": "30.022299324418853",
      "longitude": "-90.01553703020684"
    }
  },
  {
    "service_request": "2023-1053994",
    "request_type": "Trash/Recycling",
    "request_reason": "Missed Trash Pick-Up",
    "date_created": "2023-12-05T15:28:55.000",
    "date_modified": "2023-12-05T15:28:55.000",
    "request_status": "Pending",
    "responsible_agency": "Department of Sanitation",
    "final_address": "6900 Edgefield Dr",
    "address_councildis": "E",
    "status": "Assigned to Contractor",
    "contractor": "Waste Pro",
    "rowid": "1053994",
    "final_x": "3719216.80876",
    "final_y": "568413.605221",
    "longitude": "-89.94756683869356",
    "latitude": "30.055739549275785",
    "geocoded_column": {
      "latitude": "30.055739549275785",
      "longitude": "-89.94756683869356"
    }
  },
  {
    "service_request": "2023-1053993",
    "request_type": "Trash/Recycling",
    "request_reason": "Order Recycling Cart",
    "date_created": "2023-12-05T15:27:04.000",
    "date_modified": "2023-12-05T15:27:04.000",
    "request_status": "Pending",
    "responsible_agency": "Department of Sanitation",
    "final_address": "1704 St Anthony St",
    "address_councildis": "D",
    "status": "Pending",
    "rowid": "1053993",
    "final_x": "3683298.95964",
    "final_y": "538455.976905",
    "longitude": "-90.06214689060988",
    "latitude": "29.974512488082144",
    "geocoded_column": {
      "latitude": "29.974512488082144",
      "longitude": "-90.06214689060988"
    }
  },
  {
    "service_request": "2023-1053992",
    "request_type": "Trash/Recycling",
    "request_reason": "Missed Trash Pick-Up",
    "date_created": "2023-12-05T15:25:51.000",
    "date_modified": "2023-12-05T15:25:52.000",
    "request_status": "Pending",
    "responsible_agency": "Department of Sanitation",
    "final_address": "4415 Laine Ave",
    "address_councildis": "E",
    "status": "Assigned to Contractor",
    "contractor": "Waste Pro",
    "rowid": "1053992",
    "final_x": "3705991.00107",
    "final_y": "553466.850391",
    "longitude": "-89.98992471836071",
    "latitude": "30.01507502852345",
    "geocoded_column": {
      "latitude": "30.01507502852345",
      "longitude": "-89.98992471836071"
    }
  },
  {
    "service_request": "2023-1053991",
    "request_type": "Trash/Recycling",
    "request_reason": "Order Recycling Cart",
    "date_created": "2023-12-05T15:25:43.000",
    "date_modified": "2023-12-05T15:25:43.000",
    "request_status": "Pending",
    "responsible_agency": "Department of Sanitation",
    "final_address": "1706 St Anthony St",
    "address_councildis": "D",
    "status": "Pending",
    "rowid": "1053991",
    "final_x": "3683297.78261",
    "final_y": "538471.755529",
    "longitude": "-90.06215005511196",
    "latitude": "29.97455590971117",
    "geocoded_column": {
      "latitude": "29.97455590971117",
      "longitude": "-90.06215005511196"
    }
  },
  {
    "service_request": "2023-1053990",
    "request_type": "Trash/Recycling",
    "request_reason": "Missed Trash Pick-Up",
    "date_created": "2023-12-05T15:24:15.000",
    "date_modified": "2023-12-05T15:25:02.000",
    "request_status": "Pending",
    "responsible_agency": "Department of Sanitation",
    "final_address": "7500 Sandy Cove Dr",
    "address_councildis": "E",
    "status": "Assigned to Contractor",
    "contractor": "Waste Pro",
    "rowid": "1053990",
    "final_x": "3716016.3628",
    "final_y": "568681.821989",
    "longitude": "-89.957672559798",
    "latitude": "30.056583072308015",
    "geocoded_column": {
      "latitude": "30.056583072308015",
      "longitude": "-89.957672559798"
    }
  },
  {
    "service_request": "2023-1053989",
    "request_type": "Trash/Recycling",
    "request_reason": "Request a Large Item Pick Up",
    "date_created": "2023-12-05T15:18:06.000",
    "date_modified": "2023-12-05T15:18:07.000",
    "request_status": "Pending",
    "responsible_agency": "Department of Sanitation",
    "final_address": "5512 Warrington Dr",
    "address_councildis": "D",
    "status": "Assigned to Contractor",
    "contractor": "IV Waste",
    "rowid": "1053989",
    "final_x": "3680774.04277",
    "final_y": "553060.329303",
    "longitude": "-90.06961249262216",
    "latitude": "30.014746064109527",
    "geocoded_column": {
      "latitude": "30.014746064109527",
      "longitude": "-90.06961249262216"
    }
  },
  {
    "service_request": "2023-1053988",
    "request_type": "Property Maintenance",
    "request_reason": "Property Maintenance",
    "date_created": "2023-12-05T15:17:14.000",
    "date_modified": "2023-12-05T15:17:14.000",
    "request_status": "Pending",
    "responsible_agency": "Department of Code Enforcement",
    "final_address": "8020 Olive St",
    "address_councildis": "B",
    "status": "Pending",
    "rowid": "1053988",
    "final_x": "3667424.98893",
    "final_y": "533960.105029",
    "longitude": "-90.1124321978029",
    "latitude": "29.962625014608445",
    "geocoded_column": {
      "latitude": "29.962625014608445",
      "longitude": "-90.1124321978029"
    }
  },
  {
    "service_request": "2023-1053987",
    "request_type": "Property Maintenance",
    "request_reason": "Property Maintenance",
    "date_created": "2023-12-05T15:16:56.000",
    "date_modified": "2023-12-05T15:16:56.000",
    "request_status": "Pending",
    "responsible_agency": "Department of Code Enforcement",
    "final_address": "8020 Olive St",
    "address_councildis": "B",
    "status": "Pending",
    "rowid": "1053987",
    "final_x": "3667424.98893",
    "final_y": "533960.105029",
    "longitude": "-90.1124321978029",
    "latitude": "29.962625014608445",
    "geocoded_column": {
      "latitude": "29.962625014608445",
      "longitude": "-90.1124321978029"
    }
  },
  {
    "service_request": "2023-1053986",
    "request_type": "Abandoned Vehicles",
    "request_reason": "Abandoned/Junk Vehicles",
    "date_created": "2023-12-05T15:16:39.000",
    "date_modified": "2023-12-05T15:18:53.000",
    "request_status": "Pending",
    "responsible_agency": "Department of Public Works",
    "final_address": "1105 Marais St",
    "address_councildis": "C",
    "status": "Pending",
    "rowid": "1053986",
    "final_x": "3681472.0436",
    "final_y": "535241.905286",
    "longitude": "-90.06802882043186",
    "latitude": "29.965730501832642",
    "geocoded_column": {
      "latitude": "29.965730501832642",
      "longitude": "-90.06802882043186"
    }
  },
  {
    "service_request": "2023-1053985",
    "request_type": "Property Maintenance",
    "request_reason": "Property Maintenance",
    "date_created": "2023-12-05T15:16:05.000",
    "date_modified": "2023-12-05T15:16:05.000",
    "request_status": "Pending",
    "responsible_agency": "Department of Code Enforcement",
    "final_address": "8020 Olive St",
    "address_councildis": "B",
    "status": "Pending",
    "rowid": "1053985",
    "final_x": "3667424.98893",
    "final_y": "533960.105029",
    "longitude": "-90.1124321978029",
    "latitude": "29.962625014608445",
    "geocoded_column": {
      "latitude": "29.962625014608445",
      "longitude": "-90.1124321978029"
    }
  },
  {
    "service_request": "2023-1053984",
    "request_type": "Trash/Recycling",
    "request_reason": "Order Trash Cart",
    "date_created": "2023-12-05T15:15:00.000",
    "date_modified": "2023-12-05T15:15:01.000",
    "request_status": "Pending",
    "responsible_agency": "Department of Sanitation",
    "final_address": "3429 Willow St",
    "address_councildis": "B",
    "status": "Assigned to Contractor",
    "contractor": "Richards Disposal",
    "rowid": "1053984",
    "final_x": "3672111.01671",
    "final_y": "525707.958653",
    "longitude": "-90.09791528442003",
    "latitude": "29.939796210044815",
    "geocoded_column": {
      "latitude": "29.939796210044815",
      "longitude": "-90.09791528442003"
    }
  },
  {
    "service_request": "2023-1053983",
    "request_type": "Roads/Drainage",
    "request_reason": "Catch Basin - Clogged",
    "date_created": "2023-12-05T15:14:21.000",
    "date_modified": "2023-12-05T15:14:21.000",
    "request_status": "Pending",
    "responsible_agency": "Department of Public Works",
    "final_address": "4841 Canal St",
    "address_councildis": "A",
    "status": "Pending",
    "rowid": "1053983",
    "final_x": "3668666.16058",
    "final_y": "540309.511179",
    "longitude": "-90.10829836857972",
    "latitude": "29.980047334396573",
    "geocoded_column": {
      "latitude": "29.980047334396573",
      "longitude": "-90.10829836857972"
    }
  },
  {
    "service_request": "2023-1053982",
    "request_type": "Trash/Recycling",
    "request_reason": "Request a Large Item Pick Up",
    "date_created": "2023-12-05T15:11:38.000",
    "date_modified": "2023-12-05T15:11:39.000",
    "request_status": "Pending",
    "responsible_agency": "Department of Sanitation",
    "final_address": "4615 Annunciation St",
    "address_councildis": "B",
    "status": "Assigned to Contractor",
    "contractor": "Richards Disposal",
    "rowid": "1053982",
    "final_x": "3670261.20078",
    "final_y": "517699.88671",
    "longitude": "-90.10402667714384",
    "latitude": "29.917831284676726",
    "geocoded_column": {
      "latitude": "29.917831284676726",
      "longitude": "-90.10402667714384"
    }
  },
  {
    "service_request": "2023-1053981",
    "request_type": "Trash/Recycling",
    "request_reason": "Request a Large Item Pick Up",
    "date_created": "2023-12-05T15:11:22.000",
    "date_modified": "2023-12-05T15:17:33.000",
    "case_close_date": "2023-12-05T09:17:33.000",
    "request_status": "Closed",
    "responsible_agency": "Department of Sanitation",
    "final_address": "29 Spanish Fort Blvd",
    "address_councildis": "D",
    "status": "Assigned to Contractor",
    "contractor": "IV Waste",
    "contractor_action": "Completed",
    "rowid": "1053981",
    "final_x": "3674113.14529",
    "final_y": "554994.574105",
    "longitude": "-90.09059145450748",
    "latitude": "30.020264854793297",
    "geocoded_column": {
      "latitude": "30.020264854793297",
      "longitude": "-90.09059145450748"
    }
  },
  {
    "service_request": "2023-1053980",
    "request_type": "Traffic Signals/Signs/Striping/Streetlights",
    "request_reason": "Street Light Outage/Malfunction",
    "date_created": "2023-12-05T15:10:17.000",
    "date_modified": "2023-12-05T15:10:18.000",
    "request_status": "Pending",
    "responsible_agency": "Department of Public Works",
    "final_address": "3630 Rue Denise",
    "address_councildis": "C",
    "status": "Assigned to Contractor",
    "contractor": "Legacy Professional Services",
    "rowid": "1053980",
    "final_x": "3704310.76529",
    "final_y": "517182.625845",
    "longitude": "-89.99657084944063",
    "latitude": "29.915360635652995",
    "geocoded_column": {
      "latitude": "29.915360635652995",
      "longitude": "-89.99657084944063"
    }
  },
  {
    "service_request": "2023-1053979",
    "request_type": "Property Maintenance",
    "request_reason": "Property Maintenance",
    "date_created": "2023-12-05T15:09:10.000",
    "date_modified": "2023-12-05T15:09:10.000",
    "request_status": "Pending",
    "responsible_agency": "Department of Code Enforcement",
    "final_address": "7700 S Interstate 10 Service Rd",
    "address_councildis": "E",
    "status": "Pending",
    "rowid": "1053979",
    "final_x": "3702361.02141",
    "final_y": "557847.845147",
    "longitude": "-90.00123273250617",
    "latitude": "30.027237602870162",
    "geocoded_column": {
      "latitude": "30.027237602870162",
      "longitude": "-90.00123273250617"
    }
  },
  {
    "service_request": "2023-1053978",
    "request_type": "Trash/Recycling",
    "request_reason": "Repair Trash Cart",
    "date_created": "2023-12-05T15:07:46.000",
    "date_modified": "2023-12-05T15:07:47.000",
    "request_status": "Pending",
    "responsible_agency": "Department of Sanitation",
    "final_address": "5972 Louisville St",
    "address_councildis": "A",
    "status": "Assigned to Contractor",
    "contractor": "IV Waste",
    "rowid": "1053978",
    "final_x": "3667687.31354",
    "final_y": "547249.665681",
    "longitude": "-90.11115618373015",
    "latitude": "29.999159129479274",
    "geocoded_column": {
      "latitude": "29.999159129479274",
      "longitude": "-90.11115618373015"
    }
  },
  {
    "service_request": "2023-1053977",
    "request_type": "Property Maintenance",
    "request_reason": "Property Maintenance",
    "date_created": "2023-12-05T15:01:34.000",
    "date_modified": "2023-12-05T15:01:34.000",
    "request_status": "Pending",
    "responsible_agency": "Department of Code Enforcement",
    "final_address": "2602 Flood St",
    "address_councildis": "E",
    "status": "Pending",
    "rowid": "1053977",
    "final_x": "3699208.32842",
    "final_y": "539541.969674",
    "longitude": "-90.01186201332513",
    "latitude": "29.977003677639832",
    "geocoded_column": {
      "latitude": "29.977003677639832",
      "longitude": "-90.01186201332513"
    }
  },
  {
    "service_request": "2023-1053976",
    "request_type": "Roads/Drainage",
    "request_reason": "Alley Way",
    "date_created": "2023-12-05T15:00:24.000",
    "date_modified": "2023-12-05T15:00:24.000",
    "request_status": "Pending",
    "responsible_agency": "Department of Public Works",
    "final_address": "7045 Argonne Blvd",
    "address_councildis": "A",
    "status": "Pending",
    "rowid": "1053976",
    "final_x": "3670867.69479",
    "final_y": "554184.561112",
    "longitude": "-90.10087362833846",
    "latitude": "30.018133993299553",
    "geocoded_column": {
      "latitude": "30.018133993299553",
      "longitude": "-90.10087362833846"
    }
  },
  {
    "service_request": "2023-1053975",
    "request_type": "Property Maintenance",
    "request_reason": "Property Maintenance",
    "date_created": "2023-12-05T14:58:53.000",
    "date_modified": "2023-12-05T14:58:53.000",
    "request_status": "Pending",
    "responsible_agency": "Department of Code Enforcement",
    "final_address": "2602 Flood St",
    "address_councildis": "E",
    "status": "Pending",
    "rowid": "1053975",
    "final_x": "3699208.32842",
    "final_y": "539541.969674",
    "longitude": "-90.01186201332513",
    "latitude": "29.977003677639832",
    "geocoded_column": {
      "latitude": "29.977003677639832",
      "longitude": "-90.01186201332513"
    }
  },
  {
    "service_request": "2023-1053974",
    "request_type": "Trash/Recycling",
    "request_reason": "Repair Recycling Cart",
    "date_created": "2023-12-05T14:57:09.000",
    "date_modified": "2023-12-05T14:57:09.000",
    "request_status": "Pending",
    "responsible_agency": "Department of Sanitation",
    "final_address": "1403 Constance St",
    "address_councildis": "B",
    "status": "Pending",
    "rowid": "1053974",
    "final_x": "3680683.21499",
    "final_y": "524390.42022",
    "longitude": "-90.0708974676303",
    "latitude": "29.935916498984962",
    "geocoded_column": {
      "latitude": "29.935916498984962",
      "longitude": "-90.0708974676303"
    }
  },
  {
    "service_request": "2023-1053973",
    "request_type": "Roads/Drainage",
    "request_reason": "Pothole",
    "date_created": "2023-12-05T14:53:56.000",
    "date_modified": "2023-12-05T14:53:57.000",
    "request_status": "Pending",
    "responsible_agency": "Department of Public Works",
    "final_address": "5238 Laurel St",
    "address_councildis": "B",
    "status": "Pending",
    "rowid": "1053973",
    "final_x": "3667705.06292",
    "final_y": "517834.917238",
    "longitude": "-90.11209047994365",
    "latitude": "29.918277734166384",
    "geocoded_column": {
      "latitude": "29.918277734166384",
      "longitude": "-90.11209047994365"
    }
  },
  {
    "service_request": "2023-1053972",
    "request_type": "Roads/Drainage",
    "request_reason": "Street Subsidence (Sinking)",
    "date_created": "2023-12-05T14:53:54.000",
    "date_modified": "2023-12-05T14:53:55.000",
    "request_status": "Pending",
    "responsible_agency": "Department of Public Works",
    "final_address": "5801 Providence Pl",
    "address_councildis": "D",
    "status": "Pending",
    "rowid": "1053972",
    "final_x": "3688330.1846",
    "final_y": "554628.985112",
    "longitude": "-90.04568311435452",
    "latitude": "30.01882798211947",
    "geocoded_column": {
      "latitude": "30.01882798211947",
      "longitude": "-90.04568311435452"
    }
  },
  {
    "service_request": "2023-1053971",
    "request_type": "Property Maintenance",
    "request_reason": "Property Maintenance",
    "date_created": "2023-12-05T14:53:35.000",
    "date_modified": "2023-12-05T14:53:35.000",
    "request_status": "Pending",
    "responsible_agency": "Department of Code Enforcement",
    "final_address": "7700 S Interstate 10 Service Rd",
    "address_councildis": "E",
    "status": "Pending",
    "rowid": "1053971",
    "final_x": "3702361.02141",
    "final_y": "557847.845147",
    "longitude": "-90.00123273250617",
    "latitude": "30.027237602870162",
    "geocoded_column": {
      "latitude": "30.027237602870162",
      "longitude": "-90.00123273250617"
    }
  },
  {
    "service_request": "2023-1053970",
    "request_type": "Traffic Signals/Signs/Striping/Streetlights",
    "request_reason": "Road Surface Marking Maintenance-Parking Lane",
    "date_created": "2023-12-05T14:52:15.000",
    "date_modified": "2023-12-05T14:52:15.000",
    "request_status": "Pending",
    "responsible_agency": "Department of Public Works",
    "final_address": "904 Louisiana Ave",
    "address_councildis": "B",
    "status": "Pending",
    "rowid": "1053970",
    "final_x": "3675195.1444",
    "final_y": "518956.740983",
    "longitude": "-90.0884098164003",
    "latitude": "29.921140759066677",
    "geocoded_column": {
      "latitude": "29.921140759066677",
      "longitude": "-90.0884098164003"
    }
  },
  {
    "service_request": "2023-1053969",
    "request_type": "Trash/Recycling",
    "request_reason": "Missed Trash Pick-Up",
    "date_created": "2023-12-05T14:50:53.000",
    "date_modified": "2023-12-05T14:50:54.000",
    "request_status": "Pending",
    "responsible_agency": "Department of Sanitation",
    "final_address": "9310 Hayne Blvd",
    "address_councildis": "E",
    "status": "Assigned to Contractor",
    "contractor": "Waste Pro",
    "rowid": "1053969",
    "final_x": "3705555.61521",
    "final_y": "564630.089633",
    "longitude": "-89.99088709768064",
    "latitude": "30.045783600497586",
    "geocoded_column": {
      "latitude": "30.045783600497586",
      "longitude": "-89.99088709768064"
    }
  },
  {
    "service_request": "2023-1053968",
    "request_type": "Trash/Recycling",
    "request_reason": "Order Trash Cart",
    "date_created": "2023-12-05T14:49:58.000",
    "date_modified": "2023-12-05T14:49:59.000",
    "request_status": "Pending",
    "responsible_agency": "Department of Sanitation",
    "final_address": "2639 Milan St",
    "address_councildis": "B",
    "status": "Assigned to Contractor",
    "contractor": "Richards Disposal",
    "rowid": "1053968",
    "final_x": "3671255.40411",
    "final_y": "524767.862076",
    "longitude": "-90.10064851209869",
    "latitude": "29.93723658729047",
    "geocoded_column": {
      "latitude": "29.93723658729047",
      "longitude": "-90.10064851209869"
    }
  },
  {
    "service_request": "2023-1053967",
    "request_type": "Traffic Signals/Signs/Striping/Streetlights",
    "request_reason": "Additional signage",
    "date_created": "2023-12-05T14:49:38.000",
    "date_modified": "2023-12-05T14:49:38.000",
    "request_status": "Pending",
    "responsible_agency": "Department of Public Works",
    "final_address": "801 Broadway St",
    "address_councildis": "A",
    "status": "Pending",
    "rowid": "1053967",
    "final_x": "3663458.18957",
    "final_y": "525318.347645",
    "longitude": "-90.12524659569888",
    "latitude": "29.938978591971413",
    "geocoded_column": {
      "latitude": "29.938978591971413",
      "longitude": "-90.12524659569888"
    }
  },
  {
    "service_request": "2023-1053966",
    "request_type": "Trash/Recycling",
    "request_reason": "Request a Large Item Pick Up",
    "date_created": "2023-12-05T14:48:43.000",
    "date_modified": "2023-12-05T14:48:43.000",
    "request_status": "Pending",
    "responsible_agency": "Department of Sanitation",
    "final_address": "6319 Pandora St",
    "address_councildis": "D",
    "status": "Assigned to Contractor",
    "contractor": "Waste Pro",
    "rowid": "1053966",
    "final_x": "3696834.41258",
    "final_y": "557437.906651",
    "longitude": "-90.01871109400624",
    "latitude": "30.02628593340314",
    "geocoded_column": {
      "latitude": "30.02628593340314",
      "longitude": "-90.01871109400624"
    }
  },
  {
    "service_request": "2023-1053965",
    "request_type": "Trash/Recycling",
    "request_reason": "Illegal Dumping",
    "date_created": "2023-12-05T14:48:14.000",
    "date_modified": "2023-12-05T14:48:14.000",
    "request_status": "Pending",
    "responsible_agency": "Department of Sanitation",
    "final_address": "3805 Laurel St",
    "address_councildis": "B",
    "status": "Pending",
    "rowid": "1053965",
    "final_x": "3673492.72756",
    "final_y": "518355.425334",
    "longitude": "-90.09380412785033",
    "latitude": "29.91953808218453",
    "geocoded_column": {
      "latitude": "29.91953808218453",
      "longitude": "-90.09380412785033"
    }
  },
  {
    "service_request": "2023-1053963",
    "request_type": "Roads/Drainage",
    "request_reason": "Street Flooding / Drainage",
    "date_created": "2023-12-05T14:45:13.000",
    "date_modified": "2023-12-05T14:45:13.000",
    "request_status": "Pending",
    "responsible_agency": "Department of Public Works",
    "final_address": "1600 BLK Saint Ferdinand St",
    "address_councildis": "D",
    "status": "Pending",
    "rowid": "1053963",
    "final_x": "3688244.86888",
    "final_y": "538386.501755",
    "longitude": "-90.04652902095295",
    "latitude": "29.97416965672269",
    "geocoded_column": {
      "latitude": "29.97416965672269",
      "longitude": "-90.04652902095295"
    }
  },
  {
    "service_request": "2023-1053962",
    "request_type": "Trash/Recycling",
    "request_reason": "Replace Trash Cart",
    "date_created": "2023-12-05T14:41:47.000",
    "date_modified": "2023-12-05T14:41:48.000",
    "request_status": "Pending",
    "responsible_agency": "Department of Sanitation",
    "final_address": "4538 S Johnson St",
    "address_councildis": "B",
    "status": "Assigned to Contractor",
    "contractor": "Richards Disposal",
    "rowid": "1053962",
    "final_x": "3669514.51406",
    "final_y": "527115.167615",
    "longitude": "-90.10606525405707",
    "latitude": "29.94374230001293",
    "geocoded_column": {
      "latitude": "29.94374230001293",
      "longitude": "-90.10606525405707"
    }
  },
  {
    "service_request": "2023-1053961",
    "request_type": "Traffic Signals/Signs/Striping/Streetlights",
    "request_reason": "Street Light Outage/Malfunction",
    "date_created": "2023-12-05T14:38:45.000",
    "date_modified": "2023-12-05T14:38:45.000",
    "request_status": "Pending",
    "responsible_agency": "Department of Public Works",
    "final_address": "7131 Restgate Rd",
    "address_councildis": "E",
    "status": "Assigned to Contractor",
    "contractor": "Legacy Professional Services",
    "rowid": "1053961",
    "final_x": "3710836.64261",
    "final_y": "563277.03664",
    "longitude": "-89.97424730190188",
    "latitude": "30.041892067578623",
    "geocoded_column": {
      "latitude": "30.041892067578623",
      "longitude": "-89.97424730190188"
    }
  },
  {
    "service_request": "2023-1053960",
    "request_type": "Trash/Recycling",
    "request_reason": "Return Trash Cart",
    "date_created": "2023-12-05T14:38:23.000",
    "date_modified": "2023-12-05T14:38:23.000",
    "request_status": "Pending",
    "responsible_agency": "Department of Sanitation",
    "final_address": "1537 Washington Ave",
    "address_councildis": "B",
    "status": "Assigned to Contractor",
    "contractor": "Richards Disposal",
    "rowid": "1053960",
    "final_x": "3676088.24136",
    "final_y": "522411.951418",
    "longitude": "-90.08547192933342",
    "latitude": "29.930614758646392",
    "geocoded_column": {
      "latitude": "29.930614758646392",
      "longitude": "-90.08547192933342"
    }
  },
  {
    "service_request": "2023-1053959",
    "request_type": "Trash/Recycling",
    "request_reason": "Request a Large Item Pick Up",
    "date_created": "2023-12-05T14:36:26.000",
    "date_modified": "2023-12-05T14:36:27.000",
    "request_status": "Pending",
    "responsible_agency": "Department of Sanitation",
    "final_address": "7833 Berg Rd",
    "address_councildis": "E",
    "status": "Assigned to Contractor",
    "contractor": "Waste Pro",
    "rowid": "1053959",
    "final_x": "3711496.44984",
    "final_y": "567495.405924",
    "longitude": "-89.97200369671073",
    "latitude": "30.05346934355772",
    "geocoded_column": {
      "latitude": "30.05346934355772",
      "longitude": "-89.97200369671073"
    }
  },
  {
    "service_request": "2023-1053958",
    "request_type": "Trash/Recycling",
    "request_reason": "Request a Large Item Pick Up",
    "date_created": "2023-12-05T14:35:47.000",
    "date_modified": "2023-12-05T14:35:48.000",
    "request_status": "Pending",
    "responsible_agency": "Department of Sanitation",
    "final_address": "4800 Mithra St",
    "address_councildis": "D",
    "status": "Assigned to Contractor",
    "contractor": "IV Waste",
    "rowid": "1053958",
    "final_x": "3691436.44028",
    "final_y": "553541.454871",
    "longitude": "-90.03590739360872",
    "latitude": "30.015741332444673",
    "geocoded_column": {
      "latitude": "30.015741332444673",
      "longitude": "-90.03590739360872"
    }
  },
  {
    "service_request": "2023-1053957",
    "request_type": "Trash/Recycling",
    "request_reason": "Request a Large Item Pick Up",
    "date_created": "2023-12-05T14:33:05.000",
    "date_modified": "2023-12-05T14:33:06.000",
    "request_status": "Pending",
    "responsible_agency": "Department of Sanitation",
    "final_address": "2601 Chartres St",
    "address_councildis": "C",
    "status": "Assigned to Contractor",
    "contractor": "IV Waste",
    "rowid": "1053957",
    "final_x": "3686713.57494",
    "final_y": "534638.496774",
    "longitude": "-90.05149760922077",
    "latitude": "29.96391114646139",
    "geocoded_column": {
      "latitude": "29.96391114646139",
      "longitude": "-90.05149760922077"
    }
  },
  {
    "service_request": "2023-1053956",
    "request_type": "Traffic Signals/Signs/Striping/Streetlights",
    "request_reason": "Traffic Signal Malfunctioning/Damaged",
    "date_created": "2023-12-05T14:27:45.000",
    "date_modified": "2023-12-05T14:27:45.000",
    "request_status": "Pending",
    "responsible_agency": "Department of Public Works",
    "final_address": "CITY PARK AVE & MARCONI DR",
    "address_councildis": "A",
    "status": "Pending",
    "rowid": "1053956",
    "final_x": "3670595.2",
    "final_y": "541788.38",
    "longitude": "-90.10215545455618",
    "latitude": "29.9840568710957",
    "geocoded_column": {
      "latitude": "29.9840568710957",
      "longitude": "-90.10215545455618"
    }
  },
  {
    "service_request": "2023-1053954",
    "request_type": "Roads/Drainage",
    "request_reason": "Pothole",
    "date_created": "2023-12-05T14:27:34.000",
    "date_modified": "2023-12-05T14:28:28.000",
    "request_status": "Pending",
    "responsible_agency": "Department of Public Works",
    "final_address": "3100 BLK Trafalgar St",
    "address_councildis": "A",
    "status": "Pending",
    "rowid": "1053954",
    "final_x": "3678586.48662",
    "final_y": "543167.709056",
    "longitude": "-90.07686684747203",
    "latitude": "29.98761102756519",
    "geocoded_column": {
      "latitude": "29.98761102756519",
      "longitude": "-90.07686684747203"
    }
  },
  {
    "service_request": "2023-1053953",
    "request_type": "Traffic Signals/Signs/Striping/Streetlights",
    "request_reason": "Traffic Sign Missing/Damaged",
    "date_created": "2023-12-05T14:26:12.000",
    "date_modified": "2023-12-05T14:26:12.000",
    "request_status": "Pending",
    "responsible_agency": "Department of Public Works",
    "final_address": "CITY PARK AVE & MARCONI DR",
    "address_councildis": "A",
    "status": "Pending",
    "rowid": "1053953",
    "final_x": "3670595.2",
    "final_y": "541788.38",
    "longitude": "-90.10215545455618",
    "latitude": "29.9840568710957",
    "geocoded_column": {
      "latitude": "29.9840568710957",
      "longitude": "-90.10215545455618"
    }
  },
  {
    "service_request": "2023-1053952",
    "request_type": "Trash/Recycling",
    "request_reason": "Request a Large Item Pick Up",
    "date_created": "2023-12-05T14:25:45.000",
    "date_modified": "2023-12-05T14:25:46.000",
    "request_status": "Pending",
    "responsible_agency": "Department of Sanitation",
    "final_address": "2525 Independence St",
    "address_councildis": "D",
    "status": "Assigned to Contractor",
    "contractor": "IV Waste",
    "rowid": "1053952",
    "final_x": "3692397.65078",
    "final_y": "541093.961676",
    "longitude": "-90.03331661722241",
    "latitude": "29.981485316630323",
    "geocoded_column": {
      "latitude": "29.981485316630323",
      "longitude": "-90.03331661722241"
    }
  },
  {
    "service_request": "2023-1053951",
    "request_type": "Trash/Recycling",
    "request_reason": "Repair Trash Cart",
    "date_created": "2023-12-05T14:24:00.000",
    "date_modified": "2023-12-05T14:24:01.000",
    "request_status": "Pending",
    "responsible_agency": "Department of Sanitation",
    "final_address": "8835 Birch St",
    "address_councildis": "A",
    "status": "Assigned to Contractor",
    "contractor": "Richards Disposal",
    "rowid": "1053951",
    "final_x": "3660897.44499",
    "final_y": "531297.144898",
    "longitude": "-90.13313349771457",
    "latitude": "29.95549236490284",
    "geocoded_column": {
      "latitude": "29.95549236490284",
      "longitude": "-90.13313349771457"
    }
  },
  {
    "service_request": "2023-1053950",
    "request_type": "Trash/Recycling",
    "request_reason": "Request a Large Item Pick Up",
    "date_created": "2023-12-05T14:23:23.000",
    "date_modified": "2023-12-05T14:23:24.000",
    "request_status": "Pending",
    "responsible_agency": "Department of Sanitation",
    "final_address": "3741 Rue Mignon",
    "address_councildis": "C",
    "status": "Assigned to Contractor",
    "contractor": "Richards Disposal",
    "rowid": "1053950",
    "final_x": "3703236.54295",
    "final_y": "516679.621621",
    "longitude": "-89.99997994256609",
    "latitude": "29.914011961950614",
    "geocoded_column": {
      "latitude": "29.914011961950614",
      "longitude": "-89.99997994256609"
    }
  },
  {
    "service_request": "2023-1053949",
    "request_type": "Trash/Recycling",
    "request_reason": "Missed Trash Pick-Up",
    "date_created": "2023-12-05T14:19:44.000",
    "date_modified": "2023-12-05T14:19:45.000",
    "request_status": "Pending",
    "responsible_agency": "Department of Sanitation",
    "final_address": "12001 Curran Rd",
    "address_councildis": "E",
    "status": "Assigned to Contractor",
    "contractor": "Waste Pro",
    "rowid": "1053949",
    "final_x": "3713503.28837",
    "final_y": "568404.618661",
    "longitude": "-89.96562636255173",
    "latitude": "30.055903596284143",
    "geocoded_column": {
      "latitude": "30.055903596284143",
      "longitude": "-89.96562636255173"
    }
  },
  {
    "service_request": "2023-1053948",
    "request_type": "Roads/Drainage",
    "request_reason": "Street Subsidence (Sinking)",
    "date_created": "2023-12-05T14:16:25.000",
    "date_modified": "2023-12-05T14:16:25.000",
    "request_status": "Pending",
    "responsible_agency": "Department of Public Works",
    "final_address": "25 Thrasher St",
    "address_councildis": "D",
    "status": "Pending",
    "rowid": "1053948",
    "final_x": "3672247.97678",
    "final_y": "556207.834458",
    "longitude": "-90.09644344077223",
    "latitude": "30.023656376088258",
    "geocoded_column": {
      "latitude": "30.023656376088258",
      "longitude": "-90.09644344077223"
    }
  },
  {
    "service_request": "2023-1053947",
    "request_type": "Traffic Signals/Signs/Striping/Streetlights",
    "request_reason": "Disabled Parking Sign ",
    "date_created": "2023-12-05T14:09:15.000",
    "date_modified": "2023-12-05T14:09:15.000",
    "request_status": "Pending",
    "responsible_agency": "Department of Public Works",
    "final_address": "8821 Plum St",
    "address_councildis": "A",
    "status": "Pending",
    "rowid": "1053947",
    "final_x": "3660258.68768",
    "final_y": "530454.210626",
    "longitude": "-90.13517830660916",
    "latitude": "29.953192948003185",
    "geocoded_column": {
      "latitude": "29.953192948003185",
      "longitude": "-90.13517830660916"
    }
  },
  {
    "service_request": "2023-1053946",
    "request_type": "Trash/Recycling",
    "request_reason": "Missed Trash Pick-Up",
    "date_created": "2023-12-05T14:08:45.000",
    "date_modified": "2023-12-05T14:08:46.000",
    "request_status": "Pending",
    "responsible_agency": "Department of Sanitation",
    "final_address": "2226 Choctaw Ct",
    "address_councildis": "E",
    "status": "Assigned to Contractor",
    "contractor": "Waste Pro",
    "rowid": "1053946",
    "final_x": "3698556.2136",
    "final_y": "538257.549257",
    "longitude": "-90.01396829793842",
    "latitude": "29.97349264882519",
    "geocoded_column": {
      "latitude": "29.97349264882519",
      "longitude": "-90.01396829793842"
    }
  },
  {
    "service_request": "2023-1053945",
    "request_type": "Roads/Drainage",
    "request_reason": "Street Subsidence (Sinking)",
    "date_created": "2023-12-05T14:06:17.000",
    "date_modified": "2023-12-05T14:06:17.000",
    "request_status": "Pending",
    "responsible_agency": "Department of Public Works",
    "final_address": "623 Egania St",
    "address_councildis": "E",
    "status": "Pending",
    "rowid": "1053945",
    "final_x": "3696388.05399",
    "final_y": "532380.035971",
    "longitude": "-90.0210283546438",
    "latitude": "29.957400044605542",
    "geocoded_column": {
      "latitude": "29.957400044605542",
      "longitude": "-90.0210283546438"
    }
  },
  {
    "service_request": "2023-1053944",
    "request_type": "Trash/Recycling",
    "request_reason": "MIssed Recycling Pick-Up",
    "date_created": "2023-12-05T14:04:54.000",
    "date_modified": "2023-12-05T14:04:55.000",
    "request_status": "Pending",
    "responsible_agency": "Department of Sanitation",
    "final_address": "4619 Iberville St",
    "address_councildis": "A",
    "status": "Assigned to Contractor",
    "contractor": "Richards Disposal",
    "rowid": "1053944",
    "final_x": "3669557.37274",
    "final_y": "540164.609483",
    "longitude": "-90.10548844501554",
    "latitude": "29.97962267478204",
    "geocoded_column": {
      "latitude": "29.97962267478204",
      "longitude": "-90.10548844501554"
    }
  },
  {
    "service_request": "2023-1053943",
    "request_type": "Traffic Signals/Signs/Striping/Streetlights",
    "request_reason": "Street Light Outage/Malfunction",
    "date_created": "2023-12-05T14:00:03.000",
    "date_modified": "2023-12-05T14:00:03.000",
    "request_status": "Pending",
    "responsible_agency": "Department of Public Works",
    "final_address": "1300 BLK Carondelet St",
    "address_councildis": "B",
    "status": "Assigned to Contractor",
    "contractor": "Legacy Professional Services",
    "rowid": "1053943",
    "final_x": "3679054.07197",
    "final_y": "526171.874937",
    "longitude": "-90.07597899148719",
    "latitude": "29.940864164231684",
    "geocoded_column": {
      "latitude": "29.940864164231684",
      "longitude": "-90.07597899148719"
    }
  },
  {
    "service_request": "2023-1053942",
    "request_type": "Trash/Recycling",
    "request_reason": "Order Trash Cart",
    "date_created": "2023-12-05T13:59:59.000",
    "date_modified": "2023-12-05T13:59:59.000",
    "request_status": "Pending",
    "responsible_agency": "Department of Sanitation",
    "final_address": "407 Decatur St",
    "address_councildis": "C",
    "status": "Assigned to Contractor",
    "contractor": "Empire Services",
    "rowid": "1053942",
    "final_x": "3682508.81717",
    "final_y": "531196.904066",
    "longitude": "-90.06489613715388",
    "latitude": "29.954576610090637",
    "geocoded_column": {
      "latitude": "29.954576610090637",
      "longitude": "-90.06489613715388"
    }
  },
  {
    "service_request": "2023-1053941",
    "request_type": "Abandoned Vehicles",
    "request_reason": "Abandoned/Junk Vehicles",
    "date_created": "2023-12-05T13:55:26.000",
    "date_modified": "2023-12-05T13:55:26.000",
    "request_status": "Pending",
    "responsible_agency": "Department of Public Works",
    "final_address": "2270 N Johnson St",
    "address_councildis": "D",
    "status": "Inspected",
    "rowid": "1053941",
    "final_x": "3685435.84226",
    "final_y": "539642.645706",
    "longitude": "-90.05535631186503",
    "latitude": "29.977710053951757",
    "geocoded_column": {
      "latitude": "29.977710053951757",
      "longitude": "-90.05535631186503"
    }
  },
  {
    "service_request": "2023-1053940",
    "request_type": "Trash/Recycling",
    "request_reason": "Missed Trash Pick-Up",
    "date_created": "2023-12-05T13:54:52.000",
    "date_modified": "2023-12-05T13:54:53.000",
    "request_status": "Pending",
    "responsible_agency": "Department of Sanitation",
    "final_address": "7050 E Renaissance Ct",
    "address_councildis": "E",
    "status": "Assigned to Contractor",
    "contractor": "Waste Pro",
    "rowid": "1053940",
    "final_x": "3717417.67768",
    "final_y": "567522.681444",
    "longitude": "-89.95328740627944",
    "latitude": "30.05334958110673",
    "geocoded_column": {
      "latitude": "30.05334958110673",
      "longitude": "-89.95328740627944"
    }
  },
  {
    "service_request": "2023-1053939",
    "request_type": "Trash/Recycling",
    "request_reason": "Request a Large Item Pick Up",
    "date_created": "2023-12-05T13:53:24.000",
    "date_modified": "2023-12-05T13:53:25.000",
    "request_status": "Pending",
    "responsible_agency": "Department of Sanitation",
    "final_address": "13537 N Lemans St",
    "address_councildis": "E",
    "status": "Assigned to Contractor",
    "contractor": "Waste Pro",
    "rowid": "1053939",
    "final_x": "3725725.69964",
    "final_y": "563184.95056",
    "longitude": "-89.92719655614712",
    "latitude": "30.041144881783488",
    "geocoded_column": {
      "latitude": "30.041144881783488",
      "longitude": "-89.92719655614712"
    }
  },
  {
    "service_request": "2023-1053937",
    "request_type": "Trash/Recycling",
    "request_reason": "Stop Trash Service",
    "date_created": "2023-12-05T13:51:53.000",
    "date_modified": "2023-12-05T13:51:54.000",
    "request_status": "Pending",
    "responsible_agency": "Department of Sanitation",
    "final_address": "1933 Cambronne St",
    "address_councildis": "A",
    "status": "Assigned to Contractor",
    "contractor": "Richards Disposal",
    "rowid": "1053937",
    "final_x": "3663039.14963",
    "final_y": "531092.202306",
    "longitude": "-90.1263775500142",
    "latitude": "29.95486698184023",
    "geocoded_column": {
      "latitude": "29.95486698184023",
      "longitude": "-90.1263775500142"
    }
  },
  {
    "service_request": "2023-1053935",
    "request_type": "Abandoned Vehicles",
    "request_reason": "Abandoned/Junk Vehicles",
    "date_created": "2023-12-05T13:49:45.000",
    "date_modified": "2023-12-05T13:49:45.000",
    "request_status": "Pending",
    "responsible_agency": "Department of Public Works",
    "final_address": "800 BLK Milan St",
    "address_councildis": "B",
    "status": "Pending",
    "rowid": "1053935",
    "final_x": "3671821.62614",
    "final_y": "518676.93225",
    "longitude": "-90.09906804391439",
    "latitude": "29.920471725154027",
    "geocoded_column": {
      "latitude": "29.920471725154027",
      "longitude": "-90.09906804391439"
    }
  },
  {
    "service_request": "2023-1053934",
    "request_type": "Trash/Recycling",
    "request_reason": "Start Trash Service",
    "date_created": "2023-12-05T13:49:31.000",
    "date_modified": "2023-12-05T13:49:32.000",
    "request_status": "Pending",
    "responsible_agency": "Department of Sanitation",
    "final_address": "4236 S Johnson St",
    "address_councildis": "B",
    "status": "Assigned to Contractor",
    "contractor": "Richards Disposal",
    "rowid": "1053934",
    "final_x": "3670657.80046",
    "final_y": "527227.060415",
    "longitude": "-90.10245178824572",
    "latitude": "29.944016248649426",
    "geocoded_column": {
      "latitude": "29.944016248649426",
      "longitude": "-90.10245178824572"
    }
  },
  {
    "service_request": "2023-1053933",
    "request_type": "Parks & Parkways",
    "request_reason": "Request Tree Service (Right of Way/Public Property)",
    "date_created": "2023-12-05T13:49:11.000",
    "date_modified": "2023-12-05T13:49:12.000",
    "request_status": "Pending",
    "responsible_agency": "Department of Parks & Parkway",
    "final_address": "62 Tern St",
    "address_councildis": "D",
    "status": "Pending",
    "rowid": "1053933",
    "final_x": "3674595.4651",
    "final_y": "557382.141083",
    "longitude": "-90.08898554574169",
    "latitude": "30.026815408776073",
    "geocoded_column": {
      "latitude": "30.026815408776073",
      "longitude": "-90.08898554574169"
    }
  },
  {
    "service_request": "2023-1053932",
    "request_type": "Trash/Recycling",
    "request_reason": "Missed Trash Pick-Up",
    "date_created": "2023-12-05T13:48:59.000",
    "date_modified": "2023-12-05T14:03:01.000",
    "request_status": "Pending",
    "responsible_agency": "Department of Sanitation",
    "final_address": "10674 Hayne Blvd",
    "address_councildis": "E",
    "status": "Assigned to Contractor",
    "contractor": "Waste Pro",
    "rowid": "1053932",
    "final_x": "3708677.71851",
    "final_y": "566415.495331",
    "longitude": "-89.98095318507202",
    "latitude": "30.050591803740197",
    "geocoded_column": {
      "latitude": "30.050591803740197",
      "longitude": "-89.98095318507202"
    }
  },
  {
    "service_request": "2023-1053931",
    "request_type": "Roads/Drainage",
    "request_reason": "Service Cut",
    "date_created": "2023-12-05T13:45:50.000",
    "date_modified": "2023-12-05T15:54:34.000",
    "case_close_date": "2023-12-04T18:00:00.000",
    "request_status": "Closed",
    "responsible_agency": "Department of Public Works",
    "final_address": "1901 Mirabeau Ave",
    "address_councildis": "D",
    "status": "Referred to External Agency",
    "rowid": "1053931",
    "final_x": "3681599.33333",
    "final_y": "550657.226516",
    "longitude": "-90.06708888063827",
    "latitude": "30.008113348304285",
    "geocoded_column": {
      "latitude": "30.008113348304285",
      "longitude": "-90.06708888063827"
    }
  },
  {
    "service_request": "2023-1053930",
    "request_type": "Traffic Signals/Signs/Striping/Streetlights",
    "request_reason": "Traffic Sign Missing/Damaged",
    "date_created": "2023-12-05T13:45:33.000",
    "date_modified": "2023-12-05T13:45:34.000",
    "request_status": "Pending",
    "responsible_agency": "Department of Public Works",
    "final_address": "3500 BLK N Claiborne Ave",
    "address_councildis": "D",
    "status": "Pending",
    "rowid": "1053930",
    "final_x": "3691054.02238",
    "final_y": "537472.053781",
    "longitude": "-90.03768975393955",
    "latitude": "29.97156820498242",
    "geocoded_column": {
      "latitude": "29.97156820498242",
      "longitude": "-90.03768975393955"
    }
  },
  {
    "service_request": "2023-1053929",
    "request_type": "Trash/Recycling",
    "request_reason": "Request a Large Item Pick Up",
    "date_created": "2023-12-05T13:44:02.000",
    "date_modified": "2023-12-05T13:44:03.000",
    "request_status": "Pending",
    "responsible_agency": "Department of Sanitation",
    "final_address": "19 N Oak Ridge Ct",
    "address_councildis": "E",
    "status": "Assigned to Contractor",
    "contractor": "Waste Pro",
    "rowid": "1053929",
    "final_x": "3713491.37272",
    "final_y": "567898.012517",
    "longitude": "-89.96568313796146",
    "latitude": "30.054511027846864",
    "geocoded_column": {
      "latitude": "30.054511027846864",
      "longitude": "-89.96568313796146"
    }
  },
  {
    "service_request": "2023-1053928",
    "request_type": "Trash/Recycling",
    "request_reason": "Request a Large Item Pick Up",
    "date_created": "2023-12-05T13:39:44.000",
    "date_modified": "2023-12-05T13:44:01.000",
    "request_status": "Pending",
    "responsible_agency": "Department of Sanitation",
    "final_address": "255 Belleville St",
    "address_councildis": "C",
    "status": "Assigned to Contractor",
    "contractor": "Richards Disposal",
    "rowid": "1053928",
    "final_x": "3687856.53724",
    "final_y": "530994.247682",
    "longitude": "-90.0480173410112",
    "latitude": "29.95385551437567",
    "geocoded_column": {
      "latitude": "29.95385551437567",
      "longitude": "-90.0480173410112"
    }
  },
  {
    "service_request": "2023-1053927",
    "request_type": "Property Maintenance",
    "request_reason": "Property Maintenance",
    "date_created": "2023-12-05T13:38:46.000",
    "date_modified": "2023-12-05T13:38:46.000",
    "request_status": "Pending",
    "responsible_agency": "Department of Code Enforcement",
    "final_address": "3801 Fairmont Dr",
    "address_councildis": "D",
    "status": "Pending",
    "rowid": "1053927",
    "final_x": "3685163.41321",
    "final_y": "546481.109073",
    "longitude": "-90.05597596274269",
    "latitude": "29.996521754373425",
    "geocoded_column": {
      "latitude": "29.996521754373425",
      "longitude": "-90.05597596274269"
    }
  },
  {
    "service_request": "2023-1053926",
    "request_type": "Traffic Signals/Signs/Striping/Streetlights",
    "request_reason": "Traffic Signal Malfunctioning/Damaged",
    "date_created": "2023-12-05T13:30:11.000",
    "date_modified": "2023-12-05T13:30:11.000",
    "request_status": "Pending",
    "responsible_agency": "Department of Public Works",
    "final_address": "2900 BLK Jefferson Ave",
    "address_councildis": "A",
    "status": "Pending",
    "rowid": "1053926",
    "final_x": "3668363.63568",
    "final_y": "526093.142811",
    "longitude": "-90.10973335525702",
    "latitude": "29.94096590625456",
    "geocoded_column": {
      "latitude": "29.94096590625456",
      "longitude": "-90.10973335525702"
    }
  },
  {
    "service_request": "2023-1053925",
    "request_type": "Trash/Recycling",
    "request_reason": "Order Trash Cart",
    "date_created": "2023-12-05T13:29:04.000",
    "date_modified": "2023-12-05T13:29:05.000",
    "request_status": "Pending",
    "responsible_agency": "Department of Sanitation",
    "final_address": "407 Decatur St",
    "address_councildis": "C",
    "status": "Assigned to Contractor",
    "contractor": "Empire Services",
    "rowid": "1053925",
    "final_x": "3682508.81717",
    "final_y": "531196.904066",
    "longitude": "-90.06489613715388",
    "latitude": "29.954576610090637",
    "geocoded_column": {
      "latitude": "29.954576610090637",
      "longitude": "-90.06489613715388"
    }
  },
  {
    "service_request": "2023-1053924",
    "request_type": "Traffic Signals/Signs/Striping/Streetlights",
    "request_reason": "Street Light Outage/Malfunction",
    "date_created": "2023-12-05T13:24:51.000",
    "date_modified": "2023-12-05T13:24:52.000",
    "request_status": "Pending",
    "responsible_agency": "Department of Public Works",
    "final_address": "MORRISON RD & DOWNMAN RD",
    "address_councildis": "D",
    "status": "Assigned to Contractor",
    "contractor": "Legacy Professional Services",
    "rowid": "1053924",
    "final_x": "3695031.8",
    "final_y": "557307.18",
    "longitude": "-90.0244118268032",
    "latitude": "30.025983227650283",
    "geocoded_column": {
      "latitude": "30.025983227650283",
      "longitude": "-90.0244118268032"
    }
  },
  {
    "service_request": "2023-1053923",
    "request_type": "Trash/Recycling",
    "request_reason": "Repair Recycling Cart",
    "date_created": "2023-12-05T13:24:30.000",
    "date_modified": "2023-12-05T13:24:31.000",
    "request_status": "Pending",
    "responsible_agency": "Department of Sanitation",
    "final_address": "1314 Third St",
    "address_councildis": "B",
    "status": "Pending",
    "rowid": "1053923",
    "final_x": "3677049.8635",
    "final_y": "521861.317306",
    "longitude": "-90.08245520393363",
    "latitude": "29.92907186351889",
    "geocoded_column": {
      "latitude": "29.92907186351889",
      "longitude": "-90.08245520393363"
    }
  },
  {
    "service_request": "2023-1053922",
    "request_type": "Trash/Recycling",
    "request_reason": "Repair Trash Cart",
    "date_created": "2023-12-05T13:24:18.000",
    "date_modified": "2023-12-05T13:24:19.000",
    "request_status": "Pending",
    "responsible_agency": "Department of Sanitation",
    "final_address": "1314 Third St",
    "address_councildis": "B",
    "status": "Assigned to Contractor",
    "contractor": "Richards Disposal",
    "rowid": "1053922",
    "final_x": "3677049.8635",
    "final_y": "521861.317306",
    "longitude": "-90.08245520393363",
    "latitude": "29.92907186351889",
    "geocoded_column": {
      "latitude": "29.92907186351889",
      "longitude": "-90.08245520393363"
    }
  },
  {
    "service_request": "2023-1053921",
    "request_type": "Trash/Recycling",
    "request_reason": "Request a Large Item Pick Up",
    "date_created": "2023-12-05T13:23:06.000",
    "date_modified": "2023-12-05T13:23:07.000",
    "request_status": "Pending",
    "responsible_agency": "Department of Sanitation",
    "final_address": "11244 King Richard Dr",
    "address_councildis": "E",
    "status": "Assigned to Contractor",
    "contractor": "Waste Pro",
    "rowid": "1053921",
    "final_x": "3717159.37068",
    "final_y": "556382.175514",
    "longitude": "-89.95452754956872",
    "latitude": "30.02272625148785",
    "geocoded_column": {
      "latitude": "30.02272625148785",
      "longitude": "-89.95452754956872"
    }
  },
  {
    "service_request": "2023-1053920",
    "request_type": "Trash/Recycling",
    "request_reason": "Illegal Dumping",
    "date_created": "2023-12-05T13:22:24.000",
    "date_modified": "2023-12-05T13:22:24.000",
    "request_status": "Pending",
    "responsible_agency": "Department of Sanitation",
    "final_address": "2218 Josephine St",
    "address_councildis": "B",
    "status": "Pending",
    "rowid": "1053920",
    "final_x": "3676388.44257",
    "final_y": "525863.586621",
    "longitude": "-90.08440547138659",
    "latitude": "29.940096632863938",
    "geocoded_column": {
      "latitude": "29.940096632863938",
      "longitude": "-90.08440547138659"
    }
  },
  {
    "service_request": "2023-1053919",
    "request_type": "Abandoned Vehicles",
    "request_reason": "Abandoned/Junk Vehicles",
    "date_created": "2023-12-05T13:21:17.000",
    "date_modified": "2023-12-05T13:21:17.000",
    "request_status": "Pending",
    "responsible_agency": "Department of Public Works",
    "final_address": "2130 Painters St",
    "address_councildis": "D",
    "status": "Pending",
    "rowid": "1053919",
    "final_x": "3687210.0301",
    "final_y": "540460.367947",
    "longitude": "-90.04972390027345",
    "latitude": "29.97990397244672",
    "geocoded_column": {
      "latitude": "29.97990397244672",
      "longitude": "-90.04972390027345"
    }
  },
  {
    "service_request": "2023-1053918",
    "request_type": "Trash/Recycling",
    "request_reason": "Request a Large Item Pick Up",
    "date_created": "2023-12-05T13:20:30.000",
    "date_modified": "2023-12-05T13:20:30.000",
    "request_status": "Pending",
    "responsible_agency": "Department of Sanitation",
    "final_address": "933 Toledano St",
    "address_councildis": "B",
    "status": "Assigned to Contractor",
    "contractor": "Richards Disposal",
    "rowid": "1053918",
    "final_x": "3675604.82126",
    "final_y": "519376.607287",
    "longitude": "-90.08710223370564",
    "latitude": "29.922283011090915",
    "geocoded_column": {
      "latitude": "29.922283011090915",
      "longitude": "-90.08710223370564"
    }
  },
  {
    "service_request": "2023-1053917",
    "request_type": "Trash/Recycling",
    "request_reason": "Request a Large Item Pick Up",
    "date_created": "2023-12-05T13:19:55.000",
    "date_modified": "2023-12-05T13:19:55.000",
    "request_status": "Pending",
    "responsible_agency": "Department of Sanitation",
    "final_address": "318 Joseph St",
    "address_councildis": "A",
    "status": "Assigned to Contractor",
    "contractor": "Richards Disposal",
    "rowid": "1053917",
    "final_x": "3665720.87648",
    "final_y": "517321.656885",
    "longitude": "-90.11837069379978",
    "latitude": "29.916924428380636",
    "geocoded_column": {
      "latitude": "29.916924428380636",
      "longitude": "-90.11837069379978"
    }
  },
  {
    "service_request": "2023-1053916",
    "request_type": "Traffic Signals/Signs/Striping/Streetlights",
    "request_reason": "Request for Traffic Calming due to Speeding",
    "date_created": "2023-12-05T13:17:50.000",
    "date_modified": "2023-12-05T13:17:50.000",
    "request_status": "Pending",
    "responsible_agency": "Department of Public Works",
    "final_address": "1200 BLK L. B. Landry Ave",
    "address_councildis": "C",
    "status": "Pending",
    "rowid": "1053916",
    "final_x": "3690101.66996",
    "final_y": "526893.413849",
    "longitude": "-90.04107419398773",
    "latitude": "29.942510191330868",
    "geocoded_column": {
      "latitude": "29.942510191330868",
      "longitude": "-90.04107419398773"
    }
  },
  {
    "service_request": "2023-1053915",
    "request_type": "Parks & Parkways",
    "request_reason": "Request Tree Service (Right of Way/Public Property)",
    "date_created": "2023-12-05T13:17:05.000",
    "date_modified": "2023-12-05T13:17:06.000",
    "request_status": "Pending",
    "responsible_agency": "Department of Parks & Parkway",
    "final_address": "11030 Yardley Rd",
    "address_councildis": "E",
    "status": "Pending",
    "rowid": "1053915",
    "final_x": "3712130.18827",
    "final_y": "563747.551969",
    "longitude": "-89.97014156312557",
    "latitude": "30.043143545189373",
    "geocoded_column": {
      "latitude": "30.043143545189373",
      "longitude": "-89.97014156312557"
    }
  },