[
  {
    "service_request": "2023-981046",
    "request_type": "Property Maintenance",
    "request_reason": "Property Maintenance",
    "date_created": "2023-03-08T00:09:49.000",
    "date_modified": "2023-03-08T00:09:49.000",
    "request_status": "Pending",
    "responsible_agency": "Department of Code Enforcement",
    "final_address": "2024 Annette St",
    "address_councildis": "D",
    "status": "Pending",
    "rowid": "981046",
    "final_x": "3682831.09282",
    "final_y": "539691.31073",
    "longitude": "-90.06358129159985",
    "latitude": "29.977923489530745",
    "geocoded_column": {
      "latitude": "29.977923489530745",
      "longitude": "-90.06358129159985"
    }
  },
  {
    "service_request": "2023-981045",
    "request_type": "Trash/Recycling",
    "request_reason": "Illegal Dumping",
    "date_created": "2023-03-07T23:59:43.000",
    "date_modified": "2023-03-07T23:59:43.000",
    "request_status": "Pending",
    "responsible_agency": "Department of Sanitation",
    "final_address": "3600 Cecil St",
    "address_councildis": "A",
    "status": "Pending",
    "rowid": "981045",
    "final_x": "3663609.57011",
    "final_y": "538518.208521",
    "longitude": "-90.12432895928778",
    "latitude": "29.975269528444198",
    "geocoded_column": {
      "latitude": "29.975269528444198",
      "longitude": "-90.12432895928778"
    }
  },
  {
    "service_request": "2023-981044",
    "request_type": "Trash/Recycling",
    "request_reason": "Request a Large Item Pick Up",
    "date_created": "2023-03-07T22:33:44.000",
    "date_modified": "2023-03-07T22:33:44.000",
    "request_status": "Pending",
    "responsible_agency": "Department of Sanitation",
    "final_address": "600 Baronne St",
    "address_councildis": "B",
    "status": "Assigned to Contractor",
    "contractor": "Empire Services",
    "rowid": "981044",
    "final_x": "3679853.90722",
    "final_y": "529065.15296",
    "longitude": "-90.07335332548715",
    "latitude": "29.94879555600546",
    "geocoded_column": {
      "latitude": "29.94879555600546",
      "longitude": "-90.07335332548715"
    }
  },
  {
    "service_request": "2023-981042",
    "request_type": "Abandoned Vehicles",
    "request_reason": "Abandoned/Junk Vehicles",
    "date_created": "2023-03-07T22:23:08.000",
    "date_modified": "2023-03-07T22:23:08.000",
    "request_status": "Pending",
    "responsible_agency": "Department of Public Works",
    "final_address": "2025 Annette St",
    "address_councildis": "D",
    "status": "Pending",
    "rowid": "981042",
    "final_x": "3682892.76968",
    "final_y": "539695.151498",
    "longitude": "-90.06338636028244",
    "latitude": "29.97793217086312",
    "geocoded_column": {
      "latitude": "29.97793217086312",
      "longitude": "-90.06338636028244"
    }
  },
  {
    "service_request": "2023-981041",
    "request_type": "Trash/Recycling",
    "request_reason": "MIssed Recycling Pick-Up",
    "date_created": "2023-03-07T21:48:04.000",
    "date_modified": "2023-03-07T21:48:05.000",
    "request_status": "Pending",
    "responsible_agency": "Department of Sanitation",
    "final_address": "220 S Solomon St",
    "address_councildis": "A",
    "status": "Assigned to Contractor",
    "contractor": "Richards Disposal",
    "rowid": "981041",
    "final_x": "3670248.74311",
    "final_y": "538208.997833",
    "longitude": "-90.10337111327594",
    "latitude": "29.974225015194648",
    "geocoded_column": {
      "latitude": "29.974225015194648",
      "longitude": "-90.10337111327594"
    }
  },
  {
    "service_request": "2023-981040",
    "request_type": "Trash/Recycling",
    "request_reason": "Illegal Dumping",
    "date_created": "2023-03-07T21:17:26.000",
    "date_modified": "2023-03-07T21:17:26.000",
    "request_status": "Pending",
    "responsible_agency": "Department of Sanitation",
    "final_address": "7701 Windward Ct",
    "address_councildis": "E",
    "status": "Pending",
    "rowid": "981040",
    "final_x": "3715620.65496",
    "final_y": "569814.52439",
    "longitude": "-89.95888036919438",
    "latitude": "30.059710593216575",
    "geocoded_column": {
      "latitude": "30.059710593216575",
      "longitude": "-89.95888036919438"
    }
  },
  {
    "service_request": "2023-981039",
    "request_type": "Trash/Recycling",
    "request_reason": "Request a Large Item Pick Up",
    "date_created": "2023-03-07T21:12:17.000",
    "date_modified": "2023-03-07T21:12:18.000",
    "request_status": "Pending",
    "responsible_agency": "Department of Sanitation",
    "final_address": "5410 Norgate Dr",
    "address_councildis": "E",
    "status": "Assigned to Contractor",
    "contractor": "Waste Pro",
    "rowid": "981039",
    "final_x": "3707183.85547",
    "final_y": "557723.299355",
    "longitude": "-89.98599776476887",
    "latitude": "30.026740102688457",
    "geocoded_column": {
      "latitude": "30.026740102688457",
      "longitude": "-89.98599776476887"
    }
  },
  {
    "service_request": "2023-981038",
    "request_type": "Trash/Recycling",
    "request_reason": "Illegal Dumping",
    "date_created": "2023-03-07T21:08:32.000",
    "date_modified": "2023-03-07T21:08:32.000",
    "request_status": "Pending",
    "responsible_agency": "Department of Sanitation",
    "status": "Pending",
    "rowid": "981038",
    "longitude": "0.0",
    "latitude": "0.0",
    "geocoded_column": {
      "latitude": "0.0",
      "longitude": "0.0"
    }
  },
  {
    "service_request": "2023-981037",
    "request_type": "Roads/Drainage",
    "request_reason": "Debris in Roadway",
    "date_created": "2023-03-07T21:01:24.000",
    "date_modified": "2023-03-07T21:01:24.000",
    "request_status": "Pending",
    "responsible_agency": "Department of Public Works",
    "final_address": "1320 St Bernard Ave",
    "address_councildis": "C",
    "status": "Pending",
    "rowid": "981037",
    "final_x": "3682735.69448",
    "final_y": "536684.396039",
    "longitude": "-90.06398779771878",
    "latitude": "29.96965842479355",
    "geocoded_column": {
      "latitude": "29.96965842479355",
      "longitude": "-90.06398779771878"
    }
  },
  {
    "service_request": "2023-981036",
    "request_type": "Traffic Signals/Signs/Striping/Streetlights",
    "request_reason": "Street Light Outage/Malfunction",
    "date_created": "2023-03-07T20:43:52.000",
    "date_modified": "2023-03-07T20:43:53.000",
    "request_status": "Pending",
    "responsible_agency": "Department of Public Works",
    "final_address": "8008 Brevard Ave",
    "address_councildis": "E",
    "status": "Assigned to Contractor",
    "contractor": "Legacy Professional Services",
    "rowid": "981036",
    "final_x": "3705721.62129",
    "final_y": "564523.608993",
    "longitude": "-89.99036638420274",
    "latitude": "30.045485472343625",
    "geocoded_column": {
      "latitude": "30.045485472343625",
      "longitude": "-89.99036638420274"
    }
  },
  {
    "service_request": "2023-981035",
    "request_type": "Trash/Recycling",
    "request_reason": "MIssed Recycling Pick-Up",
    "date_created": "2023-03-07T20:37:40.000",
    "date_modified": "2023-03-07T20:37:40.000",
    "request_status": "Pending",
    "responsible_agency": "Department of Sanitation",
    "final_address": "925 Walker St",
    "address_councildis": "A",
    "status": "Assigned to Contractor",
    "contractor": "IV Waste",
    "rowid": "981035",
    "final_x": "3670671.4178",
    "final_y": "553939.228824",
    "longitude": "-90.10150212454481",
    "latitude": "30.0174652201846",
    "geocoded_column": {
      "latitude": "30.0174652201846",
      "longitude": "-90.10150212454481"
    }
  },
  {
    "service_request": "2023-981033",
    "request_type": "Trash/Recycling",
    "request_reason": "Repair Trash Cart",
    "date_created": "2023-03-07T20:31:31.000",
    "date_modified": "2023-03-07T20:31:32.000",
    "request_status": "Pending",
    "responsible_agency": "Department of Sanitation",
    "final_address": "236 S Pierce St",
    "address_councildis": "A",
    "status": "Assigned to Contractor",
    "contractor": "Richards Disposal",
    "rowid": "981033",
    "final_x": "3671063.76327",
    "final_y": "537437.760072",
    "longitude": "-90.10082328359341",
    "latitude": "29.972080290846268",
    "geocoded_column": {
      "latitude": "29.972080290846268",
      "longitude": "-90.10082328359341"
    }
  },
  {
    "service_request": "2023-981032",
    "request_type": "Trash/Recycling",
    "request_reason": "Replace Trash Cart",
    "date_created": "2023-03-07T20:22:23.000",
    "date_modified": "2023-03-07T20:22:23.000",
    "request_status": "Pending",
    "responsible_agency": "Department of Sanitation",
    "final_address": "520 Valence St",
    "address_councildis": "B",
    "status": "Assigned to Contractor",
    "contractor": "Richards Disposal",
    "rowid": "981032",
    "final_x": "3670019.61844",
    "final_y": "517533.739574",
    "longitude": "-90.10479484432996",
    "latitude": "29.91738155691022",
    "geocoded_column": {
      "latitude": "29.91738155691022",
      "longitude": "-90.10479484432996"
    }
  },
  {
    "service_request": "2023-981031",
    "request_type": "Property Maintenance",
    "request_reason": "Property Maintenance",
    "date_created": "2023-03-07T19:41:12.000",
    "date_modified": "2023-03-07T19:41:12.000",
    "request_status": "Pending",
    "responsible_agency": "Department of Code Enforcement",
    "final_address": "7600 Gannon Rd",
    "address_councildis": "E",
    "status": "Pending",
    "rowid": "981031",
    "final_x": "3716469.08671",
    "final_y": "569659.73431",
    "longitude": "-89.95620443875303",
    "latitude": "30.059256974348585",
    "geocoded_column": {
      "latitude": "30.059256974348585",
      "longitude": "-89.95620443875303"
    }
  },
  {
    "service_request": "2023-981030",
    "request_type": "Trash/Recycling",
    "request_reason": "Request a Large Item Pick Up",
    "date_created": "2023-03-07T19:30:28.000",
    "date_modified": "2023-03-07T19:30:28.000",
    "request_status": "Pending",
    "responsible_agency": "Department of Sanitation",
    "final_address": "6006 Cameron Blvd",
    "address_councildis": "D",
    "status": "Assigned to Contractor",
    "contractor": "IV Waste",
    "rowid": "981030",
    "final_x": "3682325.40412",
    "final_y": "554767.179928",
    "longitude": "-90.0646512369902",
    "latitude": "30.0193921439451",
    "geocoded_column": {
      "latitude": "30.0193921439451",
      "longitude": "-90.0646512369902"
    }
  },
  {
    "service_request": "2023-981029",
    "request_type": "Abandoned Vehicles",
    "request_reason": "Abandoned/Junk Vehicles",
    "date_created": "2023-03-07T19:01:32.000",
    "date_modified": "2023-03-07T19:06:55.000",
    "request_status": "Pending",
    "responsible_agency": "Department of Public Works",
    "final_address": "300 BLK N Robertson St",
    "address_councildis": "B",
    "status": "Pending",
    "rowid": "981029",
    "final_x": "3679289.10037",
    "final_y": "533334.753656",
    "longitude": "-90.07498861650525",
    "latitude": "29.960552584580697",
    "geocoded_column": {
      "latitude": "29.960552584580697",
      "longitude": "-90.07498861650525"
    }
  },
  {
    "service_request": "2023-981028",
    "request_type": "Trash/Recycling",
    "request_reason": "Dead Animal Pick Up",
    "date_created": "2023-03-07T19:00:30.000",
    "date_modified": "2023-03-07T19:00:31.000",
    "request_status": "Pending",
    "responsible_agency": "Department of Sanitation",
    "final_address": "2611 Orleans Ave",
    "address_councildis": "D",
    "status": "Assigned to Contractor",
    "contractor": "Richards Disposal",
    "rowid": "981028",
    "final_x": "3677171.65294",
    "final_y": "536795.769096",
    "longitude": "-90.081555699443",
    "latitude": "29.970132972024437",
    "geocoded_column": {
      "latitude": "29.970132972024437",
      "longitude": "-90.081555699443"
    }
  },
  {
    "service_request": "2023-981027",
    "request_type": "Trash/Recycling",
    "request_reason": "Missed Trash Pick-Up",
    "date_created": "2023-03-07T18:59:50.000",
    "date_modified": "2023-03-07T18:59:50.000",
    "request_status": "Pending",
    "responsible_agency": "Department of Sanitation",
    "final_address": "1309 Leontine St",
    "address_councildis": "B",
    "status": "Assigned to Contractor",
    "contractor": "Richards Disposal",
    "rowid": "981027",
    "final_x": "3667402.1929",
    "final_y": "520074.555768",
    "longitude": "-90.11297119012383",
    "latitude": "29.92444490734079",
    "geocoded_column": {
      "latitude": "29.92444490734079",
      "longitude": "-90.11297119012383"
    }
  },
  {
    "service_request": "2023-981026",
    "request_type": "Traffic Signals/Signs/Striping/Streetlights",
    "request_reason": "Street Light Outage/Malfunction",
    "date_created": "2023-03-07T18:59:14.000",
    "date_modified": "2023-03-07T18:59:15.000",
    "request_status": "Pending",
    "responsible_agency": "Department of Public Works",
    "final_address": "2814 Jefferson Ave",
    "address_councildis": "A",
    "status": "Assigned to Contractor",
    "contractor": "Legacy Professional Services",
    "rowid": "981026",
    "final_x": "3668201.23207",
    "final_y": "525795.426429",
    "longitude": "-90.11025612744163",
    "latitude": "29.9401520498314",
    "geocoded_column": {
      "latitude": "29.9401520498314",
      "longitude": "-90.11025612744163"
    }
  },
  {
    "service_request": "2023-981024",
    "request_type": "Trash/Recycling",
    "request_reason": "Order Recycling Cart",
    "date_created": "2023-03-07T18:49:37.000",
    "date_modified": "2023-03-07T18:49:37.000",
    "request_status": "Pending",
    "responsible_agency": "Department of Sanitation",
    "final_address": "4415 N Rampart St",
    "address_councildis": "C",
    "status": "Pending",
    "rowid": "981024",
    "final_x": "3693099.6751",
    "final_y": "534552.959365",
    "longitude": "-90.03133405941607",
    "latitude": "29.963477966873015",
    "geocoded_column": {
      "latitude": "29.963477966873015",
      "longitude": "-90.03133405941607"
    }
  },
  {
    "service_request": "2023-981023",
    "request_type": "Trash/Recycling",
    "request_reason": "Missed Trash Pick-Up",
    "date_created": "2023-03-07T18:47:44.000",
    "date_modified": "2023-03-07T18:47:45.000",
    "request_status": "Pending",
    "responsible_agency": "Department of Sanitation",
    "final_address": "13224 Willowbrook Dr",
    "address_councildis": "E",
    "status": "Assigned to Contractor",
    "contractor": "Waste Pro",
    "rowid": "981023",
    "final_x": "3726771.22483",
    "final_y": "564136.454177",
    "longitude": "-89.92385538926995",
    "latitude": "30.043725801321578",
    "geocoded_column": {
      "latitude": "30.043725801321578",
      "longitude": "-89.92385538926995"
    }
  },
  {
    "service_request": "2023-981022",
    "request_type": "Trash/Recycling",
    "request_reason": "Missed Trash Pick-Up",
    "date_created": "2023-03-07T18:46:17.000",
    "date_modified": "2023-03-07T18:46:18.000",
    "request_status": "Pending",
    "responsible_agency": "Department of Sanitation",
    "final_address": "1124 General Taylor St",
    "address_councildis": "B",
    "status": "Assigned to Contractor",
    "contractor": "Richards Disposal",
    "rowid": "981022",
    "final_x": "3672866.27726",
    "final_y": "519903.016184",
    "longitude": "-90.09572876169955",
    "latitude": "29.923812081542685",
    "geocoded_column": {
      "latitude": "29.923812081542685",
      "longitude": "-90.09572876169955"
    }
  },
  {
    "service_request": "2023-981020",
    "request_type": "Abandoned Vehicles",
    "request_reason": "Abandoned/Junk Vehicles",
    "date_created": "2023-03-07T18:21:36.000",
    "date_modified": "2023-03-07T18:21:36.000",
    "request_status": "Pending",
    "responsible_agency": "Department of Public Works",
    "final_address": "1410 Peniston St",
    "address_councildis": "B",
    "status": "Pending",
    "rowid": "981020",
    "final_x": "3672958.77377",
    "final_y": "520647.251769",
    "longitude": "-90.09541140242618",
    "latitude": "29.925855743393594",
    "geocoded_column": {
      "latitude": "29.925855743393594",
      "longitude": "-90.09541140242618"
    }
  },
  {
    "service_request": "2023-981021",
    "request_type": "Trash/Recycling",
    "request_reason": "Order Recycling Cart",
    "date_created": "2023-03-07T18:21:36.000",
    "date_modified": "2023-03-07T18:21:36.000",
    "request_status": "Pending",
    "responsible_agency": "Department of Sanitation",
    "final_address": "4911 Treves St",
    "address_councildis": "E",
    "status": "Pending",
    "rowid": "981021",
    "final_x": "3729970.93638",
    "final_y": "562778.035168",
    "longitude": "-89.91379626367993",
    "latitude": "30.039882106946997",
    "geocoded_column": {
      "latitude": "30.039882106946997",
      "longitude": "-89.91379626367993"
    }
  },
  {
    "service_request": "2023-981019",
    "request_type": "Trash/Recycling",
    "request_reason": "Replace Trash Cart",
    "date_created": "2023-03-07T18:15:46.000",
    "date_modified": "2023-03-07T18:15:47.000",
    "request_status": "Pending",
    "responsible_agency": "Department of Sanitation",
    "final_address": "2924 Dublin St",
    "address_councildis": "A",
    "status": "Assigned to Contractor",
    "contractor": "Richards Disposal",
    "rowid": "981019",
    "final_x": "3665921.68077",
    "final_y": "533302.201988",
    "longitude": "-90.11720151175246",
    "latitude": "29.960859955592316",
    "geocoded_column": {
      "latitude": "29.960859955592316",
      "longitude": "-90.11720151175246"
    }
  },
  {
    "service_request": "2023-981018",
    "request_type": "Trash/Recycling",
    "request_reason": "Order Recycling Cart",
    "date_created": "2023-03-07T18:08:41.000",
    "date_modified": "2023-03-07T18:08:41.000",
    "request_status": "Pending",
    "responsible_agency": "Department of Sanitation",
    "final_address": "3038 St Philip St",
    "address_councildis": "A",
    "status": "Pending",
    "rowid": "981018",
    "final_x": "3676102.71937",
    "final_y": "538803.861257",
    "longitude": "-90.08486240718794",
    "latitude": "29.975686606018545",
    "geocoded_column": {
      "latitude": "29.975686606018545",
      "longitude": "-90.08486240718794"
    }
  },
  {
    "service_request": "2023-981017",
    "request_type": "Trash/Recycling",
    "request_reason": "Order Trash Cart",
    "date_created": "2023-03-07T18:08:11.000",
    "date_modified": "2023-03-07T18:08:11.000",
    "request_status": "Pending",
    "responsible_agency": "Department of Sanitation",
    "final_address": "3038 St Philip St",
    "address_councildis": "A",
    "status": "Assigned to Contractor",
    "contractor": "Richards Disposal",
    "rowid": "981017",
    "final_x": "3676102.71937",
    "final_y": "538803.861257",
    "longitude": "-90.08486240718794",
    "latitude": "29.975686606018545",
    "geocoded_column": {
      "latitude": "29.975686606018545",
      "longitude": "-90.08486240718794"
    }
  },
  {
    "service_request": "2023-981016",
    "request_type": "Trash/Recycling",
    "request_reason": "Missed Trash Pick-Up",
    "date_created": "2023-03-07T17:56:45.000",
    "date_modified": "2023-03-07T17:56:45.000",
    "request_status": "Pending",
    "responsible_agency": "Department of Sanitation",
    "final_address": "522 Crystal St",
    "address_councildis": "D",
    "status": "Assigned to Contractor",
    "contractor": "IV Waste",
    "rowid": "981016",
    "final_x": "3668561.89614",
    "final_y": "556193.365594",
    "longitude": "-90.10809123719713",
    "latitude": "30.023725484255213",
    "geocoded_column": {
      "latitude": "30.023725484255213",
      "longitude": "-90.10809123719713"
    }
  },
  {
    "service_request": "2023-981015",
    "request_type": "Trash/Recycling",
    "request_reason": "Order Trash Cart",
    "date_created": "2023-03-07T17:55:53.000",
    "date_modified": "2023-03-07T17:55:54.000",
    "request_status": "Pending",
    "responsible_agency": "Department of Sanitation",
    "final_address": "1402 Tupelo St",
    "address_councildis": "E",
    "status": "Assigned to Contractor",
    "contractor": "Waste Pro",
    "rowid": "981015",
    "final_x": "3699791.20477",
    "final_y": "534449.228485",
    "longitude": "-90.01020684555992",
    "latitude": "29.962981978232467",
    "geocoded_column": {
      "latitude": "29.962981978232467",
      "longitude": "-90.01020684555992"
    }
  },
  {
    "service_request": "2023-981014",
    "request_type": "Trash/Recycling",
    "request_reason": "Missed Trash Pick-Up",
    "date_created": "2023-03-07T17:54:40.000",
    "date_modified": "2023-03-07T17:54:41.000",
    "request_status": "Pending",
    "responsible_agency": "Department of Sanitation",
    "final_address": "7600 Lehigh St",
    "address_councildis": "E",
    "status": "Assigned to Contractor",
    "contractor": "Waste Pro",
    "rowid": "981014",
    "final_x": "3710613.03819",
    "final_y": "565509.265698",
    "longitude": "-89.97487033168466",
    "latitude": "30.048037090647043",
    "geocoded_column": {
      "latitude": "30.048037090647043",
      "longitude": "-89.97487033168466"
    }
  },
  {
    "service_request": "2023-981013",
    "request_type": "Abandoned Vehicles",
    "request_reason": "Abandoned/Junk Vehicles",
    "date_created": "2023-03-07T17:50:45.000",
    "date_modified": "2023-03-07T17:50:45.000",
    "request_status": "Pending",
    "responsible_agency": "Department of Public Works",
    "final_address": "6207 Memphis St",
    "address_councildis": "A",
    "status": "Pending",
    "rowid": "981013",
    "final_x": "3669379.9842",
    "final_y": "548664.520723",
    "longitude": "-90.10576110033749",
    "latitude": "30.00299973751752",
    "geocoded_column": {
      "latitude": "30.00299973751752",
      "longitude": "-90.10576110033749"
    }
  },
  {
    "service_request": "2023-981012",
    "request_type": "Trash/Recycling",
    "request_reason": "Dead Animal Pick Up",
    "date_created": "2023-03-07T17:46:53.000",
    "date_modified": "2023-03-07T17:46:54.000",
    "request_status": "Pending",
    "responsible_agency": "Department of Sanitation",
    "final_address": "6313 Kingston Ct",
    "address_councildis": "C",
    "status": "Assigned to Contractor",
    "contractor": "Richards Disposal",
    "rowid": "981012",
    "final_x": "3707271.48203",
    "final_y": "517747.51071",
    "longitude": "-89.98720486618984",
    "latitude": "29.91681856651682",
    "geocoded_column": {
      "latitude": "29.91681856651682",
      "longitude": "-89.98720486618984"
    }
  },
  {
    "service_request": "2023-981011",
    "request_type": "Abandoned Vehicles",
    "request_reason": "Abandoned/Junk Vehicles",
    "date_created": "2023-03-07T17:45:01.000",
    "date_modified": "2023-03-07T17:45:01.000",
    "request_status": "Pending",
    "responsible_agency": "Department of Public Works",
    "final_address": "640 Frenchmen St",
    "address_councildis": "C",
    "status": "Pending",
    "rowid": "981011",
    "final_x": "3684674.75036",
    "final_y": "534785.78471",
    "longitude": "-90.0579308381368",
    "latitude": "29.964378694274583",
    "geocoded_column": {
      "latitude": "29.964378694274583",
      "longitude": "-90.0579308381368"
    }
  },
  {
    "service_request": "2023-981010",
    "request_type": "Roads/Drainage",
    "request_reason": "Pothole",
    "date_created": "2023-03-07T17:25:44.000",
    "date_modified": "2023-03-07T17:25:45.000",
    "request_status": "Pending",
    "responsible_agency": "Department of Public Works",
    "final_address": "2200 BLK Burgundy St",
    "address_councildis": "C",
    "status": "Pending",
    "rowid": "981010",
    "final_x": "3685290.5805",
    "final_y": "535602.939737",
    "longitude": "-90.05595733145998",
    "latitude": "29.966606725492138",
    "geocoded_column": {
      "latitude": "29.966606725492138",
      "longitude": "-90.05595733145998"
    }
  },
  {
    "service_request": "2023-981009",
    "request_type": "Roads/Drainage",
    "request_reason": "Damaged Sidewalk",
    "date_created": "2023-03-07T17:24:28.000",
    "date_modified": "2023-03-07T17:24:28.000",
    "request_status": "Pending",
    "responsible_agency": "Department of Public Works",
    "final_address": "7403 Downman Rd",
    "address_councildis": "D",
    "status": "Pending",
    "rowid": "981009",
    "final_x": "3694955.60086",
    "final_y": "557841.998811",
    "longitude": "-90.02463330362855",
    "latitude": "30.027456169332456",
    "geocoded_column": {
      "latitude": "30.027456169332456",
      "longitude": "-90.02463330362855"
    }
  },
  {
    "service_request": "2023-981008",
    "request_type": "Trash/Recycling",
    "request_reason": "Missed Trash Pick-Up",
    "date_created": "2023-03-07T17:22:36.000",
    "date_modified": "2023-03-07T17:22:37.000",
    "request_status": "Pending",
    "responsible_agency": "Department of Sanitation",
    "final_address": "4922 Baronne St",
    "address_councildis": "B",
    "status": "Assigned to Contractor",
    "contractor": "Richards Disposal",
    "rowid": "981008",
    "final_x": "3668888.46945",
    "final_y": "521393.464377",
    "longitude": "-90.10823499607537",
    "latitude": "29.928027877430683",
    "geocoded_column": {
      "latitude": "29.928027877430683",
      "longitude": "-90.10823499607537"
    }
  },
  {
    "service_request": "2023-981007",
    "request_type": "Trash/Recycling",
    "request_reason": "Order Recycling Cart",
    "date_created": "2023-03-07T17:08:07.000",
    "date_modified": "2023-03-07T17:08:07.000",
    "request_status": "Pending",
    "responsible_agency": "Department of Sanitation",
    "final_address": "115 Decatur St",
    "address_councildis": "C",
    "status": "Pending",
    "rowid": "981007",
    "final_x": "3681895.3037",
    "final_y": "530392.642114",
    "longitude": "-90.06686144137885",
    "latitude": "29.952383822291566",
    "geocoded_column": {
      "latitude": "29.952383822291566",
      "longitude": "-90.06686144137885"
    }
  },
  {
    "service_request": "2023-981006",
    "request_type": "Trash/Recycling",
    "request_reason": "Request a Large Item Pick Up",
    "date_created": "2023-03-07T17:03:28.000",
    "date_modified": "2023-03-07T17:03:29.000",
    "request_status": "Pending",
    "responsible_agency": "Department of Sanitation",
    "final_address": "10720 Roger Dr Apt D",
    "address_councildis": "E",
    "status": "Assigned to Contractor",
    "contractor": "Waste Pro",
    "rowid": "981006",
    "final_x": "3711644.80683",
    "final_y": "562940.561248",
    "longitude": "-89.97170586169754",
    "latitude": "30.04094051359983",
    "geocoded_column": {
      "latitude": "30.04094051359983",
      "longitude": "-89.97170586169754"
    }
  },
  {
    "service_request": "2023-981005",
    "request_type": "Abandoned Vehicles",
    "request_reason": "Abandoned/Junk Vehicles",
    "date_created": "2023-03-07T16:57:16.000",
    "date_modified": "2023-03-07T16:57:16.000",
    "request_status": "Pending",
    "responsible_agency": "Department of Public Works",
    "final_address": "230 S Scott St",
    "address_councildis": "A",
    "status": "Pending",
    "rowid": "981005",
    "final_x": "3671397.02113",
    "final_y": "537247.050312",
    "longitude": "-90.09977728190195",
    "latitude": "29.971546042522476",
    "geocoded_column": {
      "latitude": "29.971546042522476",
      "longitude": "-90.09977728190195"
    }
  },
  {
    "service_request": "2023-981004",
    "request_type": "Trash/Recycling",
    "request_reason": "Missed Trash Pick-Up",
    "date_created": "2023-03-07T16:54:36.000",
    "date_modified": "2023-03-07T16:54:36.000",
    "request_status": "Pending",
    "responsible_agency": "Department of Sanitation",
    "final_address": "1427 Egania St",
    "address_councildis": "E",
    "status": "Assigned to Contractor",
    "contractor": "Waste Pro",
    "rowid": "981004",
    "final_x": "3697212.84381",
    "final_y": "535372.645382",
    "longitude": "-90.01831548072441",
    "latitude": "29.965602659306843",
    "geocoded_column": {
      "latitude": "29.965602659306843",
      "longitude": "-90.01831548072441"
    }
  },
  {
    "service_request": "2023-981003",
    "request_type": "Trash/Recycling",
    "request_reason": "Request a Large Item Pick Up",
    "date_created": "2023-03-07T16:50:39.000",
    "date_modified": "2023-03-07T16:50:40.000",
    "request_status": "Pending",
    "responsible_agency": "Department of Sanitation",
    "final_address": "4324 Banks St",
    "address_councildis": "A",
    "status": "Assigned to Contractor",
    "contractor": "Richards Disposal",
    "rowid": "981003",
    "final_x": "3669344.78292",
    "final_y": "538070.390409",
    "longitude": "-90.10623072626316",
    "latitude": "29.973870541032035",
    "geocoded_column": {
      "latitude": "29.973870541032035",
      "longitude": "-90.10623072626316"
    }
  },
  {
    "service_request": "2023-981002",
    "request_type": "Trash/Recycling",
    "request_reason": "Order Trash Cart",
    "date_created": "2023-03-07T16:46:32.000",
    "date_modified": "2023-03-07T16:46:33.000",
    "request_status": "Pending",
    "responsible_agency": "Department of Sanitation",
    "final_address": "4326 Banks St",
    "address_councildis": "A",
    "status": "Assigned to Contractor",
    "contractor": "Richards Disposal",
    "rowid": "981002",
    "final_x": "3669333.05108",
    "final_y": "538080.052489",
    "longitude": "-90.10626745133935",
    "latitude": "29.973897453961087",
    "geocoded_column": {
      "latitude": "29.973897453961087",
      "longitude": "-90.10626745133935"
    }
  },
  {
    "service_request": "2023-981001",
    "request_type": "Trash/Recycling",
    "request_reason": "Order Trash Cart",
    "date_created": "2023-03-07T16:44:30.000",
    "date_modified": "2023-03-07T16:44:31.000",
    "request_status": "Pending",
    "responsible_agency": "Department of Sanitation",
    "final_address": "4324 Banks St",
    "address_councildis": "A",
    "status": "Assigned to Contractor",
    "contractor": "Richards Disposal",
    "rowid": "981001",
    "final_x": "3669344.78292",
    "final_y": "538070.390409",
    "longitude": "-90.10623072626316",
    "latitude": "29.973870541032035",
    "geocoded_column": {
      "latitude": "29.973870541032035",
      "longitude": "-90.10623072626316"
    }
  },
  {
    "service_request": "2023-981000",
    "request_type": "Trash/Recycling",
    "request_reason": "Missed Trash Pick-Up",
    "date_created": "2023-03-07T16:40:09.000",
    "date_modified": "2023-03-07T16:40:10.000",
    "request_status": "Pending",
    "responsible_agency": "Department of Sanitation",
    "final_address": "4809 Ray Ave",
    "address_councildis": "E",
    "status": "Assigned to Contractor",
    "contractor": "Waste Pro",
    "rowid": "981000",
    "final_x": "3698823.62077",
    "final_y": "554739.988376",
    "longitude": "-90.01252373889561",
    "latitude": "30.01880478484148",
    "geocoded_column": {
      "latitude": "30.01880478484148",
      "longitude": "-90.01252373889561"
    }
  },
  {
    "service_request": "2023-980999",
    "request_type": "Trash/Recycling",
    "request_reason": "Missed Trash Pick-Up",
    "date_created": "2023-03-07T16:30:38.000",
    "date_modified": "2023-03-07T16:30:39.000",
    "request_status": "Pending",
    "responsible_agency": "Department of Sanitation",
    "final_address": "8526 Panola St",
    "address_councildis": "A",
    "status": "Assigned to Contractor",
    "contractor": "Richards Disposal",
    "rowid": "980999",
    "final_x": "3662839.02042",
    "final_y": "531804.739011",
    "longitude": "-90.12698579774666",
    "latitude": "29.95683202181691",
    "geocoded_column": {
      "latitude": "29.95683202181691",
      "longitude": "-90.12698579774666"
    }
  },
  {
    "service_request": "2023-980998",
    "request_type": "Trash/Recycling",
    "request_reason": "Request a Large Item Pick Up",
    "date_created": "2023-03-07T16:29:27.000",
    "date_modified": "2023-03-07T16:29:28.000",
    "request_status": "Pending",
    "responsible_agency": "Department of Sanitation",
    "final_address": "4717 Stemway Dr",
    "address_councildis": "D",
    "status": "Assigned to Contractor",
    "contractor": "Waste Pro",
    "rowid": "980998",
    "final_x": "3696995.31242",
    "final_y": "554083.43868",
    "longitude": "-90.01832431850424",
    "latitude": "30.01705734277201",
    "geocoded_column": {
      "latitude": "30.01705734277201",
      "longitude": "-90.01832431850424"
    }
  },
  {
    "service_request": "2023-980997",
    "request_type": "Trash/Recycling",
    "request_reason": "Repair Trash Cart",
    "date_created": "2023-03-07T16:26:39.000",
    "date_modified": "2023-03-07T16:26:40.000",
    "request_status": "Pending",
    "responsible_agency": "Department of Sanitation",
    "final_address": "425 Allen Toussaint Blvd",
    "address_councildis": "D",
    "status": "Assigned to Contractor",
    "contractor": "IV Waste",
    "rowid": "980997",
    "final_x": "3668011.84557",
    "final_y": "554903.266456",
    "longitude": "-90.10987281897455",
    "latitude": "30.020194330985728",
    "geocoded_column": {
      "latitude": "30.020194330985728",
      "longitude": "-90.10987281897455"
    }
  },
  {
    "service_request": "2023-980996",
    "request_type": "Trash/Recycling",
    "request_reason": "Order Recycling Cart",
    "date_created": "2023-03-07T16:25:36.000",
    "date_modified": "2023-03-07T16:25:36.000",
    "request_status": "Pending",
    "responsible_agency": "Department of Sanitation",
    "final_address": "2642 Elder St Apt B",
    "address_councildis": "D",
    "status": "Pending",
    "rowid": "980996",
    "final_x": "3687631.45673",
    "final_y": "545760.747664",
    "longitude": "-90.04820510693625",
    "latitude": "29.994465137618914",
    "geocoded_column": {
      "latitude": "29.994465137618914",
      "longitude": "-90.04820510693625"
    }
  },
  {
    "service_request": "2023-980995",
    "request_type": "Trash/Recycling",
    "request_reason": "Return Trash Cart",
    "date_created": "2023-03-07T16:24:56.000",
    "date_modified": "2023-03-07T16:24:57.000",
    "request_status": "Pending",
    "responsible_agency": "Department of Sanitation",
    "final_address": "531 Atlantic Ave",
    "address_councildis": "C",
    "status": "Assigned to Contractor",
    "contractor": "Richards Disposal",
    "rowid": "980995",
    "final_x": "3688747.10716",
    "final_y": "529623.014337",
    "longitude": "-90.04525396895237",
    "latitude": "29.95005759574778",
    "geocoded_column": {
      "latitude": "29.95005759574778",
      "longitude": "-90.04525396895237"
    }
  },
  {
    "service_request": "2023-980994",
    "request_type": "Trash/Recycling",
    "request_reason": "Request a Large Item Pick Up",
    "date_created": "2023-03-07T16:20:28.000",
    "date_modified": "2023-03-07T16:20:29.000",
    "request_status": "Pending",
    "responsible_agency": "Department of Sanitation",
    "final_address": "4642 Galahad Dr",
    "address_councildis": "E",
    "status": "Assigned to Contractor",
    "contractor": "Waste Pro",
    "rowid": "980994",
    "final_x": "3707211.62238",
    "final_y": "554738.460376",
    "longitude": "-89.98602092628053",
    "latitude": "30.018532058665432",
    "geocoded_column": {
      "latitude": "30.018532058665432",
      "longitude": "-89.98602092628053"
    }
  },
  {
    "service_request": "2023-980993",
    "request_type": "Trash/Recycling",
    "request_reason": "Order Trash Cart",
    "date_created": "2023-03-07T16:16:42.000",
    "date_modified": "2023-03-07T16:26:28.000",
    "case_close_date": "2023-03-07T10:26:28.000",
    "request_status": "Closed",
    "responsible_agency": "Department of Sanitation",
    "final_address": "6240 Marigny St",
    "address_councildis": "D",
    "status": "Assigned to Contractor",
    "contractor": "IV Waste",
    "contractor_action": "Completed",
    "rowid": "980993",
    "final_x": "3683739.40674",
    "final_y": "556115.736538",
    "longitude": "-90.06013612569528",
    "latitude": "30.023057054502207",
    "geocoded_column": {
      "latitude": "30.023057054502207",
      "longitude": "-90.06013612569528"
    }
  },
  {
    "service_request": "2023-980992",
    "request_type": "Trash/Recycling",
    "request_reason": "Missed Trash Pick-Up",
    "date_created": "2023-03-07T16:01:33.000",
    "date_modified": "2023-03-07T16:01:33.000",
    "request_status": "Pending",
    "responsible_agency": "Department of Sanitation",
    "final_address": "7600 Founders Ct",
    "address_councildis": "E",
    "status": "Assigned to Contractor",
    "contractor": "Waste Pro",
    "rowid": "980992",
    "final_x": "3725690.9079",
    "final_y": "570781.834215",
    "longitude": "-89.92701184315688",
    "latitude": "30.062034303388494",
    "geocoded_column": {
      "latitude": "30.062034303388494",
      "longitude": "-89.92701184315688"
    }
  },
  {
    "service_request": "2023-980991",
    "request_type": "Trash/Recycling",
    "request_reason": "Return Trash Cart",
    "date_created": "2023-03-07T15:52:00.000",
    "date_modified": "2023-03-07T15:52:00.000",
    "request_status": "Pending",
    "responsible_agency": "Department of Sanitation",
    "final_address": "3920 State Street Dr",
    "address_councildis": "B",
    "status": "Assigned to Contractor",
    "contractor": "Richards Disposal",
    "rowid": "980991",
    "final_x": "3668120.70023",
    "final_y": "530138.725377",
    "longitude": "-90.11036402478453",
    "latitude": "29.952097075802865",
    "geocoded_column": {
      "latitude": "29.952097075802865",
      "longitude": "-90.11036402478453"
    }
  },
  {
    "service_request": "2023-980990",
    "request_type": "Abandoned Vehicles",
    "request_reason": "Abandoned/Junk Vehicles",
    "date_created": "2023-03-07T15:48:48.000",
    "date_modified": "2023-03-07T15:48:49.000",
    "request_status": "Pending",
    "responsible_agency": "Department of Public Works",
    "final_address": "3200 Tulane Ave",
    "address_councildis": "B",
    "status": "Pending",
    "rowid": "980990",
    "final_x": "3672536.10241",
    "final_y": "534535.061189",
    "longitude": "-90.09627235477807",
    "latitude": "29.96405521718449",
    "geocoded_column": {
      "latitude": "29.96405521718449",
      "longitude": "-90.09627235477807"
    }
  },
  {
    "service_request": "2023-980988",
    "request_type": "Trash/Recycling",
    "request_reason": "Replace Trash Cart",
    "date_created": "2023-03-07T15:46:42.000",
    "date_modified": "2023-03-07T15:46:43.000",
    "request_status": "Pending",
    "responsible_agency": "Department of Sanitation",
    "final_address": "7543 Forest Glen Rd",
    "address_councildis": "E",
    "status": "Assigned to Contractor",
    "contractor": "Waste Pro",
    "rowid": "980988",
    "final_x": "3709926.21208",
    "final_y": "564655.931489",
    "longitude": "-89.97707299610248",
    "latitude": "30.045713136371468",
    "geocoded_column": {
      "latitude": "30.045713136371468",
      "longitude": "-89.97707299610248"
    }
  },
  {
    "service_request": "2023-980987",
    "request_type": "Trash/Recycling",
    "request_reason": "Damaged Caused By Contractor",
    "date_created": "2023-03-07T15:46:03.000",
    "date_modified": "2023-03-07T15:46:04.000",
    "request_status": "Pending",
    "responsible_agency": "Department of Sanitation",
    "final_address": "1137 Allen Toussaint Blvd",
    "address_councildis": "D",
    "status": "Assigned to Contractor",
    "contractor": "IV Waste",
    "rowid": "980987",
    "final_x": "3675071.41397",
    "final_y": "554975.497688",
    "longitude": "-90.08756427350598",
    "latitude": "30.02018378951573",
    "geocoded_column": {
      "latitude": "30.02018378951573",
      "longitude": "-90.08756427350598"
    }
  },
  {
    "service_request": "2023-980986",
    "request_type": "Trash/Recycling",
    "request_reason": "Illegal Dumping",
    "date_created": "2023-03-07T15:43:55.000",
    "date_modified": "2023-03-07T15:43:55.000",
    "request_status": "Pending",
    "responsible_agency": "Department of Code Enforcement",
    "final_address": "704 N Claiborne Ave",
    "address_councildis": "C",
    "status": "Pending",
    "rowid": "980986",
    "final_x": "3679855.98338",
    "final_y": "534548.098565",
    "longitude": "-90.07315637551983",
    "latitude": "29.96387174020195",
    "geocoded_column": {
      "latitude": "29.96387174020195",
      "longitude": "-90.07315637551983"
    }
  },
  {
    "service_request": "2023-980985",
    "request_type": "Abandoned Vehicles",
    "request_reason": "Abandoned/Junk Vehicles",
    "date_created": "2023-03-07T15:43:14.000",
    "date_modified": "2023-03-07T15:43:14.000",
    "request_status": "Pending",
    "responsible_agency": "Department of Public Works",
    "final_address": "3822 Octavia St",
    "address_councildis": "A",
    "status": "Pending",
    "rowid": "980985",
    "final_x": "3668748.93102",
    "final_y": "529530.563009",
    "longitude": "-90.10840088796502",
    "latitude": "29.950406376162874",
    "geocoded_column": {
      "latitude": "29.950406376162874",
      "longitude": "-90.10840088796502"
    }
  },
  {
    "service_request": "2023-980984",
    "request_type": "Trash/Recycling",
    "request_reason": "Repair Trash Cart",
    "date_created": "2023-03-07T15:38:17.000",
    "date_modified": "2023-03-07T15:38:17.000",
    "request_status": "Pending",
    "responsible_agency": "Department of Sanitation",
    "final_address": "3611 Milan St",
    "address_councildis": "B",
    "status": "Assigned to Contractor",
    "contractor": "Richards Disposal",
    "rowid": "980984",
    "final_x": "3670921.20283",
    "final_y": "528000.639807",
    "longitude": "-90.10159389698038",
    "latitude": "29.946135556626512",
    "geocoded_column": {
      "latitude": "29.946135556626512",
      "longitude": "-90.10159389698038"
    }
  },
  {
    "service_request": "2023-980983",
    "request_type": "Trash/Recycling",
    "request_reason": "Order Recycling Cart",
    "date_created": "2023-03-07T15:37:29.000",
    "date_modified": "2023-03-07T15:37:29.000",
    "request_status": "Pending",
    "responsible_agency": "Department of Sanitation",
    "final_address": "3825 S Inwood Ave",
    "address_councildis": "C",
    "status": "Pending",
    "rowid": "980983",
    "final_x": "3704988.8266",
    "final_y": "514444.804083",
    "longitude": "-89.99453162200116",
    "latitude": "29.907810797202483",
    "geocoded_column": {
      "latitude": "29.907810797202483",
      "longitude": "-89.99453162200116"
    }
  },
  {
    "service_request": "2023-980982",
    "request_type": "Trash/Recycling",
    "request_reason": "Replace Recycling Cart",
    "date_created": "2023-03-07T15:34:49.000",
    "date_modified": "2023-03-07T15:34:49.000",
    "request_status": "Pending",
    "responsible_agency": "Department of Sanitation",
    "final_address": "1900 Gentilly Blvd",
    "address_councildis": "D",
    "status": "Pending",
    "rowid": "980982",
    "final_x": "3679083.68034",
    "final_y": "543040.608077",
    "longitude": "-90.07530079106067",
    "latitude": "29.98724654398129",
    "geocoded_column": {
      "latitude": "29.98724654398129",
      "longitude": "-90.07530079106067"
    }
  },
  {
    "service_request": "2023-980981",
    "request_type": "Trash/Recycling",
    "request_reason": "Repair Recycling Cart",
    "date_created": "2023-03-07T15:32:59.000",
    "date_modified": "2023-03-07T15:32:59.000",
    "request_status": "Pending",
    "responsible_agency": "Department of Sanitation",
    "final_address": "5860 W Louis Prima Dr",
    "address_councildis": "E",
    "status": "Pending",
    "rowid": "980981",
    "final_x": "3715168.22885",
    "final_y": "562951.864224",
    "longitude": "-89.96057032858108",
    "latitude": "30.040855996101165",
    "geocoded_column": {
      "latitude": "30.040855996101165",
      "longitude": "-89.96057032858108"
    }
  },
  {
    "service_request": "2023-980980",
    "request_type": "Trash/Recycling",
    "request_reason": "Request a Large Item Pick Up",
    "date_created": "2023-03-07T15:32:07.000",
    "date_modified": "2023-03-07T16:51:16.000",
    "request_status": "Pending",
    "responsible_agency": "Department of Sanitation",
    "final_address": "1108 Dauphine St",
    "address_councildis": "C",
    "status": "Assigned to Contractor",
    "contractor": "Empire Services",
    "rowid": "980980",
    "final_x": "3682934.42108",
    "final_y": "534119.615877",
    "longitude": "-90.06344996873612",
    "latitude": "29.9626001079097",
    "geocoded_column": {
      "latitude": "29.9626001079097",
      "longitude": "-90.06344996873612"
    }
  },
  {
    "service_request": "2023-980979",
    "request_type": "Traffic Signals/Signs/Striping/Streetlights",
    "request_reason": "Request for Stop Sign",
    "date_created": "2023-03-07T15:31:11.000",
    "date_modified": "2023-03-07T15:31:11.000",
    "request_status": "Pending",
    "responsible_agency": "Department of Public Works",
    "final_address": "1658 Pleasure St",
    "address_councildis": "D",
    "status": "Pending",
    "rowid": "980979",
    "final_x": "3680384.5693",
    "final_y": "544784.220495",
    "longitude": "-90.07113107891422",
    "latitude": "29.992001528532622",
    "geocoded_column": {
      "latitude": "29.992001528532622",
      "longitude": "-90.07113107891422"
    }
  },
  {
    "service_request": "2023-980978",
    "request_type": "Trash/Recycling",
    "request_reason": "Request a Large Item Pick Up",
    "date_created": "2023-03-07T15:29:51.000",
    "date_modified": "2023-03-07T15:29:51.000",
    "request_status": "Pending",
    "responsible_agency": "Department of Sanitation",
    "final_address": "924 Elysian Fields Ave",
    "address_councildis": "C",
    "status": "Assigned to Contractor",
    "contractor": "IV Waste",
    "rowid": "980978",
    "final_x": "3684953.24501",
    "final_y": "535790.274375",
    "longitude": "-90.05701604254071",
    "latitude": "29.967132166889748",
    "geocoded_column": {
      "latitude": "29.967132166889748",
      "longitude": "-90.05701604254071"
    }
  },
  {
    "service_request": "2023-980977",
    "request_type": "Abandoned Vehicles",
    "request_reason": "Abandoned/Junk Vehicles",
    "date_created": "2023-03-07T15:28:49.000",
    "date_modified": "2023-03-07T15:28:49.000",
    "request_status": "Pending",
    "responsible_agency": "Department of Public Works",
    "final_address": "1811 River Oaks Dr",
    "address_councildis": "C",
    "status": "Pending",
    "rowid": "980977",
    "final_x": "3701641.80573",
    "final_y": "524058.940028",
    "longitude": "-90.00474335842702",
    "latitude": "29.93435347292639",
    "geocoded_column": {
      "latitude": "29.93435347292639",
      "longitude": "-90.00474335842702"
    }
  },
  {
    "service_request": "2023-980976",
    "request_type": "Trash/Recycling",
    "request_reason": "Missed Trash Pick-Up",
    "date_created": "2023-03-07T15:25:12.000",
    "date_modified": "2023-03-07T15:25:13.000",
    "request_status": "Pending",
    "responsible_agency": "Department of Sanitation",
    "final_address": "402 Thayer St",
    "address_councildis": "C",
    "status": "Assigned to Contractor",
    "contractor": "Richards Disposal",
    "rowid": "980976",
    "final_x": "3689606.92745",
    "final_y": "530219.140161",
    "longitude": "-90.04251791876429",
    "latitude": "29.95167013162122",
    "geocoded_column": {
      "latitude": "29.95167013162122",
      "longitude": "-90.04251791876429"
    }
  },
  {
    "service_request": "2023-980971",
    "request_type": "Trash/Recycling",
    "request_reason": "Repair Trash Cart",
    "date_created": "2023-03-07T15:20:25.000",
    "date_modified": "2023-03-07T15:20:25.000",
    "request_status": "Pending",
    "responsible_agency": "Department of Sanitation",
    "final_address": "2118 Valmont St C",
    "address_councildis": "B",
    "status": "Assigned to Contractor",
    "contractor": "Richards Disposal",
    "rowid": "980971",
    "final_x": "3668089.36929",
    "final_y": "523412.305595",
    "longitude": "-90.11068957868663",
    "latitude": "29.933602515389538",
    "geocoded_column": {
      "latitude": "29.933602515389538",
      "longitude": "-90.11068957868663"
    }
  },
  {
    "service_request": "2023-980970",
    "request_type": "Trash/Recycling",
    "request_reason": "Replace Trash Cart",
    "date_created": "2023-03-07T15:19:08.000",
    "date_modified": "2023-03-07T15:19:09.000",
    "request_status": "Pending",
    "responsible_agency": "Department of Sanitation",
    "final_address": "5820 Magnolia St",
    "address_councildis": "A",
    "status": "Assigned to Contractor",
    "contractor": "Richards Disposal",
    "rowid": "980970",
    "final_x": "3666873.16519",
    "final_y": "524881.930556",
    "longitude": "-90.11447973339438",
    "latitude": "29.93767914143554",
    "geocoded_column": {
      "latitude": "29.93767914143554",
      "longitude": "-90.11447973339438"
    }
  },
  {
    "service_request": "2023-980969",
    "request_type": "Trash/Recycling",
    "request_reason": "Order Recycling Cart",
    "date_created": "2023-03-07T15:17:49.000",
    "date_modified": "2023-03-07T15:17:49.000",
    "request_status": "Pending",
    "responsible_agency": "Department of Sanitation",
    "final_address": "7825 Dogwood Dr",
    "address_councildis": "E",
    "status": "Pending",
    "rowid": "980969",
    "final_x": "3701107.63524",
    "final_y": "561678.959519",
    "longitude": "-90.00505296029326",
    "latitude": "30.037811687153685",
    "geocoded_column": {
      "latitude": "30.037811687153685",
      "longitude": "-90.00505296029326"
    }
  },
  {
    "service_request": "2023-980968",
    "request_type": "Trash/Recycling",
    "request_reason": "Order Trash Cart",
    "date_created": "2023-03-07T15:17:34.000",
    "date_modified": "2023-03-07T15:17:34.000",
    "request_status": "Pending",
    "responsible_agency": "Department of Sanitation",
    "final_address": "4548 Chantilly Dr",
    "address_councildis": "E",
    "status": "Assigned to Contractor",
    "contractor": "Waste Pro",
    "rowid": "980968",
    "final_x": "3700891.32337",
    "final_y": "553222.463575",
    "longitude": "-90.00604611911695",
    "latitude": "30.014566471534703",
    "geocoded_column": {
      "latitude": "30.014566471534703",
      "longitude": "-90.00604611911695"
    }
  },
  {
    "service_request": "2023-980967",
    "request_type": "Trash/Recycling",
    "request_reason": "Replace Trash Cart",
    "date_created": "2023-03-07T15:12:35.000",
    "date_modified": "2023-03-07T15:12:35.000",
    "request_status": "Pending",
    "responsible_agency": "Department of Sanitation",
    "final_address": "4223 Marais St",
    "address_councildis": "D",
    "status": "Assigned to Contractor",
    "contractor": "IV Waste",
    "rowid": "980967",
    "final_x": "3692665.68797",
    "final_y": "535497.63143",
    "longitude": "-90.03267067598672",
    "latitude": "29.96608903468532",
    "geocoded_column": {
      "latitude": "29.96608903468532",
      "longitude": "-90.03267067598672"
    }
  },
  {
    "service_request": "2023-980966",
    "request_type": "Trash/Recycling",
    "request_reason": "Missed Trash Pick-Up",
    "date_created": "2023-03-07T15:11:18.000",
    "date_modified": "2023-03-07T15:11:18.000",
    "request_status": "Pending",
    "responsible_agency": "Department of Sanitation",
    "final_address": "7500 Founders Ct",
    "address_councildis": "E",
    "status": "Assigned to Contractor",
    "contractor": "Waste Pro",
    "rowid": "980966",
    "final_x": "3726009.64582",
    "final_y": "570544.959655",
    "longitude": "-89.92601351936207",
    "latitude": "30.06137223857831",
    "geocoded_column": {
      "latitude": "30.06137223857831",
      "longitude": "-89.92601351936207"
    }
  },
  {
    "service_request": "2023-980964",
    "request_type": "Health Related Request",
    "request_reason": "Request Information on the Health Marketplace",
    "date_created": "2023-03-07T15:10:28.000",
    "date_modified": "2023-03-07T15:10:28.000",
    "request_status": "Pending",
    "responsible_agency": "Health Department",
    "status": "Pending",
    "rowid": "980964",
    "longitude": "0.0",
    "latitude": "0.0",
    "geocoded_column": {
      "latitude": "0.0",
      "longitude": "0.0"
    }
  },
  {
    "service_request": "2023-980963",
    "request_type": "Trash/Recycling",
    "request_reason": "Replace Trash Cart",
    "date_created": "2023-03-07T15:04:11.000",
    "date_modified": "2023-03-07T15:04:12.000",
    "request_status": "Pending",
    "responsible_agency": "Department of Sanitation",
    "final_address": "3117 Conti St",
    "address_councildis": "B",
    "status": "Assigned to Contractor",
    "contractor": "Richards Disposal",
    "rowid": "980963",
    "final_x": "3674692.37646",
    "final_y": "537129.220808",
    "longitude": "-90.08937408832925",
    "latitude": "29.971124092503988",
    "geocoded_column": {
      "latitude": "29.971124092503988",
      "longitude": "-90.08937408832925"
    }
  },
  {
    "service_request": "2023-980962",
    "request_type": "Trash/Recycling",
    "request_reason": "Replace Trash Cart",
    "date_created": "2023-03-07T15:03:09.000",
    "date_modified": "2023-03-07T15:03:11.000",
    "request_status": "Pending",
    "responsible_agency": "Department of Sanitation",
    "final_address": "1240 Carondelet St",
    "address_councildis": "B",
    "status": "Assigned to Contractor",
    "contractor": "Richards Disposal",
    "rowid": "980962",
    "final_x": "3679183.07055",
    "final_y": "526306.219262",
    "longitude": "-90.07556706433624",
    "latitude": "29.941229673700775",
    "geocoded_column": {
      "latitude": "29.941229673700775",
      "longitude": "-90.07556706433624"
    }
  },
  {
    "service_request": "2023-980961",
    "request_type": "Trash/Recycling",
    "request_reason": "Replace Trash Cart",
    "date_created": "2023-03-07T14:55:24.000",
    "date_modified": "2023-03-07T14:55:25.000",
    "request_status": "Pending",
    "responsible_agency": "Department of Sanitation",
    "final_address": "3930 General Taylor St",
    "address_councildis": "B",
    "status": "Assigned to Contractor",
    "contractor": "Richards Disposal",
    "rowid": "980961",
    "final_x": "3670688.3707",
    "final_y": "529133.707584",
    "longitude": "-90.10229059490663",
    "latitude": "29.94925800227631",
    "geocoded_column": {
      "latitude": "29.94925800227631",
      "longitude": "-90.10229059490663"
    }
  },
  {
    "service_request": "2023-980960",
    "request_type": "Roads/Drainage",
    "request_reason": "Street Flooding / Drainage",
    "date_created": "2023-03-07T14:53:58.000",
    "date_modified": "2023-03-07T15:29:04.000",
    "case_close_date": "2023-03-07T09:29:04.000",
    "request_status": "Closed",
    "responsible_agency": "Department of Public Works",
    "final_address": "7801 Gannon Rd",
    "address_councildis": "E",
    "status": "Resolved",
    "rowid": "980960",
    "final_x": "3716029.82866",
    "final_y": "570499.745831",
    "longitude": "-89.9575610047722",
    "latitude": "30.06158116663751",
    "geocoded_column": {
      "latitude": "30.06158116663751",
      "longitude": "-89.9575610047722"
    }
  },
  {
    "service_request": "2023-980959",
    "request_type": "Trash/Recycling",
    "request_reason": "Missed Trash Pick-Up",
    "date_created": "2023-03-07T14:50:20.000",
    "date_modified": "2023-03-07T14:50:21.000",
    "request_status": "Pending",
    "responsible_agency": "Department of Sanitation",
    "final_address": "215 Crystal St",
    "address_councildis": "D",
    "status": "Assigned to Contractor",
    "contractor": "IV Waste",
    "rowid": "980959",
    "final_x": "3667247.93428",
    "final_y": "556194.804634",
    "longitude": "-90.11224306057866",
    "latitude": "30.02376800843378",
    "geocoded_column": {
      "latitude": "30.02376800843378",
      "longitude": "-90.11224306057866"
    }
  },
  {
    "service_request": "2023-980958",
    "request_type": "Trash/Recycling",
    "request_reason": "Return Trash Cart",
    "date_created": "2023-03-07T14:50:09.000",
    "date_modified": "2023-03-07T14:51:13.000",
    "request_status": "Pending",
    "responsible_agency": "Department of Sanitation",
    "final_address": "1408 Farragut St",
    "address_councildis": "C",
    "contractor": "Richards Disposal",
    "rowid": "980958",
    "final_x": "3692402.70966",
    "final_y": "526076.456894",
    "longitude": "-90.03383856595609",
    "latitude": "29.940192283531264",
    "geocoded_column": {
      "latitude": "29.940192283531264",
      "longitude": "-90.03383856595609"
    }
  },
  {
    "service_request": "2023-980956",
    "request_type": "Abandoned Vehicles",
    "request_reason": "Abandoned/Junk Vehicles",
    "date_created": "2023-03-07T14:42:01.000",
    "date_modified": "2023-03-07T14:42:21.000",
    "request_status": "Pending",
    "responsible_agency": "Department of Public Works",
    "final_address": "2000 BLK Constance St",
    "address_councildis": "B",
    "status": "Inspected",
    "rowid": "980956",
    "final_x": "3679571.17691",
    "final_y": "522158.540444",
    "longitude": "-90.07448560432928",
    "latitude": "29.92981320588277",
    "geocoded_column": {
      "latitude": "29.92981320588277",
      "longitude": "-90.07448560432928"
    }
  },
  {
    "service_request": "2023-980955",
    "request_type": "Parks & Parkways",
    "request_reason": "Request Tree Service (Right of Way/Public Property)",
    "date_created": "2023-03-07T14:41:28.000",
    "date_modified": "2023-03-07T14:45:32.000",
    "case_close_date": "2023-03-07T08:45:32.000",
    "request_status": "Closed",
    "responsible_agency": "Department of Parks & Parkway",
    "final_address": "232 Nashville Ave",
    "address_councildis": "A",
    "status": "Duplicate Request",
    "rowid": "980955",
    "final_x": "3665058.90682",
    "final_y": "517146.973557",
    "longitude": "-90.12046599309042",
    "latitude": "29.916463387106205",
    "geocoded_column": {
      "latitude": "29.916463387106205",
      "longitude": "-90.12046599309042"
    }
  },
  {
    "service_request": "2023-980954",
    "request_type": "Parks & Parkways",
    "request_reason": "Request Tree Service (Right of Way/Public Property)",
    "date_created": "2023-03-07T14:41:06.000",
    "date_modified": "2023-03-07T14:41:06.000",
    "request_status": "Pending",
    "responsible_agency": "Department of Parks & Parkway",
    "final_address": "1310 Dauphine St",
    "address_councildis": "C",
    "status": "Pending",
    "rowid": "980954",
    "final_x": "3683406.86396",
    "final_y": "534706.166086",
    "longitude": "-90.06193750789774",
    "latitude": "29.964198514049112",
    "geocoded_column": {
      "latitude": "29.964198514049112",
      "longitude": "-90.06193750789774"
    }
  },
  {
    "service_request": "2023-980953",
    "request_type": "Trash/Recycling",
    "request_reason": "Request a Large Item Pick Up",
    "date_created": "2023-03-07T14:37:29.000",
    "date_modified": "2023-03-07T14:37:29.000",
    "request_status": "Pending",
    "responsible_agency": "Department of Sanitation",
    "final_address": "3550 Rue Denise",
    "address_councildis": "C",
    "status": "Assigned to Contractor",
    "contractor": "Richards Disposal",
    "rowid": "980953",
    "final_x": "3704326.07697",
    "final_y": "517483.896182",
    "longitude": "-89.996511426371",
    "latitude": "29.916188534216356",
    "geocoded_column": {
      "latitude": "29.916188534216356",
      "longitude": "-89.996511426371"
    }
  },
  {
    "service_request": "2023-980952",
    "request_type": "Trash/Recycling",
    "request_reason": "Repair Trash Cart",
    "date_created": "2023-03-07T14:33:48.000",
    "date_modified": "2023-03-07T14:33:49.000",
    "request_status": "Pending",
    "responsible_agency": "Department of Sanitation",
    "final_address": "7121 E Tamaron Blvd",
    "address_councildis": "E",
    "status": "Assigned to Contractor",
    "contractor": "Waste Pro",
    "rowid": "980952",
    "final_x": "3718585.34879",
    "final_y": "569013.870182",
    "longitude": "-89.94953982850076",
    "latitude": "30.057411012119395",
    "geocoded_column": {
      "latitude": "30.057411012119395",
      "longitude": "-89.94953982850076"
    }
  },
  {
    "service_request": "2023-980951",
    "request_type": "Property Maintenance",
    "request_reason": "Property Maintenance",
    "date_created": "2023-03-07T14:32:59.000",
    "date_modified": "2023-03-07T14:32:59.000",
    "request_status": "Pending",
    "responsible_agency": "Department of Code Enforcement",
    "final_address": "232 Nashville Ave",
    "address_councildis": "A",
    "status": "Pending",
    "rowid": "980951",
    "final_x": "3665058.90682",
    "final_y": "517146.973557",
    "longitude": "-90.12046599309042",
    "latitude": "29.916463387106205",
    "geocoded_column": {
      "latitude": "29.916463387106205",
      "longitude": "-90.12046599309042"
    }
  },
  {
    "service_request": "2023-980950",
    "request_type": "Trash/Recycling",
    "request_reason": "Missed Trash Pick-Up",
    "date_created": "2023-03-07T14:32:42.000",
    "date_modified": "2023-03-07T14:33:40.000",
    "request_status": "Pending",
    "responsible_agency": "Department of Sanitation",
    "final_address": "13200 Willowbrook Dr",
    "address_councildis": "E",
    "status": "Assigned to Contractor",
    "contractor": "Waste Pro",
    "rowid": "980950",
    "final_x": "3726470.82477",
    "final_y": "564175.674081",
    "longitude": "-89.92480324577345",
    "latitude": "30.043843796596896",
    "geocoded_column": {
      "latitude": "30.043843796596896",
      "longitude": "-89.92480324577345"
    }
  },
  {
    "service_request": "2023-980949",
    "request_type": "Trash/Recycling",
    "request_reason": "Replace Trash Cart",
    "date_created": "2023-03-07T14:32:13.000",
    "date_modified": "2023-03-07T14:32:14.000",
    "request_status": "Pending",
    "responsible_agency": "Department of Sanitation",
    "final_address": "5657 Hempstead Rd",
    "address_councildis": "E",
    "status": "Assigned to Contractor",
    "contractor": "Waste Pro",
    "rowid": "980949",
    "final_x": "3708038.02532",
    "final_y": "558025.373083",
    "longitude": "-89.98328745522707",
    "latitude": "30.02754304291878",
    "geocoded_column": {
      "latitude": "30.02754304291878",
      "longitude": "-89.98328745522707"
    }
  },
  {
    "service_request": "2023-980947",
    "request_type": "Trash/Recycling",
    "request_reason": "Order Trash Cart",
    "date_created": "2023-03-07T14:29:03.000",
    "date_modified": "2023-03-07T14:29:04.000",
    "request_status": "Pending",
    "responsible_agency": "Department of Sanitation",
    "final_address": "2003 Broadway St",
    "address_councildis": "A",
    "status": "Assigned to Contractor",
    "contractor": "Richards Disposal",
    "rowid": "980947",
    "final_x": "3665832.52532",
    "final_y": "528845.403968",
    "longitude": "-90.11763236678837",
    "latitude": "29.9486078152536",
    "geocoded_column": {
      "latitude": "29.9486078152536",
      "longitude": "-90.11763236678837"
    }
  },
  {
    "service_request": "2023-980946",
    "request_type": "Trash/Recycling",
    "request_reason": "Request a Large Item Pick Up",
    "date_created": "2023-03-07T14:28:10.000",
    "date_modified": "2023-03-07T14:28:10.000",
    "request_status": "Pending",
    "responsible_agency": "Department of Sanitation",
    "final_address": "6001 Eastover Dr",
    "address_councildis": "E",
    "status": "Assigned to Contractor",
    "contractor": "Waste Pro",
    "rowid": "980946",
    "final_x": "3718852.70764",
    "final_y": "565261.171426",
    "longitude": "-89.9488380760335",
    "latitude": "30.047083759291052",
    "geocoded_column": {
      "latitude": "30.047083759291052",
      "longitude": "-89.9488380760335"
    }
  },
  {
    "service_request": "2023-980945",
    "request_type": "Trash/Recycling",
    "request_reason": "Order Trash Cart",
    "date_created": "2023-03-07T14:28:00.000",
    "date_modified": "2023-03-07T14:28:01.000",
    "request_status": "Pending",
    "responsible_agency": "Department of Sanitation",
    "final_address": "2001 Broadway St",
    "address_councildis": "A",
    "status": "Assigned to Contractor",
    "contractor": "Richards Disposal",
    "rowid": "980945",
    "final_x": "3665824.79776",
    "final_y": "528834.40864",
    "longitude": "-90.1176571343816",
    "latitude": "29.94857780709452",
    "geocoded_column": {
      "latitude": "29.94857780709452",
      "longitude": "-90.1176571343816"
    }
  },
  {
    "service_request": "2023-980944",
    "request_type": "Abandoned Vehicles",
    "request_reason": "Abandoned/Junk Vehicles",
    "date_created": "2023-03-07T14:27:41.000",
    "date_modified": "2023-03-07T14:27:41.000",
    "request_status": "Pending",
    "responsible_agency": "Department of Public Works",
    "final_address": "4035 Urquhart St",
    "address_councildis": "D",
    "status": "Pending",
    "rowid": "980944",
    "final_x": "3692210.0159",
    "final_y": "536019.593031",
    "longitude": "-90.03409098114311",
    "latitude": "29.967538459540602",
    "geocoded_column": {
      "latitude": "29.967538459540602",
      "longitude": "-90.03409098114311"
    }
  },
  {
    "service_request": "2023-980943",
    "request_type": "Roads/Drainage",
    "request_reason": "Damaged Sidewalk",
    "date_created": "2023-03-07T14:25:22.000",
    "date_modified": "2023-03-07T14:42:20.000",
    "request_status": "Pending",
    "responsible_agency": "Department of Public Works",
    "final_address": "4601 S Johnson St",
    "address_councildis": "B",
    "rowid": "980943",
    "final_x": "3669406.20135",
    "final_y": "527214.016575",
    "longitude": "-90.10640388552547",
    "latitude": "29.94401729199683",
    "geocoded_column": {
      "latitude": "29.94401729199683",
      "longitude": "-90.10640388552547"
    }
  },
  {
    "service_request": "2023-980942",
    "request_type": "Trash/Recycling",
    "request_reason": "Order Trash Cart",
    "date_created": "2023-03-07T14:24:12.000",
    "date_modified": "2023-03-07T14:24:12.000",
    "request_status": "Pending",
    "responsible_agency": "Department of Sanitation",
    "final_address": "2838 Audubon St",
    "address_councildis": "B",
    "status": "Assigned to Contractor",
    "contractor": "Richards Disposal",
    "rowid": "980942",
    "final_x": "3667665.08199",
    "final_y": "531376.934466",
    "longitude": "-90.11176097814645",
    "latitude": "29.955515109231847",
    "geocoded_column": {
      "latitude": "29.955515109231847",
      "longitude": "-90.11176097814645"
    }
  },
  {
    "service_request": "2023-980941",
    "request_type": "Traffic Signals/Signs/Striping/Streetlights",
    "request_reason": "Street Light Outage/Malfunction",
    "date_created": "2023-03-07T14:23:15.000",
    "date_modified": "2023-03-07T14:23:16.000",
    "request_status": "Pending",
    "responsible_agency": "Department of Public Works",
    "final_address": "2829 Washington Ave",
    "address_councildis": "B",
    "status": "Assigned to Contractor",
    "contractor": "Legacy Professional Services",
    "rowid": "980941",
    "final_x": "3673473.81787",
    "final_y": "526328.53235",
    "longitude": "-90.09359152055964",
    "latitude": "29.941462112534257",
    "geocoded_column": {
      "latitude": "29.941462112534257",
      "longitude": "-90.09359152055964"
    }
  },
  {
    "service_request": "2023-980940",
    "request_type": "Trash/Recycling",
    "request_reason": "Request a Large Item Pick Up",
    "date_created": "2023-03-07T14:21:35.000",
    "date_modified": "2023-03-07T14:21:35.000",
    "request_status": "Pending",
    "responsible_agency": "Department of Sanitation",
    "final_address": "7561 Stonewood St",
    "address_councildis": "E",
    "status": "Assigned to Contractor",
    "contractor": "Waste Pro",
    "rowid": "980940",
    "final_x": "3719802.56953",
    "final_y": "572318.573673",
    "longitude": "-89.94556589294683",
    "latitude": "30.06645708905268",
    "geocoded_column": {
      "latitude": "30.06645708905268",
      "longitude": "-89.94556589294683"
    }
  },
  {
    "service_request": "2023-980939",
    "request_type": "Trash/Recycling",
    "request_reason": "Order Recycling Cart",
    "date_created": "2023-03-07T14:20:29.000",
    "date_modified": "2023-03-07T14:20:29.000",
    "request_status": "Pending",
    "responsible_agency": "Department of Sanitation",
    "final_address": "3009 Magazine St",
    "address_councildis": "B",
    "status": "Pending",
    "rowid": "980939",
    "final_x": "3676269.06728",
    "final_y": "520358.864504",
    "longitude": "-90.08497169993015",
    "latitude": "29.924964019679496",
    "geocoded_column": {
      "latitude": "29.924964019679496",
      "longitude": "-90.08497169993015"
    }
  },
  {
    "service_request": "2023-980936",
    "request_type": "Trash/Recycling",
    "request_reason": "Order Trash Cart",
    "date_created": "2023-03-07T14:18:32.000",
    "date_modified": "2023-03-07T14:18:33.000",
    "request_status": "Pending",
    "responsible_agency": "Department of Sanitation",
    "final_address": "7014 Zimple St",
    "address_councildis": "A",
    "status": "Assigned to Contractor",
    "contractor": "Richards Disposal",
    "rowid": "980936",
    "final_x": "3664358.97549",
    "final_y": "525874.276157",
    "longitude": "-90.12238414765667",
    "latitude": "29.94048107304766",
    "geocoded_column": {
      "latitude": "29.94048107304766",
      "longitude": "-90.12238414765667"
    }
  },
  {
    "service_request": "2023-980935",
    "request_type": "Trash/Recycling",
    "request_reason": "Repair Trash Cart",
    "date_created": "2023-03-07T14:16:45.000",
    "date_modified": "2023-03-07T14:16:46.000",
    "request_status": "Pending",
    "responsible_agency": "Department of Sanitation",
    "final_address": "42 Sullivan Pl",
    "address_councildis": "C",
    "status": "Assigned to Contractor",
    "contractor": "Richards Disposal",
    "rowid": "980935",
    "final_x": "3702090.17674",
    "final_y": "521794.437114",
    "longitude": "-90.00341084867758",
    "latitude": "29.92811257465463",
    "geocoded_column": {
      "latitude": "29.92811257465463",
      "longitude": "-90.00341084867758"
    }
  },
  {
    "service_request": "2023-980934",
    "request_type": "Trash/Recycling",
    "request_reason": "Request a Large Item Pick Up",
    "date_created": "2023-03-07T14:15:58.000",
    "date_modified": "2023-03-07T14:16:48.000",
    "request_status": "Pending",
    "responsible_agency": "Department of Sanitation",
    "final_address": "7535 St Charles Ave",
    "address_councildis": "A",
    "status": "Assigned to Contractor",
    "contractor": "Richards Disposal",
    "rowid": "980934",
    "final_x": "3661982.55149",
    "final_y": "525650.403773",
    "longitude": "-90.1298943716589",
    "latitude": "29.93993433795985",
    "geocoded_column": {
      "latitude": "29.93993433795985",
      "longitude": "-90.1298943716589"
    }
  },
  {
    "service_request": "2023-980933",
    "request_type": "Property Maintenance",
    "request_reason": "Property Maintenance",
    "date_created": "2023-03-07T14:14:47.000",
    "date_modified": "2023-03-07T14:14:47.000",
    "request_status": "Pending",
    "responsible_agency": "Department of Code Enforcement",
    "final_address": "1532 Clouet St",
    "address_councildis": "D",
    "status": "Pending",
    "rowid": "980933",
    "final_x": "3689415.25795",
    "final_y": "537772.213512",
    "longitude": "-90.04285452315668",
    "latitude": "29.97244438812884",
    "geocoded_column": {
      "latitude": "29.97244438812884",
      "longitude": "-90.04285452315668"
    }
  },
  {
    "service_request": "2023-980932",
    "request_type": "Trash/Recycling",
    "request_reason": "Request a Large Item Pick Up",
    "date_created": "2023-03-07T14:11:38.000",
    "date_modified": "2023-03-07T14:11:38.000",
    "request_status": "Pending",
    "responsible_agency": "Department of Sanitation",
    "final_address": "5816 Marigny St",
    "address_councildis": "D",
    "status": "Assigned to Contractor",
    "contractor": "IV Waste",
    "rowid": "980932",
    "final_x": "3683893.15113",
    "final_y": "554409.546968",
    "longitude": "-90.05971025205048",
    "latitude": "30.018360962680436",
    "geocoded_column": {
      "latitude": "30.018360962680436",
      "longitude": "-90.05971025205048"
    }
  },
  {
    "service_request": "2023-980931",
    "request_type": "Trash/Recycling",
    "request_reason": "Repair Trash Cart",
    "date_created": "2023-03-07T14:11:10.000",
    "date_modified": "2023-03-07T14:11:10.000",
    "request_status": "Pending",
    "responsible_agency": "Department of Sanitation",
    "final_address": "5940 W Hardy St",
    "address_councildis": "E",
    "status": "Assigned to Contractor",
    "contractor": "Waste Pro",
    "rowid": "980931",
    "final_x": "3712464.43832",
    "final_y": "561689.554975",
    "longitude": "-89.9691626391835",
    "latitude": "30.03747394171252",
    "geocoded_column": {
      "latitude": "30.03747394171252",
      "longitude": "-89.9691626391835"
    }
  },
  {
    "service_request": "2023-980930",
    "request_type": "Property Maintenance",
    "request_reason": "Property Maintenance",
    "date_created": "2023-03-07T14:10:04.000",
    "date_modified": "2023-03-07T14:10:04.000",
    "request_status": "Pending",
    "responsible_agency": "Department of Code Enforcement",
    "final_address": "1024 N Dorgenois St",
    "address_councildis": "D",
    "status": "Pending",
    "rowid": "980930",
    "final_x": "3678002.25326",
    "final_y": "537651.719496",
    "longitude": "-90.07890298347294",
    "latitude": "29.972461566288096",
    "geocoded_column": {
      "latitude": "29.972461566288096",
      "longitude": "-90.07890298347294"
    }
  },
  {
    "service_request": "2023-980929",
    "request_type": "Trash/Recycling",
    "request_reason": "Missed Trash Pick-Up",
    "date_created": "2023-03-07T14:07:41.000",
    "date_modified": "2023-03-07T14:07:42.000",
    "request_status": "Pending",
    "responsible_agency": "Department of Sanitation",
    "final_address": "7544 Founders Ct",
    "address_councildis": "E",
    "status": "Assigned to Contractor",
    "contractor": "Waste Pro",
    "rowid": "980929",
    "final_x": "3725787.02649",
    "final_y": "570710.272231",
    "longitude": "-89.92671079233898",
    "latitude": "30.061834294232504",
    "geocoded_column": {
      "latitude": "30.061834294232504",
      "longitude": "-89.92671079233898"
    }
  },
  {
    "service_request": "2023-980928",
    "request_type": "Property Maintenance",
    "request_reason": "Property Maintenance",
    "date_created": "2023-03-07T14:05:49.000",
    "date_modified": "2023-03-07T14:05:49.000",
    "request_status": "Pending",
    "responsible_agency": "Department of Code Enforcement",
    "final_address": "6900 Dorian St",
    "address_councildis": "D",
    "status": "Pending",
    "rowid": "980928",
    "final_x": "3696272.60106",
    "final_y": "556205.904538",
    "longitude": "-90.02053094464333",
    "latitude": "30.02291610719101",
    "geocoded_column": {
      "latitude": "30.02291610719101",
      "longitude": "-90.02053094464333"
    }
  },
  {
    "service_request": "2023-980927",
    "request_type": "Abandoned Vehicles",
    "request_reason": "Abandoned/Junk Vehicles",
    "date_created": "2023-03-07T14:02:39.000",
    "date_modified": "2023-03-07T14:02:39.000",
    "request_status": "Pending",
    "responsible_agency": "Department of Public Works",
    "final_address": "3636 Forest Park Ln",
    "address_councildis": "C",
    "status": "Pending",
    "rowid": "980927",
    "final_x": "3703028.34007",
    "final_y": "511127.659312",
    "longitude": "-90.00084087734122",
    "latitude": "29.89875261206742",
    "geocoded_column": {
      "latitude": "29.89875261206742",
      "longitude": "-90.00084087734122"
    }
  },
  {
    "service_request": "2023-980926",
    "request_type": "Trash/Recycling",
    "request_reason": "Request a Large Item Pick Up",
    "date_created": "2023-03-07T14:02:11.000",
    "date_modified": "2023-03-07T14:02:12.000",
    "request_status": "Pending",
    "responsible_agency": "Department of Sanitation",
    "final_address": "4713 Baudin St",
    "address_councildis": "A",
    "status": "Assigned to Contractor",
    "contractor": "Richards Disposal",
    "rowid": "980926",
    "final_x": "3668069.05716",
    "final_y": "538675.029385",
    "longitude": "-90.11023938073886",
    "latitude": "29.975570599468433",
    "geocoded_column": {
      "latitude": "29.975570599468433",
      "longitude": "-90.11023938073886"
    }
  },
  {
    "service_request": "2023-980925",
    "request_type": "Trash/Recycling",
    "request_reason": "Request a Large Item Pick Up",
    "date_created": "2023-03-07T14:00:00.000",
    "date_modified": "2023-03-07T14:00:00.000",
    "request_status": "Pending",
    "responsible_agency": "Department of Sanitation",
    "final_address": "4954 Warren Dr",
    "address_councildis": "E",
    "status": "Assigned to Contractor",
    "contractor": "Waste Pro",
    "rowid": "980925",
    "final_x": "3713273.37861",
    "final_y": "557391.219995",
    "longitude": "-89.96676822799627",
    "latitude": "30.025628726979832",
    "geocoded_column": {
      "latitude": "30.025628726979832",
      "longitude": "-89.96676822799627"
    }
  },
  {
    "service_request": "2023-980924",
    "request_type": "Trash/Recycling",
    "request_reason": "Replace Trash Cart",
    "date_created": "2023-03-07T13:59:27.000",
    "date_modified": "2023-03-07T13:59:27.000",
    "request_status": "Pending",
    "responsible_agency": "Department of Sanitation",
    "final_address": "6912 Dorian St",
    "address_councildis": "D",
    "status": "Assigned to Contractor",
    "contractor": "Waste Pro",
    "rowid": "980924",
    "final_x": "3696252.13066",
    "final_y": "556267.278234",
    "longitude": "-90.02059340441767",
    "latitude": "30.02308550642582",
    "geocoded_column": {
      "latitude": "30.02308550642582",
      "longitude": "-90.02059340441767"
    }
  },
  {
    "service_request": "2023-980923",
    "request_type": "Trash/Recycling",
    "request_reason": "Repair Trash Cart",
    "date_created": "2023-03-07T13:51:21.000",
    "date_modified": "2023-03-07T13:51:22.000",
    "request_status": "Pending",
    "responsible_agency": "Department of Sanitation",
    "final_address": "6317 Argonne Blvd",
    "address_councildis": "A",
    "status": "Assigned to Contractor",
    "contractor": "IV Waste",
    "rowid": "980923",
    "final_x": "3670406.54548",
    "final_y": "549338.776659",
    "longitude": "-90.10249515638512",
    "latitude": "30.004823425578323",
    "geocoded_column": {
      "latitude": "30.004823425578323",
      "longitude": "-90.10249515638512"
    }
  },
  {
    "service_request": "2023-980922",
    "request_type": "Roads/Drainage",
    "request_reason": "Leaking Hydrant",
    "date_created": "2023-03-07T13:50:07.000",
    "date_modified": "2023-03-07T13:50:07.000",
    "request_status": "Pending",
    "responsible_agency": "Department of Public Works",
    "final_address": "1441 Magazine St, New Orleans, Louisiana, 70130",
    "address_councildis": "B",
    "status": "Pending",
    "rowid": "980922",
    "final_x": "3680239.9588",
    "final_y": "524166.015356",
    "longitude": "-90.07230463277166",
    "latitude": "29.93531288063396",
    "geocoded_column": {
      "latitude": "29.93531288063396",
      "longitude": "-90.07230463277166"
    }
  },
  {
    "service_request": "2023-980921",
    "request_type": "Traffic Signals/Signs/Striping/Streetlights",
    "request_reason": "Street Light Outage/Malfunction",
    "date_created": "2023-03-07T13:49:19.000",
    "date_modified": "2023-03-07T13:49:19.000",
    "request_status": "Pending",
    "responsible_agency": "Department of Public Works",
    "final_address": "2008 Barracks St",
    "address_councildis": "D",
    "status": "Assigned to Contractor",
    "contractor": "Legacy Professional Services",
    "rowid": "980921",
    "final_x": "3680156.34075",
    "final_y": "537039.25716",
    "longitude": "-90.07212128645206",
    "latitude": "29.970712486703015",
    "geocoded_column": {
      "latitude": "29.970712486703015",
      "longitude": "-90.07212128645206"
    }
  },
  {
    "service_request": "2023-980920",
    "request_type": "Trash/Recycling",
    "request_reason": "Request a Large Item Pick Up",
    "date_created": "2023-03-07T13:45:35.000",
    "date_modified": "2023-03-07T13:45:35.000",
    "request_status": "Pending",
    "responsible_agency": "Department of Sanitation",
    "final_address": "11228 Will Stutley Dr",
    "address_councildis": "E",
    "status": "Assigned to Contractor",
    "contractor": "Waste Pro",
    "rowid": "980920",
    "final_x": "3716799.45714",
    "final_y": "558155.631195",
    "longitude": "-89.95559740186484",
    "latitude": "30.02761445092138",
    "geocoded_column": {
      "latitude": "30.02761445092138",
      "longitude": "-89.95559740186484"
    }
  },
  {
    "service_request": "2023-980919",
    "request_type": "Trash/Recycling",
    "request_reason": "Order Trash Cart",
    "date_created": "2023-03-07T13:45:25.000",
    "date_modified": "2023-03-07T13:45:26.000",
    "request_status": "Pending",
    "responsible_agency": "Department of Sanitation",
    "final_address": "1743 Shirley Dr",
    "address_councildis": "C",
    "status": "Assigned to Contractor",
    "contractor": "Richards Disposal",
    "rowid": "980919",
    "final_x": "3692906.51773",
    "final_y": "523638.638203",
    "longitude": "-90.0323353595867",
    "latitude": "29.933473394953786",
    "geocoded_column": {
      "latitude": "29.933473394953786",
      "longitude": "-90.0323353595867"
    }
  },
  {
    "service_request": "2023-980918",
    "request_type": "Abandoned Vehicles",
    "request_reason": "Abandoned/Junk Vehicles",
    "date_created": "2023-03-07T13:41:42.000",
    "date_modified": "2023-03-07T13:47:19.000",
    "request_status": "Pending",
    "responsible_agency": "Department of Public Works",
    "final_address": "7540 Read Blvd",
    "address_councildis": "E",
    "status": "Inspected",
    "rowid": "980918",
    "final_x": "3708483.51006",
    "final_y": "564402.980193",
    "longitude": "-89.98164204039053",
    "latitude": "30.045064496109077",
    "geocoded_column": {
      "latitude": "30.045064496109077",
      "longitude": "-89.98164204039053"
    }
  },
  {
    "service_request": "2023-980917",
    "request_type": "Trash/Recycling",
    "request_reason": "Request a Large Item Pick Up",
    "date_created": "2023-03-07T13:36:35.000",
    "date_modified": "2023-03-07T13:36:36.000",
    "request_status": "Pending",
    "responsible_agency": "Department of Sanitation",
    "final_address": "2652 Wisteria St",
    "address_councildis": "D",
    "status": "Assigned to Contractor",
    "contractor": "IV Waste",
    "rowid": "980917",
    "final_x": "3687473.7087",
    "final_y": "548334.501266",
    "longitude": "-90.04861225609395",
    "latitude": "30.001546894278377",
    "geocoded_column": {
      "latitude": "30.001546894278377",
      "longitude": "-90.04861225609395"
    }
  },
  {
    "service_request": "2023-980916",
    "request_type": "Trash/Recycling",
    "request_reason": "Request a Large Item Pick Up",
    "date_created": "2023-03-07T13:31:35.000",
    "date_modified": "2023-03-07T13:32:45.000",
    "request_status": "Pending",
    "responsible_agency": "Department of Sanitation",
    "final_address": "3809 Louisiana Avenue Prkwy",
    "address_councildis": "B",
    "status": "Assigned to Contractor",
    "contractor": "Richards Disposal",
    "rowid": "980916",
    "final_x": "3671354.5771",
    "final_y": "528748.31424",
    "longitude": "-90.10020017713761",
    "latitude": "29.94817859963836",
    "geocoded_column": {
      "latitude": "29.94817859963836",
      "longitude": "-90.10020017713761"
    }
  },
  {
    "service_request": "2023-980915",
    "request_type": "Trash/Recycling",
    "request_reason": "Order Recycling Cart",
    "date_created": "2023-03-07T13:27:31.000",
    "date_modified": "2023-03-07T13:27:31.000",
    "request_status": "Pending",
    "responsible_agency": "Department of Sanitation",
    "final_address": "1011 Pine St",
    "address_councildis": "A",
    "status": "Pending",
    "rowid": "980915",
    "final_x": "3663605.85376",
    "final_y": "526141.223486",
    "longitude": "-90.12475299869202",
    "latitude": "29.941236956647757",
    "geocoded_column": {
      "latitude": "29.941236956647757",
      "longitude": "-90.12475299869202"
    }
  },
  {
    "service_request": "2023-980914",
    "request_type": "Trash/Recycling",
    "request_reason": "Order Recycling Cart",
    "date_created": "2023-03-07T13:27:12.000",
    "date_modified": "2023-03-07T13:27:12.000",
    "request_status": "Pending",
    "responsible_agency": "Department of Sanitation",
    "final_address": "1009 Pine St",
    "address_councildis": "A",
    "status": "Pending",
    "rowid": "980914",
    "final_x": "3663602.49395",
    "final_y": "526124.978238",
    "longitude": "-90.1247641472678",
    "latitude": "29.94119238484068",
    "geocoded_column": {
      "latitude": "29.94119238484068",
      "longitude": "-90.1247641472678"
    }
  },
  {
    "service_request": "2023-980913",
    "request_type": "Abandoned Vehicles",
    "request_reason": "Abandoned/Junk Vehicles",
    "date_created": "2023-03-07T13:26:45.000",
    "date_modified": "2023-03-07T13:26:45.000",
    "request_status": "Pending",
    "responsible_agency": "Department of Public Works",
    "final_address": "2027 Coliseum St",
    "address_councildis": "B",
    "status": "Pending",
    "rowid": "980913",
    "final_x": "3678638.5627",
    "final_y": "523267.319611",
    "longitude": "-90.0773913414554",
    "latitude": "29.93289012523724",
    "geocoded_column": {
      "latitude": "29.93289012523724",
      "longitude": "-90.0773913414554"
    }
  },
  {
    "service_request": "2023-980912",
    "request_type": "Abandoned Vehicles",
    "request_reason": "Abandoned/Junk Vehicles",
    "date_created": "2023-03-07T13:26:01.000",
    "date_modified": "2023-03-07T13:26:02.000",
    "request_status": "Pending",
    "responsible_agency": "Department of Public Works",
    "final_address": "924 Delachaise St",
    "address_councildis": "B",
    "status": "Pending",
    "rowid": "980912",
    "final_x": "3674800.4036",
    "final_y": "518957.758839",
    "longitude": "-90.0896558035332",
    "latitude": "29.921155344612536",
    "geocoded_column": {
      "latitude": "29.921155344612536",
      "longitude": "-90.0896558035332"
    }
  },
  {
    "service_request": "2023-980911",
    "request_type": "Trash/Recycling",
    "request_reason": "Return Trash Cart",
    "date_created": "2023-03-07T13:24:47.000",
    "date_modified": "2023-03-07T13:24:48.000",
    "request_status": "Pending",
    "responsible_agency": "Department of Sanitation",
    "final_address": "534 Verret St",
    "address_councildis": "C",
    "status": "Assigned to Contractor",
    "contractor": "Richards Disposal",
    "rowid": "980911",
    "final_x": "3687085.18012",
    "final_y": "529623.554881",
    "longitude": "-90.05050141839914",
    "latitude": "29.950110347449453",
    "geocoded_column": {
      "latitude": "29.950110347449453",
      "longitude": "-90.05050141839914"
    }
  },
  {
    "service_request": "2023-980910",
    "request_type": "Parks & Parkways",
    "request_reason": "Request Tree Service (Right of Way/Public Property)",
    "date_created": "2023-03-07T13:22:00.000",
    "date_modified": "2023-03-07T13:22:00.000",
    "request_status": "Pending",
    "responsible_agency": "Department of Parks & Parkway",
    "final_address": "3837 Napoleon Ave",
    "address_councildis": "B",
    "status": "Pending",
    "rowid": "980910",
    "final_x": "3670152.35348",
    "final_y": "528771.083648",
    "longitude": "-90.1039953270577",
    "latitude": "29.94827672883512",
    "geocoded_column": {
      "latitude": "29.94827672883512",
      "longitude": "-90.1039953270577"
    }
  },
  {
    "service_request": "2023-980909",
    "request_type": "Trash/Recycling",
    "request_reason": "Order Recycling Cart",
    "date_created": "2023-03-07T13:19:03.000",
    "date_modified": "2023-03-07T13:19:03.000",
    "request_status": "Pending",
    "responsible_agency": "Department of Sanitation",
    "final_address": "534 Verret St",
    "address_councildis": "C",
    "status": "Pending",
    "rowid": "980909",
    "final_x": "3687085.18012",
    "final_y": "529623.554881",
    "longitude": "-90.05050141839914",
    "latitude": "29.950110347449453",
    "geocoded_column": {
      "latitude": "29.950110347449453",
      "longitude": "-90.05050141839914"
    }
  },
  {
    "service_request": "2023-980908",
    "request_type": "Trash/Recycling",
    "request_reason": "Request a Large Item Pick Up",
    "date_created": "2023-03-07T13:15:45.000",
    "date_modified": "2023-03-07T13:15:46.000",
    "request_status": "Pending",
    "responsible_agency": "Department of Sanitation",
    "final_address": "4814 Montegut Dr",
    "address_councildis": "D",
    "status": "Assigned to Contractor",
    "contractor": "IV Waste",
    "rowid": "980908",
    "final_x": "3689845.04457",
    "final_y": "550729.983701",
    "longitude": "-90.04103565081468",
    "latitude": "30.008060274822434",
    "geocoded_column": {
      "latitude": "30.008060274822434",
      "longitude": "-90.04103565081468"
    }
  },
  {
    "service_request": "2023-980907",
    "request_type": "Trash/Recycling",
    "request_reason": "Request a Large Item Pick Up",
    "date_created": "2023-03-07T13:13:28.000",
    "date_modified": "2023-03-07T13:13:29.000",
    "request_status": "Pending",
    "responsible_agency": "Department of Sanitation",
    "final_address": "208 Chartres St, New Orleans, Louisiana, 70130",
    "address_councildis": "C",
    "status": "Assigned to Contractor",
    "contractor": "Empire Services",
    "rowid": "980907",
    "final_x": "3681800.4758",
    "final_y": "530837.645698",
    "longitude": "-90.0671453372047",
    "latitude": "29.95361031318125",
    "geocoded_column": {
      "latitude": "29.95361031318125",
      "longitude": "-90.0671453372047"
    }
  },
  {
    "service_request": "2023-980906",
    "request_type": "Traffic Signals/Signs/Striping/Streetlights",
    "request_reason": "Street Light Outage/Malfunction",
    "date_created": "2023-03-07T13:11:46.000",
    "date_modified": "2023-03-07T13:11:47.000",
    "request_status": "Pending",
    "responsible_agency": "Department of Public Works",
    "final_address": "ROYAL ST & LESSEPS ST",
    "address_councildis": "C",
    "status": "Assigned to Contractor",
    "contractor": "Legacy Professional Services",
    "rowid": "980906",
    "final_x": "3692326.1",
    "final_y": "533584.88",
    "longitude": "-90.03381158762339",
    "latitude": "29.960840235074116",
    "geocoded_column": {
      "latitude": "29.960840235074116",
      "longitude": "-90.03381158762339"
    }
  },
  {
    "service_request": "2023-980905",
    "request_type": "Trash/Recycling",
    "request_reason": "Order Trash Cart",
    "date_created": "2023-03-07T13:07:29.000",
    "date_modified": "2023-03-07T13:07:29.000",
    "request_status": "Pending",
    "responsible_agency": "Department of Sanitation",
    "final_address": "2527 St Ann St",
    "address_councildis": "D",
    "status": "Assigned to Contractor",
    "contractor": "Richards Disposal",
    "rowid": "980905",
    "final_x": "3677581.39234",
    "final_y": "536780.41236",
    "longitude": "-90.08026222990229",
    "latitude": "29.970078431829428",
    "geocoded_column": {
      "latitude": "29.970078431829428",
      "longitude": "-90.08026222990229"
    }
  },
  {
    "service_request": "2023-980904",
    "request_type": "Parks & Parkways",
    "request_reason": "Request Tree Service (Right of Way/Public Property)",
    "date_created": "2023-03-07T13:05:13.000",
    "date_modified": "2023-03-07T13:05:14.000",
    "request_status": "Pending",
    "responsible_agency": "Department of Parks & Parkway",
    "final_address": "LAW ST & PAUGER ST",
    "address_councildis": "D",
    "status": "Pending",
    "rowid": "980904",
    "final_x": "3683429.6",
    "final_y": "541737.78",
    "longitude": "-90.06161926415488",
    "latitude": "29.983532312360953",
    "geocoded_column": {
      "latitude": "29.983532312360953",
      "longitude": "-90.06161926415488"
    }
  },
  {
    "service_request": "2023-980903",
    "request_type": "Parks & Parkways",
    "request_reason": "Request Tree Service (Right of Way/Public Property)",
    "date_created": "2023-03-07T13:03:30.000",
    "date_modified": "2023-03-07T13:03:31.000",
    "request_status": "Pending",
    "responsible_agency": "Department of Parks & Parkway",
    "final_address": "59 Neron Pl",
    "address_councildis": "A",
    "status": "Pending",
    "rowid": "980903",
    "final_x": "3665759.71092",
    "final_y": "530201.500353",
    "longitude": "-90.11781685209988",
    "latitude": "29.9523387646118",
    "geocoded_column": {
      "latitude": "29.9523387646118",
      "longitude": "-90.11781685209988"
    }
  },
  {
    "service_request": "2023-980902",
    "request_type": "Trash/Recycling",
    "request_reason": "Request a Large Item Pick Up",
    "date_created": "2023-03-07T13:02:36.000",
    "date_modified": "2023-03-07T13:02:37.000",
    "request_status": "Pending",
    "responsible_agency": "Department of Sanitation",
    "final_address": "3027 Chestnut St",
    "address_councildis": "B",
    "status": "Assigned to Contractor",
    "contractor": "Richards Disposal",
    "rowid": "980902",
    "final_x": "3675752.55265",
    "final_y": "520882.480633",
    "longitude": "-90.08658418552147",
    "latitude": "29.926419257867053",
    "geocoded_column": {
      "latitude": "29.926419257867053",
      "longitude": "-90.08658418552147"
    }
  },
  {
    "service_request": "2023-980901",
    "request_type": "Trash/Recycling",
    "request_reason": "Order Trash Cart",
    "date_created": "2023-03-07T12:57:24.000",
    "date_modified": "2023-03-07T12:57:24.000",
    "request_status": "Pending",
    "responsible_agency": "Department of Sanitation",
    "final_address": "6933 Bunker Hill Rd",
    "address_councildis": "E",
    "status": "Assigned to Contractor",
    "contractor": "Waste Pro",
    "rowid": "980901",
    "final_x": "3706116.91345",
    "final_y": "560116.077021",
    "longitude": "-89.98928047364721",
    "latitude": "30.033353757686534",
    "geocoded_column": {
      "latitude": "30.033353757686534",
      "longitude": "-89.98928047364721"
    }
  },
  {
    "service_request": "2023-980900",
    "request_type": "Trash/Recycling",
    "request_reason": "Missed Trash Pick-Up",
    "date_created": "2023-03-07T12:57:08.000",
    "date_modified": "2023-03-07T12:57:08.000",
    "request_status": "Pending",
    "responsible_agency": "Department of Sanitation",
    "final_address": "6139 Franklin Ave",
    "address_councildis": "D",
    "status": "Assigned to Contractor",
    "contractor": "IV Waste",
    "rowid": "980900",
    "final_x": "3686480.60943",
    "final_y": "555887.153497",
    "longitude": "-90.05148263008456",
    "latitude": "30.022344500532284",
    "geocoded_column": {
      "latitude": "30.022344500532284",
      "longitude": "-90.05148263008456"
    }
  },
  {
    "service_request": "2023-980899",
    "request_type": "Trash/Recycling",
    "request_reason": "Request a Large Item Pick Up",
    "date_created": "2023-03-07T12:51:00.000",
    "date_modified": "2023-03-07T12:51:01.000",
    "request_status": "Pending",
    "responsible_agency": "Department of Sanitation",
    "final_address": "7005 Magazine St",
    "address_councildis": "A",
    "status": "Assigned to Contractor",
    "contractor": "Richards Disposal",
    "rowid": "980899",
    "final_x": "3661282.34541",
    "final_y": "520963.178297",
    "longitude": "-90.13226015342573",
    "latitude": "29.927066144102966",
    "geocoded_column": {
      "latitude": "29.927066144102966",
      "longitude": "-90.13226015342573"
    }
  },
  {
    "service_request": "2023-980897",
    "request_type": "Trash/Recycling",
    "request_reason": "Order Trash Cart",
    "date_created": "2023-03-07T12:44:15.000",
    "date_modified": "2023-03-07T12:44:16.000",
    "request_status": "Pending",
    "responsible_agency": "Department of Sanitation",
    "final_address": "4534 Lafon Dr",
    "address_councildis": "E",
    "status": "Assigned to Contractor",
    "contractor": "Waste Pro",
    "rowid": "980897",
    "final_x": "3701175.36068",
    "final_y": "553131.281815",
    "longitude": "-90.00515204584424",
    "latitude": "30.014306706573933",
    "geocoded_column": {
      "latitude": "30.014306706573933",
      "longitude": "-90.00515204584424"
    }
  },
  {
    "service_request": "2023-980896",
    "request_type": "Roads/Drainage",
    "request_reason": "Street Subsidence (Sinking)",
    "date_created": "2023-03-07T12:42:04.000",
    "date_modified": "2023-03-07T12:42:04.000",
    "request_status": "Pending",
    "responsible_agency": "Department of Public Works",
    "final_address": "2709 Camp St",
    "address_councildis": "B",
    "status": "Pending",
    "rowid": "980896",
    "final_x": "3677013.21659",
    "final_y": "521299.962169",
    "longitude": "-90.08259023437073",
    "latitude": "29.927529419457947",
    "geocoded_column": {
      "latitude": "29.927529419457947",
      "longitude": "-90.08259023437073"
    }
  },
  {
    "service_request": "2023-980895",
    "request_type": "Trash/Recycling",
    "request_reason": "Order Trash Cart",
    "date_created": "2023-03-07T12:40:24.000",
    "date_modified": "2023-03-07T12:40:25.000",
    "request_status": "Pending",
    "responsible_agency": "Department of Sanitation",
    "final_address": "3321 Hamilton St",
    "address_councildis": "A",
    "status": "Assigned to Contractor",
    "contractor": "Richards Disposal",
    "rowid": "980895",
    "final_x": "3664556.35623",
    "final_y": "536406.521159",
    "longitude": "-90.12140928327275",
    "latitude": "29.969435586362504",
    "geocoded_column": {
      "latitude": "29.969435586362504",
      "longitude": "-90.12140928327275"
    }
  },