[
  {
    "service_request": "2023-1043356",
    "request_type": "Traffic Signals/Signs/Striping/Streetlights",
    "request_reason": "Street Light Outage/Malfunction",
    "date_created": "2023-10-16T01:57:34.000",
    "date_modified": "2023-10-16T01:57:34.000",
    "request_status": "Pending",
    "responsible_agency": "Department of Public Works",
    "final_address": "8600 Oleander St",
    "address_councildis": "A",
    "status": "Assigned to Contractor",
    "contractor": "Legacy Professional Services",
    "rowid": "1043356",
    "final_x": "3665401.9344",
    "final_y": "534848.134342",
    "longitude": "-90.11879103392262",
    "latitude": "29.965125919035987",
    "geocoded_column": {
      "latitude": "29.965125919035987",
      "longitude": "-90.11879103392262"
    }
  },
  {
    "service_request": "2023-1043355",
    "request_type": "Trash/Recycling",
    "request_reason": "Missed Trash Pick-Up",
    "date_created": "2023-10-16T01:50:23.000",
    "date_modified": "2023-10-16T01:50:24.000",
    "request_status": "Pending",
    "responsible_agency": "Department of Sanitation",
    "final_address": "6622 Fleur-De-Lis Dr",
    "address_councildis": "A",
    "status": "Assigned to Contractor",
    "contractor": "IV Waste",
    "rowid": "1043355",
    "final_x": "3665297.17248",
    "final_y": "552107.346838",
    "longitude": "-90.11854403389536",
    "latitude": "30.01258595332779",
    "geocoded_column": {
      "latitude": "30.01258595332779",
      "longitude": "-90.11854403389536"
    }
  },
  {
    "service_request": "2023-1043354",
    "request_type": "Health Related Request",
    "request_reason": "Noise Ordinance Complaint",
    "date_created": "2023-10-16T00:34:14.000",
    "date_modified": "2023-10-16T00:34:14.000",
    "request_status": "Pending",
    "responsible_agency": "Health Department",
    "final_address": "1775 Joseph Guillaume Pl",
    "address_councildis": "C",
    "status": "Pending",
    "rowid": "1043354",
    "final_x": "3683462.43785",
    "final_y": "536121.270855",
    "longitude": "-90.06171241725919",
    "latitude": "29.96808786850646",
    "geocoded_column": {
      "latitude": "29.96808786850646",
      "longitude": "-90.06171241725919"
    }
  },
  {
    "service_request": "2023-1043353",
    "request_type": "Health Related Request",
    "request_reason": "Noise Ordinance Complaint",
    "date_created": "2023-10-16T00:32:18.000",
    "date_modified": "2023-10-16T00:32:18.000",
    "request_status": "Pending",
    "responsible_agency": "Health Department",
    "final_address": "1775 Joseph Guillaume Pl",
    "address_councildis": "C",
    "status": "Pending",
    "rowid": "1043353",
    "final_x": "3683462.43785",
    "final_y": "536121.270855",
    "longitude": "-90.06171241725919",
    "latitude": "29.96808786850646",
    "geocoded_column": {
      "latitude": "29.96808786850646",
      "longitude": "-90.06171241725919"
    }
  },
  {
    "service_request": "2023-1043352",
    "request_type": "Health Related Request",
    "request_reason": "Noise Ordinance Complaint",
    "date_created": "2023-10-16T00:30:17.000",
    "date_modified": "2023-10-16T00:30:17.000",
    "request_status": "Pending",
    "responsible_agency": "Health Department",
    "final_address": "1775 Joseph Guillaume Pl",
    "address_councildis": "C",
    "status": "Pending",
    "rowid": "1043352",
    "final_x": "3683462.43785",
    "final_y": "536121.270855",
    "longitude": "-90.06171241725919",
    "latitude": "29.96808786850646",
    "geocoded_column": {
      "latitude": "29.96808786850646",
      "longitude": "-90.06171241725919"
    }
  },
  {
    "service_request": "2023-1043351",
    "request_type": "Health Related Request",
    "request_reason": "Noise Ordinance Complaint",
    "date_created": "2023-10-16T00:28:08.000",
    "date_modified": "2023-10-16T00:28:08.000",
    "request_status": "Pending",
    "responsible_agency": "Health Department",
    "final_address": "1775 Joseph Guillaume Pl",
    "address_councildis": "C",
    "status": "Pending",
    "rowid": "1043351",
    "final_x": "3683462.43785",
    "final_y": "536121.270855",
    "longitude": "-90.06171241725919",
    "latitude": "29.96808786850646",
    "geocoded_column": {
      "latitude": "29.96808786850646",
      "longitude": "-90.06171241725919"
    }
  },
  {
    "service_request": "2023-1043350",
    "request_type": "Health Related Request",
    "request_reason": "Noise Ordinance Complaint",
    "date_created": "2023-10-16T00:25:06.000",
    "date_modified": "2023-10-16T00:25:06.000",
    "request_status": "Pending",
    "responsible_agency": "Health Department",
    "final_address": "1775 Joseph Guillaume Pl",
    "address_councildis": "C",
    "status": "Pending",
    "rowid": "1043350",
    "final_x": "3683462.43785",
    "final_y": "536121.270855",
    "longitude": "-90.06171241725919",
    "latitude": "29.96808786850646",
    "geocoded_column": {
      "latitude": "29.96808786850646",
      "longitude": "-90.06171241725919"
    }
  },
  {
    "service_request": "2023-1043349",
    "request_type": "Health Related Request",
    "request_reason": "Noise Ordinance Complaint",
    "date_created": "2023-10-16T00:21:52.000",
    "date_modified": "2023-10-16T00:21:52.000",
    "request_status": "Pending",
    "responsible_agency": "Health Department",
    "final_address": "1775 Joseph Guillaume Pl",
    "address_councildis": "C",
    "status": "Pending",
    "rowid": "1043349",
    "final_x": "3683462.43785",
    "final_y": "536121.270855",
    "longitude": "-90.06171241725919",
    "latitude": "29.96808786850646",
    "geocoded_column": {
      "latitude": "29.96808786850646",
      "longitude": "-90.06171241725919"
    }
  },
  {
    "service_request": "2023-1043348",
    "request_type": "Trash/Recycling",
    "request_reason": "Replace Trash Cart",
    "date_created": "2023-10-15T23:16:35.000",
    "date_modified": "2023-10-15T23:16:36.000",
    "request_status": "Pending",
    "responsible_agency": "Department of Sanitation",
    "final_address": "5100 Eastern St",
    "address_councildis": "D",
    "status": "Assigned to Contractor",
    "contractor": "IV Waste",
    "rowid": "1043348",
    "final_x": "3687885.94812",
    "final_y": "551727.293781",
    "longitude": "-90.04718964951593",
    "latitude": "30.010863119949754",
    "geocoded_column": {
      "latitude": "30.010863119949754",
      "longitude": "-90.04718964951593"
    }
  },
  {
    "service_request": "2023-1043347",
    "request_type": "Health Related Request",
    "request_reason": "Noise Ordinance Complaint",
    "date_created": "2023-10-15T21:50:27.000",
    "date_modified": "2023-10-15T21:50:27.000",
    "request_status": "Pending",
    "responsible_agency": "Health Department",
    "final_address": "1600 BLK N Broad St",
    "address_councildis": "D",
    "status": "Pending",
    "rowid": "1043347",
    "final_x": "3679464.01013",
    "final_y": "540572.589246",
    "longitude": "-90.07418512912264",
    "latitude": "29.980448865344094",
    "geocoded_column": {
      "latitude": "29.980448865344094",
      "longitude": "-90.07418512912264"
    }
  },
  {
    "service_request": "2023-1043346",
    "request_type": "Roads/Drainage",
    "request_reason": "Pothole",
    "date_created": "2023-10-15T21:28:00.000",
    "date_modified": "2023-10-15T21:28:00.000",
    "request_status": "Pending",
    "responsible_agency": "Department of Public Works",
    "final_address": "4315 Pitt St",
    "address_councildis": "B",
    "status": "Pending",
    "rowid": "1043346",
    "final_x": "3671135.74062",
    "final_y": "520647.281017",
    "longitude": "-90.10116618834792",
    "latitude": "29.92590985375874",
    "geocoded_column": {
      "latitude": "29.92590985375874",
      "longitude": "-90.10116618834792"
    }
  },
  {
    "service_request": "2023-1043345",
    "request_type": "Abandoned Vehicles",
    "request_reason": "Abandoned/Junk Vehicles",
    "date_created": "2023-10-15T21:25:45.000",
    "date_modified": "2023-10-15T21:25:45.000",
    "request_status": "Pending",
    "responsible_agency": "Department of Public Works",
    "final_address": "586 Walnut St",
    "address_councildis": "A",
    "status": "Pending",
    "rowid": "1043345",
    "final_x": "3663183.05024",
    "final_y": "524127.912572",
    "longitude": "-90.12615484235931",
    "latitude": "29.935713246786555",
    "geocoded_column": {
      "latitude": "29.935713246786555",
      "longitude": "-90.12615484235931"
    }
  },
  {
    "service_request": "2023-1043344",
    "request_type": "Roads/Drainage",
    "request_reason": "Pothole",
    "date_created": "2023-10-15T21:20:55.000",
    "date_modified": "2023-10-15T21:20:55.000",
    "request_status": "Pending",
    "responsible_agency": "Department of Public Works",
    "final_address": "1421 Constantinople St",
    "address_councildis": "B",
    "status": "Pending",
    "rowid": "1043344",
    "final_x": "3672433.24257",
    "final_y": "520667.657465",
    "longitude": "-90.09706965638372",
    "latitude": "29.925927453713577",
    "geocoded_column": {
      "latitude": "29.925927453713577",
      "longitude": "-90.09706965638372"
    }
  },
  {
    "service_request": "2023-1043343",
    "request_type": "Trash/Recycling",
    "request_reason": "MIssed Recycling Pick-Up",
    "date_created": "2023-10-15T20:48:59.000",
    "date_modified": "2023-10-15T20:49:00.000",
    "request_status": "Pending",
    "responsible_agency": "Department of Sanitation",
    "final_address": "8927 Willow St",
    "address_councildis": "A",
    "status": "Assigned to Contractor",
    "contractor": "Richards Disposal",
    "rowid": "1043343",
    "final_x": "3660209.40627",
    "final_y": "530975.683074",
    "longitude": "-90.135316701187",
    "latitude": "29.95462824662377",
    "geocoded_column": {
      "latitude": "29.95462824662377",
      "longitude": "-90.135316701187"
    }
  },
  {
    "service_request": "2023-1043342",
    "request_type": "Trash/Recycling",
    "request_reason": "Request a Large Item Pick Up",
    "date_created": "2023-10-15T20:40:17.000",
    "date_modified": "2023-10-15T20:40:18.000",
    "request_status": "Pending",
    "responsible_agency": "Department of Sanitation",
    "final_address": "2321 Nile St, Gretna, Louisiana, 70056",
    "status": "Assigned to Contractor",
    "rowid": "1043342",
    "longitude": "0.0",
    "latitude": "0.0",
    "geocoded_column": {
      "latitude": "0.0",
      "longitude": "0.0"
    }
  },
  {
    "service_request": "2023-1043341",
    "request_type": "Trash/Recycling",
    "request_reason": "Change Size of Trash Cart",
    "date_created": "2023-10-15T19:59:25.000",
    "date_modified": "2023-10-15T19:59:26.000",
    "request_status": "Pending",
    "responsible_agency": "Department of Sanitation",
    "final_address": "2149 Valentine Ct",
    "address_councildis": "C",
    "status": "Assigned to Contractor",
    "contractor": "Richards Disposal",
    "rowid": "1043341",
    "final_x": "3699594.38653",
    "final_y": "523262.081403",
    "longitude": "-90.01123598697767",
    "latitude": "29.932227504815245",
    "geocoded_column": {
      "latitude": "29.932227504815245",
      "longitude": "-90.01123598697767"
    }
  },
  {
    "service_request": "2023-1043340",
    "request_type": "Traffic Signals/Signs/Striping/Streetlights",
    "request_reason": "Street Light Outage/Malfunction",
    "date_created": "2023-10-15T19:12:50.000",
    "date_modified": "2023-10-15T19:12:51.000",
    "request_status": "Pending",
    "responsible_agency": "Department of Public Works",
    "final_address": "2606 Gordon St, New Orleans, Louisiana, 70117",
    "address_councildis": "E",
    "status": "Assigned to Contractor",
    "contractor": "Legacy Professional Services",
    "rowid": "1043340",
    "final_x": "3701309.80452",
    "final_y": "538869.135625",
    "longitude": "-90.00524955372448",
    "latitude": "29.975086821609285",
    "geocoded_column": {
      "latitude": "29.975086821609285",
      "longitude": "-90.00524955372448"
    }
  },
  {
    "service_request": "2023-1043339",
    "request_type": "Trash/Recycling",
    "request_reason": "Illegal Dumping",
    "date_created": "2023-10-15T19:03:48.000",
    "date_modified": "2023-10-15T19:03:48.000",
    "request_status": "Pending",
    "responsible_agency": "Department of Sanitation",
    "final_address": "5501 Christian Ln",
    "address_councildis": "E",
    "status": "Pending",
    "rowid": "1043339",
    "final_x": "3704675.26878",
    "final_y": "556586.826074",
    "longitude": "-89.99396655066217",
    "latitude": "30.023696109609062",
    "geocoded_column": {
      "latitude": "30.023696109609062",
      "longitude": "-89.99396655066217"
    }
  },
  {
    "service_request": "2023-1043338",
    "request_type": "Abandoned Vehicles",
    "request_reason": "Abandoned/Junk Vehicles",
    "date_created": "2023-10-15T18:24:45.000",
    "date_modified": "2023-10-15T18:24:45.000",
    "request_status": "Pending",
    "responsible_agency": "Department of Public Works",
    "final_address": "2531 Chartres St",
    "address_councildis": "C",
    "status": "Pending",
    "rowid": "1043338",
    "final_x": "3686533.86082",
    "final_y": "534652.270214",
    "longitude": "-90.05206464192453",
    "latitude": "29.963954545436522",
    "geocoded_column": {
      "latitude": "29.963954545436522",
      "longitude": "-90.05206464192453"
    }
  },
  {
    "service_request": "2023-1043337",
    "request_type": "Abandoned Vehicles",
    "request_reason": "Abandoned/Junk Vehicles",
    "date_created": "2023-10-15T18:18:32.000",
    "date_modified": "2023-10-15T18:18:32.000",
    "request_status": "Pending",
    "responsible_agency": "Department of Public Works",
    "final_address": "10000 Hayne Blvd",
    "address_councildis": "E",
    "status": "Pending",
    "rowid": "1043337",
    "final_x": "3707598.22936",
    "final_y": "565713.58813",
    "longitude": "-89.98439116098561",
    "latitude": "30.048696828541004",
    "geocoded_column": {
      "latitude": "30.048696828541004",
      "longitude": "-89.98439116098561"
    }
  },
  {
    "service_request": "2023-1043336",
    "request_type": "Trash/Recycling",
    "request_reason": "Request a Large Item Pick Up",
    "date_created": "2023-10-15T18:10:53.000",
    "date_modified": "2023-10-15T18:10:54.000",
    "request_status": "Pending",
    "responsible_agency": "Department of Sanitation",
    "final_address": "818 Hagan St",
    "address_councildis": "A",
    "status": "Assigned to Contractor",
    "contractor": "Richards Disposal",
    "rowid": "1043336",
    "final_x": "3675021.88481",
    "final_y": "538881.724105",
    "longitude": "-90.0882733164016",
    "latitude": "29.975933039098337",
    "geocoded_column": {
      "latitude": "29.975933039098337",
      "longitude": "-90.0882733164016"
    }
  },
  {
    "service_request": "2023-1043335",
    "request_type": "Property Maintenance",
    "request_reason": "Property Maintenance",
    "date_created": "2023-10-15T17:51:34.000",
    "date_modified": "2023-10-15T17:51:34.000",
    "request_status": "Pending",
    "responsible_agency": "Department of Code Enforcement",
    "final_address": "1809 S Liberty St",
    "address_councildis": "B",
    "status": "Pending",
    "rowid": "1043335",
    "final_x": "3676578.91214",
    "final_y": "526333.45523",
    "longitude": "-90.08378795231235",
    "latitude": "29.941382906913656",
    "geocoded_column": {
      "latitude": "29.941382906913656",
      "longitude": "-90.08378795231235"
    }
  },
  {
    "service_request": "2023-1043334",
    "request_type": "Trash/Recycling",
    "request_reason": "Illegal Dumping",
    "date_created": "2023-10-15T17:50:27.000",
    "date_modified": "2023-10-15T17:50:27.000",
    "request_status": "Pending",
    "responsible_agency": "Department of Sanitation",
    "final_address": "2313 St Andrew St",
    "address_councildis": "B",
    "status": "Pending",
    "rowid": "1043334",
    "final_x": "3676483.3755",
    "final_y": "526350.292926",
    "longitude": "-90.08408900063935",
    "latitude": "29.94143206937625",
    "geocoded_column": {
      "latitude": "29.94143206937625",
      "longitude": "-90.08408900063935"
    }
  },
  {
    "service_request": "2023-1043333",
    "request_type": "Trash/Recycling",
    "request_reason": "Illegal Dumping",
    "date_created": "2023-10-15T17:48:46.000",
    "date_modified": "2023-10-15T17:48:46.000",
    "request_status": "Pending",
    "responsible_agency": "Department of Sanitation",
    "final_address": "2511 St Andrew St",
    "address_councildis": "B",
    "status": "Pending",
    "rowid": "1043333",
    "final_x": "3676025.77224",
    "final_y": "526777.404094",
    "longitude": "-90.08551905992732",
    "latitude": "29.942620194505537",
    "geocoded_column": {
      "latitude": "29.942620194505537",
      "longitude": "-90.08551905992732"
    }
  },
  {
    "service_request": "2023-1043332",
    "request_type": "Trash/Recycling",
    "request_reason": "Illegal Dumping",
    "date_created": "2023-10-15T17:46:41.000",
    "date_modified": "2023-10-15T17:46:41.000",
    "request_status": "Pending",
    "responsible_agency": "Department of Sanitation",
    "final_address": "2634 St Andrew St",
    "address_councildis": "B",
    "status": "Pending",
    "rowid": "1043332",
    "final_x": "3675650.72257",
    "final_y": "527112.352575",
    "longitude": "-90.08669167481004",
    "latitude": "29.94355241751497",
    "geocoded_column": {
      "latitude": "29.94355241751497",
      "longitude": "-90.08669167481004"
    }
  },
  {
    "service_request": "2023-1043331",
    "request_type": "Property Maintenance",
    "request_reason": "Property Maintenance",
    "date_created": "2023-10-15T17:45:07.000",
    "date_modified": "2023-10-15T17:45:07.000",
    "request_status": "Pending",
    "responsible_agency": "Department of Code Enforcement",
    "final_address": "1613 Magnolia St",
    "address_councildis": "B",
    "status": "Pending",
    "rowid": "1043331",
    "final_x": "3675784.38344",
    "final_y": "527500.841599",
    "longitude": "-90.0862563226789",
    "latitude": "29.94461663490141",
    "geocoded_column": {
      "latitude": "29.94461663490141",
      "longitude": "-90.0862563226789"
    }
  },
  {
    "service_request": "2023-1043330",
    "request_type": "Property Maintenance",
    "request_reason": "Property Maintenance",
    "date_created": "2023-10-15T17:43:26.000",
    "date_modified": "2023-10-15T17:43:26.000",
    "request_status": "Pending",
    "responsible_agency": "Department of Code Enforcement",
    "final_address": "2632 Martin Luther King, Jr. Blvd",
    "address_councildis": "B",
    "status": "Pending",
    "rowid": "1043330",
    "final_x": "3675883.41083",
    "final_y": "527541.242303",
    "longitude": "-90.08594227499403",
    "latitude": "29.9447247596226",
    "geocoded_column": {
      "latitude": "29.9447247596226",
      "longitude": "-90.08594227499403"
    }
  },
  {
    "service_request": "2023-1043329",
    "request_type": "Property Maintenance",
    "request_reason": "Property Maintenance",
    "date_created": "2023-10-15T17:41:07.000",
    "date_modified": "2023-10-15T17:41:07.000",
    "request_status": "Pending",
    "responsible_agency": "Department of Code Enforcement",
    "final_address": "1416 Magnolia St",
    "address_councildis": "B",
    "status": "Pending",
    "rowid": "1043329",
    "final_x": "3675996.31694",
    "final_y": "527732.121215",
    "longitude": "-90.08557923364496",
    "latitude": "29.945246233372806",
    "geocoded_column": {
      "latitude": "29.945246233372806",
      "longitude": "-90.08557923364496"
    }
  },
  {
    "service_request": "2023-1043328",
    "request_type": "Property Maintenance",
    "request_reason": "Property Maintenance",
    "date_created": "2023-10-15T17:39:20.000",
    "date_modified": "2023-10-15T17:39:20.000",
    "request_status": "Pending",
    "responsible_agency": "Department of Code Enforcement",
    "final_address": "1409 Magnolia St",
    "address_councildis": "B",
    "status": "Pending",
    "rowid": "1043328",
    "final_x": "3675983.47099",
    "final_y": "527819.114559",
    "longitude": "-90.08561680154409",
    "latitude": "29.94548582093459",
    "geocoded_column": {
      "latitude": "29.94548582093459",
      "longitude": "-90.08561680154409"
    }
  },
  {
    "service_request": "2023-1043327",
    "request_type": "Abandoned Vehicles",
    "request_reason": "Abandoned/Junk Vehicles",
    "date_created": "2023-10-15T17:39:14.000",
    "date_modified": "2023-10-15T17:39:14.000",
    "request_status": "Pending",
    "responsible_agency": "Department of Public Works",
    "final_address": "1000 Piety St",
    "address_councildis": "C",
    "status": "Pending",
    "rowid": "1043327",
    "final_x": "3689706.46748",
    "final_y": "535388.534342",
    "longitude": "-90.0420196732546",
    "latitude": "29.965881086671327",
    "geocoded_column": {
      "latitude": "29.965881086671327",
      "longitude": "-90.0420196732546"
    }
  },
  {
    "service_request": "2023-1043326",
    "request_type": "Trash/Recycling",
    "request_reason": "Illegal Dumping",
    "date_created": "2023-10-15T17:37:50.000",
    "date_modified": "2023-10-15T17:37:50.000",
    "request_status": "Pending",
    "responsible_agency": "Department of Sanitation",
    "final_address": "1331 Magnolia St",
    "address_councildis": "B",
    "status": "Pending",
    "rowid": "1043326",
    "final_x": "3676064.77608",
    "final_y": "527948.366655",
    "longitude": "-90.08535565018444",
    "latitude": "29.945838786799484",
    "geocoded_column": {
      "latitude": "29.945838786799484",
      "longitude": "-90.08535565018444"
    }
  },
  {
    "service_request": "2023-1043325",
    "request_type": "Property Maintenance",
    "request_reason": "Property Maintenance",
    "date_created": "2023-10-15T17:35:40.000",
    "date_modified": "2023-10-15T17:35:40.000",
    "request_status": "Pending",
    "responsible_agency": "Department of Code Enforcement",
    "final_address": "1319 Magnolia St",
    "address_councildis": "B",
    "status": "Pending",
    "rowid": "1043325",
    "final_x": "3676106.50088",
    "final_y": "528019.629695",
    "longitude": "-90.08522146007918",
    "latitude": "29.946033486947407",
    "geocoded_column": {
      "latitude": "29.946033486947407",
      "longitude": "-90.08522146007918"
    }
  },
  {
    "service_request": "2023-1043324",
    "request_type": "Trash/Recycling",
    "request_reason": "Illegal Dumping",
    "date_created": "2023-10-15T17:34:24.000",
    "date_modified": "2023-10-15T17:34:24.000",
    "request_status": "Pending",
    "responsible_agency": "Department of Sanitation",
    "final_address": "1313 Magnolia St",
    "address_councildis": "B",
    "status": "Pending",
    "rowid": "1043324",
    "final_x": "3676119.02145",
    "final_y": "528039.888895",
    "longitude": "-90.08518123157282",
    "latitude": "29.946088818033026",
    "geocoded_column": {
      "latitude": "29.946088818033026",
      "longitude": "-90.08518123157282"
    }
  },
  {
    "service_request": "2023-1043323",
    "request_type": "Property Maintenance",
    "request_reason": "Property Maintenance",
    "date_created": "2023-10-15T17:32:00.000",
    "date_modified": "2023-10-15T17:32:00.000",
    "request_status": "Pending",
    "responsible_agency": "Department of Code Enforcement",
    "final_address": "1238 Magnolia St",
    "address_councildis": "B",
    "status": "Pending",
    "rowid": "1043323",
    "final_x": "3676280.02702",
    "final_y": "528143.834239",
    "longitude": "-90.08466930501235",
    "latitude": "29.946369809904652",
    "geocoded_column": {
      "latitude": "29.946369809904652",
      "longitude": "-90.08466930501235"
    }
  },
  {
    "service_request": "2023-1043322",
    "request_type": "Property Maintenance",
    "request_reason": "Property Maintenance",
    "date_created": "2023-10-15T17:31:00.000",
    "date_modified": "2023-10-15T17:31:00.000",
    "request_status": "Pending",
    "responsible_agency": "Department of Code Enforcement",
    "final_address": "1230 Magnolia St",
    "address_councildis": "B",
    "status": "Pending",
    "rowid": "1043322",
    "final_x": "3676299.13333",
    "final_y": "528199.439872",
    "longitude": "-90.08460706632117",
    "latitude": "29.94652213445424",
    "geocoded_column": {
      "latitude": "29.94652213445424",
      "longitude": "-90.08460706632117"
    }
  },
  {
    "service_request": "2023-1043321",
    "request_type": "Property Maintenance",
    "request_reason": "Property Maintenance",
    "date_created": "2023-10-15T17:29:33.000",
    "date_modified": "2023-10-15T17:29:33.000",
    "request_status": "Pending",
    "responsible_agency": "Department of Code Enforcement",
    "final_address": "1216 Magnolia St",
    "address_councildis": "B",
    "status": "Pending",
    "rowid": "1043321",
    "final_x": "3676363.36181",
    "final_y": "528225.501568",
    "longitude": "-90.0844033770789",
    "latitude": "29.946591870678727",
    "geocoded_column": {
      "latitude": "29.946591870678727",
      "longitude": "-90.0844033770789"
    }
  },
  {
    "service_request": "2023-1043320",
    "request_type": "Trash/Recycling",
    "request_reason": "Illegal Dumping",
    "date_created": "2023-10-15T17:28:16.000",
    "date_modified": "2023-10-15T17:28:16.000",
    "request_status": "Pending",
    "responsible_agency": "Department of Sanitation",
    "final_address": "1230 Magnolia St",
    "address_councildis": "B",
    "status": "Pending",
    "rowid": "1043320",
    "final_x": "3676299.13333",
    "final_y": "528199.439872",
    "longitude": "-90.08460706632117",
    "latitude": "29.94652213445424",
    "geocoded_column": {
      "latitude": "29.94652213445424",
      "longitude": "-90.08460706632117"
    }
  },
  {
    "service_request": "2023-1043319",
    "request_type": "Trash/Recycling",
    "request_reason": "Illegal Dumping",
    "date_created": "2023-10-15T17:26:51.000",
    "date_modified": "2023-10-15T17:26:51.000",
    "request_status": "Pending",
    "responsible_agency": "Department of Sanitation",
    "final_address": "1303 Magnolia St",
    "address_councildis": "B",
    "status": "Pending",
    "rowid": "1043319",
    "final_x": "3676170.30984",
    "final_y": "528123.599999",
    "longitude": "-90.08501641699863",
    "latitude": "29.946317459568778",
    "geocoded_column": {
      "latitude": "29.946317459568778",
      "longitude": "-90.08501641699863"
    }
  },
  {
    "service_request": "2023-1043318",
    "request_type": "Property Maintenance",
    "request_reason": "Property Maintenance",
    "date_created": "2023-10-15T17:25:33.000",
    "date_modified": "2023-10-15T17:25:33.000",
    "request_status": "Pending",
    "responsible_agency": "Department of Code Enforcement",
    "final_address": "2708 Erato St",
    "address_councildis": "B",
    "status": "Pending",
    "rowid": "1043318",
    "final_x": "3676101.72123",
    "final_y": "528171.870144",
    "longitude": "-90.08523131534237",
    "latitude": "29.946452240931393",
    "geocoded_column": {
      "latitude": "29.946452240931393",
      "longitude": "-90.08523131534237"
    }
  },
  {
    "service_request": "2023-1043317",
    "request_type": "Property Maintenance",
    "request_reason": "Property Maintenance",
    "date_created": "2023-10-15T17:24:20.000",
    "date_modified": "2023-10-15T17:24:20.000",
    "request_status": "Pending",
    "responsible_agency": "Department of Code Enforcement",
    "final_address": "2718 Erato St",
    "address_councildis": "B",
    "status": "Pending",
    "rowid": "1043317",
    "final_x": "3676050.84251",
    "final_y": "528198.787968",
    "longitude": "-90.08539103199207",
    "latitude": "29.946527779785868",
    "geocoded_column": {
      "latitude": "29.946527779785868",
      "longitude": "-90.08539103199207"
    }
  },
  {
    "service_request": "2023-1043316",
    "request_type": "Property Maintenance",
    "request_reason": "Property Maintenance",
    "date_created": "2023-10-15T17:22:47.000",
    "date_modified": "2023-10-15T17:22:47.000",
    "request_status": "Pending",
    "responsible_agency": "Department of Code Enforcement",
    "final_address": "1300 Clara St",
    "address_councildis": "B",
    "status": "Pending",
    "rowid": "1043316",
    "final_x": "3675996.60072",
    "final_y": "528234.52672",
    "longitude": "-90.0855610640277",
    "latitude": "29.94662767377662",
    "geocoded_column": {
      "latitude": "29.94662767377662",
      "longitude": "-90.0855610640277"
    }
  },
  {
    "service_request": "2023-1043315",
    "request_type": "Property Maintenance",
    "request_reason": "Property Maintenance",
    "date_created": "2023-10-15T17:21:36.000",
    "date_modified": "2023-10-15T17:21:36.000",
    "request_status": "Pending",
    "responsible_agency": "Department of Code Enforcement",
    "final_address": "2828 Erato St",
    "address_councildis": "B",
    "status": "Pending",
    "rowid": "1043315",
    "final_x": "3675741.58235",
    "final_y": "528358.4672",
    "longitude": "-90.08636199087051",
    "latitude": "29.946976102553",
    "geocoded_column": {
      "latitude": "29.946976102553",
      "longitude": "-90.08636199087051"
    }
  },
  {
    "service_request": "2023-1043314",
    "request_type": "Trash/Recycling",
    "request_reason": "Illegal Dumping",
    "date_created": "2023-10-15T17:20:21.000",
    "date_modified": "2023-10-15T17:20:21.000",
    "request_status": "Pending",
    "responsible_agency": "Department of Sanitation",
    "final_address": "2900 BLK Erato St",
    "address_councildis": "B",
    "status": "Pending",
    "rowid": "1043314",
    "final_x": "3675588.84728",
    "final_y": "528533.070346",
    "longitude": "-90.086838235438",
    "latitude": "29.947460772890093",
    "geocoded_column": {
      "latitude": "29.947460772890093",
      "longitude": "-90.086838235438"
    }
  },
  {
    "service_request": "2023-1043313",
    "request_type": "Trash/Recycling",
    "request_reason": "Illegal Dumping",
    "date_created": "2023-10-15T17:18:04.000",
    "date_modified": "2023-10-15T17:18:04.000",
    "request_status": "Pending",
    "responsible_agency": "Department of Sanitation",
    "final_address": "2830 Erato St",
    "address_councildis": "B",
    "status": "Pending",
    "rowid": "1043313",
    "final_x": "3675712.87221",
    "final_y": "528374.441536",
    "longitude": "-90.08645209066614",
    "latitude": "29.947020885765415",
    "geocoded_column": {
      "latitude": "29.947020885765415",
      "longitude": "-90.08645209066614"
    }
  },
  {
    "service_request": "2023-1043312",
    "request_type": "Property Maintenance",
    "request_reason": "Property Maintenance",
    "date_created": "2023-10-15T17:16:43.000",
    "date_modified": "2023-10-15T17:16:43.000",
    "request_status": "Pending",
    "responsible_agency": "Department of Code Enforcement",
    "final_address": "1320 Willow St",
    "address_councildis": "B",
    "status": "Pending",
    "rowid": "1043312",
    "final_x": "3675644.48117",
    "final_y": "528275.155328",
    "longitude": "-90.08667143750401",
    "latitude": "29.94674992772652",
    "geocoded_column": {
      "latitude": "29.94674992772652",
      "longitude": "-90.08667143750401"
    }
  },
  {
    "service_request": "2023-1043311",
    "request_type": "Trash/Recycling",
    "request_reason": "Illegal Dumping",
    "date_created": "2023-10-15T17:15:05.000",
    "date_modified": "2023-10-15T17:15:05.000",
    "request_status": "Pending",
    "responsible_agency": "Department of Sanitation",
    "final_address": "1412 Willow St",
    "address_councildis": "B",
    "status": "Pending",
    "rowid": "1043311",
    "final_x": "3675592.93416",
    "final_y": "528002.455679",
    "longitude": "-90.08684355673823",
    "latitude": "29.946001635861588",
    "geocoded_column": {
      "latitude": "29.946001635861588",
      "longitude": "-90.08684355673823"
    }
  },
  {
    "service_request": "2023-1043310",
    "request_type": "Trash/Recycling",
    "request_reason": "Illegal Dumping",
    "date_created": "2023-10-15T17:13:29.000",
    "date_modified": "2023-10-15T17:13:29.000",
    "request_status": "Pending",
    "responsible_agency": "Department of Sanitation",
    "final_address": "2900 Martin Luther King, Jr. Blvd",
    "address_councildis": "B",
    "status": "Pending",
    "rowid": "1043310",
    "final_x": "3675316.01557",
    "final_y": "527896.408703",
    "longitude": "-90.08772152357895",
    "latitude": "29.94571832197458",
    "geocoded_column": {
      "latitude": "29.94571832197458",
      "longitude": "-90.08772152357895"
    }
  },
  {
    "service_request": "2023-1043309",
    "request_type": "Trash/Recycling",
    "request_reason": "Illegal Dumping",
    "date_created": "2023-10-15T17:10:29.000",
    "date_modified": "2023-10-15T17:10:29.000",
    "request_status": "Pending",
    "responsible_agency": "Department of Sanitation",
    "final_address": "2715 Felicity St",
    "address_councildis": "B",
    "status": "Pending",
    "rowid": "1043309",
    "final_x": "3675438.73397",
    "final_y": "527700.758143",
    "longitude": "-90.08734077785088",
    "latitude": "29.94517667881424",
    "geocoded_column": {
      "latitude": "29.94517667881424",
      "longitude": "-90.08734077785088"
    }
  },
  {
    "service_request": "2023-1043308",
    "request_type": "Trash/Recycling",
    "request_reason": "Illegal Dumping",
    "date_created": "2023-10-15T17:08:58.000",
    "date_modified": "2023-10-15T17:08:58.000",
    "request_status": "Pending",
    "responsible_agency": "Department of Sanitation",
    "final_address": "2623 Felicity St",
    "address_councildis": "B",
    "status": "Pending",
    "rowid": "1043308",
    "final_x": "3675620.85057",
    "final_y": "527536.339967",
    "longitude": "-90.0867714255575",
    "latitude": "29.9447191365747",
    "geocoded_column": {
      "latitude": "29.9447191365747",
      "longitude": "-90.0867714255575"
    }
  },
  {
    "service_request": "2023-1043307",
    "request_type": "Trash/Recycling",
    "request_reason": "Illegal Dumping",
    "date_created": "2023-10-15T17:06:59.000",
    "date_modified": "2023-10-15T17:06:59.000",
    "request_status": "Pending",
    "responsible_agency": "Department of Sanitation",
    "final_address": "2501 Terpsichore St",
    "address_councildis": "B",
    "status": "Pending",
    "rowid": "1043307",
    "final_x": "3675968.95765",
    "final_y": "527243.366847",
    "longitude": "-90.08568241829099",
    "latitude": "29.9439031394928",
    "geocoded_column": {
      "latitude": "29.9439031394928",
      "longitude": "-90.08568241829099"
    }
  },
  {
    "service_request": "2023-1043306",
    "request_type": "Trash/Recycling",
    "request_reason": "Illegal Dumping",
    "date_created": "2023-10-15T17:04:20.000",
    "date_modified": "2023-10-15T17:04:20.000",
    "request_status": "Pending",
    "responsible_agency": "Department of Sanitation",
    "final_address": "1620 Rev. John Raphael, Jr. Way",
    "address_councildis": "B",
    "status": "Pending",
    "rowid": "1043306",
    "final_x": "3676417.83144",
    "final_y": "526725.052798",
    "longitude": "-90.08428303854635",
    "latitude": "29.94246450017148",
    "geocoded_column": {
      "latitude": "29.94246450017148",
      "longitude": "-90.08428303854635"
    }
  },
  {
    "service_request": "2023-1043305",
    "request_type": "Trash/Recycling",
    "request_reason": "Missed Trash Pick-Up",
    "date_created": "2023-10-15T17:02:43.000",
    "date_modified": "2023-10-15T17:02:43.000",
    "request_status": "Pending",
    "responsible_agency": "Department of Sanitation",
    "final_address": "3420 Jefferson Ave",
    "address_councildis": "A",
    "status": "Assigned to Contractor",
    "contractor": "Richards Disposal",
    "rowid": "1043305",
    "final_x": "3668704.81089",
    "final_y": "527797.469695",
    "longitude": "-90.10859868665702",
    "latitude": "29.945642230854013",
    "geocoded_column": {
      "latitude": "29.945642230854013",
      "longitude": "-90.10859868665702"
    }
  },
  {
    "service_request": "2023-1043304",
    "request_type": "Trash/Recycling",
    "request_reason": "Illegal Dumping",
    "date_created": "2023-10-15T17:02:33.000",
    "date_modified": "2023-10-15T17:02:33.000",
    "request_status": "Pending",
    "responsible_agency": "Department of Sanitation",
    "final_address": "2218 Felicity St",
    "address_councildis": "B",
    "status": "Pending",
    "rowid": "1043304",
    "final_x": "3676528.37544",
    "final_y": "526471.37203",
    "longitude": "-90.08394275877643",
    "latitude": "29.941763647904185",
    "geocoded_column": {
      "latitude": "29.941763647904185",
      "longitude": "-90.08394275877643"
    }
  },
  {
    "service_request": "2023-1043303",
    "request_type": "Trash/Recycling",
    "request_reason": "Request a Large Item Pick Up",
    "date_created": "2023-10-15T16:33:42.000",
    "date_modified": "2023-10-15T16:33:43.000",
    "request_status": "Pending",
    "responsible_agency": "Department of Sanitation",
    "final_address": "5229 Prytania St",
    "address_councildis": "B",
    "status": "Assigned to Contractor",
    "contractor": "Richards Disposal",
    "rowid": "1043303",
    "final_x": "3667858.48865",
    "final_y": "520223.574648",
    "longitude": "-90.11152579985848",
    "latitude": "29.924841291564594",
    "geocoded_column": {
      "latitude": "29.924841291564594",
      "longitude": "-90.11152579985848"
    }
  },
  {
    "service_request": "2023-1043302",
    "request_type": "Trash/Recycling",
    "request_reason": "Request a Large Item Pick Up",
    "date_created": "2023-10-15T16:28:11.000",
    "date_modified": "2023-10-15T16:28:11.000",
    "request_status": "Pending",
    "responsible_agency": "Department of Sanitation",
    "final_address": "5722 Woodlawn Pl",
    "address_councildis": "A",
    "status": "Assigned to Contractor",
    "contractor": "IV Waste",
    "rowid": "1043302",
    "final_x": "3667533.14983",
    "final_y": "545680.285392",
    "longitude": "-90.11169604862425",
    "latitude": "29.994848394362613",
    "geocoded_column": {
      "latitude": "29.994848394362613",
      "longitude": "-90.11169604862425"
    }
  },
  {
    "service_request": "2023-1043301",
    "request_type": "Trash/Recycling",
    "request_reason": "Repair Trash Cart",
    "date_created": "2023-10-15T16:18:27.000",
    "date_modified": "2023-10-15T16:18:28.000",
    "request_status": "Pending",
    "responsible_agency": "Department of Sanitation",
    "final_address": "5410 Stillwater Dr",
    "address_councildis": "E",
    "status": "Assigned to Contractor",
    "contractor": "Waste Pro",
    "rowid": "1043301",
    "final_x": "3716815.98962",
    "final_y": "560294.371549",
    "longitude": "-89.9554638936288",
    "latitude": "30.03349458241539",
    "geocoded_column": {
      "latitude": "30.03349458241539",
      "longitude": "-89.9554638936288"
    }
  },
  {
    "service_request": "2023-1043300",
    "request_type": "Trash/Recycling",
    "request_reason": "Start Trash Service",
    "date_created": "2023-10-15T16:01:26.000",
    "date_modified": "2023-10-15T16:01:27.000",
    "request_status": "Pending",
    "responsible_agency": "Department of Sanitation",
    "final_address": "6319 Pandora St",
    "address_councildis": "D",
    "status": "Assigned to Contractor",
    "contractor": "Waste Pro",
    "rowid": "1043300",
    "final_x": "3696834.41258",
    "final_y": "557437.906651",
    "longitude": "-90.01871109400624",
    "latitude": "30.02628593340314",
    "geocoded_column": {
      "latitude": "30.02628593340314",
      "longitude": "-90.01871109400624"
    }
  },
  {
    "service_request": "2023-1043299",
    "request_type": "Trash/Recycling",
    "request_reason": "Return Trash Cart",
    "date_created": "2023-10-15T15:57:56.000",
    "date_modified": "2023-10-15T15:57:56.000",
    "request_status": "Pending",
    "responsible_agency": "Department of Sanitation",
    "final_address": "1531 Pleasant St",
    "address_councildis": "B",
    "status": "Assigned to Contractor",
    "contractor": "Richards Disposal",
    "rowid": "1043299",
    "final_x": "3674716.1243",
    "final_y": "521569.420729",
    "longitude": "-90.08983237120857",
    "latitude": "29.928339088676413",
    "geocoded_column": {
      "latitude": "29.928339088676413",
      "longitude": "-90.08983237120857"
    }
  },
  {
    "service_request": "2023-1043298",
    "request_type": "Trash/Recycling",
    "request_reason": "Request a Large Item Pick Up",
    "date_created": "2023-10-15T15:56:33.000",
    "date_modified": "2023-10-15T15:56:34.000",
    "request_status": "Pending",
    "responsible_agency": "Department of Sanitation",
    "final_address": "5542 Press Dr",
    "address_councildis": "D",
    "status": "Assigned to Contractor",
    "contractor": "IV Waste",
    "rowid": "1043298",
    "final_x": "3689250.23113",
    "final_y": "553852.963031",
    "longitude": "-90.04280371848783",
    "latitude": "30.01666574850605",
    "geocoded_column": {
      "latitude": "30.01666574850605",
      "longitude": "-90.04280371848783"
    }
  },
  {
    "service_request": "2023-1043296",
    "request_type": "Trash/Recycling",
    "request_reason": "Request a Large Item Pick Up",
    "date_created": "2023-10-15T15:49:51.000",
    "date_modified": "2023-10-15T15:49:51.000",
    "request_status": "Pending",
    "responsible_agency": "Department of Sanitation",
    "final_address": "4732 St Claude Ave",
    "address_councildis": "E",
    "status": "Assigned to Contractor",
    "contractor": "Waste Pro",
    "rowid": "1043296",
    "final_x": "3694923.81027",
    "final_y": "534435.078213",
    "longitude": "-90.02557791317464",
    "latitude": "29.963096716249932",
    "geocoded_column": {
      "latitude": "29.963096716249932",
      "longitude": "-90.02557791317464"
    }
  },
  {
    "service_request": "2023-1043295",
    "request_type": "Roads/Drainage",
    "request_reason": "Pothole",
    "date_created": "2023-10-15T15:29:50.000",
    "date_modified": "2023-10-15T15:29:50.000",
    "request_status": "Pending",
    "responsible_agency": "Department of Public Works",
    "final_address": "1315 Peniston St",
    "address_councildis": "B",
    "status": "Pending",
    "rowid": "1043295",
    "final_x": "3673101.31451",
    "final_y": "520423.11276",
    "longitude": "-90.09496908964098",
    "latitude": "29.925235197927364",
    "geocoded_column": {
      "latitude": "29.925235197927364",
      "longitude": "-90.09496908964098"
    }
  },
  {
    "service_request": "2023-1043294",
    "request_type": "Traffic Signals/Signs/Striping/Streetlights",
    "request_reason": "Traffic Signal Malfunctioning/Damaged",
    "date_created": "2023-10-15T15:23:19.000",
    "date_modified": "2023-10-15T15:23:19.000",
    "request_status": "Pending",
    "responsible_agency": "Department of Public Works",
    "final_address": "Leonidas Street & South Claiborne Avenue",
    "address_councildis": "A",
    "status": "Pending",
    "rowid": "1043294",
    "final_x": "3663561.67111",
    "final_y": "532773.568644",
    "longitude": "-90.1246716160918",
    "latitude": "29.959475048478655",
    "geocoded_column": {
      "latitude": "29.959475048478655",
      "longitude": "-90.1246716160918"
    }
  },
  {
    "service_request": "2023-1043293",
    "request_type": "Roads/Drainage",
    "request_reason": "Pothole",
    "date_created": "2023-10-15T15:18:23.000",
    "date_modified": "2023-10-15T15:18:23.000",
    "request_status": "Pending",
    "responsible_agency": "Department of Public Works",
    "final_address": "4216 Chestnut St",
    "address_councildis": "B",
    "status": "Pending",
    "rowid": "1043293",
    "final_x": "3671574.31393",
    "final_y": "519539.203703",
    "longitude": "-90.09981939416457",
    "latitude": "29.922850019854593",
    "geocoded_column": {
      "latitude": "29.922850019854593",
      "longitude": "-90.09981939416457"
    }
  },
  {
    "service_request": "2023-1043292",
    "request_type": "Roads/Drainage",
    "request_reason": "Pothole",
    "date_created": "2023-10-15T15:11:38.000",
    "date_modified": "2023-10-15T15:11:38.000",
    "request_status": "Pending",
    "responsible_agency": "Department of Public Works",
    "final_address": "1421 Constantinople St",
    "address_councildis": "B",
    "status": "Pending",
    "rowid": "1043292",
    "final_x": "3672433.24257",
    "final_y": "520667.657465",
    "longitude": "-90.09706965638372",
    "latitude": "29.925927453713577",
    "geocoded_column": {
      "latitude": "29.925927453713577",
      "longitude": "-90.09706965638372"
    }
  },
  {
    "service_request": "2023-1043291",
    "request_type": "Roads/Drainage",
    "request_reason": "Pothole",
    "date_created": "2023-10-15T15:05:00.000",
    "date_modified": "2023-10-15T15:05:00.000",
    "request_status": "Pending",
    "responsible_agency": "Department of Public Works",
    "final_address": "1312 Milan St",
    "address_councildis": "B",
    "status": "Pending",
    "rowid": "1043291",
    "final_x": "3671625.82823",
    "final_y": "520286.919608",
    "longitude": "-90.09963137110304",
    "latitude": "29.92490447494246",
    "geocoded_column": {
      "latitude": "29.92490447494246",
      "longitude": "-90.09963137110304"
    }
  },
  {
    "service_request": "2023-1043290",
    "request_type": "Trash/Recycling",
    "request_reason": "Request a Large Item Pick Up",
    "date_created": "2023-10-15T15:02:51.000",
    "date_modified": "2023-10-15T15:02:51.000",
    "request_status": "Pending",
    "responsible_agency": "Department of Sanitation",
    "final_address": "16 Neron Pl",
    "address_councildis": "A",
    "status": "Assigned to Contractor",
    "contractor": "Richards Disposal",
    "rowid": "1043290",
    "final_x": "3664908.01402",
    "final_y": "530858.815682",
    "longitude": "-90.1204841617854",
    "latitude": "29.95417098378063",
    "geocoded_column": {
      "latitude": "29.95417098378063",
      "longitude": "-90.1204841617854"
    }
  },
  {
    "service_request": "2023-1043289",
    "request_type": "Trash/Recycling",
    "request_reason": "Missed Trash Pick-Up",
    "date_created": "2023-10-15T14:49:19.000",
    "date_modified": "2023-10-15T14:49:20.000",
    "request_status": "Pending",
    "responsible_agency": "Department of Sanitation",
    "final_address": "840 Jourdan Ave",
    "address_councildis": "E",
    "status": "Assigned to Contractor",
    "contractor": "Waste Pro",
    "rowid": "1043289",
    "final_x": "3694733.04618",
    "final_y": "533699.950085",
    "longitude": "-90.02620680251991",
    "latitude": "29.961081358494116",
    "geocoded_column": {
      "latitude": "29.961081358494116",
      "longitude": "-90.02620680251991"
    }
  },
  {
    "service_request": "2023-1043288",
    "request_type": "Trash/Recycling",
    "request_reason": "Replace Recycling Cart",
    "date_created": "2023-10-15T14:47:59.000",
    "date_modified": "2023-10-15T14:47:59.000",
    "request_status": "Pending",
    "responsible_agency": "Department of Sanitation",
    "final_address": "719 Spain St 70117",
    "status": "Pending",
    "rowid": "1043288",
    "longitude": "0.0",
    "latitude": "0.0",
    "geocoded_column": {
      "latitude": "0.0",
      "longitude": "0.0"
    }
  },
  {
    "service_request": "2023-1043287",
    "request_type": "Trash/Recycling",
    "request_reason": "Request a Large Item Pick Up",
    "date_created": "2023-10-15T14:39:22.000",
    "date_modified": "2023-10-15T14:39:23.000",
    "request_status": "Pending",
    "responsible_agency": "Department of Sanitation",
    "final_address": "127 Country Club Dr",
    "address_councildis": "A",
    "status": "Assigned to Contractor",
    "contractor": "IV Waste",
    "rowid": "1043287",
    "final_x": "3665593.68276",
    "final_y": "544415.725071",
    "longitude": "-90.1178650014143",
    "latitude": "29.991427998431163",
    "geocoded_column": {
      "latitude": "29.991427998431163",
      "longitude": "-90.1178650014143"
    }
  },
  {
    "service_request": "2023-1043286",
    "request_type": "Trash/Recycling",
    "request_reason": "Order Recycling Cart",
    "date_created": "2023-10-15T14:35:54.000",
    "date_modified": "2023-10-15T14:35:54.000",
    "request_status": "Pending",
    "responsible_agency": "Department of Sanitation",
    "final_address": "3043 College Ct",
    "address_councildis": "B",
    "status": "Pending",
    "rowid": "1043286",
    "final_x": "3668427.68346",
    "final_y": "531688.337603",
    "longitude": "-90.1093424454549",
    "latitude": "29.956348988640723",
    "geocoded_column": {
      "latitude": "29.956348988640723",
      "longitude": "-90.1093424454549"
    }
  },
  {
    "service_request": "2023-1043285",
    "request_type": "Roads/Drainage",
    "request_reason": "Pothole",
    "date_created": "2023-10-15T14:32:55.000",
    "date_modified": "2023-10-15T14:32:55.000",
    "request_status": "Pending",
    "responsible_agency": "Department of Public Works",
    "final_address": "6070 Chestnut St",
    "address_councildis": "A",
    "status": "Pending",
    "rowid": "1043285",
    "final_x": "3664412.78983",
    "final_y": "519991.592952",
    "longitude": "-90.12241052146828",
    "latitude": "29.92430399204139",
    "geocoded_column": {
      "latitude": "29.92430399204139",
      "longitude": "-90.12241052146828"
    }
  },
  {
    "service_request": "2023-1043284",
    "request_type": "Roads/Drainage",
    "request_reason": "Pothole",
    "date_created": "2023-10-15T14:28:44.000",
    "date_modified": "2023-10-15T14:28:44.000",
    "request_status": "Pending",
    "responsible_agency": "Department of Public Works",
    "final_address": "6215 Hurst St",
    "address_councildis": "A",
    "status": "Pending",
    "rowid": "1043284",
    "final_x": "3664668.32039",
    "final_y": "522243.373626",
    "longitude": "-90.12152872358996",
    "latitude": "29.93048825206563",
    "geocoded_column": {
      "latitude": "29.93048825206563",
      "longitude": "-90.12152872358996"
    }
  },
  {
    "service_request": "2023-1043283",
    "request_type": "Trash/Recycling",
    "request_reason": "Request a Large Item Pick Up",
    "date_created": "2023-10-15T14:18:19.000",
    "date_modified": "2023-10-15T14:18:20.000",
    "request_status": "Pending",
    "responsible_agency": "Department of Sanitation",
    "final_address": "2112 Spain St",
    "address_councildis": "D",
    "status": "Assigned to Contractor",
    "contractor": "IV Waste",
    "rowid": "1043283",
    "final_x": "3685791.7014",
    "final_y": "540180.305419",
    "longitude": "-90.05421343262073",
    "latitude": "29.979177510997083",
    "geocoded_column": {
      "latitude": "29.979177510997083",
      "longitude": "-90.05421343262073"
    }
  },
  {
    "service_request": "2023-1043282",
    "request_type": "Trash/Recycling",
    "request_reason": "Request a Large Item Pick Up",
    "date_created": "2023-10-15T14:10:39.000",
    "date_modified": "2023-10-15T14:10:40.000",
    "request_status": "Pending",
    "responsible_agency": "Department of Sanitation",
    "final_address": "2739 Audubon St",
    "address_councildis": "B",
    "status": "Assigned to Contractor",
    "contractor": "Richards Disposal",
    "rowid": "1043282",
    "final_x": "3667412.84788",
    "final_y": "530911.647874",
    "longitude": "-90.11257309831744",
    "latitude": "29.95424311495498",
    "geocoded_column": {
      "latitude": "29.95424311495498",
      "longitude": "-90.11257309831744"
    }
  },
  {
    "service_request": "2023-1043280",
    "request_type": "Trash/Recycling",
    "request_reason": "Replace Recycling Cart",
    "date_created": "2023-10-15T13:52:37.000",
    "date_modified": "2023-10-15T13:52:37.000",
    "request_status": "Pending",
    "responsible_agency": "Department of Sanitation",
    "final_address": "1518 Saint Ann St, New Orleans, Louisiana, 70116",
    "status": "Pending",
    "rowid": "1043280",
    "longitude": "0.0",
    "latitude": "0.0",
    "geocoded_column": {
      "latitude": "0.0",
      "longitude": "0.0"
    }
  },
  {
    "service_request": "2023-1043279",
    "request_type": "Trash/Recycling",
    "request_reason": "MIssed Recycling Pick-Up",
    "date_created": "2023-10-15T13:52:11.000",
    "date_modified": "2023-10-15T13:52:12.000",
    "request_status": "Pending",
    "responsible_agency": "Department of Sanitation",
    "final_address": "4523 LaSalle St",
    "address_councildis": "B",
    "status": "Assigned to Contractor",
    "contractor": "Richards Disposal",
    "rowid": "1043279",
    "final_x": "3669965.56372",
    "final_y": "523691.007291",
    "longitude": "-90.10475708156233",
    "latitude": "29.934313674969047",
    "geocoded_column": {
      "latitude": "29.934313674969047",
      "longitude": "-90.10475708156233"
    }
  },
  {
    "service_request": "2023-1043277",
    "request_type": "Abandoned Vehicles",
    "request_reason": "Abandoned/Junk Vehicles",
    "date_created": "2023-10-15T13:37:12.000",
    "date_modified": "2023-10-15T13:37:12.000",
    "request_status": "Pending",
    "responsible_agency": "Department of Public Works",
    "final_address": "4916 S Prieur St",
    "address_councildis": "B",
    "status": "Pending",
    "rowid": "1043277",
    "final_x": "3669101.82158",
    "final_y": "526639.33203",
    "longitude": "-90.10738431251907",
    "latitude": "29.94244605404939",
    "geocoded_column": {
      "latitude": "29.94244605404939",
      "longitude": "-90.10738431251907"
    }
  },
  {
    "service_request": "2023-1043276",
    "request_type": "Trash/Recycling",
    "request_reason": "Illegal Dumping",
    "date_created": "2023-10-15T13:21:59.000",
    "date_modified": "2023-10-15T13:21:59.000",
    "request_status": "Pending",
    "responsible_agency": "Department of Sanitation",
    "final_address": "2931 Banks St",
    "address_councildis": "B",
    "status": "Pending",
    "rowid": "1043276",
    "final_x": "3673700.87092",
    "final_y": "534929.388806",
    "longitude": "-90.09258062970083",
    "latitude": "29.965104857305484",
    "geocoded_column": {
      "latitude": "29.965104857305484",
      "longitude": "-90.09258062970083"
    }
  },
  {
    "service_request": "2023-1043275",
    "request_type": "Roads/Drainage",
    "request_reason": "Street Subsidence (Sinking)",
    "date_created": "2023-10-15T13:17:19.000",
    "date_modified": "2023-10-15T13:17:19.000",
    "request_status": "Pending",
    "responsible_agency": "Department of Public Works",
    "final_address": "2503 Broadway St",
    "address_councildis": "A",
    "status": "Pending",
    "rowid": "1043275",
    "final_x": "3666874.90426",
    "final_y": "530430.436162",
    "longitude": "-90.11428788099589",
    "latitude": "29.952935687617867",
    "geocoded_column": {
      "latitude": "29.952935687617867",
      "longitude": "-90.11428788099589"
    }
  },
  {
    "service_request": "2023-1043274",
    "request_type": "Abandoned Vehicles",
    "request_reason": "Abandoned/Junk Vehicles",
    "date_created": "2023-10-15T13:17:00.000",
    "date_modified": "2023-10-15T13:17:00.000",
    "request_status": "Pending",
    "responsible_agency": "Department of Public Works",
    "final_address": "1917 Orleans Ave",
    "address_councildis": "D",
    "status": "Pending",
    "rowid": "1043274",
    "final_x": "3679185.60354",
    "final_y": "535287.668102",
    "longitude": "-90.07524772862234",
    "latitude": "29.965925559856057",
    "geocoded_column": {
      "latitude": "29.965925559856057",
      "longitude": "-90.07524772862234"
    }
  },
  {
    "service_request": "2023-1043273",
    "request_type": "Roads/Drainage",
    "request_reason": "WaterMain Break",
    "date_created": "2023-10-15T13:10:41.000",
    "date_modified": "2023-10-15T13:10:41.000",
    "request_status": "Pending",
    "responsible_agency": "Department of Public Works",
    "final_address": "3019 Ursulines Ave",
    "address_councildis": "A",
    "status": "Pending",
    "rowid": "1043273",
    "final_x": "3676416.96929",
    "final_y": "539172.871562",
    "longitude": "-90.08385720900495",
    "latitude": "29.976691839330442",
    "geocoded_column": {
      "latitude": "29.976691839330442",
      "longitude": "-90.08385720900495"
    }
  },
  {
    "service_request": "2023-1043272",
    "request_type": "Trash/Recycling",
    "request_reason": "Request a Large Item Pick Up",
    "date_created": "2023-10-15T13:10:40.000",
    "date_modified": "2023-10-15T13:10:41.000",
    "request_status": "Pending",
    "responsible_agency": "Department of Sanitation",
    "final_address": "912 Fern St",
    "address_councildis": "A",
    "status": "Assigned to Contractor",
    "contractor": "Richards Disposal",
    "rowid": "1043272",
    "final_x": "3661892.92365",
    "final_y": "527214.826495",
    "longitude": "-90.13012547739972",
    "latitude": "29.94423859098185",
    "geocoded_column": {
      "latitude": "29.94423859098185",
      "longitude": "-90.13012547739972"
    }
  },
  {
    "service_request": "2023-1043271",
    "request_type": "Trash/Recycling",
    "request_reason": "Request a Large Item Pick Up",
    "date_created": "2023-10-15T12:47:37.000",
    "date_modified": "2023-10-15T12:47:38.000",
    "request_status": "Pending",
    "responsible_agency": "Department of Sanitation",
    "final_address": "2611 Chippewa St",
    "address_councildis": "B",
    "status": "Assigned to Contractor",
    "contractor": "Richards Disposal",
    "rowid": "1043271",
    "final_x": "3678284.85198",
    "final_y": "519903.280696",
    "longitude": "-90.078624270401",
    "latitude": "29.923650771544516",
    "geocoded_column": {
      "latitude": "29.923650771544516",
      "longitude": "-90.078624270401"
    }
  },
  {
    "service_request": "2023-1043270",
    "request_type": "Traffic Signals/Signs/Striping/Streetlights",
    "request_reason": "Traffic Sign Missing/Damaged",
    "date_created": "2023-10-15T12:44:48.000",
    "date_modified": "2023-10-15T12:44:48.000",
    "request_status": "Pending",
    "responsible_agency": "Department of Public Works",
    "final_address": "ST CHARLES AVE & WALNUT ST",
    "address_councildis": "A",
    "status": "Pending",
    "rowid": "1043270",
    "final_x": "3663402.6",
    "final_y": "524303.18",
    "longitude": "-90.12545588462676",
    "latitude": "29.9361888147703",
    "geocoded_column": {
      "latitude": "29.9361888147703",
      "longitude": "-90.12545588462676"
    }
  },
  {
    "service_request": "2023-1043269",
    "request_type": "Trash/Recycling",
    "request_reason": "Order Recycling Cart",
    "date_created": "2023-10-15T12:42:51.000",
    "date_modified": "2023-10-15T12:42:51.000",
    "request_status": "Pending",
    "responsible_agency": "Department of Sanitation",
    "final_address": "7535 Michigan St",
    "address_councildis": "E",
    "status": "Pending",
    "rowid": "1043269",
    "final_x": "3712145.31058",
    "final_y": "566052.854947",
    "longitude": "-89.9700070853545",
    "latitude": "30.049481702277856",
    "geocoded_column": {
      "latitude": "30.049481702277856",
      "longitude": "-89.9700070853545"
    }
  },
  {
    "service_request": "2023-1043268",
    "request_type": "Trash/Recycling",
    "request_reason": "Order Recycling Cart",
    "date_created": "2023-10-15T12:24:50.000",
    "date_modified": "2023-10-15T12:24:50.000",
    "request_status": "Pending",
    "responsible_agency": "Department of Sanitation",
    "final_address": "6416 Catina St",
    "address_councildis": "A",
    "status": "Pending",
    "rowid": "1043268",
    "final_x": "3666859.55738",
    "final_y": "550516.544148",
    "longitude": "-90.11366124202901",
    "latitude": "30.00816616406159",
    "geocoded_column": {
      "latitude": "30.00816616406159",
      "longitude": "-90.11366124202901"
    }
  },
  {
    "service_request": "2023-1043267",
    "request_type": "Trash/Recycling",
    "request_reason": "Request a Large Item Pick Up",
    "date_created": "2023-10-15T12:22:50.000",
    "date_modified": "2023-10-15T12:22:51.000",
    "request_status": "Pending",
    "responsible_agency": "Department of Sanitation",
    "final_address": "3603 Banks St",
    "address_councildis": "B",
    "status": "Assigned to Contractor",
    "contractor": "Richards Disposal",
    "rowid": "1043267",
    "final_x": "3671867.97006",
    "final_y": "536314.672903",
    "longitude": "-90.09832168968647",
    "latitude": "29.96896836953782",
    "geocoded_column": {
      "latitude": "29.96896836953782",
      "longitude": "-90.09832168968647"
    }
  },
  {
    "service_request": "2023-1043266",
    "request_type": "Abandoned Vehicles",
    "request_reason": "Abandoned/Junk Vehicles",
    "date_created": "2023-10-15T12:19:25.000",
    "date_modified": "2023-10-15T12:19:25.000",
    "request_status": "Pending",
    "responsible_agency": "Department of Public Works",
    "final_address": "1800 BLK Bartholomew St",
    "address_councildis": "D",
    "status": "Pending",
    "rowid": "1043266",
    "final_x": "3692499.43025",
    "final_y": "538119.372368",
    "longitude": "-90.03310176208505",
    "latitude": "29.97330308246887",
    "geocoded_column": {
      "latitude": "29.97330308246887",
      "longitude": "-90.03310176208505"
    }
  },
  {
    "service_request": "2023-1043265",
    "request_type": "Traffic Signals/Signs/Striping/Streetlights",
    "request_reason": "Traffic Sign Missing/Damaged",
    "date_created": "2023-10-15T11:15:04.000",
    "date_modified": "2023-10-15T11:15:04.000",
    "request_status": "Pending",
    "responsible_agency": "Department of Public Works",
    "final_address": "134 N Alexander St",
    "address_councildis": "A",
    "status": "Pending",
    "rowid": "1043265",
    "final_x": "3670253.93831",
    "final_y": "539432.27457",
    "longitude": "-90.10331323336244",
    "latitude": "29.97758845966334",
    "geocoded_column": {
      "latitude": "29.97758845966334",
      "longitude": "-90.10331323336244"
    }
  },
  {
    "service_request": "2023-1043264",
    "request_type": "Abandoned Vehicles",
    "request_reason": "Abandoned/Junk Vehicles",
    "date_created": "2023-10-15T11:10:18.000",
    "date_modified": "2023-10-15T11:10:18.000",
    "request_status": "Pending",
    "responsible_agency": "Department of Public Works",
    "final_address": "1500 BLK Flood St",
    "address_councildis": "E",
    "status": "Pending",
    "rowid": "1043264",
    "final_x": "3698137.32416",
    "final_y": "535449.214322",
    "longitude": "-90.01539324494817",
    "latitude": "29.965783991014707",
    "geocoded_column": {
      "latitude": "29.965783991014707",
      "longitude": "-90.01539324494817"
    }
  },
  {
    "service_request": "2023-1043263",
    "request_type": "Abandoned Vehicles",
    "request_reason": "Abandoned/Junk Vehicles",
    "date_created": "2023-10-15T11:08:33.000",
    "date_modified": "2023-10-15T11:08:33.000",
    "request_status": "Pending",
    "responsible_agency": "Department of Public Works",
    "final_address": "1500 BLK Flood St",
    "address_councildis": "E",
    "status": "Pending",
    "rowid": "1043263",
    "final_x": "3698137.32416",
    "final_y": "535449.214322",
    "longitude": "-90.01539324494817",
    "latitude": "29.965783991014707",
    "geocoded_column": {
      "latitude": "29.965783991014707",
      "longitude": "-90.01539324494817"
    }
  },
  {
    "service_request": "2023-1043262",
    "request_type": "Abandoned Vehicles",
    "request_reason": "Abandoned/Junk Vehicles",
    "date_created": "2023-10-15T11:06:22.000",
    "date_modified": "2023-10-15T11:06:22.000",
    "request_status": "Pending",
    "responsible_agency": "Department of Public Works",
    "final_address": "1500 BLK Flood St",
    "address_councildis": "E",
    "status": "Pending",
    "rowid": "1043262",
    "final_x": "3698137.32416",
    "final_y": "535449.214322",
    "longitude": "-90.01539324494817",
    "latitude": "29.965783991014707",
    "geocoded_column": {
      "latitude": "29.965783991014707",
      "longitude": "-90.01539324494817"
    }
  },
  {
    "service_request": "2023-1043261",
    "request_type": "Trash/Recycling",
    "request_reason": "Order Trash Cart",
    "date_created": "2023-10-15T10:56:34.000",
    "date_modified": "2023-10-15T10:56:34.000",
    "request_status": "Pending",
    "responsible_agency": "Department of Sanitation",
    "final_address": "8211 Plum St",
    "address_councildis": "A",
    "status": "Assigned to Contractor",
    "contractor": "Richards Disposal",
    "rowid": "1043261",
    "final_x": "3661893.68685",
    "final_y": "528967.767168",
    "longitude": "-90.13006494850951",
    "latitude": "29.94905859534158",
    "geocoded_column": {
      "latitude": "29.94905859534158",
      "longitude": "-90.13006494850951"
    }
  },
  {
    "service_request": "2023-1043260",
    "request_type": "Trash/Recycling",
    "request_reason": "Request a Large Item Pick Up",
    "date_created": "2023-10-15T10:54:12.000",
    "date_modified": "2023-10-15T10:54:13.000",
    "request_status": "Pending",
    "responsible_agency": "Department of Sanitation",
    "final_address": "3140 Saint Ann St, New Orleans, Louisiana, 70119",
    "status": "Assigned to Contractor",
    "rowid": "1043260",
    "longitude": "0.0",
    "latitude": "0.0",
    "geocoded_column": {
      "latitude": "0.0",
      "longitude": "0.0"
    }
  },
  {
    "service_request": "2023-1043259",
    "request_type": "Roads/Drainage",
    "request_reason": "Pothole",
    "date_created": "2023-10-15T10:21:17.000",
    "date_modified": "2023-10-15T10:21:17.000",
    "request_status": "Pending",
    "responsible_agency": "Department of Public Works",
    "final_address": "1836 Valence St",
    "address_councildis": "B",
    "status": "Pending",
    "rowid": "1043259",
    "final_x": "3669548.88276",
    "final_y": "521749.076666",
    "longitude": "-90.10613819354518",
    "latitude": "29.928986265896693",
    "geocoded_column": {
      "latitude": "29.928986265896693",
      "longitude": "-90.10613819354518"
    }
  },
  {
    "service_request": "2023-1043258",
    "request_type": "Property Maintenance",
    "request_reason": "Property Maintenance",
    "date_created": "2023-10-15T10:20:46.000",
    "date_modified": "2023-10-15T10:20:46.000",
    "request_status": "Pending",
    "responsible_agency": "Department of Code Enforcement",
    "final_address": "944 Race St",
    "address_councildis": "B",
    "status": "Pending",
    "rowid": "1043258",
    "final_x": "3680596.66165",
    "final_y": "523701.484219",
    "longitude": "-90.0711946755552",
    "latitude": "29.934024774588842",
    "geocoded_column": {
      "latitude": "29.934024774588842",
      "longitude": "-90.0711946755552"
    }
  },
  {
    "service_request": "2023-1043257",
    "request_type": "Roads/Drainage",
    "request_reason": "Pothole",
    "date_created": "2023-10-15T09:22:39.000",
    "date_modified": "2023-10-15T09:22:39.000",
    "request_status": "Pending",
    "responsible_agency": "Department of Public Works",
    "final_address": "1732 Valmont St",
    "address_councildis": "B",
    "status": "Pending",
    "rowid": "1043257",
    "final_x": "3667905.36257",
    "final_y": "522089.299962",
    "longitude": "-90.111315023539",
    "latitude": "29.929970069446817",
    "geocoded_column": {
      "latitude": "29.929970069446817",
      "longitude": "-90.111315023539"
    }
  },
  {
    "service_request": "2023-1043256",
    "request_type": "Trash/Recycling",
    "request_reason": "Order Trash Cart",
    "date_created": "2023-10-15T09:00:22.000",
    "date_modified": "2023-10-15T09:00:29.000",
    "request_status": "Pending",
    "responsible_agency": "Department of Sanitation",
    "final_address": "2017 Allen St",
    "address_councildis": "D",
    "status": "Assigned to Contractor",
    "contractor": "IV Waste",
    "rowid": "1043256",
    "final_x": "3682532.00021",
    "final_y": "539582.49985",
    "longitude": "-90.06452973512123",
    "latitude": "29.97763340751914",
    "geocoded_column": {
      "latitude": "29.97763340751914",
      "longitude": "-90.06452973512123"
    }
  },
  {
    "service_request": "2023-1043255",
    "request_type": "Roads/Drainage",
    "request_reason": "Pothole",
    "date_created": "2023-10-15T08:58:20.000",
    "date_modified": "2023-10-15T08:58:20.000",
    "request_status": "Pending",
    "responsible_agency": "Department of Public Works",
    "final_address": "1654 Burbank Dr",
    "address_councildis": "D",
    "status": "Pending",
    "rowid": "1043255",
    "final_x": "3679521.37717",
    "final_y": "554365.135128",
    "longitude": "-90.07352498301324",
    "latitude": "30.018371735011417",
    "geocoded_column": {
      "latitude": "30.018371735011417",
      "longitude": "-90.07352498301324"
    }
  },
  {
    "service_request": "2023-1043254",
    "request_type": "Roads/Drainage",
    "request_reason": "Damaged Sidewalk",
    "date_created": "2023-10-15T08:40:29.000",
    "date_modified": "2023-10-15T08:40:29.000",
    "request_status": "Pending",
    "responsible_agency": "Department of Public Works",
    "final_address": "1654 Burbank Dr",
    "address_councildis": "D",
    "status": "Pending",
    "rowid": "1043254",
    "final_x": "3679521.37717",
    "final_y": "554365.135128",
    "longitude": "-90.07352498301324",
    "latitude": "30.018371735011417",
    "geocoded_column": {
      "latitude": "30.018371735011417",
      "longitude": "-90.07352498301324"
    }
  },
  {
    "service_request": "2023-1043253",
    "request_type": "Roads/Drainage",
    "request_reason": "Street Subsidence (Sinking)",
    "date_created": "2023-10-15T07:49:32.000",
    "date_modified": "2023-10-15T07:49:32.000",
    "request_status": "Pending",
    "responsible_agency": "Department of Public Works",
    "final_address": "1829 Bordeaux St",
    "address_councildis": "B",
    "status": "Pending",
    "rowid": "1043253",
    "final_x": "3669329.725",
    "final_y": "521672.549241",
    "longitude": "-90.1068326189762",
    "latitude": "29.92878229206484",
    "geocoded_column": {
      "latitude": "29.92878229206484",
      "longitude": "-90.1068326189762"
    }
  },
  {
    "service_request": "2023-1043252",
    "request_type": "Roads/Drainage",
    "request_reason": "Pothole",
    "date_created": "2023-10-15T07:38:08.000",
    "date_modified": "2023-10-15T07:38:08.000",
    "request_status": "Pending",
    "responsible_agency": "Department of Public Works",
    "final_address": "1407 Valence St",
    "address_councildis": "B",
    "status": "Pending",
    "rowid": "1043252",
    "final_x": "3669839.25287",
    "final_y": "520292.863992",
    "longitude": "-90.10527081865904",
    "latitude": "29.924973591096933",
    "geocoded_column": {
      "latitude": "29.924973591096933",
      "longitude": "-90.10527081865904"
    }
  },
  {
    "service_request": "2023-1043251",
    "request_type": "Abandoned Vehicles",
    "request_reason": "Abandoned/Junk Vehicles",
    "date_created": "2023-10-15T05:03:10.000",
    "date_modified": "2023-10-15T05:03:10.000",
    "request_status": "Pending",
    "responsible_agency": "Department of Public Works",
    "final_address": "2116 Ellen Park Pl",
    "address_councildis": "C",
    "status": "Pending",
    "rowid": "1043251",
    "final_x": "3703000.20324",
    "final_y": "523075.999867",
    "longitude": "-90.00049106388485",
    "latitude": "29.931607352236714",
    "geocoded_column": {
      "latitude": "29.931607352236714",
      "longitude": "-90.00049106388485"
    }
  },
  {
    "service_request": "2023-1043250",
    "request_type": "Abandoned Vehicles",
    "request_reason": "Abandoned/Junk Vehicles",
    "date_created": "2023-10-15T04:53:05.000",
    "date_modified": "2023-10-15T04:53:05.000",
    "request_status": "Pending",
    "responsible_agency": "Department of Public Works",
    "final_address": "3740 Rue Renee",
    "address_councildis": "C",
    "status": "Pending",
    "rowid": "1043250",
    "final_x": "3705302.16836",
    "final_y": "516619.184565",
    "longitude": "-89.99346243526398",
    "latitude": "29.91377952658826",
    "geocoded_column": {
      "latitude": "29.91377952658826",
      "longitude": "-89.99346243526398"
    }
  },
  {
    "service_request": "2023-1043248",
    "request_type": "Health Related Request",
    "request_reason": "Noise Ordinance Complaint",
    "date_created": "2023-10-15T00:23:35.000",
    "date_modified": "2023-10-15T00:23:35.000",
    "request_status": "Pending",
    "responsible_agency": "Health Department",
    "final_address": "1445 Webster St, New Orleans, Louisiana, 70118",
    "address_councildis": "A",
    "status": "Pending",
    "rowid": "1043248",
    "final_x": "3665034.70522",
    "final_y": "521729.024826",
    "longitude": "-90.12038928532867",
    "latitude": "29.929063295959946",
    "geocoded_column": {
      "latitude": "29.929063295959946",
      "longitude": "-90.12038928532867"
    }
  },
  {
    "service_request": "2023-1043247",
    "request_type": "Trash/Recycling",
    "request_reason": "Request a Large Item Pick Up",
    "date_created": "2023-10-14T23:31:44.000",
    "date_modified": "2023-10-14T23:31:45.000",
    "request_status": "Pending",
    "responsible_agency": "Department of Sanitation",
    "final_address": "2139 Mediamolle Dr",
    "address_councildis": "C",
    "status": "Assigned to Contractor",
    "contractor": "Richards Disposal",
    "rowid": "1043247",
    "final_x": "3699143.68618",
    "final_y": "523432.406651",
    "longitude": "-90.01265259839734",
    "latitude": "29.932710131741107",
    "geocoded_column": {
      "latitude": "29.932710131741107",
      "longitude": "-90.01265259839734"
    }
  },
  {
    "service_request": "2023-1043246",
    "request_type": "Roads/Drainage",
    "request_reason": "Pothole",
    "date_created": "2023-10-14T23:03:52.000",
    "date_modified": "2023-10-14T23:03:52.000",
    "request_status": "Pending",
    "responsible_agency": "Department of Public Works",
    "final_address": " & BALDWIN ST",
    "address_councildis": "D",
    "status": "Pending",
    "rowid": "1043246",
    "final_x": "3687880.8",
    "final_y": "560035.64",
    "longitude": "-90.04691121641319",
    "latitude": "30.03370814054373",
    "geocoded_column": {
      "latitude": "30.03370814054373",
      "longitude": "-90.04691121641319"
    }
  },
  {
    "service_request": "2023-1043245",
    "request_type": "Roads/Drainage",
    "request_reason": "Accessibility Ramps, Curbs and Sidewalk Repair",
    "date_created": "2023-10-14T22:39:46.000",
    "date_modified": "2023-10-14T22:39:46.000",
    "request_status": "Pending",
    "responsible_agency": "Department of Public Works",
    "final_address": "WISNER BLVD & ROBERT E LEE BLVD",
    "address_councildis": "A",
    "status": "Pending",
    "rowid": "1043245",
    "final_x": "3676295.4",
    "final_y": "555150.78",
    "longitude": "-90.08369081598791",
    "latitude": "30.020629105491057",
    "geocoded_column": {
      "latitude": "30.020629105491057",
      "longitude": "-90.08369081598791"
    }
  },
  {
    "service_request": "2023-1043244",
    "request_type": "Trash/Recycling",
    "request_reason": "Dead Animal Pick Up",
    "date_created": "2023-10-14T22:22:01.000",
    "date_modified": "2023-10-14T22:22:02.000",
    "request_status": "Pending",
    "responsible_agency": "Department of Sanitation",
    "final_address": "FLOOD ST & N CLAIBORNE AVE",
    "address_councildis": "E",
    "status": "Assigned to Contractor",
    "contractor": "Waste Pro",
    "rowid": "1043244",
    "final_x": "3698207.3",
    "final_y": "535695.98",
    "longitude": "-90.01516330020536",
    "latitude": "29.966460295148455",
    "geocoded_column": {
      "latitude": "29.966460295148455",
      "longitude": "-90.01516330020536"
    }
  },
  {
    "service_request": "2023-1043243",
    "request_type": "Roads/Drainage",
    "request_reason": "Pothole",
    "date_created": "2023-10-14T21:29:56.000",
    "date_modified": "2023-10-14T21:29:56.000",
    "request_status": "Pending",
    "responsible_agency": "Department of Public Works",
    "final_address": "1200 BLK Amelia St",
    "address_councildis": "B",
    "status": "Pending",
    "rowid": "1043243",
    "final_x": "3673521.46558",
    "final_y": "519660.816109",
    "longitude": "-90.09366883741032",
    "latitude": "29.923126634409968",
    "geocoded_column": {
      "latitude": "29.923126634409968",
      "longitude": "-90.09366883741032"
    }
  },
  {
    "service_request": "2023-1043242",
    "request_type": "Roads/Drainage",
    "request_reason": "Road Shoulder Repair",
    "date_created": "2023-10-14T21:21:54.000",
    "date_modified": "2023-10-14T21:21:54.000",
    "request_status": "Pending",
    "responsible_agency": "Department of Public Works",
    "final_address": "3600 BLK Coliseum St",
    "address_councildis": "B",
    "status": "Pending",
    "rowid": "1043242",
    "final_x": "3673679.77859",
    "final_y": "520234.645014",
    "longitude": "-90.09314949821882",
    "latitude": "29.924699769259288",
    "geocoded_column": {
      "latitude": "29.924699769259288",
      "longitude": "-90.09314949821882"
    }
  },
  {
    "service_request": "2023-1043241",
    "request_type": "Roads/Drainage",
    "request_reason": "Pothole",
    "date_created": "2023-10-14T21:19:42.000",
    "date_modified": "2023-10-14T21:19:42.000",
    "request_status": "Pending",
    "responsible_agency": "Department of Public Works",
    "final_address": "4216 Coliseum St",
    "address_councildis": "B",
    "status": "Pending",
    "rowid": "1043241",
    "final_x": "3671574.34702",
    "final_y": "519828.46828",
    "longitude": "-90.09980946002878",
    "latitude": "29.923645404197224",
    "geocoded_column": {
      "latitude": "29.923645404197224",
      "longitude": "-90.09980946002878"
    }
  },
  {
    "service_request": "2023-1043240",
    "request_type": "Trash/Recycling",
    "request_reason": "Illegal Dumping",
    "date_created": "2023-10-14T21:08:54.000",
    "date_modified": "2023-10-14T21:08:54.000",
    "request_status": "Pending",
    "responsible_agency": "Department of Sanitation",
    "final_address": "2831 St Claude Ave",
    "address_councildis": "C",
    "status": "Pending",
    "rowid": "1043240",
    "final_x": "3688006.00092",
    "final_y": "536358.873159",
    "longitude": "-90.04735528804302",
    "latitude": "29.96860176320759",
    "geocoded_column": {
      "latitude": "29.96860176320759",
      "longitude": "-90.04735528804302"
    }
  },
  {
    "service_request": "2023-1043238",
    "request_type": "Traffic Signals/Signs/Striping/Streetlights",
    "request_reason": "Street Light Outage/Malfunction",
    "date_created": "2023-10-14T20:14:42.000",
    "date_modified": "2023-10-14T20:14:43.000",
    "request_status": "Pending",
    "responsible_agency": "Department of Public Works",
    "final_address": "3550 Rue Mignon",
    "address_councildis": "C",
    "status": "Assigned to Contractor",
    "contractor": "Legacy Professional Services",
    "rowid": "1043238",
    "final_x": "3703376.42417",
    "final_y": "517509.595766",
    "longitude": "-89.99950794047912",
    "latitude": "29.91628962964611",
    "geocoded_column": {
      "latitude": "29.91628962964611",
      "longitude": "-89.99950794047912"
    }
  },
  {
    "service_request": "2023-1043237",
    "request_type": "Traffic Signals/Signs/Striping/Streetlights",
    "request_reason": "Street Light Outage/Malfunction",
    "date_created": "2023-10-14T20:12:18.000",
    "date_modified": "2023-10-14T20:12:19.000",
    "request_status": "Pending",
    "responsible_agency": "Department of Public Works",
    "final_address": "700 BLK Fulton St",
    "address_councildis": "B",
    "status": "Assigned to Contractor",
    "contractor": "Legacy Professional Services",
    "rowid": "1043237",
    "final_x": "3682426.91956",
    "final_y": "527657.707924",
    "longitude": "-90.06527841128265",
    "latitude": "29.94484750833345",
    "geocoded_column": {
      "latitude": "29.94484750833345",
      "longitude": "-90.06527841128265"
    }
  },
  {
    "service_request": "2023-1043235",
    "request_type": "Parks & Parkways",
    "request_reason": "Request Tree Service (Right of Way/Public Property)",
    "date_created": "2023-10-14T20:11:44.000",
    "date_modified": "2023-10-14T20:11:44.000",
    "request_status": "Pending",
    "responsible_agency": "Department of Parks & Parkway",
    "final_address": "3550 Rue Mignon",
    "address_councildis": "C",
    "status": "Pending",
    "rowid": "1043235",
    "final_x": "3703376.42417",
    "final_y": "517509.595766",
    "longitude": "-89.99950794047912",
    "latitude": "29.91628962964611",
    "geocoded_column": {
      "latitude": "29.91628962964611",
      "longitude": "-89.99950794047912"
    }
  },
  {
    "service_request": "2023-1043234",
    "request_type": "Graffiti Removal",
    "request_reason": "Graffiti Removal",
    "date_created": "2023-10-14T20:09:17.000",
    "date_modified": "2023-10-14T20:09:17.000",
    "request_status": "Pending",
    "responsible_agency": "Department of Code Enforcement",
    "final_address": "800 BLK Fulton St",
    "address_councildis": "B",
    "status": "Pending",
    "rowid": "1043234",
    "final_x": "3682439.98285",
    "final_y": "527220.467328",
    "longitude": "-90.0652524443081",
    "latitude": "29.943644845922066",
    "geocoded_column": {
      "latitude": "29.943644845922066",
      "longitude": "-90.0652524443081"
    }
  },
  {
    "service_request": "2023-1043233",
    "request_type": "Trash/Recycling",
    "request_reason": "Request a Large Item Pick Up",
    "date_created": "2023-10-14T19:39:51.000",
    "date_modified": "2023-10-14T19:39:52.000",
    "request_status": "Pending",
    "responsible_agency": "Department of Sanitation",
    "final_address": "6469 Avenue A",
    "address_councildis": "A",
    "status": "Assigned to Contractor",
    "contractor": "IV Waste",
    "rowid": "1043233",
    "final_x": "3666034.98368",
    "final_y": "551221.322581",
    "longitude": "-90.11624268329584",
    "latitude": "30.01012816736987",
    "geocoded_column": {
      "latitude": "30.01012816736987",
      "longitude": "-90.11624268329584"
    }
  },
  {
    "service_request": "2023-1043232",
    "request_type": "Roads/Drainage",
    "request_reason": "Pothole",
    "date_created": "2023-10-14T19:19:04.000",
    "date_modified": "2023-10-14T19:19:04.000",
    "request_status": "Pending",
    "responsible_agency": "Department of Public Works",
    "final_address": "1315 Milan St",
    "address_councildis": "B",
    "status": "Pending",
    "rowid": "1043232",
    "final_x": "3671703.18324",
    "final_y": "520260.436728",
    "longitude": "-90.09938808639757",
    "latitude": "29.924829365152263",
    "geocoded_column": {
      "latitude": "29.924829365152263",
      "longitude": "-90.09938808639757"
    }
  },
  {
    "service_request": "2023-1043231",
    "request_type": "Traffic Signals/Signs/Striping/Streetlights",
    "request_reason": "Street Light Outage/Malfunction",
    "date_created": "2023-10-14T19:06:35.000",
    "date_modified": "2023-10-14T19:06:36.000",
    "request_status": "Pending",
    "responsible_agency": "Department of Public Works",
    "final_address": "2606 Gordon St, New Orleans, Louisiana, 70117",
    "address_councildis": "E",
    "status": "Assigned to Contractor",
    "contractor": "Legacy Professional Services",
    "rowid": "1043231",
    "final_x": "3701309.80452",
    "final_y": "538869.135625",
    "longitude": "-90.00524955372448",
    "latitude": "29.975086821609285",
    "geocoded_column": {
      "latitude": "29.975086821609285",
      "longitude": "-90.00524955372448"
    }
  },
  {
    "service_request": "2023-1043230",
    "request_type": "Traffic Signals/Signs/Striping/Streetlights",
    "request_reason": "Street Light Outage/Malfunction",
    "date_created": "2023-10-14T19:05:20.000",
    "date_modified": "2023-10-14T19:05:21.000",
    "request_status": "Pending",
    "responsible_agency": "Department of Public Works",
    "final_address": "5939 Law St, New Orleans, Louisiana, 70117",
    "address_councildis": "E",
    "status": "Assigned to Contractor",
    "contractor": "Legacy Professional Services",
    "rowid": "1043230",
    "final_x": "3701207.99818",
    "final_y": "538883.392649",
    "longitude": "-90.00557056064444",
    "latitude": "29.975129267389658",
    "geocoded_column": {
      "latitude": "29.975129267389658",
      "longitude": "-90.00557056064444"
    }
  },
  {
    "service_request": "2023-1043229",
    "request_type": "Trash/Recycling",
    "request_reason": "Request a Large Item Pick Up",
    "date_created": "2023-10-14T18:24:01.000",
    "date_modified": "2023-10-14T18:24:02.000",
    "request_status": "Pending",
    "responsible_agency": "Department of Sanitation",
    "final_address": "213 Pine St",
    "address_councildis": "A",
    "status": "Assigned to Contractor",
    "contractor": "Richards Disposal",
    "rowid": "1043229",
    "final_x": "3661319.51245",
    "final_y": "522735.185722",
    "longitude": "-90.1320841833785",
    "latitude": "29.93193753868085",
    "geocoded_column": {
      "latitude": "29.93193753868085",
      "longitude": "-90.1320841833785"
    }
  },
  {
    "service_request": "2023-1043228",
    "request_type": "Abandoned Vehicles",
    "request_reason": "Abandoned/Junk Vehicles",
    "date_created": "2023-10-14T18:00:41.000",
    "date_modified": "2023-10-14T18:00:41.000",
    "request_status": "Pending",
    "responsible_agency": "Department of Public Works",
    "final_address": "7530 Founders Ct",
    "address_councildis": "E",
    "status": "Pending",
    "rowid": "1043228",
    "final_x": "3725877.12025",
    "final_y": "570643.380135",
    "longitude": "-89.92642860569622",
    "latitude": "30.061647327998223",
    "geocoded_column": {
      "latitude": "30.061647327998223",
      "longitude": "-89.92642860569622"
    }
  },
  {
    "service_request": "2023-1043227",
    "request_type": "Roads/Drainage",
    "request_reason": "Damaged Sidewalk",
    "date_created": "2023-10-14T17:41:32.000",
    "date_modified": "2023-10-14T17:41:32.000",
    "request_status": "Pending",
    "responsible_agency": "Department of Public Works",
    "final_address": "154 12Th St",
    "address_councildis": "A",
    "status": "Pending",
    "rowid": "1043227",
    "final_x": "3665633.09908",
    "final_y": "547759.122514",
    "longitude": "-90.11762844360244",
    "latitude": "30.00062004728289",
    "geocoded_column": {
      "latitude": "30.00062004728289",
      "longitude": "-90.11762844360244"
    }
  },
  {
    "service_request": "2023-1043226",
    "request_type": "Trash/Recycling",
    "request_reason": "Request a Large Item Pick Up",
    "date_created": "2023-10-14T17:37:00.000",
    "date_modified": "2023-10-14T17:37:01.000",
    "request_status": "Pending",
    "responsible_agency": "Department of Sanitation",
    "final_address": "2631 Ap Tureaud Ave",
    "address_councildis": "D",
    "status": "Assigned to Contractor",
    "contractor": "IV Waste",
    "rowid": "1043226",
    "final_x": "3681613.89749",
    "final_y": "541888.407308",
    "longitude": "-90.06734894938909",
    "latitude": "29.98400176967146",
    "geocoded_column": {
      "latitude": "29.98400176967146",
      "longitude": "-90.06734894938909"
    }
  },
  {
    "service_request": "2023-1043225",
    "request_type": "Traffic Signals/Signs/Striping/Streetlights",
    "request_reason": "Additional signage",
    "date_created": "2023-10-14T17:36:31.000",
    "date_modified": "2023-10-14T17:36:31.000",
    "request_status": "Pending",
    "responsible_agency": "Department of Public Works",
    "final_address": "5641 Bentley Dr",
    "address_councildis": "E",
    "status": "Pending",
    "rowid": "1043225",
    "final_x": "3703884.21924",
    "final_y": "556877.195738",
    "longitude": "-89.99645538442498",
    "latitude": "30.024519914722408",
    "geocoded_column": {
      "latitude": "30.024519914722408",
      "longitude": "-89.99645538442498"
    }
  },
  {
    "service_request": "2023-1043224",
    "request_type": "Trash/Recycling",
    "request_reason": "Missed Trash Pick-Up",
    "date_created": "2023-10-14T16:34:41.000",
    "date_modified": "2023-10-14T16:34:42.000",
    "request_status": "Pending",
    "responsible_agency": "Department of Sanitation",
    "final_address": "15 Sugarberry Place",
    "status": "Assigned to Contractor",
    "rowid": "1043224",
    "longitude": "0.0",
    "latitude": "0.0",
    "geocoded_column": {
      "latitude": "0.0",
      "longitude": "0.0"
    }
  },
  {
    "service_request": "2023-1043223",
    "request_type": "Trash/Recycling",
    "request_reason": "Missed Trash Pick-Up",
    "date_created": "2023-10-14T16:30:15.000",
    "date_modified": "2023-10-14T16:30:16.000",
    "request_status": "Pending",
    "responsible_agency": "Department of Sanitation",
    "final_address": "15 Sugarberry Pl",
    "address_councildis": "C",
    "status": "Assigned to Contractor",
    "contractor": "Richards Disposal",
    "rowid": "1043223",
    "final_x": "3717105.68639",
    "final_y": "516351.303669",
    "longitude": "-89.95621735740903",
    "latitude": "29.912658156383166",
    "geocoded_column": {
      "latitude": "29.912658156383166",
      "longitude": "-89.95621735740903"
    }
  },
  {
    "service_request": "2023-1043222",
    "request_type": "Roads/Drainage",
    "request_reason": "Street Subsidence (Sinking)",
    "date_created": "2023-10-14T16:09:02.000",
    "date_modified": "2023-10-14T16:09:02.000",
    "request_status": "Pending",
    "responsible_agency": "Department of Public Works",
    "final_address": "1829 Bordeaux St",
    "address_councildis": "B",
    "status": "Pending",
    "rowid": "1043222",
    "final_x": "3669329.725",
    "final_y": "521672.549241",
    "longitude": "-90.1068326189762",
    "latitude": "29.92878229206484",
    "geocoded_column": {
      "latitude": "29.92878229206484",
      "longitude": "-90.1068326189762"
    }
  },
  {
    "service_request": "2023-1043221",
    "request_type": "Roads/Drainage",
    "request_reason": "Pothole",
    "date_created": "2023-10-14T15:59:51.000",
    "date_modified": "2023-10-14T15:59:51.000",
    "request_status": "Pending",
    "responsible_agency": "Department of Public Works",
    "final_address": "1407 Valence St",
    "address_councildis": "B",
    "status": "Pending",
    "rowid": "1043221",
    "final_x": "3669839.25287",
    "final_y": "520292.863992",
    "longitude": "-90.10527081865904",
    "latitude": "29.924973591096933",
    "geocoded_column": {
      "latitude": "29.924973591096933",
      "longitude": "-90.10527081865904"
    }
  },
  {
    "service_request": "2023-1043220",
    "request_type": "Roads/Drainage",
    "request_reason": "Pothole",
    "date_created": "2023-10-14T15:59:49.000",
    "date_modified": "2023-10-14T15:59:49.000",
    "request_status": "Pending",
    "responsible_agency": "Department of Public Works",
    "final_address": "1420 General Pershing St A",
    "address_councildis": "B",
    "status": "Pending",
    "rowid": "1043220",
    "final_x": "3671218.44577",
    "final_y": "520511.349752",
    "longitude": "-90.10090972722963",
    "latitude": "29.92553364050429",
    "geocoded_column": {
      "latitude": "29.92553364050429",
      "longitude": "-90.10090972722963"
    }
  },
  {
    "service_request": "2023-1043219",
    "request_type": "Roads/Drainage",
    "request_reason": "Pothole",
    "date_created": "2023-10-14T15:40:51.000",
    "date_modified": "2023-10-14T15:40:51.000",
    "request_status": "Pending",
    "responsible_agency": "Department of Public Works",
    "final_address": "1422 Bordeaux St",
    "address_councildis": "B",
    "status": "Pending",
    "rowid": "1043219",
    "final_x": "3669369.84193",
    "final_y": "520387.897912",
    "longitude": "-90.10674938922187",
    "latitude": "29.925248729296683",
    "geocoded_column": {
      "latitude": "29.925248729296683",
      "longitude": "-90.10674938922187"
    }
  },
  {
    "service_request": "2023-1043217",
    "request_type": "Trash/Recycling",
    "request_reason": "Order Recycling Cart",
    "date_created": "2023-10-14T15:22:21.000",
    "date_modified": "2023-10-14T15:22:21.000",
    "request_status": "Pending",
    "responsible_agency": "Department of Sanitation",
    "final_address": "1310 Independence St",
    "address_councildis": "D",
    "status": "Pending",
    "rowid": "1043217",
    "final_x": "3691127.94947",
    "final_y": "536355.985991",
    "longitude": "-90.03749614312653",
    "latitude": "29.968497113718016",
    "geocoded_column": {
      "latitude": "29.968497113718016",
      "longitude": "-90.03749614312653"
    }
  },
  {
    "service_request": "2023-1043216",
    "request_type": "Parks & Parkways",
    "request_reason": "Request Tree Service (Right of Way/Public Property)",
    "date_created": "2023-10-14T15:20:43.000",
    "date_modified": "2023-10-14T15:33:10.000",
    "request_status": "Pending",
    "responsible_agency": "Department of Parks & Parkway",
    "final_address": "1510 General Ogden St",
    "address_councildis": "A",
    "status": "Pending",
    "rowid": "1043216",
    "final_x": "3660617.7191",
    "final_y": "531156.654658",
    "longitude": "-90.13402141937048",
    "latitude": "29.95511411543864",
    "geocoded_column": {
      "latitude": "29.95511411543864",
      "longitude": "-90.13402141937048"
    }
  },
  {
    "service_request": "2023-1043215",
    "request_type": "Trash/Recycling",
    "request_reason": "Return Recycling Cart",
    "date_created": "2023-10-14T15:00:00.000",
    "date_modified": "2023-10-14T15:00:00.000",
    "request_status": "Pending",
    "responsible_agency": "Department of Sanitation",
    "final_address": "413 S Genois St",
    "address_councildis": "B",
    "status": "Pending",
    "rowid": "1043215",
    "final_x": "3671696.89761",
    "final_y": "536074.789127",
    "longitude": "-90.09887011065504",
    "latitude": "29.968313838643088",
    "geocoded_column": {
      "latitude": "29.968313838643088",
      "longitude": "-90.09887011065504"
    }
  },
  {
    "service_request": "2023-1043214",
    "request_type": "Property Maintenance",
    "request_reason": "Property Maintenance",
    "date_created": "2023-10-14T14:50:10.000",
    "date_modified": "2023-10-14T14:50:10.000",
    "request_status": "Pending",
    "responsible_agency": "Department of Code Enforcement",
    "final_address": "1650 N Broad St",
    "address_councildis": "D",
    "status": "Pending",
    "rowid": "1043214",
    "final_x": "3679439.73557",
    "final_y": "540475.227403",
    "longitude": "-90.07426517758293",
    "latitude": "29.98018188752023",
    "geocoded_column": {
      "latitude": "29.98018188752023",
      "longitude": "-90.07426517758293"
    }
  },
  {
    "service_request": "2023-1043213",
    "request_type": "Traffic Signals/Signs/Striping/Streetlights",
    "request_reason": "Road Surface Marking Maintenance-Traffic Control",
    "date_created": "2023-10-14T14:33:08.000",
    "date_modified": "2023-10-14T14:33:08.000",
    "request_status": "Pending",
    "responsible_agency": "Department of Public Works",
    "final_address": "481 Girod St",
    "address_councildis": "B",
    "status": "Pending",
    "rowid": "1043213",
    "final_x": "3681439.37576",
    "final_y": "528346.697728",
    "longitude": "-90.06837236921888",
    "latitude": "29.946772012685404",
    "geocoded_column": {
      "latitude": "29.946772012685404",
      "longitude": "-90.06837236921888"
    }
  },
  {
    "service_request": "2023-1043212",
    "request_type": "Traffic Signals/Signs/Striping/Streetlights",
    "request_reason": "Street Light Outage/Malfunction",
    "date_created": "2023-10-14T14:32:22.000",
    "date_modified": "2023-10-14T14:32:23.000",
    "request_status": "Pending",
    "responsible_agency": "Department of Public Works",
    "final_address": "5837 Milne Blvd",
    "address_councildis": "A",
    "status": "Assigned to Contractor",
    "contractor": "Legacy Professional Services",
    "rowid": "1043212",
    "final_x": "3667059.74855",
    "final_y": "546444.586257",
    "longitude": "-90.11316576497622",
    "latitude": "29.99696382873994",
    "geocoded_column": {
      "latitude": "29.99696382873994",
      "longitude": "-90.11316576497622"
    }
  },
  {
    "service_request": "2023-1043211",
    "request_type": "Roads/Drainage",
    "request_reason": "Pothole",
    "date_created": "2023-10-14T14:25:53.000",
    "date_modified": "2023-10-14T14:25:53.000",
    "request_status": "Pending",
    "responsible_agency": "Department of Public Works",
    "final_address": "1525 Eleonore St",
    "address_councildis": "A",
    "status": "Pending",
    "rowid": "1043211",
    "final_x": "3665916.94823",
    "final_y": "521918.417722",
    "longitude": "-90.11759786279285",
    "latitude": "29.929558357498486",
    "geocoded_column": {
      "latitude": "29.929558357498486",
      "longitude": "-90.11759786279285"
    }
  },
  {
    "service_request": "2023-1043210",
    "request_type": "Roads/Drainage",
    "request_reason": "Road Shoulder Repair",
    "date_created": "2023-10-14T14:04:56.000",
    "date_modified": "2023-10-14T14:04:56.000",
    "request_status": "Pending",
    "responsible_agency": "Department of Public Works",
    "final_address": "4726 Danneel St",
    "address_councildis": "B",
    "status": "Pending",
    "rowid": "1043210",
    "final_x": "3669365.26324",
    "final_y": "522125.33817",
    "longitude": "-90.10670513030526",
    "latitude": "29.930026270988865",
    "geocoded_column": {
      "latitude": "29.930026270988865",
      "longitude": "-90.10670513030526"
    }
  },
  {
    "service_request": "2023-1043209",
    "request_type": "Roads/Drainage",
    "request_reason": "Road Shoulder Repair",
    "date_created": "2023-10-14T14:04:11.000",
    "date_modified": "2023-10-14T14:04:11.000",
    "request_status": "Pending",
    "responsible_agency": "Department of Public Works",
    "final_address": "5106 Danneel St",
    "address_councildis": "B",
    "status": "Pending",
    "rowid": "1043209",
    "final_x": "3668332.0306",
    "final_y": "522119.250426",
    "longitude": "-90.10996709023073",
    "latitude": "29.930039904828558",
    "geocoded_column": {
      "latitude": "29.930039904828558",
      "longitude": "-90.10996709023073"
    }
  },
  {
    "service_request": "2023-1043207",
    "request_type": "Abandoned Vehicles",
    "request_reason": "Abandoned/Junk Vehicles",
    "date_created": "2023-10-14T13:52:53.000",
    "date_modified": "2023-10-14T13:52:53.000",
    "request_status": "Pending",
    "responsible_agency": "Department of Public Works",
    "final_address": "4133 General Pershing St",
    "address_councildis": "B",
    "status": "Pending",
    "rowid": "1043207",
    "final_x": "3670028.04846",
    "final_y": "529492.805889",
    "longitude": "-90.10436336924452",
    "latitude": "29.95026489527118",
    "geocoded_column": {
      "latitude": "29.95026489527118",
      "longitude": "-90.10436336924452"
    }
  },