[
  {
    "service_request": "2023-1031946",
    "request_type": "Traffic Signals/Signs/Striping/Streetlights",
    "request_reason": "Street Light Outage/Malfunction",
    "date_created": "2023-09-05T01:03:16.000",
    "date_modified": "2023-09-05T01:03:17.000",
    "request_status": "Pending",
    "responsible_agency": "Department of Public Works",
    "final_address": "3800 BLK Tullis Dr",
    "address_councildis": "C",
    "status": "Assigned to Contractor",
    "contractor": "Legacy Professional Services",
    "rowid": "1031946",
    "final_x": "3697789.67066",
    "final_y": "514059.614385",
    "longitude": "-90.0172669398409",
    "latitude": "29.906980981063008",
    "geocoded_column": {
      "latitude": "29.906980981063008",
      "longitude": "-90.0172669398409"
    }
  },
  {
    "service_request": "2023-1031945",
    "request_type": "Property Maintenance",
    "request_reason": "Property Maintenance",
    "date_created": "2023-09-04T22:58:12.000",
    "date_modified": "2023-09-04T22:58:12.000",
    "request_status": "Pending",
    "responsible_agency": "Department of Code Enforcement",
    "final_address": "3124 N Johnson St",
    "address_councildis": "D",
    "status": "Pending",
    "rowid": "1031945",
    "final_x": "3690056.22243",
    "final_y": "539274.981322",
    "longitude": "-90.0407767141998",
    "latitude": "29.97655660343164",
    "geocoded_column": {
      "latitude": "29.97655660343164",
      "longitude": "-90.0407767141998"
    }
  },
  {
    "service_request": "2023-1031944",
    "request_type": "Trash/Recycling",
    "request_reason": "Order Recycling Cart",
    "date_created": "2023-09-04T22:36:17.000",
    "date_modified": "2023-09-04T22:36:17.000",
    "request_status": "Pending",
    "responsible_agency": "Department of Sanitation",
    "final_address": "7314 Zimple St",
    "address_councildis": "A",
    "status": "Pending",
    "rowid": "1031944",
    "final_x": "3663594.48275",
    "final_y": "526405.365758",
    "longitude": "-90.12478010337412",
    "latitude": "29.94196359336378",
    "geocoded_column": {
      "latitude": "29.94196359336378",
      "longitude": "-90.12478010337412"
    }
  },
  {
    "service_request": "2023-1031943",
    "request_type": "Roads/Drainage",
    "request_reason": "Damaged Sidewalk",
    "date_created": "2023-09-04T22:07:48.000",
    "date_modified": "2023-09-04T22:07:48.000",
    "request_status": "Pending",
    "responsible_agency": "Department of Public Works",
    "final_address": "8727 Apricot St",
    "address_councildis": "A",
    "status": "Pending",
    "rowid": "1031943",
    "final_x": "3664110.13172",
    "final_y": "534242.916101",
    "longitude": "-90.12289068360873",
    "latitude": "29.963499354241172",
    "geocoded_column": {
      "latitude": "29.963499354241172",
      "longitude": "-90.12289068360873"
    }
  },
  {
    "service_request": "2023-1031942",
    "request_type": "Roads/Drainage",
    "request_reason": "Catch Basin - Clogged",
    "date_created": "2023-09-04T22:06:26.000",
    "date_modified": "2023-09-04T22:06:26.000",
    "request_status": "Pending",
    "responsible_agency": "Department of Public Works",
    "final_address": "5832 Clara St",
    "address_councildis": "A",
    "status": "Pending",
    "rowid": "1031942",
    "final_x": "3666850.98708",
    "final_y": "525247.635645",
    "longitude": "-90.11453747092827",
    "latitude": "29.938685361871208",
    "geocoded_column": {
      "latitude": "29.938685361871208",
      "longitude": "-90.11453747092827"
    }
  },
  {
    "service_request": "2023-1031941",
    "request_type": "Roads/Drainage",
    "request_reason": "Pothole",
    "date_created": "2023-09-04T21:56:56.000",
    "date_modified": "2023-09-04T21:56:56.000",
    "request_status": "Pending",
    "responsible_agency": "Department of Public Works",
    "final_address": "5929 Coliseum St",
    "address_councildis": "A",
    "status": "Pending",
    "rowid": "1031941",
    "final_x": "3665263.00756",
    "final_y": "520201.212344",
    "longitude": "-90.11971965943252",
    "latitude": "29.924855645993322",
    "geocoded_column": {
      "latitude": "29.924855645993322",
      "longitude": "-90.11971965943252"
    }
  },
  {
    "service_request": "2023-1031940",
    "request_type": "Traffic Signals/Signs/Striping/Streetlights",
    "request_reason": "Street Light Outage/Malfunction",
    "date_created": "2023-09-04T21:48:06.000",
    "date_modified": "2023-09-04T21:48:07.000",
    "request_status": "Pending",
    "responsible_agency": "Department of Public Works",
    "final_address": "6060 General Haig St",
    "address_councildis": "A",
    "status": "Assigned to Contractor",
    "contractor": "Legacy Professional Services",
    "rowid": "1031940",
    "final_x": "3670529.50766",
    "final_y": "547574.860882",
    "longitude": "-90.10216656845486",
    "latitude": "29.999969640255653",
    "geocoded_column": {
      "latitude": "29.999969640255653",
      "longitude": "-90.10216656845486"
    }
  },
  {
    "service_request": "2023-1031939",
    "request_type": "Traffic Signals/Signs/Striping/Streetlights",
    "request_reason": "Street Light Outage/Malfunction",
    "date_created": "2023-09-04T21:44:09.000",
    "date_modified": "2023-09-04T21:44:09.000",
    "request_status": "Pending",
    "responsible_agency": "Department of Public Works",
    "final_address": "5948 General Haig St",
    "address_councildis": "A",
    "status": "Assigned to Contractor",
    "contractor": "Legacy Professional Services",
    "rowid": "1031939",
    "final_x": "3670438.57499",
    "final_y": "546847.049937",
    "longitude": "-90.10247852763067",
    "latitude": "29.997971099204474",
    "geocoded_column": {
      "latitude": "29.997971099204474",
      "longitude": "-90.10247852763067"
    }
  },
  {
    "service_request": "2023-1031938",
    "request_type": "Trash/Recycling",
    "request_reason": "Request a Large Item Pick Up",
    "date_created": "2023-09-04T21:43:17.000",
    "date_modified": "2023-09-04T21:43:18.000",
    "request_status": "Pending",
    "responsible_agency": "Department of Sanitation",
    "final_address": "7928 Oak St",
    "address_councildis": "A",
    "status": "Assigned to Contractor",
    "contractor": "Richards Disposal",
    "rowid": "1031938",
    "final_x": "3662398.77319",
    "final_y": "527924.127487",
    "longitude": "-90.1285048113558",
    "latitude": "29.946174326760765",
    "geocoded_column": {
      "latitude": "29.946174326760765",
      "longitude": "-90.1285048113558"
    }
  },
  {
    "service_request": "2023-1031937",
    "request_type": "Traffic Signals/Signs/Striping/Streetlights",
    "request_reason": "Street Light Outage/Malfunction",
    "date_created": "2023-09-04T21:38:39.000",
    "date_modified": "2023-09-04T21:38:40.000",
    "request_status": "Pending",
    "responsible_agency": "Department of Public Works",
    "final_address": "5546 Pasteur Blvd",
    "address_councildis": "D",
    "status": "Assigned to Contractor",
    "contractor": "Legacy Professional Services",
    "rowid": "1031937",
    "final_x": "3682765.43477",
    "final_y": "553549.588055",
    "longitude": "-90.06330353140952",
    "latitude": "30.016030807763112",
    "geocoded_column": {
      "latitude": "30.016030807763112",
      "longitude": "-90.06330353140952"
    }
  },
  {
    "service_request": "2023-1031936",
    "request_type": "Traffic Signals/Signs/Striping/Streetlights",
    "request_reason": "Street Light Outage/Malfunction",
    "date_created": "2023-09-04T21:36:04.000",
    "date_modified": "2023-09-04T21:36:04.000",
    "request_status": "Pending",
    "responsible_agency": "Department of Public Works",
    "final_address": "5828 Orleans Ave",
    "address_councildis": "A",
    "status": "Assigned to Contractor",
    "contractor": "Legacy Professional Services",
    "rowid": "1031936",
    "final_x": "3670734.14337",
    "final_y": "546000.332176",
    "longitude": "-90.10157358268891",
    "latitude": "29.995634185564683",
    "geocoded_column": {
      "latitude": "29.995634185564683",
      "longitude": "-90.10157358268891"
    }
  },
  {
    "service_request": "2023-1031935",
    "request_type": "Traffic Signals/Signs/Striping/Streetlights",
    "request_reason": "Street Light Outage/Malfunction",
    "date_created": "2023-09-04T21:34:39.000",
    "date_modified": "2023-09-04T21:34:40.000",
    "request_status": "Pending",
    "responsible_agency": "Department of Public Works",
    "final_address": "5856 Orleans Ave",
    "address_councildis": "A",
    "status": "Assigned to Contractor",
    "contractor": "Legacy Professional Services",
    "rowid": "1031935",
    "final_x": "3670759.10811",
    "final_y": "546200.3316",
    "longitude": "-90.10148792909884",
    "latitude": "29.99618337676613",
    "geocoded_column": {
      "latitude": "29.99618337676613",
      "longitude": "-90.10148792909884"
    }
  },
  {
    "service_request": "2023-1031934",
    "request_type": "Traffic Signals/Signs/Striping/Streetlights",
    "request_reason": "Street Light Outage/Malfunction",
    "date_created": "2023-09-04T21:31:47.000",
    "date_modified": "2023-09-04T21:31:48.000",
    "request_status": "Pending",
    "responsible_agency": "Department of Public Works",
    "final_address": "5930 Orleans Ave",
    "address_councildis": "A",
    "status": "Assigned to Contractor",
    "contractor": "Legacy Professional Services",
    "rowid": "1031934",
    "final_x": "3670751.77934",
    "final_y": "546669.172881",
    "longitude": "-90.10149515829322",
    "latitude": "29.99747274435227",
    "geocoded_column": {
      "latitude": "29.99747274435227",
      "longitude": "-90.10149515829322"
    }
  },
  {
    "service_request": "2023-1031933",
    "request_type": "Traffic Signals/Signs/Striping/Streetlights",
    "request_reason": "Street Light Outage/Malfunction",
    "date_created": "2023-09-04T21:28:23.000",
    "date_modified": "2023-09-04T21:28:24.000",
    "request_status": "Pending",
    "responsible_agency": "Department of Public Works",
    "final_address": "6036 Orleans Ave",
    "address_councildis": "A",
    "status": "Assigned to Contractor",
    "contractor": "Legacy Professional Services",
    "rowid": "1031933",
    "final_x": "3670814.32436",
    "final_y": "547361.819089",
    "longitude": "-90.1012740531441",
    "latitude": "29.999375431755897",
    "geocoded_column": {
      "latitude": "29.999375431755897",
      "longitude": "-90.1012740531441"
    }
  },
  {
    "service_request": "2023-1031932",
    "request_type": "Traffic Signals/Signs/Striping/Streetlights",
    "request_reason": "Street Light Outage/Malfunction",
    "date_created": "2023-09-04T21:28:22.000",
    "date_modified": "2023-09-04T21:28:23.000",
    "request_status": "Pending",
    "responsible_agency": "Department of Public Works",
    "final_address": "6036 Orleans Ave",
    "address_councildis": "A",
    "status": "Assigned to Contractor",
    "contractor": "Legacy Professional Services",
    "rowid": "1031932",
    "final_x": "3670814.32436",
    "final_y": "547361.819089",
    "longitude": "-90.1012740531441",
    "latitude": "29.999375431755897",
    "geocoded_column": {
      "latitude": "29.999375431755897",
      "longitude": "-90.1012740531441"
    }
  },
  {
    "service_request": "2023-1031931",
    "request_type": "Traffic Signals/Signs/Striping/Streetlights",
    "request_reason": "Street Light Outage/Malfunction",
    "date_created": "2023-09-04T21:25:48.000",
    "date_modified": "2023-09-04T21:25:49.000",
    "request_status": "Pending",
    "responsible_agency": "Department of Public Works",
    "final_address": "998 Germain St",
    "address_councildis": "A",
    "status": "Assigned to Contractor",
    "contractor": "Legacy Professional Services",
    "rowid": "1031931",
    "final_x": "3670841.65409",
    "final_y": "547634.558866",
    "longitude": "-90.10117845255913",
    "latitude": "30.00012456316942",
    "geocoded_column": {
      "latitude": "30.00012456316942",
      "longitude": "-90.10117845255913"
    }
  },
  {
    "service_request": "2023-1031930",
    "request_type": "Traffic Signals/Signs/Striping/Streetlights",
    "request_reason": "Street Light Outage/Malfunction",
    "date_created": "2023-09-04T21:24:46.000",
    "date_modified": "2023-09-04T21:24:46.000",
    "request_status": "Pending",
    "responsible_agency": "Department of Public Works",
    "final_address": "998 Germain St",
    "address_councildis": "A",
    "status": "Assigned to Contractor",
    "contractor": "Legacy Professional Services",
    "rowid": "1031930",
    "final_x": "3670841.65409",
    "final_y": "547634.558866",
    "longitude": "-90.10117845255913",
    "latitude": "30.00012456316942",
    "geocoded_column": {
      "latitude": "30.00012456316942",
      "longitude": "-90.10117845255913"
    }
  },
  {
    "service_request": "2023-1031929",
    "request_type": "Traffic Signals/Signs/Striping/Streetlights",
    "request_reason": "Traffic Signal Malfunctioning/Damaged",
    "date_created": "2023-09-04T21:13:50.000",
    "date_modified": "2023-09-04T21:13:50.000",
    "request_status": "Pending",
    "responsible_agency": "Department of Public Works",
    "final_address": "BARONNE ST & CALLIOPE ST",
    "address_councildis": "B",
    "status": "Pending",
    "rowid": "1031929",
    "final_x": "3679060.1",
    "final_y": "527019.36",
    "longitude": "-90.07593059822653",
    "latitude": "29.94319428493894",
    "geocoded_column": {
      "latitude": "29.94319428493894",
      "longitude": "-90.07593059822653"
    }
  },
  {
    "service_request": "2023-1031928",
    "request_type": "Trash/Recycling",
    "request_reason": "Return Trash Cart",
    "date_created": "2023-09-04T21:09:57.000",
    "date_modified": "2023-09-04T21:09:58.000",
    "request_status": "Pending",
    "responsible_agency": "Department of Sanitation",
    "final_address": "927 N Gayoso St",
    "address_councildis": "A",
    "status": "Assigned to Contractor",
    "contractor": "Richards Disposal",
    "rowid": "1031928",
    "final_x": "3676277.69525",
    "final_y": "538481.668297",
    "longitude": "-90.08432087605551",
    "latitude": "29.974795442392953",
    "geocoded_column": {
      "latitude": "29.974795442392953",
      "longitude": "-90.08432087605551"
    }
  },
  {
    "service_request": "2023-1031927",
    "request_type": "Trash/Recycling",
    "request_reason": "Order Trash Cart",
    "date_created": "2023-09-04T21:05:35.000",
    "date_modified": "2023-09-04T21:05:36.000",
    "request_status": "Pending",
    "responsible_agency": "Department of Sanitation",
    "final_address": "1403 Tennessee St",
    "address_councildis": "E",
    "status": "Assigned to Contractor",
    "contractor": "Waste Pro",
    "rowid": "1031927",
    "final_x": "3696085.44835",
    "final_y": "535438.43335",
    "longitude": "-90.02187335376989",
    "latitude": "29.96581908105865",
    "geocoded_column": {
      "latitude": "29.96581908105865",
      "longitude": "-90.02187335376989"
    }
  },
  {
    "service_request": "2023-1031926",
    "request_type": "Trash/Recycling",
    "request_reason": "Replace Trash Cart",
    "date_created": "2023-09-04T20:58:02.000",
    "date_modified": "2023-09-04T20:58:03.000",
    "request_status": "Pending",
    "responsible_agency": "Department of Sanitation",
    "final_address": "4503 S Galvez St",
    "address_councildis": "B",
    "status": "Assigned to Contractor",
    "contractor": "Richards Disposal",
    "rowid": "1031926",
    "final_x": "3669733.59502",
    "final_y": "527545.712319",
    "longitude": "-90.1053589869403",
    "latitude": "29.944919704046228",
    "geocoded_column": {
      "latitude": "29.944919704046228",
      "longitude": "-90.1053589869403"
    }
  },
  {
    "service_request": "2023-1031925",
    "request_type": "Traffic Signals/Signs/Striping/Streetlights",
    "request_reason": "Street Light Outage/Malfunction",
    "date_created": "2023-09-04T20:39:15.000",
    "date_modified": "2023-09-04T20:39:15.000",
    "request_status": "Pending",
    "responsible_agency": "Department of Public Works",
    "final_address": "11400 BLK Chef Menteur Hwy",
    "address_councildis": "E",
    "status": "Assigned to Contractor",
    "contractor": "Legacy Professional Services",
    "rowid": "1031925",
    "final_x": "3718233.78233",
    "final_y": "556425.81082",
    "longitude": "-89.95113103631049",
    "latitude": "30.022810638768792",
    "geocoded_column": {
      "latitude": "30.022810638768792",
      "longitude": "-89.95113103631049"
    }
  },
  {
    "service_request": "2023-1031924",
    "request_type": "Trash/Recycling",
    "request_reason": "Request a Large Item Pick Up",
    "date_created": "2023-09-04T20:33:25.000",
    "date_modified": "2023-09-04T20:33:26.000",
    "request_status": "Pending",
    "responsible_agency": "Department of Sanitation",
    "final_address": "9933 E Wheaton Cir",
    "address_councildis": "E",
    "status": "Assigned to Contractor",
    "contractor": "Waste Pro",
    "rowid": "1031924",
    "final_x": "3708915.41489",
    "final_y": "562438.431391",
    "longitude": "-89.98035034126885",
    "latitude": "30.03964875508514",
    "geocoded_column": {
      "latitude": "30.03964875508514",
      "longitude": "-89.98035034126885"
    }
  },
  {
    "service_request": "2023-1031923",
    "request_type": "Roads/Drainage",
    "request_reason": "Catch Basin - Clogged",
    "date_created": "2023-09-04T20:12:53.000",
    "date_modified": "2023-09-04T20:12:53.000",
    "request_status": "Pending",
    "responsible_agency": "Department of Public Works",
    "final_address": "4903 Canal St, New Orleans, Louisiana, 70119",
    "address_councildis": "A",
    "status": "Pending",
    "rowid": "1031923",
    "final_x": "3668545.35943",
    "final_y": "540397.867083",
    "longitude": "-90.10867692758832",
    "latitude": "29.980293833893214",
    "geocoded_column": {
      "latitude": "29.980293833893214",
      "longitude": "-90.10867692758832"
    }
  },
  {
    "service_request": "2023-1031922",
    "request_type": "Trash/Recycling",
    "request_reason": "Missed Trash Pick-Up",
    "date_created": "2023-09-04T20:01:45.000",
    "date_modified": "2023-09-04T20:01:46.000",
    "request_status": "Pending",
    "responsible_agency": "Department of Sanitation",
    "final_address": "3225 Bringier St",
    "address_councildis": "C",
    "status": "Assigned to Contractor",
    "contractor": "Richards Disposal",
    "rowid": "1031922",
    "final_x": "3696105.25219",
    "final_y": "525078.940157",
    "longitude": "-90.02218515998094",
    "latitude": "29.937333477933628",
    "geocoded_column": {
      "latitude": "29.937333477933628",
      "longitude": "-90.02218515998094"
    }
  },
  {
    "service_request": "2023-1031921",
    "request_type": "Trash/Recycling",
    "request_reason": "Request a Large Item Pick Up",
    "date_created": "2023-09-04T20:00:46.000",
    "date_modified": "2023-09-04T20:00:47.000",
    "request_status": "Pending",
    "responsible_agency": "Department of Sanitation",
    "final_address": "7400 Freret St",
    "address_councildis": "A",
    "status": "Assigned to Contractor",
    "contractor": "Richards Disposal",
    "rowid": "1031921",
    "final_x": "3663199.31706",
    "final_y": "526259.013118",
    "longitude": "-90.12603259958138",
    "latitude": "29.94157262481918",
    "geocoded_column": {
      "latitude": "29.94157262481918",
      "longitude": "-90.12603259958138"
    }
  },
  {
    "service_request": "2023-1031920",
    "request_type": "Roads/Drainage",
    "request_reason": "Pothole",
    "date_created": "2023-09-04T19:44:34.000",
    "date_modified": "2023-09-04T19:44:34.000",
    "request_status": "Pending",
    "responsible_agency": "Department of Public Works",
    "final_address": "5823 Perrier St",
    "address_councildis": "A",
    "status": "Pending",
    "rowid": "1031920",
    "final_x": "3665601.07367",
    "final_y": "520421.208184",
    "longitude": "-90.11864512991228",
    "latitude": "29.92545071542357",
    "geocoded_column": {
      "latitude": "29.92545071542357",
      "longitude": "-90.11864512991228"
    }
  },
  {
    "service_request": "2023-1031919",
    "request_type": "Roads/Drainage",
    "request_reason": "Debris in Roadway",
    "date_created": "2023-09-04T19:44:06.000",
    "date_modified": "2023-09-04T19:44:06.000",
    "request_status": "Pending",
    "responsible_agency": "Department of Public Works",
    "final_address": "1600 BLK Desire St",
    "address_councildis": "D",
    "status": "Pending",
    "rowid": "1031919",
    "final_x": "3690689.98308",
    "final_y": "537763.887186",
    "longitude": "-90.03882902777346",
    "latitude": "29.97238195718822",
    "geocoded_column": {
      "latitude": "29.97238195718822",
      "longitude": "-90.03882902777346"
    }
  },
  {
    "service_request": "2023-1031918",
    "request_type": "Trash/Recycling",
    "request_reason": "Repair Recycling Cart",
    "date_created": "2023-09-04T19:40:13.000",
    "date_modified": "2023-09-04T19:40:13.000",
    "request_status": "Pending",
    "responsible_agency": "Department of Sanitation",
    "final_address": "512 Emerald St",
    "address_councildis": "D",
    "status": "Pending",
    "rowid": "1031918",
    "final_x": "3668238.27841",
    "final_y": "554995.74332",
    "longitude": "-90.10915423766393",
    "latitude": "30.020441959764312",
    "geocoded_column": {
      "latitude": "30.020441959764312",
      "longitude": "-90.10915423766393"
    }
  },
  {
    "service_request": "2023-1031917",
    "request_type": "Roads/Drainage",
    "request_reason": "Catch Basin - Clogged",
    "date_created": "2023-09-04T19:32:53.000",
    "date_modified": "2023-09-04T19:32:53.000",
    "request_status": "Pending",
    "responsible_agency": "Department of Public Works",
    "final_address": "824 N Salcedo St",
    "address_councildis": "A",
    "status": "Pending",
    "rowid": "1031917",
    "final_x": "3675821.76059",
    "final_y": "538298.864777",
    "longitude": "-90.08576711942523",
    "latitude": "29.974306452761446",
    "geocoded_column": {
      "latitude": "29.974306452761446",
      "longitude": "-90.08576711942523"
    }
  },
  {
    "service_request": "2023-1031916",
    "request_type": "Roads/Drainage",
    "request_reason": "Pothole",
    "date_created": "2023-09-04T19:31:48.000",
    "date_modified": "2023-09-04T19:31:48.000",
    "request_status": "Pending",
    "responsible_agency": "Department of Public Works",
    "final_address": "2300 BLK Dauphine St",
    "address_councildis": "C",
    "status": "Pending",
    "rowid": "1031916",
    "final_x": "3685683.77459",
    "final_y": "535274.863621",
    "longitude": "-90.05472719138334",
    "latitude": "29.965692571487683",
    "geocoded_column": {
      "latitude": "29.965692571487683",
      "longitude": "-90.05472719138334"
    }
  },
  {
    "service_request": "2023-1031915",
    "request_type": "Roads/Drainage",
    "request_reason": "Man hole cover issue",
    "date_created": "2023-09-04T19:25:23.000",
    "date_modified": "2023-09-04T19:25:23.000",
    "request_status": "Pending",
    "responsible_agency": "Department of Public Works",
    "final_address": "1700 BLK Orleans Ave",
    "address_councildis": "D",
    "status": "Pending",
    "rowid": "1031915",
    "final_x": "3679739.12507",
    "final_y": "534823.263146",
    "longitude": "-90.07351584911994",
    "latitude": "29.96463188228322",
    "geocoded_column": {
      "latitude": "29.96463188228322",
      "longitude": "-90.07351584911994"
    }
  },
  {
    "service_request": "2023-1031914",
    "request_type": "Parks & Parkways",
    "request_reason": "Request Tree Service (Right of Way/Public Property)",
    "date_created": "2023-09-04T19:22:12.000",
    "date_modified": "2023-09-04T19:22:12.000",
    "request_status": "Pending",
    "responsible_agency": "Department of Parks & Parkway",
    "final_address": "3729 Copernicus St",
    "address_councildis": "C",
    "status": "Pending",
    "rowid": "1031914",
    "final_x": "3697634.70051",
    "final_y": "522989.588475",
    "longitude": "-90.01743237107532",
    "latitude": "29.931540271104087",
    "geocoded_column": {
      "latitude": "29.931540271104087",
      "longitude": "-90.01743237107532"
    }
  },
  {
    "service_request": "2023-1031913",
    "request_type": "Property Maintenance",
    "request_reason": "Property Maintenance",
    "date_created": "2023-09-04T19:21:21.000",
    "date_modified": "2023-09-04T19:21:21.000",
    "request_status": "Pending",
    "responsible_agency": "Department of Code Enforcement",
    "final_address": "2310 Seminole Ln",
    "address_councildis": "B",
    "status": "Pending",
    "rowid": "1031913",
    "final_x": "3673904.58964",
    "final_y": "528282.424",
    "longitude": "-90.09216466715381",
    "latitude": "29.946821850231483",
    "geocoded_column": {
      "latitude": "29.946821850231483",
      "longitude": "-90.09216466715381"
    }
  },
  {
    "service_request": "2023-1031912",
    "request_type": "Trash/Recycling",
    "request_reason": "Replace Trash Cart",
    "date_created": "2023-09-04T19:19:27.000",
    "date_modified": "2023-09-04T19:19:28.000",
    "request_status": "Pending",
    "responsible_agency": "Department of Sanitation",
    "final_address": "3709 Dumaine St",
    "address_councildis": "A",
    "status": "Assigned to Contractor",
    "contractor": "Richards Disposal",
    "rowid": "1031912",
    "final_x": "3674021.0818",
    "final_y": "539971.030155",
    "longitude": "-90.0913968554771",
    "latitude": "29.978958122292486",
    "geocoded_column": {
      "latitude": "29.978958122292486",
      "longitude": "-90.0913968554771"
    }
  },
  {
    "service_request": "2023-1031911",
    "request_type": "Utility Poles",
    "request_reason": "Property Maintenance",
    "date_created": "2023-09-04T19:12:35.000",
    "date_modified": "2023-09-04T19:12:39.000",
    "request_status": "Pending",
    "responsible_agency": "Department of Code Enforcement",
    "final_address": "3729 Copernicus St",
    "address_councildis": "C",
    "status": "Pending",
    "rowid": "1031911",
    "final_x": "3697634.70051",
    "final_y": "522989.588475",
    "longitude": "-90.01743237107532",
    "latitude": "29.931540271104087",
    "geocoded_column": {
      "latitude": "29.931540271104087",
      "longitude": "-90.01743237107532"
    }
  },
  {
    "service_request": "2023-1031910",
    "request_type": "Roads/Drainage",
    "request_reason": "Man hole cover issue",
    "date_created": "2023-09-04T19:11:35.000",
    "date_modified": "2023-09-04T19:11:36.000",
    "request_status": "Pending",
    "responsible_agency": "Department of Public Works",
    "final_address": "3500 BLK Napoleon Ave",
    "address_councildis": "B",
    "status": "Pending",
    "rowid": "1031910",
    "final_x": "3670129.68529",
    "final_y": "527677.949681",
    "longitude": "-90.10410392664895",
    "latitude": "29.94527163591818",
    "geocoded_column": {
      "latitude": "29.94527163591818",
      "longitude": "-90.10410392664895"
    }
  },
  {
    "service_request": "2023-1031909",
    "request_type": "Trash/Recycling",
    "request_reason": "Missed Trash Pick-Up",
    "date_created": "2023-09-04T19:09:08.000",
    "date_modified": "2023-09-04T19:09:09.000",
    "request_status": "Pending",
    "responsible_agency": "Department of Sanitation",
    "final_address": "13632 N Cavelier Dr",
    "address_councildis": "E",
    "status": "Assigned to Contractor",
    "contractor": "Waste Pro",
    "rowid": "1031909",
    "final_x": "3724085.57651",
    "final_y": "569858.311974",
    "longitude": "-89.93212194469127",
    "latitude": "30.059549083506568",
    "geocoded_column": {
      "latitude": "30.059549083506568",
      "longitude": "-89.93212194469127"
    }
  },
  {
    "service_request": "2023-1031908",
    "request_type": "Trash/Recycling",
    "request_reason": "Missed Trash Pick-Up",
    "date_created": "2023-09-04T19:07:38.000",
    "date_modified": "2023-09-04T19:07:39.000",
    "request_status": "Pending",
    "responsible_agency": "Department of Sanitation",
    "final_address": "1800 Pauline St",
    "address_councildis": "D",
    "status": "Assigned to Contractor",
    "contractor": "IV Waste",
    "rowid": "1031908",
    "final_x": "3691846.07766",
    "final_y": "538141.706825",
    "longitude": "-90.03516437532909",
    "latitude": "29.973384863651994",
    "geocoded_column": {
      "latitude": "29.973384863651994",
      "longitude": "-90.03516437532909"
    }
  },
  {
    "service_request": "2023-1031907",
    "request_type": "Roads/Drainage",
    "request_reason": "Catch Basin - Clogged",
    "date_created": "2023-09-04T18:54:54.000",
    "date_modified": "2023-09-04T18:54:54.000",
    "request_status": "Pending",
    "responsible_agency": "Department of Public Works",
    "final_address": "504 S Alexander St, New Orleans, Louisiana, 70119",
    "address_councildis": "A",
    "status": "Pending",
    "rowid": "1031907",
    "final_x": "3669008.93767",
    "final_y": "537821.549065",
    "longitude": "-90.10729981214295",
    "latitude": "29.97319619614067",
    "geocoded_column": {
      "latitude": "29.97319619614067",
      "longitude": "-90.10729981214295"
    }
  },
  {
    "service_request": "2023-1031906",
    "request_type": "Roads/Drainage",
    "request_reason": "Pothole",
    "date_created": "2023-09-04T18:43:56.000",
    "date_modified": "2023-09-04T18:43:56.000",
    "request_status": "Pending",
    "responsible_agency": "Department of Public Works",
    "final_address": "6100 Garfield St",
    "address_councildis": "A",
    "status": "Pending",
    "rowid": "1031906",
    "final_x": "3664870.95373",
    "final_y": "521656.005689",
    "longitude": "-90.12090865787172",
    "latitude": "29.928867281684802",
    "geocoded_column": {
      "latitude": "29.928867281684802",
      "longitude": "-90.12090865787172"
    }
  },
  {
    "service_request": "2023-1031905",
    "request_type": "Abandoned Vehicles",
    "request_reason": "Abandoned/Junk Vehicles",
    "date_created": "2023-09-04T18:30:14.000",
    "date_modified": "2023-09-04T18:30:14.000",
    "request_status": "Pending",
    "responsible_agency": "Department of Public Works",
    "final_address": "2443 N Miro St",
    "address_councildis": "D",
    "status": "Pending",
    "rowid": "1031905",
    "final_x": "3686598.1213",
    "final_y": "540546.554699",
    "longitude": "-90.05165351140766",
    "latitude": "29.980159789735048",
    "geocoded_column": {
      "latitude": "29.980159789735048",
      "longitude": "-90.05165351140766"
    }
  },
  {
    "service_request": "2023-1031904",
    "request_type": "Abandoned Vehicles",
    "request_reason": "Abandoned/Junk Vehicles",
    "date_created": "2023-09-04T18:25:32.000",
    "date_modified": "2023-09-04T18:25:32.000",
    "request_status": "Pending",
    "responsible_agency": "Department of Public Works",
    "final_address": "2255 N Miro St",
    "address_councildis": "D",
    "status": "Pending",
    "rowid": "1031904",
    "final_x": "3685245.49865",
    "final_y": "540440.218443",
    "longitude": "-90.05592939880573",
    "latitude": "29.979908934681344",
    "geocoded_column": {
      "latitude": "29.979908934681344",
      "longitude": "-90.05592939880573"
    }
  },
  {
    "service_request": "2023-1031903",
    "request_type": "Abandoned Vehicles",
    "request_reason": "Abandoned/Junk Vehicles",
    "date_created": "2023-09-04T18:21:27.000",
    "date_modified": "2023-09-04T18:21:27.000",
    "request_status": "Pending",
    "responsible_agency": "Department of Public Works",
    "final_address": "2248 N Miro St",
    "address_councildis": "D",
    "status": "Pending",
    "rowid": "1031903",
    "final_x": "3685216.32105",
    "final_y": "540364.169547",
    "longitude": "-90.05602423105888",
    "latitude": "29.979700721336002",
    "geocoded_column": {
      "latitude": "29.979700721336002",
      "longitude": "-90.05602423105888"
    }
  },
  {
    "service_request": "2023-1031902",
    "request_type": "Trash/Recycling",
    "request_reason": "Replace Trash Cart",
    "date_created": "2023-09-04T18:18:49.000",
    "date_modified": "2023-09-04T18:18:50.000",
    "request_status": "Pending",
    "responsible_agency": "Department of Sanitation",
    "final_address": "5828 Macarthur Blvd",
    "address_councildis": "C",
    "status": "Assigned to Contractor",
    "contractor": "Richards Disposal",
    "rowid": "1031902",
    "final_x": "3704878.37899",
    "final_y": "519351.601975",
    "longitude": "-89.99469928506262",
    "latitude": "29.921306350292674",
    "geocoded_column": {
      "latitude": "29.921306350292674",
      "longitude": "-89.99469928506262"
    }
  },
  {
    "service_request": "2023-1031901",
    "request_type": "Trash/Recycling",
    "request_reason": "Request a Large Item Pick Up",
    "date_created": "2023-09-04T18:18:06.000",
    "date_modified": "2023-09-04T18:18:06.000",
    "request_status": "Pending",
    "responsible_agency": "Department of Sanitation",
    "final_address": "2837 Danneel St",
    "address_councildis": "B",
    "status": "Assigned to Contractor",
    "contractor": "Richards Disposal",
    "rowid": "1031901",
    "final_x": "3674849.14568",
    "final_y": "523586.593147",
    "longitude": "-90.08934331911394",
    "latitude": "29.933881688245812",
    "geocoded_column": {
      "latitude": "29.933881688245812",
      "longitude": "-90.08934331911394"
    }
  },
  {
    "service_request": "2023-1031900",
    "request_type": "Property Maintenance",
    "request_reason": "Property Maintenance",
    "date_created": "2023-09-04T18:15:09.000",
    "date_modified": "2023-09-04T18:15:09.000",
    "request_status": "Pending",
    "responsible_agency": "Department of Code Enforcement",
    "final_address": "2828 Allen St",
    "address_councildis": "D",
    "status": "Pending",
    "rowid": "1031900",
    "final_x": "3682228.67445",
    "final_y": "542562.543629",
    "longitude": "-90.06538359025134",
    "latitude": "29.985836716722265",
    "geocoded_column": {
      "latitude": "29.985836716722265",
      "longitude": "-90.06538359025134"
    }
  },
  {
    "service_request": "2023-1031899",
    "request_type": "Traffic Signals/Signs/Striping/Streetlights",
    "request_reason": "Street Light Outage/Malfunction",
    "date_created": "2023-09-04T18:15:01.000",
    "date_modified": "2023-09-04T18:15:02.000",
    "request_status": "Pending",
    "responsible_agency": "Department of Public Works",
    "final_address": "10 Gordon St",
    "address_councildis": "E",
    "status": "Assigned to Contractor",
    "contractor": "Legacy Professional Services",
    "rowid": "1031899",
    "final_x": "3700377.28298",
    "final_y": "536903.613512",
    "longitude": "-90.00826646555606",
    "latitude": "29.96971203331383",
    "geocoded_column": {
      "latitude": "29.96971203331383",
      "longitude": "-90.00826646555606"
    }
  },
  {
    "service_request": "2023-1031898",
    "request_type": "Roads/Drainage",
    "request_reason": "Catch Basin - Broken/Damage",
    "date_created": "2023-09-04T17:42:18.000",
    "date_modified": "2023-09-04T17:42:18.000",
    "request_status": "Pending",
    "responsible_agency": "Department of Public Works",
    "final_address": "3000 Palmer Ave",
    "address_councildis": "A",
    "status": "Pending",
    "rowid": "1031898",
    "final_x": "3667046.59687",
    "final_y": "527521.686527",
    "longitude": "-90.11384349850496",
    "latitude": "29.944932546922274",
    "geocoded_column": {
      "latitude": "29.944932546922274",
      "longitude": "-90.11384349850496"
    }
  },
  {
    "service_request": "2023-1031897",
    "request_type": "Roads/Drainage",
    "request_reason": "Catch Basin - Clogged",
    "date_created": "2023-09-04T17:35:58.000",
    "date_modified": "2023-09-04T17:35:58.000",
    "request_status": "Pending",
    "responsible_agency": "Department of Public Works",
    "final_address": "745 Baronne St",
    "address_councildis": "B",
    "status": "Pending",
    "rowid": "1031897",
    "final_x": "3679596.86095",
    "final_y": "528410.757504",
    "longitude": "-90.07418763567163",
    "latitude": "29.94700395692527",
    "geocoded_column": {
      "latitude": "29.94700395692527",
      "longitude": "-90.07418763567163"
    }
  },
  {
    "service_request": "2023-1031896",
    "request_type": "Roads/Drainage",
    "request_reason": "Catch Basin - Clogged",
    "date_created": "2023-09-04T17:27:32.000",
    "date_modified": "2023-09-04T17:27:32.000",
    "request_status": "Pending",
    "responsible_agency": "Department of Public Works",
    "final_address": "6930 Louisville St",
    "address_councildis": "A",
    "status": "Pending",
    "rowid": "1031896",
    "final_x": "3668227.15188",
    "final_y": "553665.976023",
    "longitude": "-90.10923428054184",
    "latitude": "30.016785897302068",
    "geocoded_column": {
      "latitude": "30.016785897302068",
      "longitude": "-90.10923428054184"
    }
  },
  {
    "service_request": "2023-1031895",
    "request_type": "Trash/Recycling",
    "request_reason": "Request a Large Item Pick Up",
    "date_created": "2023-09-04T17:26:09.000",
    "date_modified": "2023-09-04T17:26:10.000",
    "request_status": "Pending",
    "responsible_agency": "Department of Sanitation",
    "final_address": "919 Upperline St",
    "address_councildis": "B",
    "status": "Assigned to Contractor",
    "contractor": "Richards Disposal",
    "rowid": "1031895",
    "final_x": "3669066.92135",
    "final_y": "518753.729207",
    "longitude": "-90.10776079151617",
    "latitude": "29.920764195930413",
    "geocoded_column": {
      "latitude": "29.920764195930413",
      "longitude": "-90.10776079151617"
    }
  },
  {
    "service_request": "2023-1031894",
    "request_type": "Roads/Drainage",
    "request_reason": "Accessibility Ramps, Curbs and Sidewalk Repair",
    "date_created": "2023-09-04T17:26:08.000",
    "date_modified": "2023-09-04T17:26:08.000",
    "request_status": "Pending",
    "responsible_agency": "Department of Public Works",
    "final_address": "4126 Magnolia St",
    "address_councildis": "B",
    "status": "Pending",
    "rowid": "1031894",
    "final_x": "3671341.36315",
    "final_y": "524780.238204",
    "longitude": "-90.1003767129894",
    "latitude": "29.937268074624317",
    "geocoded_column": {
      "latitude": "29.937268074624317",
      "longitude": "-90.1003767129894"
    }
  },
  {
    "service_request": "2023-1031893",
    "request_type": "Roads/Drainage",
    "request_reason": "Street Flooding / Drainage",
    "date_created": "2023-09-04T17:18:03.000",
    "date_modified": "2023-09-04T17:18:03.000",
    "request_status": "Pending",
    "responsible_agency": "Department of Public Works",
    "final_address": "3100 BLK Palmyra St",
    "address_councildis": "B",
    "status": "Pending",
    "rowid": "1031893",
    "final_x": "3673492.1182",
    "final_y": "535516.818518",
    "longitude": "-90.0932197832693",
    "latitude": "29.966726305146473",
    "geocoded_column": {
      "latitude": "29.966726305146473",
      "longitude": "-90.0932197832693"
    }
  },
  {
    "service_request": "2023-1031892",
    "request_type": "Roads/Drainage",
    "request_reason": "Catch Basin - Clogged",
    "date_created": "2023-09-04T17:13:57.000",
    "date_modified": "2023-09-04T17:13:57.000",
    "request_status": "Pending",
    "responsible_agency": "Department of Public Works",
    "final_address": "428 S Alexander St, New Orleans, Louisiana, 70119",
    "address_councildis": "A",
    "status": "Pending",
    "rowid": "1031892",
    "final_x": "3669112.17838",
    "final_y": "537958.845385",
    "longitude": "-90.10696911552718",
    "latitude": "29.973570677062423",
    "geocoded_column": {
      "latitude": "29.973570677062423",
      "longitude": "-90.10696911552718"
    }
  },
  {
    "service_request": "2023-1031891",
    "request_type": "Roads/Drainage",
    "request_reason": "Street Flooding / Drainage",
    "date_created": "2023-09-04T17:13:45.000",
    "date_modified": "2023-09-04T17:13:45.000",
    "request_status": "Pending",
    "responsible_agency": "Department of Public Works",
    "final_address": "4422 S Miro St",
    "address_councildis": "B",
    "status": "Pending",
    "rowid": "1031891",
    "final_x": "3669872.42785",
    "final_y": "527745.146431",
    "longitude": "-90.10491389754071",
    "latitude": "29.945463991112028",
    "geocoded_column": {
      "latitude": "29.945463991112028",
      "longitude": "-90.10491389754071"
    }
  },
  {
    "service_request": "2023-1031890",
    "request_type": "Roads/Drainage",
    "request_reason": "Street Flooding / Drainage",
    "date_created": "2023-09-04T17:11:43.000",
    "date_modified": "2023-09-04T17:11:43.000",
    "request_status": "Pending",
    "responsible_agency": "Department of Public Works",
    "final_address": "4422 S Miro St",
    "address_councildis": "B",
    "status": "Pending",
    "rowid": "1031890",
    "final_x": "3669872.42785",
    "final_y": "527745.146431",
    "longitude": "-90.10491389754071",
    "latitude": "29.945463991112028",
    "geocoded_column": {
      "latitude": "29.945463991112028",
      "longitude": "-90.10491389754071"
    }
  },
  {
    "service_request": "2023-1031889",
    "request_type": "Roads/Drainage",
    "request_reason": "Street Flooding / Drainage",
    "date_created": "2023-09-04T17:11:42.000",
    "date_modified": "2023-09-04T17:11:42.000",
    "request_status": "Pending",
    "responsible_agency": "Department of Public Works",
    "final_address": "429 S Alexander St, New Orleans, Louisiana, 70119",
    "address_councildis": "A",
    "status": "Pending",
    "rowid": "1031889",
    "final_x": "3669053.11438",
    "final_y": "537987.409545",
    "longitude": "-90.10715468735414",
    "latitude": "29.973650956964146",
    "geocoded_column": {
      "latitude": "29.973650956964146",
      "longitude": "-90.10715468735414"
    }
  },
  {
    "service_request": "2023-1031888",
    "request_type": "Roads/Drainage",
    "request_reason": "Pothole",
    "date_created": "2023-09-04T17:09:19.000",
    "date_modified": "2023-09-04T17:09:19.000",
    "request_status": "Pending",
    "responsible_agency": "Department of Public Works",
    "final_address": "4415 S Miro St",
    "address_councildis": "B",
    "status": "Pending",
    "rowid": "1031888",
    "final_x": "3669938.78804",
    "final_y": "527893.653887",
    "longitude": "-90.1046993487772",
    "latitude": "29.9458703818742",
    "geocoded_column": {
      "latitude": "29.9458703818742",
      "longitude": "-90.1046993487772"
    }
  },
  {
    "service_request": "2023-1031887",
    "request_type": "Roads/Drainage",
    "request_reason": "Catch Basin - Clogged",
    "date_created": "2023-09-04T17:04:43.000",
    "date_modified": "2023-09-04T17:04:43.000",
    "request_status": "Pending",
    "responsible_agency": "Department of Public Works",
    "final_address": "3519 Jena St",
    "address_councildis": "B",
    "status": "Pending",
    "rowid": "1031887",
    "final_x": "3669823.51393",
    "final_y": "527676.622271",
    "longitude": "-90.10507065415212",
    "latitude": "29.945277013795078",
    "geocoded_column": {
      "latitude": "29.945277013795078",
      "longitude": "-90.10507065415212"
    }
  },
  {
    "service_request": "2023-1031886",
    "request_type": "Trash/Recycling",
    "request_reason": "Missed Trash Pick-Up",
    "date_created": "2023-09-04T17:04:22.000",
    "date_modified": "2023-09-04T17:04:22.000",
    "request_status": "Pending",
    "responsible_agency": "Department of Sanitation",
    "final_address": "1012 N Gayoso St",
    "address_councildis": "A",
    "status": "Assigned to Contractor",
    "contractor": "Richards Disposal",
    "rowid": "1031886",
    "final_x": "3676470.98081",
    "final_y": "538731.459529",
    "longitude": "-90.08370182767003",
    "latitude": "29.975476488065166",
    "geocoded_column": {
      "latitude": "29.975476488065166",
      "longitude": "-90.08370182767003"
    }
  },
  {
    "service_request": "2023-1031885",
    "request_type": "Roads/Drainage",
    "request_reason": "Catch Basin - Broken/Damage",
    "date_created": "2023-09-04T17:03:34.000",
    "date_modified": "2023-09-04T17:03:34.000",
    "request_status": "Pending",
    "responsible_agency": "Department of Public Works",
    "final_address": "6724 Louisville St",
    "address_councildis": "A",
    "status": "Pending",
    "rowid": "1031885",
    "final_x": "3668095.19386",
    "final_y": "552301.157974",
    "longitude": "-90.10969726423376",
    "latitude": "30.013037004010197",
    "geocoded_column": {
      "latitude": "30.013037004010197",
      "longitude": "-90.10969726423376"
    }
  },
  {
    "service_request": "2023-1031884",
    "request_type": "Abandoned Vehicles",
    "request_reason": "Abandoned/Junk Vehicles",
    "date_created": "2023-09-04T17:02:55.000",
    "date_modified": "2023-09-04T17:02:55.000",
    "request_status": "Pending",
    "responsible_agency": "Department of Public Works",
    "final_address": "2359 N Galvez St",
    "address_councildis": "D",
    "status": "Pending",
    "rowid": "1031884",
    "final_x": "3685987.64988",
    "final_y": "540122.921483",
    "longitude": "-90.05359657649426",
    "latitude": "29.979013709326004",
    "geocoded_column": {
      "latitude": "29.979013709326004",
      "longitude": "-90.05359657649426"
    }
  },
  {
    "service_request": "2023-1031883",
    "request_type": "Trash/Recycling",
    "request_reason": "Request a Large Item Pick Up",
    "date_created": "2023-09-04T16:56:34.000",
    "date_modified": "2023-09-04T16:57:19.000",
    "request_status": "Pending",
    "responsible_agency": "Department of Sanitation",
    "final_address": "519 Wilkinson St",
    "address_councildis": "C",
    "status": "Assigned to Contractor",
    "contractor": "Empire Services",
    "rowid": "1031883",
    "final_x": "3682904.00124",
    "final_y": "531965.081539",
    "longitude": "-90.06362142281108",
    "latitude": "29.956676801973536",
    "geocoded_column": {
      "latitude": "29.956676801973536",
      "longitude": "-90.06362142281108"
    }
  },
  {
    "service_request": "2023-1031882",
    "request_type": "Trash/Recycling",
    "request_reason": "Order Trash Cart",
    "date_created": "2023-09-04T16:55:32.000",
    "date_modified": "2023-09-04T16:56:16.000",
    "request_status": "Pending",
    "responsible_agency": "Department of Sanitation",
    "final_address": "915 Conrad St",
    "address_councildis": "A",
    "status": "Assigned to Contractor",
    "contractor": "IV Waste",
    "rowid": "1031882",
    "final_x": "3670633.12558",
    "final_y": "554246.873816",
    "longitude": "-90.10161266412445",
    "latitude": "30.018312266356883",
    "geocoded_column": {
      "latitude": "30.018312266356883",
      "longitude": "-90.10161266412445"
    }
  },
  {
    "service_request": "2023-1031881",
    "request_type": "Abandoned Vehicles",
    "request_reason": "Abandoned/Junk Vehicles",
    "date_created": "2023-09-04T16:44:04.000",
    "date_modified": "2023-09-04T16:44:04.000",
    "request_status": "Pending",
    "responsible_agency": "Department of Public Works",
    "final_address": "2355 N Galvez St",
    "address_councildis": "D",
    "status": "Pending",
    "rowid": "1031881",
    "final_x": "3685956.18383",
    "final_y": "540122.403659",
    "longitude": "-90.05369597642962",
    "latitude": "29.979013251764638",
    "geocoded_column": {
      "latitude": "29.979013251764638",
      "longitude": "-90.05369597642962"
    }
  },
  {
    "service_request": "2023-1031880",
    "request_type": "Roads/Drainage",
    "request_reason": "Pothole",
    "date_created": "2023-09-04T16:40:08.000",
    "date_modified": "2023-09-04T16:40:08.000",
    "request_status": "Pending",
    "responsible_agency": "Department of Public Works",
    "final_address": "3000 BLK Saint Philip St",
    "address_councildis": "A",
    "status": "Pending",
    "rowid": "1031880",
    "final_x": "3676057.41032",
    "final_y": "538889.23008",
    "longitude": "-90.08500256859188",
    "latitude": "29.97592269839444",
    "geocoded_column": {
      "latitude": "29.97592269839444",
      "longitude": "-90.08500256859188"
    }
  },
  {
    "service_request": "2023-1031879",
    "request_type": "Roads/Drainage",
    "request_reason": "Man hole cover issue",
    "date_created": "2023-09-04T16:39:12.000",
    "date_modified": "2023-09-04T16:39:12.000",
    "request_status": "Pending",
    "responsible_agency": "Department of Public Works",
    "final_address": "5701 S Claiborne Ave",
    "address_councildis": "A",
    "status": "Pending",
    "rowid": "1031879",
    "final_x": "3667853.72045",
    "final_y": "526860.260286",
    "longitude": "-90.11131742557849",
    "latitude": "29.94309019434389",
    "geocoded_column": {
      "latitude": "29.94309019434389",
      "longitude": "-90.11131742557849"
    }
  },
  {
    "service_request": "2023-1031878",
    "request_type": "Trash/Recycling",
    "request_reason": "Missed Trash Pick-Up",
    "date_created": "2023-09-04T16:37:50.000",
    "date_modified": "2023-09-04T17:22:52.000",
    "case_close_date": "2023-09-04T12:22:52.000",
    "request_status": "Closed",
    "responsible_agency": "Department of Sanitation",
    "final_address": "1012 N Gayoso St",
    "address_councildis": "A",
    "status": "Duplicate Request",
    "contractor": "Richards Disposal",
    "contractor_action": "duplicate",
    "rowid": "1031878",
    "final_x": "3676470.98081",
    "final_y": "538731.459529",
    "longitude": "-90.08370182767003",
    "latitude": "29.975476488065166",
    "geocoded_column": {
      "latitude": "29.975476488065166",
      "longitude": "-90.08370182767003"
    }
  },
  {
    "service_request": "2023-1031877",
    "request_type": "Abandoned Vehicles",
    "request_reason": "Abandoned/Junk Vehicles",
    "date_created": "2023-09-04T16:36:49.000",
    "date_modified": "2023-09-04T16:36:49.000",
    "request_status": "Pending",
    "responsible_agency": "Department of Public Works",
    "final_address": "1806 St Roch Ave",
    "address_councildis": "D",
    "status": "Pending",
    "rowid": "1031877",
    "final_x": "3686014.00156",
    "final_y": "539055.725578",
    "longitude": "-90.05355099410463",
    "latitude": "29.976078486470005",
    "geocoded_column": {
      "latitude": "29.976078486470005",
      "longitude": "-90.05355099410463"
    }
  },
  {
    "service_request": "2023-1031876",
    "request_type": "Trash/Recycling",
    "request_reason": "Missed Trash Pick-Up",
    "date_created": "2023-09-04T16:34:58.000",
    "date_modified": "2023-09-04T17:22:11.000",
    "case_close_date": "2023-09-04T12:22:11.000",
    "request_status": "Closed",
    "responsible_agency": "Department of Sanitation",
    "final_address": "1012 N Gayoso St",
    "address_councildis": "A",
    "status": "Duplicate Request",
    "contractor": "Richards Disposal",
    "contractor_action": "duplicate",
    "rowid": "1031876",
    "final_x": "3676470.98081",
    "final_y": "538731.459529",
    "longitude": "-90.08370182767003",
    "latitude": "29.975476488065166",
    "geocoded_column": {
      "latitude": "29.975476488065166",
      "longitude": "-90.08370182767003"
    }
  },
  {
    "service_request": "2023-1031875",
    "request_type": "Abandoned Vehicles",
    "request_reason": "Abandoned/Junk Vehicles",
    "date_created": "2023-09-04T16:33:15.000",
    "date_modified": "2023-09-04T16:33:15.000",
    "request_status": "Pending",
    "responsible_agency": "Department of Public Works",
    "final_address": "1622 St Roch Ave",
    "address_councildis": "D",
    "status": "Pending",
    "rowid": "1031875",
    "final_x": "3686252.80892",
    "final_y": "538462.513289",
    "longitude": "-90.05281770991866",
    "latitude": "29.97444002468229",
    "geocoded_column": {
      "latitude": "29.97444002468229",
      "longitude": "-90.05281770991866"
    }
  },
  {
    "service_request": "2023-1031874",
    "request_type": "Roads/Drainage",
    "request_reason": "Street Subsidence (Sinking)",
    "date_created": "2023-09-04T16:33:06.000",
    "date_modified": "2023-09-04T16:33:06.000",
    "request_status": "Pending",
    "responsible_agency": "Department of Public Works",
    "status": "Pending",
    "rowid": "1031874",
    "longitude": "0.0",
    "latitude": "0.0",
    "geocoded_column": {
      "latitude": "0.0",
      "longitude": "0.0"
    }
  },
  {
    "service_request": "2023-1031873",
    "request_type": "Roads/Drainage",
    "request_reason": "Catch Basin - Clogged",
    "date_created": "2023-09-04T16:30:11.000",
    "date_modified": "2023-09-04T16:30:11.000",
    "request_status": "Pending",
    "responsible_agency": "Department of Public Works",
    "final_address": "2632 Upperline St",
    "address_councildis": "B",
    "status": "Pending",
    "rowid": "1031873",
    "final_x": "3669146.10881",
    "final_y": "524532.23302",
    "longitude": "-90.10731566820421",
    "latitude": "29.936650909196725",
    "geocoded_column": {
      "latitude": "29.936650909196725",
      "longitude": "-90.10731566820421"
    }
  },
  {
    "service_request": "2023-1031872",
    "request_type": "Abandoned Vehicles",
    "request_reason": "Abandoned/Junk Vehicles",
    "date_created": "2023-09-04T16:29:49.000",
    "date_modified": "2023-09-04T16:29:49.000",
    "request_status": "Pending",
    "responsible_agency": "Department of Public Works",
    "final_address": "1215 St Roch Ave",
    "address_councildis": "C",
    "status": "Pending",
    "rowid": "1031872",
    "final_x": "3686541.14204",
    "final_y": "536928.894984",
    "longitude": "-90.05196125122221",
    "latitude": "29.97021424781064",
    "geocoded_column": {
      "latitude": "29.97021424781064",
      "longitude": "-90.05196125122221"
    }
  },
  {
    "service_request": "2023-1031871",
    "request_type": "Roads/Drainage",
    "request_reason": "Catch Basin - Clogged",
    "date_created": "2023-09-04T16:29:14.000",
    "date_modified": "2023-09-04T16:29:14.000",
    "request_status": "Pending",
    "responsible_agency": "Department of Public Works",
    "final_address": "2634 Upperline St",
    "address_councildis": "B",
    "status": "Pending",
    "rowid": "1031871",
    "final_x": "3669146.60993",
    "final_y": "524540.253052",
    "longitude": "-90.10731381522838",
    "latitude": "29.93667294696024",
    "geocoded_column": {
      "latitude": "29.93667294696024",
      "longitude": "-90.10731381522838"
    }
  },
  {
    "service_request": "2023-1031870",
    "request_type": "Roads/Drainage",
    "request_reason": "Catch Basin - Clogged",
    "date_created": "2023-09-04T16:27:05.000",
    "date_modified": "2023-09-04T16:27:05.000",
    "request_status": "Pending",
    "responsible_agency": "Department of Public Works",
    "final_address": "1213 Pleasant St",
    "address_councildis": "B",
    "status": "Pending",
    "rowid": "1031870",
    "final_x": "3675354.13563",
    "final_y": "520319.593848",
    "longitude": "-90.08786119179513",
    "latitude": "29.924883414904546",
    "geocoded_column": {
      "latitude": "29.924883414904546",
      "longitude": "-90.08786119179513"
    }
  },
  {
    "service_request": "2023-1031869",
    "request_type": "Abandoned Vehicles",
    "request_reason": "Abandoned/Junk Vehicles",
    "date_created": "2023-09-04T16:25:39.000",
    "date_modified": "2023-09-04T16:25:39.000",
    "request_status": "Pending",
    "responsible_agency": "Department of Public Works",
    "final_address": "1240 Arts St",
    "address_councildis": "C",
    "status": "Pending",
    "rowid": "1031869",
    "final_x": "3687101.55023",
    "final_y": "537166.883528",
    "longitude": "-90.05018301062427",
    "latitude": "29.970851389267487",
    "geocoded_column": {
      "latitude": "29.970851389267487",
      "longitude": "-90.05018301062427"
    }
  },
  {
    "service_request": "2023-1031868",
    "request_type": "Abandoned Vehicles",
    "request_reason": "Abandoned/Junk Vehicles",
    "date_created": "2023-09-04T16:23:45.000",
    "date_modified": "2023-09-04T16:23:45.000",
    "request_status": "Pending",
    "responsible_agency": "Department of Public Works",
    "final_address": "1844 Painters St",
    "address_councildis": "D",
    "status": "Pending",
    "rowid": "1031868",
    "final_x": "3687298.0095",
    "final_y": "539408.45697",
    "longitude": "-90.04948325098303",
    "latitude": "29.97700887829447",
    "geocoded_column": {
      "latitude": "29.97700887829447",
      "longitude": "-90.04948325098303"
    }
  },
  {
    "service_request": "2023-1031867",
    "request_type": "Abandoned Vehicles",
    "request_reason": "Abandoned/Junk Vehicles",
    "date_created": "2023-09-04T16:21:12.000",
    "date_modified": "2023-09-04T16:21:12.000",
    "request_status": "Pending",
    "responsible_agency": "Department of Public Works",
    "final_address": "1842 Painters St",
    "address_councildis": "D",
    "status": "Pending",
    "rowid": "1031867",
    "final_x": "3687287.8934",
    "final_y": "539392.911178",
    "longitude": "-90.04951575090053",
    "latitude": "29.976966444500793",
    "geocoded_column": {
      "latitude": "29.976966444500793",
      "longitude": "-90.04951575090053"
    }
  },
  {
    "service_request": "2023-1031866",
    "request_type": "Roads/Drainage",
    "request_reason": "Catch Basin - Clogged",
    "date_created": "2023-09-04T16:20:14.000",
    "date_modified": "2023-09-04T16:20:14.000",
    "request_status": "Pending",
    "responsible_agency": "Department of Public Works",
    "final_address": "500 S Norman C Francis Prkwy",
    "address_councildis": "B",
    "status": "Pending",
    "rowid": "1031866",
    "final_x": "3672321.93287",
    "final_y": "535319.025094",
    "longitude": "-90.09692197070544",
    "latitude": "29.966217211138765",
    "geocoded_column": {
      "latitude": "29.966217211138765",
      "longitude": "-90.09692197070544"
    }
  },
  {
    "service_request": "2023-1031865",
    "request_type": "Abandoned Vehicles",
    "request_reason": "Abandoned/Junk Vehicles",
    "date_created": "2023-09-04T16:14:51.000",
    "date_modified": "2023-09-04T16:14:51.000",
    "request_status": "Pending",
    "responsible_agency": "Department of Public Works",
    "final_address": "2341 N Galvez St",
    "address_councildis": "D",
    "status": "Pending",
    "rowid": "1031865",
    "final_x": "3685803.41801",
    "final_y": "540104.497675",
    "longitude": "-90.05417909994769",
    "latitude": "29.978968706739195",
    "geocoded_column": {
      "latitude": "29.978968706739195",
      "longitude": "-90.05417909994769"
    }
  },
  {
    "service_request": "2023-1031864",
    "request_type": "Roads/Drainage",
    "request_reason": "Catch Basin - Clogged",
    "date_created": "2023-09-04T16:13:18.000",
    "date_modified": "2023-09-04T16:13:18.000",
    "request_status": "Pending",
    "responsible_agency": "Department of Public Works",
    "final_address": "833 Voisin St",
    "address_councildis": "A",
    "status": "Pending",
    "rowid": "1031864",
    "final_x": "3668883.11348",
    "final_y": "543254.533006",
    "longitude": "-90.10751363010056",
    "latitude": "29.98813876360236",
    "geocoded_column": {
      "latitude": "29.98813876360236",
      "longitude": "-90.10751363010056"
    }
  },
  {
    "service_request": "2023-1031863",
    "request_type": "Roads/Drainage",
    "request_reason": "Street Flooding / Drainage",
    "date_created": "2023-09-04T16:09:17.000",
    "date_modified": "2023-09-04T16:09:17.000",
    "request_status": "Pending",
    "responsible_agency": "Department of Public Works",
    "final_address": "3615 Banks St",
    "address_councildis": "B",
    "status": "Pending",
    "rowid": "1031863",
    "final_x": "3671805.58593",
    "final_y": "536366.788935",
    "longitude": "-90.09851692967594",
    "latitude": "29.969113519792653",
    "geocoded_column": {
      "latitude": "29.969113519792653",
      "longitude": "-90.09851692967594"
    }
  },
  {
    "service_request": "2023-1031862",
    "request_type": "Mosquito, Termite & Rodent Control",
    "request_reason": "Property Maintenance",
    "date_created": "2023-09-04T16:05:33.000",
    "date_modified": "2023-09-04T16:05:33.000",
    "request_status": "Pending",
    "responsible_agency": "Department of Code Enforcement",
    "final_address": "3429 Burgundy St",
    "address_councildis": "C",
    "status": "Pending",
    "rowid": "1031862",
    "final_x": "3690230.23568",
    "final_y": "534886.945542",
    "longitude": "-90.0403835089739",
    "latitude": "29.96448565249745",
    "geocoded_column": {
      "latitude": "29.96448565249745",
      "longitude": "-90.0403835089739"
    }
  },
  {
    "service_request": "2023-1031861",
    "request_type": "Roads/Drainage",
    "request_reason": "Man hole cover issue",
    "date_created": "2023-09-04T16:04:54.000",
    "date_modified": "2023-09-04T16:04:54.000",
    "request_status": "Pending",
    "responsible_agency": "Department of Public Works",
    "final_address": "5712 S Claiborne Ave",
    "address_councildis": "A",
    "status": "Pending",
    "rowid": "1031861",
    "final_x": "3667316.37121",
    "final_y": "526228.279486",
    "longitude": "-90.11303522589489",
    "latitude": "29.94136819756626",
    "geocoded_column": {
      "latitude": "29.94136819756626",
      "longitude": "-90.11303522589489"
    }
  },
  {
    "service_request": "2023-1031860",
    "request_type": "Roads/Drainage",
    "request_reason": "Street Subsidence (Sinking)",
    "date_created": "2023-09-04T16:04:12.000",
    "date_modified": "2023-09-04T16:04:12.000",
    "request_status": "Pending",
    "responsible_agency": "Department of Public Works",
    "final_address": "1031 Hagan St",
    "address_councildis": "A",
    "status": "Pending",
    "rowid": "1031860",
    "final_x": "3675517.16187",
    "final_y": "539632.423498",
    "longitude": "-90.08668329256066",
    "latitude": "29.977982398350967",
    "geocoded_column": {
      "latitude": "29.977982398350967",
      "longitude": "-90.08668329256066"
    }
  },
  {
    "service_request": "2023-1031859",
    "request_type": "Trash/Recycling",
    "request_reason": "Replace Trash Cart",
    "date_created": "2023-09-04T16:02:29.000",
    "date_modified": "2023-09-04T16:02:30.000",
    "request_status": "Pending",
    "responsible_agency": "Department of Sanitation",
    "final_address": "5828 Macarthur Blvd",
    "address_councildis": "C",
    "status": "Assigned to Contractor",
    "contractor": "Richards Disposal",
    "rowid": "1031859",
    "final_x": "3704878.37899",
    "final_y": "519351.601975",
    "longitude": "-89.99469928506262",
    "latitude": "29.921306350292674",
    "geocoded_column": {
      "latitude": "29.921306350292674",
      "longitude": "-89.99469928506262"
    }
  },
  {
    "service_request": "2023-1031858",
    "request_type": "Trash/Recycling",
    "request_reason": "Request a Large Item Pick Up",
    "date_created": "2023-09-04T16:00:28.000",
    "date_modified": "2023-09-04T16:00:28.000",
    "request_status": "Pending",
    "responsible_agency": "Department of Sanitation",
    "final_address": "4532 Marais St",
    "address_councildis": "D",
    "status": "Assigned to Contractor",
    "contractor": "IV Waste",
    "rowid": "1031858",
    "final_x": "3693664.95325",
    "final_y": "535127.238086",
    "longitude": "-90.02952834458507",
    "latitude": "29.96503935715986",
    "geocoded_column": {
      "latitude": "29.96503935715986",
      "longitude": "-90.02952834458507"
    }
  },
  {
    "service_request": "2023-1031857",
    "request_type": "Roads/Drainage",
    "request_reason": "Catch Basin - Clogged",
    "date_created": "2023-09-04T15:58:06.000",
    "date_modified": "2023-09-04T15:58:06.000",
    "request_status": "Pending",
    "responsible_agency": "Department of Public Works",
    "final_address": "1927 Sophie Wright Pl",
    "address_councildis": "B",
    "status": "Pending",
    "rowid": "1031857",
    "final_x": "3679514.23727",
    "final_y": "522792.387834",
    "longitude": "-90.0746433728086",
    "latitude": "29.93155779813345",
    "geocoded_column": {
      "latitude": "29.93155779813345",
      "longitude": "-90.0746433728086"
    }
  },
  {
    "service_request": "2023-1031856",
    "request_type": "Abandoned Vehicles",
    "request_reason": "Abandoned/Junk Vehicles",
    "date_created": "2023-09-04T15:56:51.000",
    "date_modified": "2023-09-04T15:56:51.000",
    "request_status": "Pending",
    "responsible_agency": "Department of Public Works",
    "final_address": "1820 Mandeville St",
    "address_councildis": "D",
    "status": "Pending",
    "rowid": "1031856",
    "final_x": "3685512.3199",
    "final_y": "539109.411274",
    "longitude": "-90.05513355646991",
    "latitude": "29.976241500775995",
    "geocoded_column": {
      "latitude": "29.976241500775995",
      "longitude": "-90.05513355646991"
    }
  },
  {
    "service_request": "2023-1031855",
    "request_type": "Abandoned Vehicles",
    "request_reason": "Abandoned/Junk Vehicles",
    "date_created": "2023-09-04T15:54:50.000",
    "date_modified": "2023-09-04T15:54:50.000",
    "request_status": "Pending",
    "responsible_agency": "Department of Public Works",
    "final_address": "2331 Urquhart St",
    "address_councildis": "C",
    "status": "Pending",
    "rowid": "1031855",
    "final_x": "3685966.7334",
    "final_y": "537155.09076",
    "longitude": "-90.05376731348677",
    "latitude": "29.970853857240712",
    "geocoded_column": {
      "latitude": "29.970853857240712",
      "longitude": "-90.05376731348677"
    }
  },
  {
    "service_request": "2023-1031854",
    "request_type": "Roads/Drainage",
    "request_reason": "Catch Basin - Clogged",
    "date_created": "2023-09-04T15:54:19.000",
    "date_modified": "2023-09-04T15:54:19.000",
    "request_status": "Pending",
    "responsible_agency": "Department of Public Works",
    "final_address": "5300 BLK Annunciation St",
    "address_councildis": "B",
    "status": "Pending",
    "rowid": "1031854",
    "final_x": "3667177.9704",
    "final_y": "517583.360946",
    "longitude": "-90.1137626850114",
    "latitude": "29.91760146980537",
    "geocoded_column": {
      "latitude": "29.91760146980537",
      "longitude": "-90.1137626850114"
    }
  },
  {
    "service_request": "2023-1031853",
    "request_type": "Roads/Drainage",
    "request_reason": "Pothole",
    "date_created": "2023-09-04T15:54:12.000",
    "date_modified": "2023-09-04T15:54:12.000",
    "request_status": "Pending",
    "responsible_agency": "Department of Public Works",
    "final_address": "1312 Milan St",
    "address_councildis": "B",
    "status": "Pending",
    "rowid": "1031853",
    "final_x": "3671625.82823",
    "final_y": "520286.919608",
    "longitude": "-90.09963137110304",
    "latitude": "29.92490447494246",
    "geocoded_column": {
      "latitude": "29.92490447494246",
      "longitude": "-90.09963137110304"
    }
  },
  {
    "service_request": "2023-1031852",
    "request_type": "Roads/Drainage",
    "request_reason": "Street Flooding / Drainage",
    "date_created": "2023-09-04T15:53:22.000",
    "date_modified": "2023-09-04T15:53:22.000",
    "request_status": "Pending",
    "responsible_agency": "Department of Public Works",
    "final_address": "2015 St Andrew St",
    "address_councildis": "B",
    "status": "Pending",
    "rowid": "1031852",
    "final_x": "3677045.52168",
    "final_y": "525681.027069",
    "longitude": "-90.08233726355274",
    "latitude": "29.939574944914682",
    "geocoded_column": {
      "latitude": "29.939574944914682",
      "longitude": "-90.08233726355274"
    }
  },
  {
    "service_request": "2023-1031851",
    "request_type": "Roads/Drainage",
    "request_reason": "Catch Basin - Broken/Damage",
    "date_created": "2023-09-04T15:49:55.000",
    "date_modified": "2023-09-04T15:49:55.000",
    "request_status": "Pending",
    "responsible_agency": "Department of Public Works",
    "final_address": "1031 Hagan St",
    "address_councildis": "A",
    "status": "Pending",
    "rowid": "1031851",
    "final_x": "3675517.16187",
    "final_y": "539632.423498",
    "longitude": "-90.08668329256066",
    "latitude": "29.977982398350967",
    "geocoded_column": {
      "latitude": "29.977982398350967",
      "longitude": "-90.08668329256066"
    }
  },
  {
    "service_request": "2023-1031850",
    "request_type": "Roads/Drainage",
    "request_reason": "Pothole",
    "date_created": "2023-09-04T15:46:51.000",
    "date_modified": "2023-09-04T15:46:51.000",
    "request_status": "Pending",
    "responsible_agency": "Department of Public Works",
    "final_address": "1421 Constantinople St",
    "address_councildis": "B",
    "status": "Pending",
    "rowid": "1031850",
    "final_x": "3672433.24257",
    "final_y": "520667.657465",
    "longitude": "-90.09706965638372",
    "latitude": "29.925927453713577",
    "geocoded_column": {
      "latitude": "29.925927453713577",
      "longitude": "-90.09706965638372"
    }
  },
  {
    "service_request": "2023-1031849",
    "request_type": "Abandoned Vehicles",
    "request_reason": "Abandoned/Junk Vehicles",
    "date_created": "2023-09-04T15:45:44.000",
    "date_modified": "2023-09-04T15:45:44.000",
    "request_status": "Pending",
    "responsible_agency": "Department of Public Works",
    "final_address": "2330 S Derbigny St",
    "address_councildis": "B",
    "status": "Pending",
    "rowid": "1031849",
    "final_x": "3674159.71752",
    "final_y": "527782.771135",
    "longitude": "-90.0913762331745",
    "latitude": "29.94544036819871",
    "geocoded_column": {
      "latitude": "29.94544036819871",
      "longitude": "-90.0913762331745"
    }
  },
  {
    "service_request": "2023-1031848",
    "request_type": "Roads/Drainage",
    "request_reason": "Catch Basin - Clogged",
    "date_created": "2023-09-04T15:45:26.000",
    "date_modified": "2023-09-04T15:45:26.000",
    "request_status": "Pending",
    "responsible_agency": "Department of Public Works",
    "final_address": "3615 Banks St",
    "address_councildis": "B",
    "status": "Pending",
    "rowid": "1031848",
    "final_x": "3671805.58593",
    "final_y": "536366.788935",
    "longitude": "-90.09851692967594",
    "latitude": "29.969113519792653",
    "geocoded_column": {
      "latitude": "29.969113519792653",
      "longitude": "-90.09851692967594"
    }
  },
  {
    "service_request": "2023-1031847",
    "request_type": "Abandoned Vehicles",
    "request_reason": "Abandoned/Junk Vehicles",
    "date_created": "2023-09-04T15:43:41.000",
    "date_modified": "2023-09-04T15:43:41.000",
    "request_status": "Pending",
    "responsible_agency": "Department of Public Works",
    "final_address": "2339 N Derbigny St",
    "address_councildis": "D",
    "status": "Pending",
    "rowid": "1031847",
    "final_x": "3685895.19158",
    "final_y": "538734.613065",
    "longitude": "-90.05393755360471",
    "latitude": "29.975199187868142",
    "geocoded_column": {
      "latitude": "29.975199187868142",
      "longitude": "-90.05393755360471"
    }
  },
  {
    "service_request": "2023-1031846",
    "request_type": "Roads/Drainage",
    "request_reason": "Pothole",
    "date_created": "2023-09-04T15:40:30.000",
    "date_modified": "2023-09-04T15:40:30.000",
    "request_status": "Pending",
    "responsible_agency": "Department of Public Works",
    "final_address": "4216 Chestnut St",
    "address_councildis": "B",
    "status": "Pending",
    "rowid": "1031846",
    "final_x": "3671574.31393",
    "final_y": "519539.203703",
    "longitude": "-90.09981939416457",
    "latitude": "29.922850019854593",
    "geocoded_column": {
      "latitude": "29.922850019854593",
      "longitude": "-90.09981939416457"
    }
  },
  {
    "service_request": "2023-1031845",
    "request_type": "Abandoned Vehicles",
    "request_reason": "Abandoned/Junk Vehicles",
    "date_created": "2023-09-04T15:40:12.000",
    "date_modified": "2023-09-04T15:40:12.000",
    "request_status": "Pending",
    "responsible_agency": "Department of Public Works",
    "final_address": "2318 N Roman St",
    "address_councildis": "D",
    "status": "Pending",
    "rowid": "1031845",
    "final_x": "3685771.2317",
    "final_y": "538924.186058",
    "longitude": "-90.05432236773113",
    "latitude": "29.975724252318372",
    "geocoded_column": {
      "latitude": "29.975724252318372",
      "longitude": "-90.05432236773113"
    }
  },
  {
    "service_request": "2023-1031844",
    "request_type": "Traffic Signals/Signs/Striping/Streetlights",
    "request_reason": "Street Light Outage/Malfunction",
    "date_created": "2023-09-04T15:28:37.000",
    "date_modified": "2023-09-04T15:28:38.000",
    "request_status": "Pending",
    "responsible_agency": "Department of Public Works",
    "final_address": "2325 State St",
    "address_councildis": "A",
    "status": "Assigned to Contractor",
    "contractor": "Legacy Professional Services",
    "rowid": "1031844",
    "final_x": "3666750.44999",
    "final_y": "525285.199485",
    "longitude": "-90.11485361745258",
    "latitude": "29.938791590454848",
    "geocoded_column": {
      "latitude": "29.938791590454848",
      "longitude": "-90.11485361745258"
    }
  },
  {
    "service_request": "2023-1031843",
    "request_type": "Roads/Drainage",
    "request_reason": "Catch Basin - Clogged",
    "date_created": "2023-09-04T15:26:32.000",
    "date_modified": "2023-09-04T15:26:32.000",
    "request_status": "Pending",
    "responsible_agency": "Department of Public Works",
    "final_address": "2827 St Claude Ave",
    "address_councildis": "C",
    "status": "Pending",
    "rowid": "1031843",
    "final_x": "3687963.38415",
    "final_y": "536362.747463",
    "longitude": "-90.04748973646886",
    "latitude": "29.968613731248674",
    "geocoded_column": {
      "latitude": "29.968613731248674",
      "longitude": "-90.04748973646886"
    }
  },
  {
    "service_request": "2023-1031842",
    "request_type": "Parks & Parkways",
    "request_reason": "Tree Stump (removal, grind)",
    "date_created": "2023-09-04T15:05:03.000",
    "date_modified": "2023-09-04T15:05:03.000",
    "request_status": "Pending",
    "responsible_agency": "Department of Parks & Parkway",
    "final_address": "4407 S Carrollton Ave",
    "address_councildis": "A",
    "status": "Pending",
    "rowid": "1031842",
    "final_x": "3670039.81146",
    "final_y": "537296.607944",
    "longitude": "-90.10406188337352",
    "latitude": "29.97172241499035",
    "geocoded_column": {
      "latitude": "29.97172241499035",
      "longitude": "-90.10406188337352"
    }
  },
  {
    "service_request": "2023-1031841",
    "request_type": "Roads/Drainage",
    "request_reason": "Street Flooding / Drainage",
    "date_created": "2023-09-04T15:04:23.000",
    "date_modified": "2023-09-04T15:04:23.000",
    "request_status": "Pending",
    "responsible_agency": "Department of Public Works",
    "final_address": "2604 Chippewa St",
    "address_councildis": "B",
    "status": "Pending",
    "rowid": "1031841",
    "final_x": "3678359.4733",
    "final_y": "519853.957432",
    "longitude": "-90.07839042344962",
    "latitude": "29.923512901577627",
    "geocoded_column": {
      "latitude": "29.923512901577627",
      "longitude": "-90.07839042344962"
    }
  },
  {
    "service_request": "2023-1031840",
    "request_type": "Trash/Recycling",
    "request_reason": "Order Trash Cart",
    "date_created": "2023-09-04T15:00:25.000",
    "date_modified": "2023-09-04T15:00:26.000",
    "request_status": "Pending",
    "responsible_agency": "Department of Sanitation",
    "final_address": "2821 Chippewa St",
    "address_councildis": "B",
    "status": "Assigned to Contractor",
    "contractor": "Richards Disposal",
    "rowid": "1031840",
    "final_x": "3677693.24514",
    "final_y": "519493.703927",
    "longitude": "-90.08050589270208",
    "latitude": "29.92254236770232",
    "geocoded_column": {
      "latitude": "29.92254236770232",
      "longitude": "-90.08050589270208"
    }
  },
  {
    "service_request": "2023-1031839",
    "request_type": "Roads/Drainage",
    "request_reason": "Street Flooding / Drainage",
    "date_created": "2023-09-04T14:58:35.000",
    "date_modified": "2023-09-04T14:58:35.000",
    "request_status": "Pending",
    "responsible_agency": "Department of Public Works",
    "final_address": "6555 Memphis St",
    "address_councildis": "A",
    "status": "Pending",
    "rowid": "1031839",
    "final_x": "3669624.07943",
    "final_y": "551028.283669",
    "longitude": "-90.10490990952725",
    "latitude": "30.009492065982442",
    "geocoded_column": {
      "latitude": "30.009492065982442",
      "longitude": "-90.10490990952725"
    }
  },
  {
    "service_request": "2023-1031838",
    "request_type": "Trash/Recycling",
    "request_reason": "Order Trash Cart",
    "date_created": "2023-09-04T14:45:58.000",
    "date_modified": "2023-09-04T14:45:59.000",
    "request_status": "Pending",
    "responsible_agency": "Department of Sanitation",
    "final_address": "2826 St Louis St",
    "address_councildis": "B",
    "status": "Assigned to Contractor",
    "contractor": "Richards Disposal",
    "rowid": "1031838",
    "final_x": "3675510.69416",
    "final_y": "536673.702343",
    "longitude": "-90.08680537811563",
    "latitude": "29.969847118498013",
    "geocoded_column": {
      "latitude": "29.969847118498013",
      "longitude": "-90.08680537811563"
    }
  },
  {
    "service_request": "2023-1031837",
    "request_type": "Trash/Recycling",
    "request_reason": "Start Trash Service",
    "date_created": "2023-09-04T14:19:02.000",
    "date_modified": "2023-09-04T14:19:03.000",
    "request_status": "Pending",
    "responsible_agency": "Department of Sanitation",
    "final_address": "2528 Jefferson Ave",
    "address_councildis": "A",
    "status": "Assigned to Contractor",
    "contractor": "Richards Disposal",
    "rowid": "1031837",
    "final_x": "3668048.26618",
    "final_y": "524897.253948",
    "longitude": "-90.11076932143813",
    "latitude": "29.93768685321193",
    "geocoded_column": {
      "latitude": "29.93768685321193",
      "longitude": "-90.11076932143813"
    }
  },
  {
    "service_request": "2023-1031836",
    "request_type": "Trash/Recycling",
    "request_reason": "Request a Large Item Pick Up",
    "date_created": "2023-09-04T14:18:30.000",
    "date_modified": "2023-09-04T14:18:31.000",
    "request_status": "Pending",
    "responsible_agency": "Department of Sanitation",
    "final_address": "1110 Josephine St",
    "address_councildis": "B",
    "status": "Assigned to Contractor",
    "contractor": "Richards Disposal",
    "rowid": "1031836",
    "final_x": "3679067.7236",
    "final_y": "522365.075322",
    "longitude": "-90.07606776567302",
    "latitude": "29.93039630813473",
    "geocoded_column": {
      "latitude": "29.93039630813473",
      "longitude": "-90.07606776567302"
    }
  },
  {
    "service_request": "2023-1031835",
    "request_type": "Roads/Drainage",
    "request_reason": "WaterMain Break",
    "date_created": "2023-09-04T14:10:24.000",
    "date_modified": "2023-09-04T14:10:24.000",
    "request_status": "Pending",
    "responsible_agency": "Department of Public Works",
    "final_address": "6651 Milne Blvd",
    "address_councildis": "A",
    "status": "Pending",
    "rowid": "1031835",
    "final_x": "3667577.59853",
    "final_y": "551937.050262",
    "longitude": "-90.11134486085504",
    "latitude": "30.0120510236856",
    "geocoded_column": {
      "latitude": "30.0120510236856",
      "longitude": "-90.11134486085504"
    }
  },
  {
    "service_request": "2023-1031834",
    "request_type": "Roads/Drainage",
    "request_reason": "WaterMain Break",
    "date_created": "2023-09-04T14:08:50.000",
    "date_modified": "2023-09-04T14:08:50.000",
    "request_status": "Pending",
    "responsible_agency": "Department of Public Works",
    "final_address": "6651 Milne Blvd",
    "address_councildis": "A",
    "status": "Pending",
    "rowid": "1031834",
    "final_x": "3667577.59853",
    "final_y": "551937.050262",
    "longitude": "-90.11134486085504",
    "latitude": "30.0120510236856",
    "geocoded_column": {
      "latitude": "30.0120510236856",
      "longitude": "-90.11134486085504"
    }
  },
  {
    "service_request": "2023-1031833",
    "request_type": "Traffic Signals/Signs/Striping/Streetlights",
    "request_reason": "Street Name Sign Damaged or Missing",
    "date_created": "2023-09-04T14:06:07.000",
    "date_modified": "2023-09-04T14:06:07.000",
    "request_status": "Pending",
    "responsible_agency": "Department of Public Works",
    "final_address": "CARTIER AVE & MIRABEAU AVE",
    "address_councildis": "D",
    "status": "Pending",
    "rowid": "1031833",
    "final_x": "3677779.6",
    "final_y": "550260.18",
    "longitude": "-90.0791703207944",
    "latitude": "30.00713712444142",
    "geocoded_column": {
      "latitude": "30.00713712444142",
      "longitude": "-90.0791703207944"
    }
  },
  {
    "service_request": "2023-1031832",
    "request_type": "Trash/Recycling",
    "request_reason": "Missed Trash Pick-Up",
    "date_created": "2023-09-04T14:01:45.000",
    "date_modified": "2023-09-04T14:46:14.000",
    "case_close_date": "2023-09-04T09:46:14.000",
    "request_status": "Closed",
    "responsible_agency": "Department of Sanitation",
    "final_address": "3110 Palmyra St",
    "address_councildis": "B",
    "status": "Resolved",
    "contractor": "Richards Disposal",
    "contractor_action": "Completed",
    "rowid": "1031832",
    "final_x": "3673466.50862",
    "final_y": "535437.013126",
    "longitude": "-90.09330338576157",
    "latitude": "29.966507629279178",
    "geocoded_column": {
      "latitude": "29.966507629279178",
      "longitude": "-90.09330338576157"
    }
  },
  {
    "service_request": "2023-1031831",
    "request_type": "Roads/Drainage",
    "request_reason": "Street Flooding / Drainage",
    "date_created": "2023-09-04T14:01:17.000",
    "date_modified": "2023-09-04T14:01:17.000",
    "request_status": "Pending",
    "responsible_agency": "Department of Public Works",
    "final_address": "4437 Banks St",
    "address_councildis": "A",
    "status": "Pending",
    "rowid": "1031831",
    "final_x": "3669078.15284",
    "final_y": "538441.666313",
    "longitude": "-90.10706025681993",
    "latitude": "29.974899273593046",
    "geocoded_column": {
      "latitude": "29.974899273593046",
      "longitude": "-90.10706025681993"
    }
  },
  {
    "service_request": "2023-1031830",
    "request_type": "Roads/Drainage",
    "request_reason": "Street Flooding / Drainage",
    "date_created": "2023-09-04T13:52:37.000",
    "date_modified": "2023-09-04T13:52:37.000",
    "request_status": "Pending",
    "responsible_agency": "Department of Public Works",
    "final_address": "3365 Belfort St",
    "address_councildis": "A",
    "status": "Pending",
    "rowid": "1031830",
    "final_x": "3677023.03394",
    "final_y": "542610.182733",
    "longitude": "-90.08182449489911",
    "latitude": "29.986125071382386",
    "geocoded_column": {
      "latitude": "29.986125071382386",
      "longitude": "-90.08182449489911"
    }
  },
  {
    "service_request": "2023-1031829",
    "request_type": "Roads/Drainage",
    "request_reason": "Catch Basin - Clogged",
    "date_created": "2023-09-04T13:48:25.000",
    "date_modified": "2023-09-04T13:48:25.000",
    "request_status": "Pending",
    "responsible_agency": "Department of Public Works",
    "final_address": "3209 Constance St",
    "address_councildis": "B",
    "status": "Pending",
    "rowid": "1031829",
    "final_x": "3675872.86126",
    "final_y": "519672.333368",
    "longitude": "-90.08624598095085",
    "latitude": "29.923088143823875",
    "geocoded_column": {
      "latitude": "29.923088143823875",
      "longitude": "-90.08624598095085"
    }
  },
  {
    "service_request": "2023-1031828",
    "request_type": "Roads/Drainage",
    "request_reason": "Street Flooding / Drainage",
    "date_created": "2023-09-04T13:41:54.000",
    "date_modified": "2023-09-04T13:41:54.000",
    "request_status": "Pending",
    "responsible_agency": "Department of Public Works",
    "final_address": "1549 Verna St",
    "address_councildis": "A",
    "status": "Pending",
    "rowid": "1031828",
    "final_x": "3675937.4436",
    "final_y": "541789.369228",
    "longitude": "-90.08528169306148",
    "latitude": "29.983900676384817",
    "geocoded_column": {
      "latitude": "29.983900676384817",
      "longitude": "-90.08528169306148"
    }
  },
  {
    "service_request": "2023-1031827",
    "request_type": "Roads/Drainage",
    "request_reason": "Street Flooding / Drainage",
    "date_created": "2023-09-04T13:41:05.000",
    "date_modified": "2023-09-04T13:41:05.000",
    "request_status": "Pending",
    "responsible_agency": "Department of Public Works",
    "final_address": "5810 Kensington Blvd",
    "address_councildis": "E",
    "status": "Pending",
    "rowid": "1031827",
    "final_x": "3713269.46622",
    "final_y": "560682.82755",
    "longitude": "-89.9666565349487",
    "latitude": "30.034679466911413",
    "geocoded_column": {
      "latitude": "30.034679466911413",
      "longitude": "-89.9666565349487"
    }
  },
  {
    "service_request": "2023-1031826",
    "request_type": "Roads/Drainage",
    "request_reason": "Street Flooding / Drainage",
    "date_created": "2023-09-04T13:39:28.000",
    "date_modified": "2023-09-04T13:39:28.000",
    "request_status": "Pending",
    "responsible_agency": "Department of Public Works",
    "final_address": "1549 Verna St",
    "address_councildis": "A",
    "status": "Pending",
    "rowid": "1031826",
    "final_x": "3675937.4436",
    "final_y": "541789.369228",
    "longitude": "-90.08528169306148",
    "latitude": "29.983900676384817",
    "geocoded_column": {
      "latitude": "29.983900676384817",
      "longitude": "-90.08528169306148"
    }
  },
  {
    "service_request": "2023-1031825",
    "request_type": "Trash/Recycling",
    "request_reason": "MIssed Recycling Pick-Up",
    "date_created": "2023-09-04T13:37:57.000",
    "date_modified": "2023-09-04T13:37:58.000",
    "request_status": "Pending",
    "responsible_agency": "Department of Sanitation",
    "final_address": "5826 Clara St",
    "address_councildis": "A",
    "status": "Assigned to Contractor",
    "contractor": "Richards Disposal",
    "rowid": "1031825",
    "final_x": "3666914.57978",
    "final_y": "525225.735933",
    "longitude": "-90.11433743670578",
    "latitude": "29.938623284611396",
    "geocoded_column": {
      "latitude": "29.938623284611396",
      "longitude": "-90.11433743670578"
    }
  },
  {
    "service_request": "2023-1031823",
    "request_type": "Abandoned Vehicles",
    "request_reason": "Abandoned/Junk Vehicles",
    "date_created": "2023-09-04T13:34:00.000",
    "date_modified": "2023-09-04T13:34:00.000",
    "request_status": "Pending",
    "responsible_agency": "Department of Public Works",
    "final_address": "2500 BLK N Roman St",
    "address_councildis": "D",
    "status": "Pending",
    "rowid": "1031823",
    "final_x": "3687177.3884",
    "final_y": "539072.837981",
    "longitude": "-90.04987608315602",
    "latitude": "29.97608975983534",
    "geocoded_column": {
      "latitude": "29.97608975983534",
      "longitude": "-90.04987608315602"
    }
  },
  {
    "service_request": "2023-1031822",
    "request_type": "Roads/Drainage",
    "request_reason": "Street Flooding / Drainage",
    "date_created": "2023-09-04T13:33:30.000",
    "date_modified": "2023-09-04T13:33:30.000",
    "request_status": "Pending",
    "responsible_agency": "Department of Public Works",
    "final_address": "3600 BLK Cleveland Ave",
    "address_councildis": "B",
    "status": "Pending",
    "rowid": "1031822",
    "final_x": "3672212.07122",
    "final_y": "536963.000665",
    "longitude": "-90.09721290533214",
    "latitude": "29.970740849991426",
    "geocoded_column": {
      "latitude": "29.970740849991426",
      "longitude": "-90.09721290533214"
    }
  },
  {
    "service_request": "2023-1031821",
    "request_type": "Roads/Drainage",
    "request_reason": "Catch Basin - Clogged",
    "date_created": "2023-09-04T13:30:20.000",
    "date_modified": "2023-09-04T13:30:20.000",
    "request_status": "Pending",
    "responsible_agency": "Department of Public Works",
    "final_address": "5600 Catina St",
    "address_councildis": "A",
    "status": "Pending",
    "rowid": "1031821",
    "final_x": "3666566.80673",
    "final_y": "544765.645583",
    "longitude": "-90.11477935333389",
    "latitude": "29.992361741051177",
    "geocoded_column": {
      "latitude": "29.992361741051177",
      "longitude": "-90.11477935333389"
    }
  },
  {
    "service_request": "2023-1031820",
    "request_type": "Roads/Drainage",
    "request_reason": "Street Flooding / Drainage",
    "date_created": "2023-09-04T13:10:59.000",
    "date_modified": "2023-09-04T13:10:59.000",
    "request_status": "Pending",
    "responsible_agency": "Department of Public Works",
    "final_address": "6119 Marigny St",
    "address_councildis": "D",
    "status": "Pending",
    "rowid": "1031820",
    "final_x": "3683976.6102",
    "final_y": "555526.977497",
    "longitude": "-90.05940729928459",
    "latitude": "30.021430934880307",
    "geocoded_column": {
      "latitude": "30.021430934880307",
      "longitude": "-90.05940729928459"
    }
  },
  {
    "service_request": "2023-1031818",
    "request_type": "Roads/Drainage",
    "request_reason": "Catch Basin - Broken/Damage",
    "date_created": "2023-09-04T12:56:05.000",
    "date_modified": "2023-09-04T12:56:05.000",
    "request_status": "Pending",
    "responsible_agency": "Department of Public Works",
    "final_address": "5720 St Bernard Ave",
    "address_councildis": "D",
    "status": "Pending",
    "rowid": "1031818",
    "final_x": "3676758.17115",
    "final_y": "553475.906711",
    "longitude": "-90.08228637592075",
    "latitude": "30.016009922989028",
    "geocoded_column": {
      "latitude": "30.016009922989028",
      "longitude": "-90.08228637592075"
    }
  },
  {
    "service_request": "2023-1031817",
    "request_type": "Trash/Recycling",
    "request_reason": "Request a Large Item Pick Up",
    "date_created": "2023-09-04T12:42:52.000",
    "date_modified": "2023-09-04T12:42:52.000",
    "request_status": "Pending",
    "responsible_agency": "Department of Sanitation",
    "final_address": "413 S Norman C Francis Prkwy",
    "address_councildis": "B",
    "status": "Assigned to Contractor",
    "contractor": "Richards Disposal",
    "rowid": "1031817",
    "final_x": "3672287.74043",
    "final_y": "535754.989063",
    "longitude": "-90.09701509516098",
    "latitude": "29.967416980080156",
    "geocoded_column": {
      "latitude": "29.967416980080156",
      "longitude": "-90.09701509516098"
    }
  },
  {
    "service_request": "2023-1031816",
    "request_type": "Roads/Drainage",
    "request_reason": "Street Subsidence (Sinking)",
    "date_created": "2023-09-04T12:27:06.000",
    "date_modified": "2023-09-04T12:27:06.000",
    "request_status": "Pending",
    "responsible_agency": "Department of Public Works",
    "final_address": "6087 Wildair Dr",
    "address_councildis": "D",
    "status": "Pending",
    "rowid": "1031816",
    "final_x": "3681494.45429",
    "final_y": "555324.692761",
    "longitude": "-90.06725729260071",
    "latitude": "30.020950371778262",
    "geocoded_column": {
      "latitude": "30.020950371778262",
      "longitude": "-90.06725729260071"
    }
  },
  {
    "service_request": "2023-1031815",
    "request_type": "Trash/Recycling",
    "request_reason": "Replace Trash Cart",
    "date_created": "2023-09-04T12:22:18.000",
    "date_modified": "2023-09-04T12:22:18.000",
    "request_status": "Pending",
    "responsible_agency": "Department of Sanitation",
    "final_address": "803 Constantinople St",
    "address_councildis": "B",
    "status": "Assigned to Contractor",
    "contractor": "Richards Disposal",
    "rowid": "1031815",
    "final_x": "3672587.71195",
    "final_y": "518613.221367",
    "longitude": "-90.09665203515789",
    "latitude": "29.920273827833952",
    "geocoded_column": {
      "latitude": "29.920273827833952",
      "longitude": "-90.09665203515789"
    }
  },
  {
    "service_request": "2023-1031814",
    "request_type": "Trash/Recycling",
    "request_reason": "Order Trash Cart",
    "date_created": "2023-09-04T12:13:13.000",
    "date_modified": "2023-09-04T12:13:14.000",
    "request_status": "Pending",
    "responsible_agency": "Department of Sanitation",
    "final_address": "2322 Easter Ln",
    "address_councildis": "C",
    "status": "Assigned to Contractor",
    "contractor": "Richards Disposal",
    "rowid": "1031814",
    "final_x": "3699208.52695",
    "final_y": "522626.184122",
    "longitude": "-90.01247724183808",
    "latitude": "29.93049124306527",
    "geocoded_column": {
      "latitude": "29.93049124306527",
      "longitude": "-90.01247724183808"
    }
  },
  {
    "service_request": "2023-1031813",
    "request_type": "Trash/Recycling",
    "request_reason": "Replace Trash Cart",
    "date_created": "2023-09-04T12:02:20.000",
    "date_modified": "2023-09-04T12:02:21.000",
    "request_status": "Pending",
    "responsible_agency": "Department of Sanitation",
    "final_address": "2326 S Prieur St",
    "address_councildis": "B",
    "status": "Assigned to Contractor",
    "contractor": "Richards Disposal",
    "rowid": "1031813",
    "final_x": "3673743.67995",
    "final_y": "528321.928128",
    "longitude": "-90.09267136818018",
    "latitude": "29.94693526516689",
    "geocoded_column": {
      "latitude": "29.94693526516689",
      "longitude": "-90.09267136818018"
    }
  },
  {
    "service_request": "2023-1031812",
    "request_type": "Trash/Recycling",
    "request_reason": "Request a Large Item Pick Up",
    "date_created": "2023-09-04T11:36:54.000",
    "date_modified": "2023-09-04T11:36:54.000",
    "request_status": "Pending",
    "responsible_agency": "Department of Sanitation",
    "final_address": "7505 Freret St",
    "address_councildis": "A",
    "status": "Assigned to Contractor",
    "contractor": "Richards Disposal",
    "rowid": "1031812",
    "final_x": "3663041.08858",
    "final_y": "526495.669054",
    "longitude": "-90.12652429156864",
    "latitude": "29.942227936363768",
    "geocoded_column": {
      "latitude": "29.942227936363768",
      "longitude": "-90.12652429156864"
    }
  },
  {
    "service_request": "2023-1031811",
    "request_type": "Trash/Recycling",
    "request_reason": "Return Trash Cart",
    "date_created": "2023-09-04T11:36:39.000",
    "date_modified": "2023-09-04T13:24:36.000",
    "case_close_date": "2023-09-04T08:24:36.000",
    "request_status": "Closed",
    "responsible_agency": "Department of Sanitation",
    "final_address": "1600 BLK Thalia St",
    "address_councildis": "B",
    "status": "Duplicate Request",
    "contractor": "Richards Disposal",
    "rowid": "1031811",
    "final_x": "3679162.52615",
    "final_y": "525926.869522",
    "longitude": "-90.07564507274685",
    "latitude": "29.940187207758346",
    "geocoded_column": {
      "latitude": "29.940187207758346",
      "longitude": "-90.07564507274685"
    }
  },
  {
    "service_request": "2023-1031810",
    "request_type": "Trash/Recycling",
    "request_reason": "Return Trash Cart",
    "date_created": "2023-09-04T11:34:36.000",
    "date_modified": "2023-09-04T11:34:37.000",
    "request_status": "Pending",
    "responsible_agency": "Department of Sanitation",
    "final_address": "1600 BLK Thalia St",
    "address_councildis": "B",
    "status": "Assigned to Contractor",
    "contractor": "Richards Disposal",
    "rowid": "1031810",
    "final_x": "3679162.52615",
    "final_y": "525926.869522",
    "longitude": "-90.07564507274685",
    "latitude": "29.940187207758346",
    "geocoded_column": {
      "latitude": "29.940187207758346",
      "longitude": "-90.07564507274685"
    }
  },
  {
    "service_request": "2023-1031809",
    "request_type": "Roads/Drainage",
    "request_reason": "Catch Basin - Clogged",
    "date_created": "2023-09-04T11:32:46.000",
    "date_modified": "2023-09-04T11:32:46.000",
    "request_status": "Pending",
    "responsible_agency": "Department of Public Works",
    "final_address": "1013 General Pershing St",
    "address_councildis": "B",
    "status": "Pending",
    "rowid": "1031809",
    "final_x": "3671467.20814",
    "final_y": "519320.544375",
    "longitude": "-90.10016491412686",
    "latitude": "29.9222519463425",
    "geocoded_column": {
      "latitude": "29.9222519463425",
      "longitude": "-90.10016491412686"
    }
  },
  {
    "service_request": "2023-1031808",
    "request_type": "Roads/Drainage",
    "request_reason": "Catch Basin - Clogged",
    "date_created": "2023-09-04T11:25:54.000",
    "date_modified": "2023-09-04T11:25:54.000",
    "request_status": "Pending",
    "responsible_agency": "Department of Public Works",
    "final_address": "1029 Port St",
    "address_councildis": "C",
    "status": "Pending",
    "rowid": "1031808",
    "final_x": "3687396.0767",
    "final_y": "536185.994503",
    "longitude": "-90.04928757534358",
    "latitude": "29.968145215056435",
    "geocoded_column": {
      "latitude": "29.968145215056435",
      "longitude": "-90.04928757534358"
    }
  },
  {
    "service_request": "2023-1031807",
    "request_type": "Trash/Recycling",
    "request_reason": "Request a Large Item Pick Up",
    "date_created": "2023-09-04T11:18:20.000",
    "date_modified": "2023-09-04T15:51:08.000",
    "case_close_date": "2023-09-04T10:51:08.000",
    "request_status": "Closed",
    "responsible_agency": "Department of Sanitation",
    "final_address": "7606 Briarwood Dr",
    "address_councildis": "E",
    "status": "Assigned to Contractor",
    "contractor": "Waste Pro",
    "contractor_action": "Completed",
    "rowid": "1031807",
    "final_x": "3717601.57119",
    "final_y": "570693.763239",
    "longitude": "-89.95258539685423",
    "latitude": "30.06206265117319",
    "geocoded_column": {
      "latitude": "30.06206265117319",
      "longitude": "-89.95258539685423"
    }
  },
  {
    "service_request": "2023-1031806",
    "request_type": "Abandoned Vehicles",
    "request_reason": "Abandoned/Junk Vehicles",
    "date_created": "2023-09-04T11:15:24.000",
    "date_modified": "2023-09-04T11:15:24.000",
    "request_status": "Pending",
    "responsible_agency": "Department of Public Works",
    "final_address": "13911 Curran Rd",
    "address_councildis": "E",
    "status": "Pending",
    "rowid": "1031806",
    "final_x": "3718210.32217",
    "final_y": "572016.368296",
    "longitude": "-89.95061069894132",
    "latitude": "30.065679078762404",
    "geocoded_column": {
      "latitude": "30.065679078762404",
      "longitude": "-89.95061069894132"
    }
  },