[
  {
    "service_request": "2023-961646",
    "request_type": "Trash/Recycling",
    "request_reason": "Missed Trash Pick-Up",
    "date_created": "2023-01-06T01:23:51.000",
    "date_modified": "2023-01-06T01:23:52.000",
    "request_status": "Pending",
    "responsible_agency": "Department of Sanitation",
    "final_address": "825 Marengo St",
    "address_councildis": "B",
    "status": "Assigned to Contractor",
    "contractor": "Richards Disposal",
    "rowid": "961646",
    "final_x": "3672231.69275",
    "final_y": "518724.900087",
    "longitude": "-90.09777202011448",
    "latitude": "29.920591469413772",
    "geocoded_column": {
      "latitude": "29.920591469413772",
      "longitude": "-90.09777202011448"
    }
  },
  {
    "service_request": "2023-961645",
    "request_type": "Trash/Recycling",
    "request_reason": "Request a Large Item Pick Up",
    "date_created": "2023-01-06T01:17:16.000",
    "date_modified": "2023-01-06T01:17:17.000",
    "request_status": "Pending",
    "responsible_agency": "Department of Sanitation",
    "final_address": "1337 Hillary St, New Orleans, Louisiana, 70118",
    "address_councildis": "A",
    "status": "Assigned to Contractor",
    "contractor": "Richards Disposal",
    "rowid": "961645",
    "final_x": "3663806.51149",
    "final_y": "527594.025663",
    "longitude": "-90.12407107492332",
    "latitude": "29.945225876723722",
    "geocoded_column": {
      "latitude": "29.945225876723722",
      "longitude": "-90.12407107492332"
    }
  },
  {
    "service_request": "2023-961644",
    "request_type": "Trash/Recycling",
    "request_reason": "Missed Trash Pick-Up",
    "date_created": "2023-01-06T00:09:18.000",
    "date_modified": "2023-01-06T00:09:19.000",
    "request_status": "Pending",
    "responsible_agency": "Department of Sanitation",
    "final_address": "820 Valmont St, New Orleans, Louisiana, 70115",
    "address_councildis": "B",
    "status": "Assigned to Contractor",
    "contractor": "Richards Disposal",
    "rowid": "961644",
    "final_x": "3667410.28199",
    "final_y": "518433.845686",
    "longitude": "-90.1130008142258",
    "latitude": "29.919933234890273",
    "geocoded_column": {
      "latitude": "29.919933234890273",
      "longitude": "-90.1130008142258"
    }
  },
  {
    "service_request": "2023-961643",
    "request_type": "Trash/Recycling",
    "request_reason": "Missed Trash Pick-Up",
    "date_created": "2023-01-05T23:43:18.000",
    "date_modified": "2023-01-05T23:43:19.000",
    "request_status": "Pending",
    "responsible_agency": "Department of Sanitation",
    "final_address": "47 Versailles Blvd",
    "address_councildis": "A",
    "status": "Assigned to Contractor",
    "contractor": "Richards Disposal",
    "rowid": "961643",
    "final_x": "3667559.09505",
    "final_y": "529785.679297",
    "longitude": "-90.11214919803243",
    "latitude": "29.951142784001696",
    "geocoded_column": {
      "latitude": "29.951142784001696",
      "longitude": "-90.11214919803243"
    }
  },
  {
    "service_request": "2023-961642",
    "request_type": "Trash/Recycling",
    "request_reason": "Missed Trash Pick-Up",
    "date_created": "2023-01-05T23:41:55.000",
    "date_modified": "2023-01-05T23:41:55.000",
    "request_status": "Pending",
    "responsible_agency": "Department of Sanitation",
    "final_address": "15 Neron Pl",
    "address_councildis": "A",
    "status": "Assigned to Contractor",
    "contractor": "Richards Disposal",
    "rowid": "961642",
    "final_x": "3664971.9529",
    "final_y": "530921.682178",
    "longitude": "-90.12028016613827",
    "latitude": "29.954341985133834",
    "geocoded_column": {
      "latitude": "29.954341985133834",
      "longitude": "-90.12028016613827"
    }
  },
  {
    "service_request": "2023-961641",
    "request_type": "Property Maintenance",
    "request_reason": "Property Maintenance",
    "date_created": "2023-01-05T23:36:46.000",
    "date_modified": "2023-01-05T23:36:46.000",
    "request_status": "Pending",
    "responsible_agency": "Department of Code Enforcement",
    "final_address": "1856 Industry St",
    "address_councildis": "D",
    "status": "Pending",
    "rowid": "961641",
    "final_x": "3682041.81634",
    "final_y": "542697.738445",
    "longitude": "-90.06596907665808",
    "latitude": "29.986214139086236",
    "geocoded_column": {
      "latitude": "29.986214139086236",
      "longitude": "-90.06596907665808"
    }
  },
  {
    "service_request": "2023-961640",
    "request_type": "Roads/Drainage",
    "request_reason": "Street Flooding / Drainage",
    "date_created": "2023-01-05T23:36:28.000",
    "date_modified": "2023-01-05T23:36:28.000",
    "request_status": "Pending",
    "responsible_agency": "Department of Public Works",
    "final_address": "3645 Magazine St",
    "address_councildis": "B",
    "status": "Pending",
    "rowid": "961640",
    "final_x": "3673734.19835",
    "final_y": "519227.604919",
    "longitude": "-90.09301212301546",
    "latitude": "29.921929112325657",
    "geocoded_column": {
      "latitude": "29.921929112325657",
      "longitude": "-90.09301212301546"
    }
  },
  {
    "service_request": "2023-961639",
    "request_type": "Traffic Signals/Signs/Striping/Streetlights",
    "request_reason": "Striping/Road Surface Markings",
    "date_created": "2023-01-05T23:33:46.000",
    "date_modified": "2023-01-05T23:33:46.000",
    "request_status": "Pending",
    "responsible_agency": "Department of Public Works",
    "final_address": "1600 S Claiborne Ave",
    "address_councildis": "B",
    "status": "Pending",
    "rowid": "961639",
    "final_x": "3675196.79099",
    "final_y": "527962.610879",
    "longitude": "-90.08809568390262",
    "latitude": "29.94590391928964",
    "geocoded_column": {
      "latitude": "29.94590391928964",
      "longitude": "-90.08809568390262"
    }
  },
  {
    "service_request": "2023-961638",
    "request_type": "Trash/Recycling",
    "request_reason": "Missed Trash Pick-Up",
    "date_created": "2023-01-05T23:28:04.000",
    "date_modified": "2023-01-05T23:28:05.000",
    "request_status": "Pending",
    "responsible_agency": "Department of Sanitation",
    "final_address": "7425 Panola St",
    "address_councildis": "A",
    "status": "Assigned to Contractor",
    "contractor": "Richards Disposal",
    "rowid": "961638",
    "final_x": "3665324.136",
    "final_y": "529646.448513",
    "longitude": "-90.11921077342282",
    "latitude": "29.950825250032867",
    "geocoded_column": {
      "latitude": "29.950825250032867",
      "longitude": "-90.11921077342282"
    }
  },
  {
    "service_request": "2023-961637",
    "request_type": "Trash/Recycling",
    "request_reason": "Missed Trash Pick-Up",
    "date_created": "2023-01-05T23:26:41.000",
    "date_modified": "2023-01-05T23:26:41.000",
    "request_status": "Pending",
    "responsible_agency": "Department of Sanitation",
    "final_address": "4620 S Liberty St",
    "address_councildis": "B",
    "status": "Assigned to Contractor",
    "contractor": "Richards Disposal",
    "rowid": "961637",
    "final_x": "3669668.0187",
    "final_y": "523214.864827",
    "longitude": "-90.10571252941148",
    "latitude": "29.933013205025297",
    "geocoded_column": {
      "latitude": "29.933013205025297",
      "longitude": "-90.10571252941148"
    }
  },
  {
    "service_request": "2023-961636",
    "request_type": "Trash/Recycling",
    "request_reason": "Missed Trash Pick-Up",
    "date_created": "2023-01-05T23:24:07.000",
    "date_modified": "2023-01-05T23:24:08.000",
    "request_status": "Pending",
    "responsible_agency": "Department of Sanitation",
    "final_address": "3645 Magazine St",
    "address_councildis": "B",
    "status": "Assigned to Contractor",
    "contractor": "Richards Disposal",
    "rowid": "961636",
    "final_x": "3673734.19835",
    "final_y": "519227.604919",
    "longitude": "-90.09301212301546",
    "latitude": "29.921929112325657",
    "geocoded_column": {
      "latitude": "29.921929112325657",
      "longitude": "-90.09301212301546"
    }
  },
  {
    "service_request": "2023-961635",
    "request_type": "Trash/Recycling",
    "request_reason": "Missed Trash Pick-Up",
    "date_created": "2023-01-05T23:21:48.000",
    "date_modified": "2023-01-05T23:21:49.000",
    "request_status": "Pending",
    "responsible_agency": "Department of Sanitation",
    "final_address": "960 Felicity St",
    "address_councildis": "B",
    "status": "Assigned to Contractor",
    "contractor": "Richards Disposal",
    "rowid": "961635",
    "final_x": "3680152.69768",
    "final_y": "522830.247035",
    "longitude": "-90.07262651380583",
    "latitude": "29.931642598493752",
    "geocoded_column": {
      "latitude": "29.931642598493752",
      "longitude": "-90.07262651380583"
    }
  },
  {
    "service_request": "2023-961634",
    "request_type": "Property Maintenance",
    "request_reason": "Property Maintenance",
    "date_created": "2023-01-05T23:14:34.000",
    "date_modified": "2023-01-05T23:14:34.000",
    "request_status": "Pending",
    "responsible_agency": "Department of Code Enforcement",
    "final_address": "1929 N Johnson St",
    "address_councildis": "D",
    "status": "Pending",
    "rowid": "961634",
    "final_x": "3683119.36117",
    "final_y": "539523.972554",
    "longitude": "-90.06267670125592",
    "latitude": "29.97745458128321",
    "geocoded_column": {
      "latitude": "29.97745458128321",
      "longitude": "-90.06267670125592"
    }
  },
  {
    "service_request": "2023-961633",
    "request_type": "Trash/Recycling",
    "request_reason": "Replace Trash Cart",
    "date_created": "2023-01-05T23:09:55.000",
    "date_modified": "2023-01-05T23:09:56.000",
    "request_status": "Pending",
    "responsible_agency": "Department of Sanitation",
    "final_address": "823 Third St",
    "address_councildis": "B",
    "status": "Assigned to Contractor",
    "contractor": "Richards Disposal",
    "rowid": "961633",
    "final_x": "3678094.37608",
    "final_y": "520434.861368",
    "longitude": "-90.0792071672199",
    "latitude": "29.925118179487942",
    "geocoded_column": {
      "latitude": "29.925118179487942",
      "longitude": "-90.0792071672199"
    }
  },
  {
    "service_request": "2023-961632",
    "request_type": "Trash/Recycling",
    "request_reason": "Missed Trash Pick-Up",
    "date_created": "2023-01-05T23:09:13.000",
    "date_modified": "2023-01-05T23:09:14.000",
    "request_status": "Pending",
    "responsible_agency": "Department of Sanitation",
    "final_address": "3711 Laurel St",
    "address_councildis": "B",
    "status": "Assigned to Contractor",
    "contractor": "Richards Disposal",
    "rowid": "961632",
    "final_x": "3673723.09684",
    "final_y": "518414.201462",
    "longitude": "-90.09307495728154",
    "latitude": "29.919692843411145",
    "geocoded_column": {
      "latitude": "29.919692843411145",
      "longitude": "-90.09307495728154"
    }
  },
  {
    "service_request": "2023-961631",
    "request_type": "Property Maintenance",
    "request_reason": "Property Maintenance",
    "date_created": "2023-01-05T23:04:15.000",
    "date_modified": "2023-01-05T23:04:15.000",
    "request_status": "Pending",
    "responsible_agency": "Department of Code Enforcement",
    "final_address": "1931 Frenchmen St",
    "address_councildis": "D",
    "status": "Pending",
    "rowid": "961631",
    "final_x": "3684365.63445",
    "final_y": "539488.070026",
    "longitude": "-90.05874182043176",
    "latitude": "29.977317802023865",
    "geocoded_column": {
      "latitude": "29.977317802023865",
      "longitude": "-90.05874182043176"
    }
  },
  {
    "service_request": "2023-961630",
    "request_type": "Trash/Recycling",
    "request_reason": "Missed Trash Pick-Up",
    "date_created": "2023-01-05T22:47:54.000",
    "date_modified": "2023-01-05T22:47:54.000",
    "request_status": "Pending",
    "responsible_agency": "Department of Sanitation",
    "final_address": "4323 Loyola Ave",
    "address_councildis": "B",
    "status": "Assigned to Contractor",
    "contractor": "Richards Disposal",
    "rowid": "961630",
    "final_x": "3670848.19489",
    "final_y": "523068.723003",
    "longitude": "-90.10199174587272",
    "latitude": "29.932576542210953",
    "geocoded_column": {
      "latitude": "29.932576542210953",
      "longitude": "-90.10199174587272"
    }
  },
  {
    "service_request": "2023-961629",
    "request_type": "Trash/Recycling",
    "request_reason": "Missed Trash Pick-Up",
    "date_created": "2023-01-05T22:35:53.000",
    "date_modified": "2023-01-05T22:35:54.000",
    "request_status": "Pending",
    "responsible_agency": "Department of Sanitation",
    "final_address": "1420 General Pershing St, New Orleans, Louisiana, 70115",
    "address_councildis": "B",
    "status": "Assigned to Contractor",
    "contractor": "Richards Disposal",
    "rowid": "961629",
    "final_x": "3671242.41179",
    "final_y": "520513.52268",
    "longitude": "-90.10083399992165",
    "latitude": "29.925538906557254",
    "geocoded_column": {
      "latitude": "29.925538906557254",
      "longitude": "-90.10083399992165"
    }
  },
  {
    "service_request": "2023-961626",
    "request_type": "Trash/Recycling",
    "request_reason": "Missed Trash Pick-Up",
    "date_created": "2023-01-05T22:28:04.000",
    "date_modified": "2023-01-05T22:28:05.000",
    "request_status": "Pending",
    "responsible_agency": "Department of Sanitation",
    "final_address": "1916 Fern St NOLA 70118",
    "status": "Assigned to Contractor",
    "rowid": "961626",
    "longitude": "0.0",
    "latitude": "0.0",
    "geocoded_column": {
      "latitude": "0.0",
      "longitude": "0.0"
    }
  },
  {
    "service_request": "2023-961625",
    "request_type": "Trash/Recycling",
    "request_reason": "Missed Trash Pick-Up",
    "date_created": "2023-01-05T22:26:33.000",
    "date_modified": "2023-01-05T22:26:33.000",
    "request_status": "Pending",
    "responsible_agency": "Department of Sanitation",
    "final_address": "5213 Tchoupitoulas St, New Orleans, Louisiana, 70115",
    "address_councildis": "B",
    "status": "Assigned to Contractor",
    "contractor": "Richards Disposal",
    "rowid": "961625",
    "final_x": "3667869.06554",
    "final_y": "517245.766133",
    "longitude": "-90.11159263821064",
    "latitude": "29.916652946251215",
    "geocoded_column": {
      "latitude": "29.916652946251215",
      "longitude": "-90.11159263821064"
    }
  },
  {
    "service_request": "2023-961624",
    "request_type": "Trash/Recycling",
    "request_reason": "Missed Trash Pick-Up",
    "date_created": "2023-01-05T22:26:20.000",
    "date_modified": "2023-01-05T22:26:21.000",
    "request_status": "Pending",
    "responsible_agency": "Department of Sanitation",
    "final_address": "4035 Elba St",
    "address_councildis": "B",
    "status": "Assigned to Contractor",
    "contractor": "Richards Disposal",
    "rowid": "961624",
    "final_x": "3670661.14625",
    "final_y": "529883.200257",
    "longitude": "-90.10235113152679",
    "latitude": "29.95131966539669",
    "geocoded_column": {
      "latitude": "29.95131966539669",
      "longitude": "-90.10235113152679"
    }
  },
  {
    "service_request": "2023-961623",
    "request_type": "Trash/Recycling",
    "request_reason": "Missed Trash Pick-Up",
    "date_created": "2023-01-05T22:23:59.000",
    "date_modified": "2023-01-05T22:24:00.000",
    "request_status": "Pending",
    "responsible_agency": "Department of Sanitation",
    "final_address": "3218 Laurel St",
    "address_councildis": "B",
    "status": "Assigned to Contractor",
    "contractor": "Richards Disposal",
    "rowid": "961623",
    "final_x": "3676005.1732",
    "final_y": "519235.994103",
    "longitude": "-90.08584331814677",
    "latitude": "29.921884391207808",
    "geocoded_column": {
      "latitude": "29.921884391207808",
      "longitude": "-90.08584331814677"
    }
  },
  {
    "service_request": "2023-961622",
    "request_type": "Trash/Recycling",
    "request_reason": "Missed Trash Pick-Up",
    "date_created": "2023-01-05T22:23:17.000",
    "date_modified": "2023-01-05T22:23:17.000",
    "request_status": "Pending",
    "responsible_agency": "Department of Sanitation",
    "final_address": "3216 Laurel St",
    "address_councildis": "B",
    "status": "Assigned to Contractor",
    "contractor": "Richards Disposal",
    "rowid": "961622",
    "final_x": "3676018.46574",
    "final_y": "519243.482103",
    "longitude": "-90.08580110184205",
    "latitude": "29.921904582862922",
    "geocoded_column": {
      "latitude": "29.921904582862922",
      "longitude": "-90.08580110184205"
    }
  },
  {
    "service_request": "2023-961621",
    "request_type": "Trash/Recycling",
    "request_reason": "Missed Trash Pick-Up",
    "date_created": "2023-01-05T22:21:52.000",
    "date_modified": "2023-01-05T22:21:53.000",
    "request_status": "Pending",
    "responsible_agency": "Department of Sanitation",
    "final_address": "924 7th St, New Orleans, Louisiana, 70115",
    "status": "Assigned to Contractor",
    "rowid": "961621",
    "longitude": "0.0",
    "latitude": "0.0",
    "geocoded_column": {
      "latitude": "0.0",
      "longitude": "0.0"
    }
  },
  {
    "service_request": "2023-961620",
    "request_type": "Property Maintenance",
    "request_reason": "Property Maintenance",
    "date_created": "2023-01-05T22:19:18.000",
    "date_modified": "2023-01-05T22:19:18.000",
    "request_status": "Pending",
    "responsible_agency": "Department of Code Enforcement",
    "final_address": "1480 N Johnson St",
    "address_councildis": "D",
    "status": "Pending",
    "rowid": "961620",
    "final_x": "3680607.40002",
    "final_y": "537999.786697",
    "longitude": "-90.07066335950597",
    "latitude": "29.973339952683034",
    "geocoded_column": {
      "latitude": "29.973339952683034",
      "longitude": "-90.07066335950597"
    }
  },
  {
    "service_request": "2023-961619",
    "request_type": "Trash/Recycling",
    "request_reason": "Missed Trash Pick-Up",
    "date_created": "2023-01-05T22:19:06.000",
    "date_modified": "2023-01-05T22:19:07.000",
    "request_status": "Pending",
    "responsible_agency": "Department of Sanitation",
    "final_address": "3609 Silver Maple Ct",
    "address_councildis": "C",
    "status": "Assigned to Contractor",
    "contractor": "Richards Disposal",
    "rowid": "961619",
    "final_x": "3703004.63479",
    "final_y": "512496.080113",
    "longitude": "-90.00086546812281",
    "latitude": "29.902516065019796",
    "geocoded_column": {
      "latitude": "29.902516065019796",
      "longitude": "-90.00086546812281"
    }
  },
  {
    "service_request": "2023-961618",
    "request_type": "Trash/Recycling",
    "request_reason": "Missed Trash Pick-Up",
    "date_created": "2023-01-05T22:17:42.000",
    "date_modified": "2023-01-05T22:17:42.000",
    "request_status": "Pending",
    "responsible_agency": "Department of Sanitation",
    "final_address": "7726 Jeannette St",
    "address_councildis": "A",
    "status": "Assigned to Contractor",
    "contractor": "Richards Disposal",
    "rowid": "961618",
    "final_x": "3663563.55635",
    "final_y": "528285.15776",
    "longitude": "-90.12481514950699",
    "latitude": "29.947133316212483",
    "geocoded_column": {
      "latitude": "29.947133316212483",
      "longitude": "-90.12481514950699"
    }
  },
  {
    "service_request": "2023-961617",
    "request_type": "Trash/Recycling",
    "request_reason": "Missed Trash Pick-Up",
    "date_created": "2023-01-05T22:16:39.000",
    "date_modified": "2023-01-05T22:16:39.000",
    "request_status": "Pending",
    "responsible_agency": "Department of Sanitation",
    "final_address": "2604 Upperline St",
    "address_councildis": "B",
    "status": "Assigned to Contractor",
    "contractor": "Richards Disposal",
    "rowid": "961617",
    "final_x": "3669142.09876",
    "final_y": "524323.2087",
    "longitude": "-90.10733538877518",
    "latitude": "29.93607627754327",
    "geocoded_column": {
      "latitude": "29.93607627754327",
      "longitude": "-90.10733538877518"
    }
  },
  {
    "service_request": "2023-961616",
    "request_type": "Trash/Recycling",
    "request_reason": "Missed Trash Pick-Up",
    "date_created": "2023-01-05T22:12:24.000",
    "date_modified": "2023-01-05T22:12:25.000",
    "request_status": "Pending",
    "responsible_agency": "Department of Sanitation",
    "final_address": "2927 Constance St",
    "address_councildis": "B",
    "status": "Assigned to Contractor",
    "contractor": "Richards Disposal",
    "rowid": "961616",
    "final_x": "3676605.36225",
    "final_y": "520131.955192",
    "longitude": "-90.08391793571015",
    "latitude": "29.924330013841793",
    "geocoded_column": {
      "latitude": "29.924330013841793",
      "longitude": "-90.08391793571015"
    }
  },
  {
    "service_request": "2023-961614",
    "request_type": "Trash/Recycling",
    "request_reason": "Missed Trash Pick-Up",
    "date_created": "2023-01-05T22:08:44.000",
    "date_modified": "2023-01-05T22:08:45.000",
    "request_status": "Pending",
    "responsible_agency": "Department of Sanitation",
    "final_address": "3020 Constance St",
    "address_councildis": "B",
    "status": "Assigned to Contractor",
    "contractor": "Richards Disposal",
    "rowid": "961614",
    "final_x": "3676446.41896",
    "final_y": "519927.483",
    "longitude": "-90.08442670016451",
    "latitude": "29.92377254592795",
    "geocoded_column": {
      "latitude": "29.92377254592795",
      "longitude": "-90.08442670016451"
    }
  },
  {
    "service_request": "2023-961613",
    "request_type": "Trash/Recycling",
    "request_reason": "Missed Trash Pick-Up",
    "date_created": "2023-01-05T22:06:55.000",
    "date_modified": "2023-01-05T22:06:56.000",
    "request_status": "Pending",
    "responsible_agency": "Department of Sanitation",
    "final_address": "37 Fontainebleau Dr",
    "address_councildis": "A",
    "status": "Assigned to Contractor",
    "contractor": "Richards Disposal",
    "rowid": "961613",
    "final_x": "3666173.46381",
    "final_y": "531495.029571",
    "longitude": "-90.11646703024334",
    "latitude": "29.955883473194273",
    "geocoded_column": {
      "latitude": "29.955883473194273",
      "longitude": "-90.11646703024334"
    }
  },
  {
    "service_request": "2023-961612",
    "request_type": "Trash/Recycling",
    "request_reason": "Missed Trash Pick-Up",
    "date_created": "2023-01-05T22:06:19.000",
    "date_modified": "2023-01-05T22:06:20.000",
    "request_status": "Pending",
    "responsible_agency": "Department of Sanitation",
    "final_address": "37 Fontainebleau Dr",
    "address_councildis": "A",
    "status": "Assigned to Contractor",
    "contractor": "Richards Disposal",
    "rowid": "961612",
    "final_x": "3666173.46381",
    "final_y": "531495.029571",
    "longitude": "-90.11646703024334",
    "latitude": "29.955883473194273",
    "geocoded_column": {
      "latitude": "29.955883473194273",
      "longitude": "-90.11646703024334"
    }
  },
  {
    "service_request": "2023-961611",
    "request_type": "Trash/Recycling",
    "request_reason": "Order Trash Cart",
    "date_created": "2023-01-05T22:02:53.000",
    "date_modified": "2023-01-05T22:02:54.000",
    "request_status": "Pending",
    "responsible_agency": "Department of Sanitation",
    "final_address": "81 Audubon Blvd, New Orleans, Louisiana, 70118",
    "address_councildis": "A",
    "status": "Assigned to Contractor",
    "contractor": "Richards Disposal",
    "rowid": "961611",
    "final_x": "3665919.05773",
    "final_y": "527678.780223",
    "longitude": "-90.11739823498624",
    "latitude": "29.945397452156392",
    "geocoded_column": {
      "latitude": "29.945397452156392",
      "longitude": "-90.11739823498624"
    }
  },
  {
    "service_request": "2023-961610",
    "request_type": "Trash/Recycling",
    "request_reason": "Missed Trash Pick-Up",
    "date_created": "2023-01-05T22:01:50.000",
    "date_modified": "2023-01-05T22:01:50.000",
    "request_status": "Pending",
    "responsible_agency": "Department of Sanitation",
    "final_address": "81 Audubon Blvd, New Orleans, Louisiana, 70118",
    "address_councildis": "A",
    "status": "Assigned to Contractor",
    "contractor": "Richards Disposal",
    "rowid": "961610",
    "final_x": "3665919.05773",
    "final_y": "527678.780223",
    "longitude": "-90.11739823498624",
    "latitude": "29.945397452156392",
    "geocoded_column": {
      "latitude": "29.945397452156392",
      "longitude": "-90.11739823498624"
    }
  },
  {
    "service_request": "2023-961609",
    "request_type": "Trash/Recycling",
    "request_reason": "MIssed Recycling Pick-Up",
    "date_created": "2023-01-05T21:59:09.000",
    "date_modified": "2023-01-05T21:59:09.000",
    "request_status": "Pending",
    "responsible_agency": "Department of Sanitation",
    "final_address": "2422 Magazine St",
    "address_councildis": "B",
    "status": "Assigned to Contractor",
    "contractor": "Richards Disposal",
    "rowid": "961609",
    "final_x": "3677930.6877",
    "final_y": "521344.306361",
    "longitude": "-90.0796924699632",
    "latitude": "29.927623782603124",
    "geocoded_column": {
      "latitude": "29.927623782603124",
      "longitude": "-90.0796924699632"
    }
  },
  {
    "service_request": "2023-961608",
    "request_type": "Trash/Recycling",
    "request_reason": "MIssed Recycling Pick-Up",
    "date_created": "2023-01-05T21:59:05.000",
    "date_modified": "2023-01-05T21:59:06.000",
    "request_status": "Pending",
    "responsible_agency": "Department of Sanitation",
    "final_address": "1525 Dufossat St",
    "address_councildis": "B",
    "status": "Assigned to Contractor",
    "contractor": "Richards Disposal",
    "rowid": "961608",
    "final_x": "3668161.69364",
    "final_y": "520678.110521",
    "longitude": "-90.11055336688219",
    "latitude": "29.926082227758133",
    "geocoded_column": {
      "latitude": "29.926082227758133",
      "longitude": "-90.11055336688219"
    }
  },
  {
    "service_request": "2023-961607",
    "request_type": "Trash/Recycling",
    "request_reason": "Missed Trash Pick-Up",
    "date_created": "2023-01-05T21:53:10.000",
    "date_modified": "2023-01-05T21:53:11.000",
    "request_status": "Pending",
    "responsible_agency": "Department of Sanitation",
    "final_address": "195 Audubon Blvd, New Orleans, Louisiana, 70118",
    "address_councildis": "A",
    "status": "Assigned to Contractor",
    "contractor": "Richards Disposal",
    "rowid": "961607",
    "final_x": "3666285.34804",
    "final_y": "528266.370112",
    "longitude": "-90.1162220286143",
    "latitude": "29.94700244154064",
    "geocoded_column": {
      "latitude": "29.94700244154064",
      "longitude": "-90.1162220286143"
    }
  },
  {
    "service_request": "2023-961606",
    "request_type": "Trash/Recycling",
    "request_reason": "Missed Trash Pick-Up",
    "date_created": "2023-01-05T21:52:04.000",
    "date_modified": "2023-01-05T21:52:06.000",
    "request_status": "Pending",
    "responsible_agency": "Department of Sanitation",
    "final_address": "155 Audubon Blvd, New Orleans, Louisiana, 70118",
    "address_councildis": "A",
    "status": "Assigned to Contractor",
    "contractor": "Richards Disposal",
    "rowid": "961606",
    "final_x": "3666163.57351",
    "final_y": "528072.248255",
    "longitude": "-90.11661302579432",
    "latitude": "29.946472225273155",
    "geocoded_column": {
      "latitude": "29.946472225273155",
      "longitude": "-90.11661302579432"
    }
  },
  {
    "service_request": "2023-961605",
    "request_type": "Trash/Recycling",
    "request_reason": "Order Trash Cart",
    "date_created": "2023-01-05T21:48:39.000",
    "date_modified": "2023-01-05T21:48:39.000",
    "request_status": "Pending",
    "responsible_agency": "Department of Sanitation",
    "final_address": "119 Audubon Blvd, New Orleans, Louisiana, 70118",
    "address_councildis": "A",
    "status": "Assigned to Contractor",
    "contractor": "Richards Disposal",
    "rowid": "961605",
    "final_x": "3666037.95655",
    "final_y": "527874.220031",
    "longitude": "-90.11701628163928",
    "latitude": "29.945931378710476",
    "geocoded_column": {
      "latitude": "29.945931378710476",
      "longitude": "-90.11701628163928"
    }
  },
  {
    "service_request": "2023-961604",
    "request_type": "Trash/Recycling",
    "request_reason": "Missed Trash Pick-Up",
    "date_created": "2023-01-05T21:47:48.000",
    "date_modified": "2023-01-05T21:47:49.000",
    "request_status": "Pending",
    "responsible_agency": "Department of Sanitation",
    "final_address": "21 Audubon Blvd",
    "address_councildis": "A",
    "status": "Assigned to Contractor",
    "contractor": "Richards Disposal",
    "rowid": "961604",
    "final_x": "3665445.71981",
    "final_y": "526887.774078",
    "longitude": "-90.11891918983873",
    "latitude": "29.94323624264381",
    "geocoded_column": {
      "latitude": "29.94323624264381",
      "longitude": "-90.11891918983873"
    }
  },
  {
    "service_request": "2023-961603",
    "request_type": "Trash/Recycling",
    "request_reason": "Missed Trash Pick-Up",
    "date_created": "2023-01-05T21:47:39.000",
    "date_modified": "2023-01-05T21:47:40.000",
    "request_status": "Pending",
    "responsible_agency": "Department of Sanitation",
    "final_address": "119 Audubon Blvd, New Orleans, Louisiana, 70118",
    "address_councildis": "A",
    "status": "Assigned to Contractor",
    "contractor": "Richards Disposal",
    "rowid": "961603",
    "final_x": "3666037.95655",
    "final_y": "527874.220031",
    "longitude": "-90.11701628163928",
    "latitude": "29.945931378710476",
    "geocoded_column": {
      "latitude": "29.945931378710476",
      "longitude": "-90.11701628163928"
    }
  },
  {
    "service_request": "2023-961602",
    "request_type": "Trash/Recycling",
    "request_reason": "Missed Trash Pick-Up",
    "date_created": "2023-01-05T21:47:14.000",
    "date_modified": "2023-01-05T21:47:15.000",
    "request_status": "Pending",
    "responsible_agency": "Department of Sanitation",
    "final_address": "76 Audubon Blvd",
    "address_councildis": "A",
    "status": "Assigned to Contractor",
    "contractor": "Richards Disposal",
    "rowid": "961602",
    "final_x": "3665685.25613",
    "final_y": "527653.766335",
    "longitude": "-90.11813726209179",
    "latitude": "29.94533549199607",
    "geocoded_column": {
      "latitude": "29.94533549199607",
      "longitude": "-90.11813726209179"
    }
  },
  {
    "service_request": "2023-961601",
    "request_type": "Trash/Recycling",
    "request_reason": "Missed Trash Pick-Up",
    "date_created": "2023-01-05T21:47:08.000",
    "date_modified": "2023-01-05T21:47:09.000",
    "request_status": "Pending",
    "responsible_agency": "Department of Sanitation",
    "final_address": "3531 Constance St",
    "address_councildis": "B",
    "status": "Assigned to Contractor",
    "contractor": "Richards Disposal",
    "rowid": "961601",
    "final_x": "3674328.43016",
    "final_y": "519011.323319",
    "longitude": "-90.0911437822656",
    "latitude": "29.92131670717044",
    "geocoded_column": {
      "latitude": "29.92131670717044",
      "longitude": "-90.0911437822656"
    }
  },
  {
    "service_request": "2023-961600",
    "request_type": "Trash/Recycling",
    "request_reason": "Missed Trash Pick-Up",
    "date_created": "2023-01-05T21:45:30.000",
    "date_modified": "2023-01-05T21:45:31.000",
    "request_status": "Pending",
    "responsible_agency": "Department of Sanitation",
    "final_address": "4439 Eden St",
    "address_councildis": "B",
    "status": "Assigned to Contractor",
    "contractor": "Richards Disposal",
    "rowid": "961600",
    "final_x": "3669737.08852",
    "final_y": "530822.482818",
    "longitude": "-90.10523707225651",
    "latitude": "29.95392964822065",
    "geocoded_column": {
      "latitude": "29.95392964822065",
      "longitude": "-90.10523707225651"
    }
  },
  {
    "service_request": "2023-961598",
    "request_type": "Trash/Recycling",
    "request_reason": "Missed Trash Pick-Up",
    "date_created": "2023-01-05T21:44:25.000",
    "date_modified": "2023-01-05T21:44:26.000",
    "request_status": "Pending",
    "responsible_agency": "Department of Sanitation",
    "final_address": "3217 Chippewa St",
    "address_councildis": "B",
    "status": "Assigned to Contractor",
    "contractor": "Richards Disposal",
    "rowid": "961598",
    "final_x": "3676336.20635",
    "final_y": "518604.657527",
    "longitude": "-90.08482010002122",
    "latitude": "29.920138504986788",
    "geocoded_column": {
      "latitude": "29.920138504986788",
      "longitude": "-90.08482010002122"
    }
  },
  {
    "service_request": "2023-961597",
    "request_type": "Trash/Recycling",
    "request_reason": "Missed Trash Pick-Up",
    "date_created": "2023-01-05T21:42:18.000",
    "date_modified": "2023-01-05T21:42:18.000",
    "request_status": "Pending",
    "responsible_agency": "Department of Sanitation",
    "final_address": "3516 Napoleon Ave",
    "address_councildis": "B",
    "status": "Assigned to Contractor",
    "contractor": "Richards Disposal",
    "rowid": "961597",
    "final_x": "3670017.62484",
    "final_y": "527699.786175",
    "longitude": "-90.10445699851118",
    "latitude": "29.945334984221443",
    "geocoded_column": {
      "latitude": "29.945334984221443",
      "longitude": "-90.10445699851118"
    }
  },
  {
    "service_request": "2023-961596",
    "request_type": "Law Enforcement Services",
    "request_reason": "Off Duty Officer for Hire",
    "date_created": "2023-01-05T21:39:06.000",
    "date_modified": "2023-01-05T21:39:06.000",
    "request_status": "Pending",
    "responsible_agency": "Office of Police Secondary Employment",
    "final_address": "1943 N Rampart St",
    "address_councildis": "C",
    "status": "Pending",
    "rowid": "961596",
    "final_x": "3684229.0758",
    "final_y": "535901.470151",
    "longitude": "-90.05929906686211",
    "latitude": "29.967460076499936",
    "geocoded_column": {
      "latitude": "29.967460076499936",
      "longitude": "-90.05929906686211"
    }
  },
  {
    "service_request": "2023-961595",
    "request_type": "Trash/Recycling",
    "request_reason": "Order Recycling Cart",
    "date_created": "2023-01-05T21:37:45.000",
    "date_modified": "2023-01-05T21:37:45.000",
    "request_status": "Pending",
    "responsible_agency": "Department of Sanitation",
    "final_address": "8515 Panola St",
    "address_councildis": "A",
    "status": "Pending",
    "rowid": "961595",
    "final_x": "3662960.0233",
    "final_y": "531795.279107",
    "longitude": "-90.1266040218558",
    "latitude": "29.956802506725",
    "geocoded_column": {
      "latitude": "29.956802506725",
      "longitude": "-90.1266040218558"
    }
  },
  {
    "service_request": "2023-961594",
    "request_type": "Trash/Recycling",
    "request_reason": "Missed Trash Pick-Up",
    "date_created": "2023-01-05T21:33:00.000",
    "date_modified": "2023-01-05T21:33:01.000",
    "request_status": "Pending",
    "responsible_agency": "Department of Sanitation",
    "final_address": "738 Jackson Ave",
    "address_councildis": "B",
    "status": "Assigned to Contractor",
    "contractor": "Richards Disposal",
    "rowid": "961594",
    "final_x": "3679510.92687",
    "final_y": "521140.963961",
    "longitude": "-90.0747110882147",
    "latitude": "29.927017023590142",
    "geocoded_column": {
      "latitude": "29.927017023590142",
      "longitude": "-90.0747110882147"
    }
  },
  {
    "service_request": "2023-961593",
    "request_type": "Trash/Recycling",
    "request_reason": "Missed Trash Pick-Up",
    "date_created": "2023-01-05T21:32:39.000",
    "date_modified": "2023-01-05T21:32:40.000",
    "request_status": "Pending",
    "responsible_agency": "Department of Sanitation",
    "final_address": "7471 Pitt St, New Orleans, Louisiana, 70118",
    "address_councildis": "A",
    "status": "Assigned to Contractor",
    "contractor": "Richards Disposal",
    "rowid": "961593",
    "final_x": "3660918.94387",
    "final_y": "523832.040379",
    "longitude": "-90.13331247911697",
    "latitude": "29.93496508537649",
    "geocoded_column": {
      "latitude": "29.93496508537649",
      "longitude": "-90.13331247911697"
    }
  },
  {
    "service_request": "2023-961592",
    "request_type": "Trash/Recycling",
    "request_reason": "Missed Trash Pick-Up",
    "date_created": "2023-01-05T21:32:07.000",
    "date_modified": "2023-01-05T21:32:07.000",
    "request_status": "Pending",
    "responsible_agency": "Department of Sanitation",
    "final_address": "925 Seventh St",
    "address_councildis": "B",
    "status": "Assigned to Contractor",
    "contractor": "Richards Disposal",
    "rowid": "961592",
    "final_x": "3676695.80661",
    "final_y": "519969.184824",
    "longitude": "-90.08363803773199",
    "latitude": "29.923879735947164",
    "geocoded_column": {
      "latitude": "29.923879735947164",
      "longitude": "-90.08363803773199"
    }
  },
  {
    "service_request": "2023-961591",
    "request_type": "Trash/Recycling",
    "request_reason": "Order Trash Cart",
    "date_created": "2023-01-05T21:31:37.000",
    "date_modified": "2023-01-05T21:31:37.000",
    "request_status": "Pending",
    "responsible_agency": "Department of Sanitation",
    "final_address": "4620 Laurel St",
    "address_councildis": "B",
    "status": "Assigned to Contractor",
    "contractor": "Richards Disposal",
    "rowid": "961591",
    "final_x": "3670188.22484",
    "final_y": "517921.44575",
    "longitude": "-90.1042495211069",
    "latitude": "29.918442654587203",
    "geocoded_column": {
      "latitude": "29.918442654587203",
      "longitude": "-90.1042495211069"
    }
  },
  {
    "service_request": "2023-961590",
    "request_type": "Property Maintenance",
    "request_reason": "Property Maintenance",
    "date_created": "2023-01-05T21:26:25.000",
    "date_modified": "2023-01-05T21:26:25.000",
    "request_status": "Pending",
    "responsible_agency": "Department of Code Enforcement",
    "final_address": "1951 N Johnson St",
    "address_councildis": "D",
    "status": "Pending",
    "rowid": "961590",
    "final_x": "3683343.69769",
    "final_y": "539544.726794",
    "longitude": "-90.06196744500079",
    "latitude": "29.977504805880546",
    "geocoded_column": {
      "latitude": "29.977504805880546",
      "longitude": "-90.06196744500079"
    }
  },
  {
    "service_request": "2023-961589",
    "request_type": "Trash/Recycling",
    "request_reason": "Missed Trash Pick-Up",
    "date_created": "2023-01-05T21:25:59.000",
    "date_modified": "2023-01-05T21:26:00.000",
    "request_status": "Pending",
    "responsible_agency": "Department of Sanitation",
    "final_address": "2619 St Charles Ave Unit B",
    "address_councildis": "B",
    "status": "Assigned to Contractor",
    "contractor": "Richards Disposal",
    "rowid": "961589",
    "final_x": "3676223.57429",
    "final_y": "522856.845883",
    "longitude": "-90.0850294022349",
    "latitude": "29.931834020320345",
    "geocoded_column": {
      "latitude": "29.931834020320345",
      "longitude": "-90.0850294022349"
    }
  },
  {
    "service_request": "2023-961588",
    "request_type": "Trash/Recycling",
    "request_reason": "Missed Trash Pick-Up",
    "date_created": "2023-01-05T21:22:28.000",
    "date_modified": "2023-01-05T21:22:29.000",
    "request_status": "Pending",
    "responsible_agency": "Department of Sanitation",
    "final_address": "2506 Broadway St",
    "address_councildis": "A",
    "status": "Assigned to Contractor",
    "contractor": "Richards Disposal",
    "rowid": "961588",
    "final_x": "3666801.06029",
    "final_y": "530504.189186",
    "longitude": "-90.11451857143167",
    "latitude": "29.95314064436353",
    "geocoded_column": {
      "latitude": "29.95314064436353",
      "longitude": "-90.11451857143167"
    }
  },
  {
    "service_request": "2023-961587",
    "request_type": "Abandoned Vehicles",
    "request_reason": "Abandoned/Junk Vehicles",
    "date_created": "2023-01-05T21:21:20.000",
    "date_modified": "2023-01-05T21:21:21.000",
    "request_status": "Pending",
    "responsible_agency": "Department of Public Works",
    "final_address": "2600 BLK AP Tureaud Ave",
    "address_councildis": "D",
    "status": "Pending",
    "rowid": "961587",
    "final_x": "3681513.74619",
    "final_y": "541769.140659",
    "longitude": "-90.06766944228772",
    "latitude": "29.983676870339373",
    "geocoded_column": {
      "latitude": "29.983676870339373",
      "longitude": "-90.06766944228772"
    }
  },
  {
    "service_request": "2023-961586",
    "request_type": "Trash/Recycling",
    "request_reason": "Repair Trash Cart",
    "date_created": "2023-01-05T21:21:15.000",
    "date_modified": "2023-01-05T21:21:16.000",
    "request_status": "Pending",
    "responsible_agency": "Department of Sanitation",
    "final_address": "728 State St",
    "address_councildis": "A",
    "status": "Assigned to Contractor",
    "contractor": "Richards Disposal",
    "rowid": "961586",
    "final_x": "3664604.70048",
    "final_y": "519125.433079",
    "longitude": "-90.12183363190361",
    "latitude": "29.921916745697676",
    "geocoded_column": {
      "latitude": "29.921916745697676",
      "longitude": "-90.12183363190361"
    }
  },
  {
    "service_request": "2023-961585",
    "request_type": "Trash/Recycling",
    "request_reason": "Order Recycling Cart",
    "date_created": "2023-01-05T21:17:21.000",
    "date_modified": "2023-01-05T21:17:21.000",
    "request_status": "Pending",
    "responsible_agency": "Department of Sanitation",
    "final_address": "1510 Calhoun St",
    "address_councildis": "A",
    "status": "Pending",
    "rowid": "961585",
    "final_x": "3664526.13748",
    "final_y": "522357.930362",
    "longitude": "-90.12197375232677",
    "latitude": "29.93080738076965",
    "geocoded_column": {
      "latitude": "29.93080738076965",
      "longitude": "-90.12197375232677"
    }
  },
  {
    "service_request": "2023-961584",
    "request_type": "Trash/Recycling",
    "request_reason": "Order Trash Cart",
    "date_created": "2023-01-05T21:15:45.000",
    "date_modified": "2023-01-05T21:15:46.000",
    "request_status": "Pending",
    "responsible_agency": "Department of Sanitation",
    "final_address": "1514 Calhoun St",
    "address_councildis": "A",
    "status": "Assigned to Contractor",
    "contractor": "Richards Disposal",
    "rowid": "961584",
    "final_x": "3664534.49492",
    "final_y": "522376.531194",
    "longitude": "-90.12194674815983",
    "latitude": "29.930858284234585",
    "geocoded_column": {
      "latitude": "29.930858284234585",
      "longitude": "-90.12194674815983"
    }
  },
  {
    "service_request": "2023-961583",
    "request_type": "Trash/Recycling",
    "request_reason": "Order Recycling Cart",
    "date_created": "2023-01-05T21:14:29.000",
    "date_modified": "2023-01-05T21:14:29.000",
    "request_status": "Pending",
    "responsible_agency": "Department of Sanitation",
    "final_address": "1514 Calhoun St",
    "address_councildis": "A",
    "status": "Pending",
    "rowid": "961583",
    "final_x": "3664534.49492",
    "final_y": "522376.531194",
    "longitude": "-90.12194674815983",
    "latitude": "29.930858284234585",
    "geocoded_column": {
      "latitude": "29.930858284234585",
      "longitude": "-90.12194674815983"
    }
  },
  {
    "service_request": "2023-961582",
    "request_type": "Trash/Recycling",
    "request_reason": "Missed Trash Pick-Up",
    "date_created": "2023-01-05T21:14:22.000",
    "date_modified": "2023-01-05T21:14:22.000",
    "request_status": "Pending",
    "responsible_agency": "Department of Sanitation",
    "final_address": "3325 Annunciation St",
    "address_councildis": "B",
    "status": "Assigned to Contractor",
    "contractor": "Richards Disposal",
    "rowid": "961582",
    "final_x": "3675638.56136",
    "final_y": "518730.753847",
    "longitude": "-90.08701790456189",
    "latitude": "29.920506112791617",
    "geocoded_column": {
      "latitude": "29.920506112791617",
      "longitude": "-90.08701790456189"
    }
  },
  {
    "service_request": "2023-961581",
    "request_type": "Trash/Recycling",
    "request_reason": "Missed Trash Pick-Up",
    "date_created": "2023-01-05T21:10:36.000",
    "date_modified": "2023-01-05T21:10:37.000",
    "request_status": "Pending",
    "responsible_agency": "Department of Sanitation",
    "final_address": "2230 First St",
    "address_councildis": "B",
    "status": "Assigned to Contractor",
    "contractor": "Richards Disposal",
    "rowid": "961581",
    "final_x": "3675600.76245",
    "final_y": "525190.505149",
    "longitude": "-90.08691541601499",
    "latitude": "29.93826946326665",
    "geocoded_column": {
      "latitude": "29.93826946326665",
      "longitude": "-90.08691541601499"
    }
  },
  {
    "service_request": "2023-961580",
    "request_type": "Trash/Recycling",
    "request_reason": "Request a Large Item Pick Up",
    "date_created": "2023-01-05T21:08:32.000",
    "date_modified": "2023-01-05T21:08:33.000",
    "request_status": "Pending",
    "responsible_agency": "Department of Sanitation",
    "final_address": "2626 Magazine St, New Orleans, Louisiana, 70130",
    "address_councildis": "B",
    "status": "Assigned to Contractor",
    "contractor": "Richards Disposal",
    "rowid": "961580",
    "final_x": "3677386.27272",
    "final_y": "520980.369657",
    "longitude": "-90.08142360948044",
    "latitude": "29.92663944174201",
    "geocoded_column": {
      "latitude": "29.92663944174201",
      "longitude": "-90.08142360948044"
    }
  },
  {
    "service_request": "2023-961579",
    "request_type": "Trash/Recycling",
    "request_reason": "Order Recycling Cart",
    "date_created": "2023-01-05T21:08:25.000",
    "date_modified": "2023-01-05T21:08:25.000",
    "request_status": "Pending",
    "responsible_agency": "Department of Sanitation",
    "final_address": "1024 Reynes St",
    "address_councildis": "E",
    "status": "Pending",
    "rowid": "961579",
    "final_x": "3695864.39485",
    "final_y": "534073.702213",
    "longitude": "-90.02262072864298",
    "latitude": "29.962073509248466",
    "geocoded_column": {
      "latitude": "29.962073509248466",
      "longitude": "-90.02262072864298"
    }
  },
  {
    "service_request": "2023-961578",
    "request_type": "Property Maintenance",
    "request_reason": "Property Maintenance",
    "date_created": "2023-01-05T21:06:36.000",
    "date_modified": "2023-01-05T21:06:36.000",
    "request_status": "Pending",
    "responsible_agency": "Department of Code Enforcement",
    "final_address": "1801 Old Prieur St",
    "address_councildis": "D",
    "status": "Pending",
    "rowid": "961578",
    "final_x": "3681991.54735",
    "final_y": "539357.457674",
    "longitude": "-90.06624452753901",
    "latitude": "29.977031064103567",
    "geocoded_column": {
      "latitude": "29.977031064103567",
      "longitude": "-90.06624452753901"
    }
  },
  {
    "service_request": "2023-961577",
    "request_type": "Trash/Recycling",
    "request_reason": "Missed Trash Pick-Up",
    "date_created": "2023-01-05T21:05:54.000",
    "date_modified": "2023-01-05T21:05:54.000",
    "request_status": "Closed",
    "responsible_agency": "Department of Sanitation",
    "final_address": "1335 Adams St",
    "address_councildis": "A",
    "status": "Resolved",
    "rowid": "961577",
    "final_x": "3663501.43955",
    "final_y": "527808.840255",
    "longitude": "-90.12502713548973",
    "latitude": "29.945825397232742",
    "geocoded_column": {
      "latitude": "29.945825397232742",
      "longitude": "-90.12502713548973"
    }
  },
  {
    "service_request": "2023-961576",
    "request_type": "Trash/Recycling",
    "request_reason": "Missed Trash Pick-Up",
    "date_created": "2023-01-05T20:59:45.000",
    "date_modified": "2023-01-05T20:59:46.000",
    "request_status": "Pending",
    "responsible_agency": "Department of Sanitation",
    "final_address": "729 Marengo St",
    "address_councildis": "B",
    "status": "Assigned to Contractor",
    "contractor": "Richards Disposal",
    "rowid": "961576",
    "final_x": "3672262.21902",
    "final_y": "518409.407478",
    "longitude": "-90.09768640181058",
    "latitude": "29.919723060067316",
    "geocoded_column": {
      "latitude": "29.919723060067316",
      "longitude": "-90.09768640181058"
    }
  },
  {
    "service_request": "2023-961575",
    "request_type": "Trash/Recycling",
    "request_reason": "Missed Trash Pick-Up",
    "date_created": "2023-01-05T20:59:40.000",
    "date_modified": "2023-01-05T20:59:41.000",
    "request_status": "Pending",
    "responsible_agency": "Department of Sanitation",
    "final_address": "729 Marengo St",
    "address_councildis": "B",
    "status": "Assigned to Contractor",
    "contractor": "Richards Disposal",
    "rowid": "961575",
    "final_x": "3672262.21902",
    "final_y": "518409.407478",
    "longitude": "-90.09768640181058",
    "latitude": "29.919723060067316",
    "geocoded_column": {
      "latitude": "29.919723060067316",
      "longitude": "-90.09768640181058"
    }
  },
  {
    "service_request": "2023-961574",
    "request_type": "Trash/Recycling",
    "request_reason": "MIssed Recycling Pick-Up",
    "date_created": "2023-01-05T20:57:55.000",
    "date_modified": "2023-01-05T20:57:55.000",
    "request_status": "Pending",
    "responsible_agency": "Department of Sanitation",
    "final_address": "1316 Joseph St",
    "address_councildis": "A",
    "status": "Assigned to Contractor",
    "contractor": "Richards Disposal",
    "rowid": "961574",
    "final_x": "3666473.94887",
    "final_y": "520699.303481",
    "longitude": "-90.11588039620861",
    "latitude": "29.926189917459155",
    "geocoded_column": {
      "latitude": "29.926189917459155",
      "longitude": "-90.11588039620861"
    }
  },
  {
    "service_request": "2023-961573",
    "request_type": "Trash/Recycling",
    "request_reason": "Missed Trash Pick-Up",
    "date_created": "2023-01-05T20:56:57.000",
    "date_modified": "2023-01-05T20:56:58.000",
    "request_status": "Pending",
    "responsible_agency": "Department of Sanitation",
    "final_address": "7912 Walmsley Ave, New Orleans, Louisiana, 70125",
    "address_councildis": "A",
    "status": "Assigned to Contractor",
    "contractor": "Richards Disposal",
    "rowid": "961573",
    "final_x": "3666289.66477",
    "final_y": "532136.222531",
    "longitude": "-90.11607859808099",
    "latitude": "29.957643150409",
    "geocoded_column": {
      "latitude": "29.957643150409",
      "longitude": "-90.11607859808099"
    }
  },
  {
    "service_request": "2023-961572",
    "request_type": "Property Maintenance",
    "request_reason": "Property Maintenance",
    "date_created": "2023-01-05T20:56:32.000",
    "date_modified": "2023-01-05T20:56:32.000",
    "request_status": "Pending",
    "responsible_agency": "Department of Code Enforcement",
    "final_address": "2003 Touro St",
    "address_councildis": "D",
    "status": "Pending",
    "rowid": "961572",
    "final_x": "3683996.78005",
    "final_y": "539607.053834",
    "longitude": "-90.05990260649854",
    "latitude": "29.977656242552367",
    "geocoded_column": {
      "latitude": "29.977656242552367",
      "longitude": "-90.05990260649854"
    }
  },
  {
    "service_request": "2023-961571",
    "request_type": "Trash/Recycling",
    "request_reason": "Return Recycling Cart",
    "date_created": "2023-01-05T20:47:57.000",
    "date_modified": "2023-01-05T20:47:57.000",
    "request_status": "Pending",
    "responsible_agency": "Department of Sanitation",
    "final_address": "2023 Burgundy St",
    "address_councildis": "C",
    "status": "Pending",
    "rowid": "961571",
    "final_x": "3684487.05295",
    "final_y": "535569.294278",
    "longitude": "-90.05849604269231",
    "latitude": "29.966538818190216",
    "geocoded_column": {
      "latitude": "29.966538818190216",
      "longitude": "-90.05849604269231"
    }
  },
  {
    "service_request": "2023-961570",
    "request_type": "Trash/Recycling",
    "request_reason": "Missed Trash Pick-Up",
    "date_created": "2023-01-05T20:47:07.000",
    "date_modified": "2023-01-05T20:47:08.000",
    "request_status": "Pending",
    "responsible_agency": "Department of Sanitation",
    "final_address": "4920 Dryades St",
    "address_councildis": "B",
    "status": "Assigned to Contractor",
    "contractor": "Richards Disposal",
    "rowid": "961570",
    "final_x": "3668904.73338",
    "final_y": "521685.405177",
    "longitude": "-90.1081738005452",
    "latitude": "29.928830143455674",
    "geocoded_column": {
      "latitude": "29.928830143455674",
      "longitude": "-90.1081738005452"
    }
  },
  {
    "service_request": "2023-961569",
    "request_type": "Trash/Recycling",
    "request_reason": "Missed Trash Pick-Up",
    "date_created": "2023-01-05T20:46:51.000",
    "date_modified": "2023-01-05T20:46:51.000",
    "request_status": "Pending",
    "responsible_agency": "Department of Sanitation",
    "final_address": "7911 Jeannette St",
    "address_councildis": "A",
    "status": "Assigned to Contractor",
    "contractor": "Richards Disposal",
    "rowid": "961569",
    "final_x": "3663202.66061",
    "final_y": "528727.407936",
    "longitude": "-90.12593992459634",
    "latitude": "29.9483598234777",
    "geocoded_column": {
      "latitude": "29.9483598234777",
      "longitude": "-90.12593992459634"
    }
  },
  {
    "service_request": "2023-961568",
    "request_type": "Trash/Recycling",
    "request_reason": "Missed Trash Pick-Up",
    "date_created": "2023-01-05T20:46:20.000",
    "date_modified": "2023-01-05T20:46:21.000",
    "request_status": "Pending",
    "responsible_agency": "Department of Sanitation",
    "final_address": "1422 General Pershing St",
    "address_councildis": "B",
    "status": "Assigned to Contractor",
    "contractor": "Richards Disposal",
    "rowid": "961568",
    "final_x": "3671239.44116",
    "final_y": "520532.324984",
    "longitude": "-90.10084273889387",
    "latitude": "29.925590694745555",
    "geocoded_column": {
      "latitude": "29.925590694745555",
      "longitude": "-90.10084273889387"
    }
  },
  {
    "service_request": "2023-961567",
    "request_type": "Trash/Recycling",
    "request_reason": "MIssed Recycling Pick-Up",
    "date_created": "2023-01-05T20:43:57.000",
    "date_modified": "2023-01-05T20:43:58.000",
    "request_status": "Pending",
    "responsible_agency": "Department of Sanitation",
    "final_address": "417 Henry Clay Ave",
    "address_councildis": "A",
    "status": "Assigned to Contractor",
    "contractor": "Richards Disposal",
    "rowid": "961567",
    "final_x": "3663375.75616",
    "final_y": "518379.00959",
    "longitude": "-90.12573773977351",
    "latitude": "29.919899984815505",
    "geocoded_column": {
      "latitude": "29.919899984815505",
      "longitude": "-90.12573773977351"
    }
  },
  {
    "service_request": "2023-961566",
    "request_type": "Trash/Recycling",
    "request_reason": "MIssed Recycling Pick-Up",
    "date_created": "2023-01-05T20:43:18.000",
    "date_modified": "2023-01-05T20:43:19.000",
    "request_status": "Pending",
    "responsible_agency": "Department of Sanitation",
    "final_address": "3216 Upperline St",
    "address_councildis": "B",
    "status": "Assigned to Contractor",
    "contractor": "Richards Disposal",
    "rowid": "961566",
    "final_x": "3669154.66682",
    "final_y": "526854.291198",
    "longitude": "-90.10721020533121",
    "latitude": "29.943035567331187",
    "geocoded_column": {
      "latitude": "29.943035567331187",
      "longitude": "-90.10721020533121"
    }
  },
  {
    "service_request": "2023-961565",
    "request_type": "Trash/Recycling",
    "request_reason": "Missed Trash Pick-Up",
    "date_created": "2023-01-05T20:42:16.000",
    "date_modified": "2023-01-05T20:42:16.000",
    "request_status": "Pending",
    "responsible_agency": "Department of Sanitation",
    "final_address": "3216 Upperline St",
    "address_councildis": "B",
    "status": "Assigned to Contractor",
    "contractor": "Richards Disposal",
    "rowid": "961565",
    "final_x": "3669154.66682",
    "final_y": "526854.291198",
    "longitude": "-90.10721020533121",
    "latitude": "29.943035567331187",
    "geocoded_column": {
      "latitude": "29.943035567331187",
      "longitude": "-90.10721020533121"
    }
  },
  {
    "service_request": "2023-961564",
    "request_type": "Trash/Recycling",
    "request_reason": "Missed Trash Pick-Up",
    "date_created": "2023-01-05T20:41:57.000",
    "date_modified": "2023-01-05T20:41:58.000",
    "request_status": "Pending",
    "responsible_agency": "Department of Sanitation",
    "final_address": "3313 Constance St",
    "address_councildis": "B",
    "status": "Assigned to Contractor",
    "contractor": "Richards Disposal",
    "rowid": "961564",
    "final_x": "3675421.13845",
    "final_y": "519444.948151",
    "longitude": "-90.08767970041416",
    "latitude": "29.922476418384566",
    "geocoded_column": {
      "latitude": "29.922476418384566",
      "longitude": "-90.08767970041416"
    }
  },
  {
    "service_request": "2023-961563",
    "request_type": "Trash/Recycling",
    "request_reason": "Missed Trash Pick-Up",
    "date_created": "2023-01-05T20:41:41.000",
    "date_modified": "2023-01-05T20:41:42.000",
    "request_status": "Pending",
    "responsible_agency": "Department of Sanitation",
    "final_address": "7451 Benjamin St",
    "address_councildis": "A",
    "status": "Assigned to Contractor",
    "contractor": "Richards Disposal",
    "rowid": "961563",
    "final_x": "3661576.44422",
    "final_y": "524507.525052",
    "longitude": "-90.13121437357768",
    "latitude": "29.936803504768722",
    "geocoded_column": {
      "latitude": "29.936803504768722",
      "longitude": "-90.13121437357768"
    }
  },
  {
    "service_request": "2023-961562",
    "request_type": "Trash/Recycling",
    "request_reason": "Missed Trash Pick-Up",
    "date_created": "2023-01-05T20:39:58.000",
    "date_modified": "2023-01-05T20:39:59.000",
    "request_status": "Pending",
    "responsible_agency": "Department of Sanitation",
    "final_address": "526 First St",
    "address_councildis": "B",
    "status": "Assigned to Contractor",
    "contractor": "Richards Disposal",
    "rowid": "961562",
    "final_x": "3679135.09883",
    "final_y": "519816.083512",
    "longitude": "-90.07594337385903",
    "latitude": "29.923385379961527",
    "geocoded_column": {
      "latitude": "29.923385379961527",
      "longitude": "-90.07594337385903"
    }
  },
  {
    "service_request": "2023-961561",
    "request_type": "Trash/Recycling",
    "request_reason": "Missed Trash Pick-Up",
    "date_created": "2023-01-05T20:37:03.000",
    "date_modified": "2023-01-05T20:37:03.000",
    "request_status": "Pending",
    "responsible_agency": "Department of Sanitation",
    "final_address": "2521 Carondelet St",
    "address_councildis": "B",
    "status": "Assigned to Contractor",
    "contractor": "Richards Disposal",
    "rowid": "961561",
    "final_x": "3676307.6635",
    "final_y": "523300.032443",
    "longitude": "-90.08474869605244",
    "latitude": "29.933050119607515",
    "geocoded_column": {
      "latitude": "29.933050119607515",
      "longitude": "-90.08474869605244"
    }
  },
  {
    "service_request": "2023-961560",
    "request_type": "Trash/Recycling",
    "request_reason": "Order Recycling Cart",
    "date_created": "2023-01-05T20:35:11.000",
    "date_modified": "2023-01-05T20:35:11.000",
    "request_status": "Pending",
    "responsible_agency": "Department of Sanitation",
    "final_address": "4217 Burgundy St",
    "address_councildis": "C",
    "status": "Pending",
    "rowid": "961560",
    "final_x": "3692358.07395",
    "final_y": "534417.754629",
    "longitude": "-90.03368078939074",
    "latitude": "29.96312935100636",
    "geocoded_column": {
      "latitude": "29.96312935100636",
      "longitude": "-90.03368078939074"
    }
  },
  {
    "service_request": "2023-961559",
    "request_type": "Trash/Recycling",
    "request_reason": "Missed Trash Pick-Up",
    "date_created": "2023-01-05T20:34:01.000",
    "date_modified": "2023-01-05T20:34:02.000",
    "request_status": "Pending",
    "responsible_agency": "Department of Sanitation",
    "final_address": "3325 Annunciation St, New Orleans, Louisiana, 70115",
    "address_councildis": "B",
    "status": "Assigned to Contractor",
    "contractor": "Richards Disposal",
    "rowid": "961559",
    "final_x": "3675638.56136",
    "final_y": "518730.753847",
    "longitude": "-90.08701790456189",
    "latitude": "29.920506112791617",
    "geocoded_column": {
      "latitude": "29.920506112791617",
      "longitude": "-90.08701790456189"
    }
  },
  {
    "service_request": "2023-961558",
    "request_type": "Trash/Recycling",
    "request_reason": "MIssed Recycling Pick-Up",
    "date_created": "2023-01-05T20:32:27.000",
    "date_modified": "2023-01-05T20:32:28.000",
    "request_status": "Pending",
    "responsible_agency": "Department of Sanitation",
    "final_address": "6016 St Charles Ave",
    "address_councildis": "A",
    "status": "Assigned to Contractor",
    "contractor": "Richards Disposal",
    "rowid": "961558",
    "final_x": "3665536.5257",
    "final_y": "522450.08089",
    "longitude": "-90.11878100278054",
    "latitude": "29.931031355859783",
    "geocoded_column": {
      "latitude": "29.931031355859783",
      "longitude": "-90.11878100278054"
    }
  },
  {
    "service_request": "2023-961557",
    "request_type": "Trash/Recycling",
    "request_reason": "Missed Trash Pick-Up",
    "date_created": "2023-01-05T20:30:06.000",
    "date_modified": "2023-01-05T20:30:06.000",
    "request_status": "Pending",
    "responsible_agency": "Department of Sanitation",
    "final_address": "1435 Euterpe St",
    "address_councildis": "B",
    "status": "Assigned to Contractor",
    "contractor": "Richards Disposal",
    "rowid": "961557",
    "final_x": "3679484.85288",
    "final_y": "524670.224508",
    "longitude": "-90.07467101783345",
    "latitude": "29.936722117927204",
    "geocoded_column": {
      "latitude": "29.936722117927204",
      "longitude": "-90.07467101783345"
    }
  },
  {
    "service_request": "2023-961556",
    "request_type": "Trash/Recycling",
    "request_reason": "Missed Trash Pick-Up",
    "date_created": "2023-01-05T20:30:00.000",
    "date_modified": "2023-01-05T20:30:01.000",
    "request_status": "Pending",
    "responsible_agency": "Department of Sanitation",
    "final_address": "4023 Tchoupitoulas St",
    "address_councildis": "B",
    "status": "Assigned to Contractor",
    "contractor": "Richards Disposal",
    "rowid": "961556",
    "final_x": "3672456.92334",
    "final_y": "517628.933814",
    "longitude": "-90.09709839396619",
    "latitude": "29.917571230941423",
    "geocoded_column": {
      "latitude": "29.917571230941423",
      "longitude": "-90.09709839396619"
    }
  },
  {
    "service_request": "2023-961555",
    "request_type": "Traffic Signals/Signs/Striping/Streetlights",
    "request_reason": "Street Light Outage/Malfunction",
    "date_created": "2023-01-05T20:29:37.000",
    "date_modified": "2023-01-05T20:29:38.000",
    "request_status": "Pending",
    "responsible_agency": "Department of Public Works",
    "final_address": "6200 BLK Vermillion Blvd",
    "address_councildis": "D",
    "status": "Assigned to Contractor",
    "contractor": "Legacy Professional Services",
    "rowid": "961555",
    "final_x": "3682985.1773",
    "final_y": "556228.596976",
    "longitude": "-90.06251536625572",
    "latitude": "30.023390401159354",
    "geocoded_column": {
      "latitude": "30.023390401159354",
      "longitude": "-90.06251536625572"
    }
  },
  {
    "service_request": "2023-961554",
    "request_type": "Trash/Recycling",
    "request_reason": "MIssed Recycling Pick-Up",
    "date_created": "2023-01-05T20:29:12.000",
    "date_modified": "2023-01-05T20:29:13.000",
    "request_status": "Pending",
    "responsible_agency": "Department of Sanitation",
    "final_address": "1443 Euterpe St",
    "address_councildis": "B",
    "status": "Assigned to Contractor",
    "contractor": "Richards Disposal",
    "rowid": "961554",
    "final_x": "3679459.35055",
    "final_y": "524682.18886",
    "longitude": "-90.07475111497132",
    "latitude": "29.936755786192712",
    "geocoded_column": {
      "latitude": "29.936755786192712",
      "longitude": "-90.07475111497132"
    }
  },
  {
    "service_request": "2023-961553",
    "request_type": "Trash/Recycling",
    "request_reason": "Missed Trash Pick-Up",
    "date_created": "2023-01-05T20:26:01.000",
    "date_modified": "2023-01-05T20:26:02.000",
    "request_status": "Pending",
    "responsible_agency": "Department of Sanitation",
    "final_address": "5520 S Johnson St",
    "address_councildis": "A",
    "status": "Assigned to Contractor",
    "contractor": "Richards Disposal",
    "rowid": "961553",
    "final_x": "3668043.07661",
    "final_y": "527032.002878",
    "longitude": "-90.11071379366118",
    "latitude": "29.943556876760592",
    "geocoded_column": {
      "latitude": "29.943556876760592",
      "longitude": "-90.11071379366118"
    }
  },
  {
    "service_request": "2023-961552",
    "request_type": "Trash/Recycling",
    "request_reason": "Missed Trash Pick-Up",
    "date_created": "2023-01-05T20:25:07.000",
    "date_modified": "2023-01-05T20:25:08.000",
    "request_status": "Pending",
    "responsible_agency": "Department of Sanitation",
    "final_address": "2324 Jackson Ave",
    "address_councildis": "B",
    "status": "Assigned to Contractor",
    "contractor": "Richards Disposal",
    "rowid": "961552",
    "final_x": "3675647.30606",
    "final_y": "526195.183742",
    "longitude": "-90.08673396542972",
    "latitude": "29.9410306073941",
    "geocoded_column": {
      "latitude": "29.9410306073941",
      "longitude": "-90.08673396542972"
    }
  },
  {
    "service_request": "2023-961551",
    "request_type": "Property Maintenance",
    "request_reason": "Property Maintenance",
    "date_created": "2023-01-05T20:24:50.000",
    "date_modified": "2023-01-05T20:24:50.000",
    "request_status": "Pending",
    "responsible_agency": "Department of Code Enforcement",
    "final_address": "1718 N Roman St",
    "address_councildis": "D",
    "status": "Pending",
    "rowid": "961551",
    "final_x": "3682381.81685",
    "final_y": "538649.343177",
    "longitude": "-90.06503668681782",
    "latitude": "29.975072123221583",
    "geocoded_column": {
      "latitude": "29.975072123221583",
      "longitude": "-90.06503668681782"
    }
  },
  {
    "service_request": "2023-961550",
    "request_type": "Trash/Recycling",
    "request_reason": "Missed Trash Pick-Up",
    "date_created": "2023-01-05T20:24:37.000",
    "date_modified": "2023-01-05T20:24:38.000",
    "request_status": "Pending",
    "responsible_agency": "Department of Sanitation",
    "final_address": "614 General Pershing St, New Orleans, Louisiana, 70115",
    "address_councildis": "B",
    "status": "Assigned to Contractor",
    "contractor": "Richards Disposal",
    "rowid": "961550",
    "final_x": "3671489.10977",
    "final_y": "517918.496694",
    "longitude": "-90.10014341022573",
    "latitude": "29.918396112730118",
    "geocoded_column": {
      "latitude": "29.918396112730118",
      "longitude": "-90.10014341022573"
    }
  },
  {
    "service_request": "2023-961549",
    "request_type": "Trash/Recycling",
    "request_reason": "Missed Trash Pick-Up",
    "date_created": "2023-01-05T20:23:58.000",
    "date_modified": "2023-01-05T20:23:58.000",
    "request_status": "Pending",
    "responsible_agency": "Department of Sanitation",
    "final_address": "3315 Chestnut St",
    "address_councildis": "B",
    "status": "Assigned to Contractor",
    "contractor": "Richards Disposal",
    "rowid": "961549",
    "final_x": "3674957.27086",
    "final_y": "520448.399736",
    "longitude": "-90.08910955005064",
    "latitude": "29.92524944494753",
    "geocoded_column": {
      "latitude": "29.92524944494753",
      "longitude": "-90.08910955005064"
    }
  },
  {
    "service_request": "2023-961548",
    "request_type": "Trash/Recycling",
    "request_reason": "Missed Trash Pick-Up",
    "date_created": "2023-01-05T20:23:00.000",
    "date_modified": "2023-01-05T20:23:01.000",
    "request_status": "Pending",
    "responsible_agency": "Department of Sanitation",
    "final_address": "817 Harmony St",
    "address_councildis": "B",
    "status": "Assigned to Contractor",
    "contractor": "Richards Disposal",
    "rowid": "961548",
    "final_x": "3676255.76833",
    "final_y": "519162.107703",
    "longitude": "-90.08505483546676",
    "latitude": "29.921673723213996",
    "geocoded_column": {
      "latitude": "29.921673723213996",
      "longitude": "-90.08505483546676"
    }
  },
  {
    "service_request": "2023-961547",
    "request_type": "Trash/Recycling",
    "request_reason": "Missed Trash Pick-Up",
    "date_created": "2023-01-05T20:22:25.000",
    "date_modified": "2023-01-05T20:22:25.000",
    "request_status": "Pending",
    "responsible_agency": "Department of Sanitation",
    "final_address": "722 Fourth St",
    "address_councildis": "B",
    "status": "Assigned to Contractor",
    "contractor": "Richards Disposal",
    "rowid": "961547",
    "final_x": "3678002.08718",
    "final_y": "519895.576888",
    "longitude": "-90.07951712141225",
    "latitude": "29.923638099384732",
    "geocoded_column": {
      "latitude": "29.923638099384732",
      "longitude": "-90.07951712141225"
    }
  },
  {
    "service_request": "2023-961546",
    "request_type": "Trash/Recycling",
    "request_reason": "Missed Trash Pick-Up",
    "date_created": "2023-01-05T20:21:04.000",
    "date_modified": "2023-01-05T20:21:04.000",
    "request_status": "Pending",
    "responsible_agency": "Department of Sanitation",
    "final_address": "817 Harmony St, New Orleans, Louisiana, 70115",
    "address_councildis": "B",
    "status": "Assigned to Contractor",
    "contractor": "Richards Disposal",
    "rowid": "961546",
    "final_x": "3676255.76833",
    "final_y": "519162.107703",
    "longitude": "-90.08505483546676",
    "latitude": "29.921673723213996",
    "geocoded_column": {
      "latitude": "29.921673723213996",
      "longitude": "-90.08505483546676"
    }
  },
  {
    "service_request": "2023-961545",
    "request_type": "Trash/Recycling",
    "request_reason": "Missed Trash Pick-Up",
    "date_created": "2023-01-05T20:19:36.000",
    "date_modified": "2023-01-05T20:19:36.000",
    "request_status": "Pending",
    "responsible_agency": "Department of Sanitation",
    "final_address": "3918 Dryades St",
    "address_councildis": "B",
    "status": "Assigned to Contractor",
    "contractor": "Richards Disposal",
    "rowid": "961545",
    "final_x": "3672272.6347",
    "final_y": "522069.960634",
    "longitude": "-90.09752890691419",
    "latitude": "29.92978810075048",
    "geocoded_column": {
      "latitude": "29.92978810075048",
      "longitude": "-90.09752890691419"
    }
  },
  {
    "service_request": "2023-961544",
    "request_type": "Trash/Recycling",
    "request_reason": "Missed Trash Pick-Up",
    "date_created": "2023-01-05T20:17:59.000",
    "date_modified": "2023-01-05T20:17:59.000",
    "request_status": "Pending",
    "responsible_agency": "Department of Sanitation",
    "final_address": "2216 Camp St",
    "address_councildis": "B",
    "status": "Assigned to Contractor",
    "contractor": "Richards Disposal",
    "rowid": "961544",
    "final_x": "3678502.41262",
    "final_y": "522245.417978",
    "longitude": "-90.07785650454653",
    "latitude": "29.93008433324849",
    "geocoded_column": {
      "latitude": "29.93008433324849",
      "longitude": "-90.07785650454653"
    }
  },
  {
    "service_request": "2023-961543",
    "request_type": "Trash/Recycling",
    "request_reason": "Missed Trash Pick-Up",
    "date_created": "2023-01-05T20:17:03.000",
    "date_modified": "2023-01-05T20:17:04.000",
    "request_status": "Pending",
    "responsible_agency": "Department of Sanitation",
    "final_address": "3236 Chestnut St, New Orleans, Louisiana, 70115",
    "address_councildis": "B",
    "status": "Assigned to Contractor",
    "contractor": "Richards Disposal",
    "rowid": "961543",
    "final_x": "3675188.58113",
    "final_y": "520466.249976",
    "longitude": "-90.08837876371642",
    "latitude": "29.925291618939045",
    "geocoded_column": {
      "latitude": "29.925291618939045",
      "longitude": "-90.08837876371642"
    }
  },
  {
    "service_request": "2023-961542",
    "request_type": "Trash/Recycling",
    "request_reason": "Missed Trash Pick-Up",
    "date_created": "2023-01-05T20:15:58.000",
    "date_modified": "2023-01-05T20:15:59.000",
    "request_status": "Pending",
    "responsible_agency": "Department of Sanitation",
    "final_address": "8019 Hickory St",
    "address_councildis": "A",
    "status": "Assigned to Contractor",
    "contractor": "Richards Disposal",
    "rowid": "961542",
    "final_x": "3663624.96288",
    "final_y": "529762.025345",
    "longitude": "-90.12457207424431",
    "latitude": "29.95119244546672",
    "geocoded_column": {
      "latitude": "29.95119244546672",
      "longitude": "-90.12457207424431"
    }
  },
  {
    "service_request": "2023-961541",
    "request_type": "Trash/Recycling",
    "request_reason": "Missed Trash Pick-Up",
    "date_created": "2023-01-05T20:14:53.000",
    "date_modified": "2023-01-05T20:14:53.000",
    "request_status": "Pending",
    "responsible_agency": "Department of Sanitation",
    "final_address": "1631 Constantinople St",
    "address_councildis": "B",
    "status": "Assigned to Contractor",
    "contractor": "Richards Disposal",
    "rowid": "961541",
    "final_x": "3672332.53326",
    "final_y": "521270.297401",
    "longitude": "-90.09736704671099",
    "latitude": "29.92758750751159",
    "geocoded_column": {
      "latitude": "29.92758750751159",
      "longitude": "-90.09736704671099"
    }
  },
  {
    "service_request": "2023-961540",
    "request_type": "Trash/Recycling",
    "request_reason": "Missed Trash Pick-Up",
    "date_created": "2023-01-05T20:13:57.000",
    "date_modified": "2023-01-05T20:13:58.000",
    "request_status": "Pending",
    "responsible_agency": "Department of Sanitation",
    "final_address": "2032 Napoleon Ave",
    "address_councildis": "B",
    "status": "Assigned to Contractor",
    "contractor": "Richards Disposal",
    "rowid": "961540",
    "final_x": "3670585.31566",
    "final_y": "522579.235002",
    "longitude": "-90.10283822974701",
    "latitude": "29.931238372538388",
    "geocoded_column": {
      "latitude": "29.931238372538388",
      "longitude": "-90.10283822974701"
    }
  },
  {
    "service_request": "2023-961539",
    "request_type": "Trash/Recycling",
    "request_reason": "Missed Trash Pick-Up",
    "date_created": "2023-01-05T20:13:06.000",
    "date_modified": "2023-01-05T20:13:07.000",
    "request_status": "Pending",
    "responsible_agency": "Department of Sanitation",
    "final_address": "1131 Orange St",
    "address_councildis": "B",
    "status": "Assigned to Contractor",
    "contractor": "Richards Disposal",
    "rowid": "961539",
    "final_x": "3679856.47944",
    "final_y": "523577.759035",
    "longitude": "-90.07353569564594",
    "latitude": "29.933706968638734",
    "geocoded_column": {
      "latitude": "29.933706968638734",
      "longitude": "-90.07353569564594"
    }
  },
  {
    "service_request": "2023-961538",
    "request_type": "Trash/Recycling",
    "request_reason": "Missed Trash Pick-Up",
    "date_created": "2023-01-05T20:12:07.000",
    "date_modified": "2023-01-05T20:12:08.000",
    "request_status": "Pending",
    "responsible_agency": "Department of Sanitation",
    "final_address": "717 Harmony St",
    "address_councildis": "B",
    "status": "Assigned to Contractor",
    "contractor": "Richards Disposal",
    "rowid": "961538",
    "final_x": "3676441.84219",
    "final_y": "518801.459959",
    "longitude": "-90.0844798873453",
    "latitude": "29.920676482978028",
    "geocoded_column": {
      "latitude": "29.920676482978028",
      "longitude": "-90.0844798873453"
    }
  },
  {
    "service_request": "2023-961537",
    "request_type": "Trash/Recycling",
    "request_reason": "Missed Trash Pick-Up",
    "date_created": "2023-01-05T20:11:05.000",
    "date_modified": "2023-01-05T20:11:05.000",
    "request_status": "Pending",
    "responsible_agency": "Department of Sanitation",
    "final_address": "815 Pleasant St",
    "address_councildis": "B",
    "status": "Assigned to Contractor",
    "contractor": "Richards Disposal",
    "rowid": "961537",
    "final_x": "3676017.31675",
    "final_y": "519018.452215",
    "longitude": "-90.08581246229882",
    "latitude": "29.921285857532276",
    "geocoded_column": {
      "latitude": "29.921285857532276",
      "longitude": "-90.08581246229882"
    }
  },
  {
    "service_request": "2023-961536",
    "request_type": "Trash/Recycling",
    "request_reason": "Missed Trash Pick-Up",
    "date_created": "2023-01-05T20:09:08.000",
    "date_modified": "2023-01-05T20:09:09.000",
    "request_status": "Pending",
    "responsible_agency": "Department of Sanitation",
    "final_address": "519 Philip St",
    "address_councildis": "B",
    "status": "Assigned to Contractor",
    "contractor": "Richards Disposal",
    "rowid": "961536",
    "final_x": "3679832.93039",
    "final_y": "520220.232952",
    "longitude": "-90.0737265581521",
    "latitude": "29.9244755846313",
    "geocoded_column": {
      "latitude": "29.9244755846313",
      "longitude": "-90.0737265581521"
    }
  },
  {
    "service_request": "2023-961535",
    "request_type": "Roads/Drainage",
    "request_reason": "Road Shoulder Repair",
    "date_created": "2023-01-05T20:08:16.000",
    "date_modified": "2023-01-05T20:08:16.000",
    "request_status": "Pending",
    "responsible_agency": "Department of Public Works",
    "final_address": "13164 Biscay St",
    "address_councildis": "E",
    "status": "Pending",
    "rowid": "961535",
    "final_x": "3724578.20332",
    "final_y": "561786.146399",
    "longitude": "-89.9308771033233",
    "latitude": "30.037337416179046",
    "geocoded_column": {
      "latitude": "30.037337416179046",
      "longitude": "-89.9308771033233"
    }
  },
  {
    "service_request": "2023-961533",
    "request_type": "Trash/Recycling",
    "request_reason": "Missed Trash Pick-Up",
    "date_created": "2023-01-05T20:07:08.000",
    "date_modified": "2023-01-05T20:07:08.000",
    "request_status": "Pending",
    "responsible_agency": "Department of Sanitation",
    "final_address": "49 Fontainebleau Dr",
    "address_councildis": "A",
    "status": "Assigned to Contractor",
    "contractor": "Richards Disposal",
    "rowid": "961533",
    "final_x": "3666356.67002",
    "final_y": "531330.481026",
    "longitude": "-90.11589404708958",
    "latitude": "29.955425667366992",
    "geocoded_column": {
      "latitude": "29.955425667366992",
      "longitude": "-90.11589404708958"
    }
  },
  {
    "service_request": "2023-961534",
    "request_type": "Trash/Recycling",
    "request_reason": "Missed Trash Pick-Up",
    "date_created": "2023-01-05T20:07:08.000",
    "date_modified": "2023-01-05T20:07:09.000",
    "request_status": "Pending",
    "responsible_agency": "Department of Sanitation",
    "final_address": "329 Lowerline St",
    "address_councildis": "A",
    "status": "Assigned to Contractor",
    "contractor": "Richards Disposal",
    "rowid": "961534",
    "final_x": "3661536.41658",
    "final_y": "523552.803195",
    "longitude": "-90.13137236076453",
    "latitude": "29.93417947531416",
    "geocoded_column": {
      "latitude": "29.93417947531416",
      "longitude": "-90.13137236076453"
    }
  },
  {
    "service_request": "2023-961532",
    "request_type": "Abandoned Vehicles",
    "request_reason": "Abandoned/Junk Vehicles",
    "date_created": "2023-01-05T20:05:43.000",
    "date_modified": "2023-01-05T20:05:43.000",
    "request_status": "Pending",
    "responsible_agency": "Department of Public Works",
    "final_address": "2937 Dryades St",
    "address_councildis": "B",
    "status": "Pending",
    "rowid": "961532",
    "final_x": "3674654.0226",
    "final_y": "523037.677307",
    "longitude": "-90.08997811876495",
    "latitude": "29.932378171482668",
    "geocoded_column": {
      "latitude": "29.932378171482668",
      "longitude": "-90.08997811876495"
    }
  },
  {
    "service_request": "2023-961531",
    "request_type": "Trash/Recycling",
    "request_reason": "Missed Trash Pick-Up",
    "date_created": "2023-01-05T20:05:42.000",
    "date_modified": "2023-01-05T20:05:43.000",
    "request_status": "Pending",
    "responsible_agency": "Department of Sanitation",
    "final_address": "1432 Fern St",
    "address_councildis": "A",
    "status": "Assigned to Contractor",
    "contractor": "Richards Disposal",
    "rowid": "961531",
    "final_x": "3663087.43117",
    "final_y": "528517.694208",
    "longitude": "-90.12631072849541",
    "latitude": "29.94778651621753",
    "geocoded_column": {
      "latitude": "29.94778651621753",
      "longitude": "-90.12631072849541"
    }
  },
  {
    "service_request": "2023-961530",
    "request_type": "Traffic Signals/Signs/Striping/Streetlights",
    "request_reason": "Street Light Knocked Down/Leaning",
    "date_created": "2023-01-05T20:03:53.000",
    "date_modified": "2023-01-05T20:03:53.000",
    "request_status": "Pending",
    "responsible_agency": "Department of Public Works",
    "final_address": "17 Versailles Blvd",
    "address_councildis": "A",
    "status": "Pending",
    "contractor": "Legacy Professional Services",
    "rowid": "961530",
    "final_x": "3667178.86778",
    "final_y": "528969.64992",
    "longitude": "-90.11337720356356",
    "latitude": "29.948910105580993",
    "geocoded_column": {
      "latitude": "29.948910105580993",
      "longitude": "-90.11337720356356"
    }
  },
  {
    "service_request": "2023-961529",
    "request_type": "Trash/Recycling",
    "request_reason": "Missed Trash Pick-Up",
    "date_created": "2023-01-05T20:03:38.000",
    "date_modified": "2023-01-05T20:03:39.000",
    "request_status": "Pending",
    "responsible_agency": "Department of Sanitation",
    "final_address": "2512 Constance St, New Orleans, Louisiana, 70130",
    "address_councildis": "B",
    "status": "Assigned to Contractor",
    "contractor": "Richards Disposal",
    "rowid": "961529",
    "final_x": "3677936.28232",
    "final_y": "520930.997625",
    "longitude": "-90.07968908376468",
    "latitude": "29.926487149826272",
    "geocoded_column": {
      "latitude": "29.926487149826272",
      "longitude": "-90.07968908376468"
    }
  },
  {
    "service_request": "2023-961528",
    "request_type": "Trash/Recycling",
    "request_reason": "Missed Trash Pick-Up",
    "date_created": "2023-01-05T20:03:20.000",
    "date_modified": "2023-01-05T20:03:21.000",
    "request_status": "Pending",
    "responsible_agency": "Department of Sanitation",
    "final_address": "624 Fourth St",
    "address_councildis": "B",
    "status": "Assigned to Contractor",
    "contractor": "Richards Disposal",
    "rowid": "961528",
    "final_x": "3678178.52936",
    "final_y": "519615.580856",
    "longitude": "-90.07896983370796",
    "latitude": "29.922862891181932",
    "geocoded_column": {
      "latitude": "29.922862891181932",
      "longitude": "-90.07896983370796"
    }
  },
  {
    "service_request": "2023-961527",
    "request_type": "Abandoned Vehicles",
    "request_reason": "Abandoned/Junk Vehicles",
    "date_created": "2023-01-05T20:02:56.000",
    "date_modified": "2023-01-05T20:02:56.000",
    "request_status": "Pending",
    "responsible_agency": "Department of Public Works",
    "final_address": "2937 Dryades St",
    "address_councildis": "B",
    "status": "Pending",
    "rowid": "961527",
    "final_x": "3674654.0226",
    "final_y": "523037.677307",
    "longitude": "-90.08997811876495",
    "latitude": "29.932378171482668",
    "geocoded_column": {
      "latitude": "29.932378171482668",
      "longitude": "-90.08997811876495"
    }
  },
  {
    "service_request": "2023-961526",
    "request_type": "Trash/Recycling",
    "request_reason": "Missed Trash Pick-Up",
    "date_created": "2023-01-05T20:02:10.000",
    "date_modified": "2023-01-05T20:02:10.000",
    "request_status": "Pending",
    "responsible_agency": "Department of Sanitation",
    "final_address": "3726 Red Oak Ct",
    "address_councildis": "C",
    "status": "Assigned to Contractor",
    "contractor": "Richards Disposal",
    "rowid": "961526",
    "final_x": "3703348.70974",
    "final_y": "514081.19589",
    "longitude": "-89.99972136461265",
    "latitude": "29.906863588962047",
    "geocoded_column": {
      "latitude": "29.906863588962047",
      "longitude": "-89.99972136461265"
    }
  },
  {
    "service_request": "2023-961525",
    "request_type": "Trash/Recycling",
    "request_reason": "Missed Trash Pick-Up",
    "date_created": "2023-01-05T20:00:12.000",
    "date_modified": "2023-01-05T20:00:13.000",
    "request_status": "Pending",
    "responsible_agency": "Department of Sanitation",
    "final_address": "917 Seventh St",
    "address_councildis": "B",
    "status": "Assigned to Contractor",
    "contractor": "Richards Disposal",
    "rowid": "961525",
    "final_x": "3676723.41729",
    "final_y": "519913.963512",
    "longitude": "-90.08355278195359",
    "latitude": "29.92372706715264",
    "geocoded_column": {
      "latitude": "29.92372706715264",
      "longitude": "-90.08355278195359"
    }
  },
  {
    "service_request": "2023-961524",
    "request_type": "Trash/Recycling",
    "request_reason": "Missed Trash Pick-Up",
    "date_created": "2023-01-05T20:00:11.000",
    "date_modified": "2023-01-05T20:00:12.000",
    "request_status": "Pending",
    "responsible_agency": "Department of Sanitation",
    "final_address": "8018 Hampson St, New Orleans, Louisiana, 70118",
    "address_councildis": "A",
    "status": "Assigned to Contractor",
    "contractor": "Richards Disposal",
    "rowid": "961524",
    "final_x": "3660987.67936",
    "final_y": "526874.986302",
    "longitude": "-90.13299484594656",
    "latitude": "29.94333024490152",
    "geocoded_column": {
      "latitude": "29.94333024490152",
      "longitude": "-90.13299484594656"
    }
  },
  {
    "service_request": "2023-961523",
    "request_type": "Trash/Recycling",
    "request_reason": "Missed Trash Pick-Up",
    "date_created": "2023-01-05T19:59:46.000",
    "date_modified": "2023-01-05T19:59:47.000",
    "request_status": "Pending",
    "responsible_agency": "Department of Sanitation",
    "final_address": "2512 Constance St",
    "address_councildis": "B",
    "status": "Assigned to Contractor",
    "contractor": "Richards Disposal",
    "rowid": "961523",
    "final_x": "3677936.28232",
    "final_y": "520930.997625",
    "longitude": "-90.07968908376468",
    "latitude": "29.926487149826272",
    "geocoded_column": {
      "latitude": "29.926487149826272",
      "longitude": "-90.07968908376468"
    }
  },
  {
    "service_request": "2023-961522",
    "request_type": "Trash/Recycling",
    "request_reason": "Missed Trash Pick-Up",
    "date_created": "2023-01-05T19:57:40.000",
    "date_modified": "2023-01-05T19:57:41.000",
    "request_status": "Pending",
    "responsible_agency": "Department of Sanitation",
    "final_address": "5015 St Claude Ave",
    "address_councildis": "E",
    "status": "Assigned to Contractor",
    "contractor": "Waste Pro",
    "rowid": "961522",
    "final_x": "3696113.05085",
    "final_y": "534351.361221",
    "longitude": "-90.02182547915295",
    "latitude": "29.962829149857008",
    "geocoded_column": {
      "latitude": "29.962829149857008",
      "longitude": "-90.02182547915295"
    }
  },
  {
    "service_request": "2023-961521",
    "request_type": "Trash/Recycling",
    "request_reason": "Missed Trash Pick-Up",
    "date_created": "2023-01-05T19:57:21.000",
    "date_modified": "2023-01-05T19:57:21.000",
    "request_status": "Pending",
    "responsible_agency": "Department of Sanitation",
    "final_address": "3707 Baronne St",
    "address_councildis": "B",
    "status": "Assigned to Contractor",
    "contractor": "Richards Disposal",
    "rowid": "961521",
    "final_x": "3672879.80718",
    "final_y": "521898.219898",
    "longitude": "-90.09561802124969",
    "latitude": "29.929297849043184",
    "geocoded_column": {
      "latitude": "29.929297849043184",
      "longitude": "-90.09561802124969"
    }
  },
  {
    "service_request": "2023-961520",
    "request_type": "Trash/Recycling",
    "request_reason": "Missed Trash Pick-Up",
    "date_created": "2023-01-05T19:55:21.000",
    "date_modified": "2023-01-05T19:55:22.000",
    "request_status": "Pending",
    "responsible_agency": "Department of Sanitation",
    "final_address": "2101 Delachaise St",
    "address_councildis": "B",
    "status": "Assigned to Contractor",
    "contractor": "Richards Disposal",
    "rowid": "961520",
    "final_x": "3673179.38932",
    "final_y": "523099.778171",
    "longitude": "-90.09463129033044",
    "latitude": "29.93259284471735",
    "geocoded_column": {
      "latitude": "29.93259284471735",
      "longitude": "-90.09463129033044"
    }
  },
  {
    "service_request": "2023-961519",
    "request_type": "Trash/Recycling",
    "request_reason": "Missed Trash Pick-Up",
    "date_created": "2023-01-05T19:55:00.000",
    "date_modified": "2023-01-05T19:55:01.000",
    "request_status": "Pending",
    "responsible_agency": "Department of Sanitation",
    "final_address": "17 Versailles Blvd",
    "address_councildis": "A",
    "status": "Assigned to Contractor",
    "contractor": "Richards Disposal",
    "rowid": "961519",
    "final_x": "3667178.86778",
    "final_y": "528969.64992",
    "longitude": "-90.11337720356356",
    "latitude": "29.948910105580993",
    "geocoded_column": {
      "latitude": "29.948910105580993",
      "longitude": "-90.11337720356356"
    }
  },
  {
    "service_request": "2023-961518",
    "request_type": "Trash/Recycling",
    "request_reason": "Missed Trash Pick-Up",
    "date_created": "2023-01-05T19:53:51.000",
    "date_modified": "2023-01-05T19:53:52.000",
    "request_status": "Pending",
    "responsible_agency": "Department of Sanitation",
    "final_address": "7544 Plum St",
    "address_councildis": "A",
    "status": "Assigned to Contractor",
    "contractor": "Richards Disposal",
    "rowid": "961518",
    "final_x": "3663594.91661",
    "final_y": "527316.303935",
    "longitude": "-90.12474839841894",
    "latitude": "29.944468369454647",
    "geocoded_column": {
      "latitude": "29.944468369454647",
      "longitude": "-90.12474839841894"
    }
  },
  {
    "service_request": "2023-961517",
    "request_type": "Trash/Recycling",
    "request_reason": "Missed Trash Pick-Up",
    "date_created": "2023-01-05T19:53:40.000",
    "date_modified": "2023-01-05T19:53:41.000",
    "request_status": "Pending",
    "responsible_agency": "Department of Sanitation",
    "final_address": "918 Sixth St",
    "address_councildis": "B",
    "status": "Assigned to Contractor",
    "contractor": "Richards Disposal",
    "rowid": "961517",
    "final_x": "3676890.08565",
    "final_y": "520025.410936",
    "longitude": "-90.0830228316674",
    "latitude": "29.924028511906265",
    "geocoded_column": {
      "latitude": "29.924028511906265",
      "longitude": "-90.0830228316674"
    }
  },
  {
    "service_request": "2023-961516",
    "request_type": "Trash/Recycling",
    "request_reason": "Missed Trash Pick-Up",
    "date_created": "2023-01-05T19:52:55.000",
    "date_modified": "2023-01-05T19:52:55.000",
    "request_status": "Pending",
    "responsible_agency": "Department of Sanitation",
    "final_address": "2038 Third St",
    "address_councildis": "B",
    "status": "Assigned to Contractor",
    "contractor": "Richards Disposal",
    "rowid": "961516",
    "final_x": "3675447.05089",
    "final_y": "524320.466748",
    "longitude": "-90.0874305651831",
    "latitude": "29.935881738946353",
    "geocoded_column": {
      "latitude": "29.935881738946353",
      "longitude": "-90.0874305651831"
    }
  },
  {
    "service_request": "2023-961515",
    "request_type": "Property Maintenance",
    "request_reason": "Property Maintenance",
    "date_created": "2023-01-05T19:51:46.000",
    "date_modified": "2023-01-05T19:51:46.000",
    "request_status": "Pending",
    "responsible_agency": "Department of Code Enforcement",
    "final_address": "2027 N Tonti St",
    "address_councildis": "D",
    "status": "Pending",
    "rowid": "961515",
    "final_x": "3683056.40578",
    "final_y": "540624.964939",
    "longitude": "-90.06283697925876",
    "latitude": "29.980483844886205",
    "geocoded_column": {
      "latitude": "29.980483844886205",
      "longitude": "-90.06283697925876"
    }
  },
  {
    "service_request": "2023-961514",
    "request_type": "Trash/Recycling",
    "request_reason": "Missed Trash Pick-Up",
    "date_created": "2023-01-05T19:51:26.000",
    "date_modified": "2023-01-05T19:51:27.000",
    "request_status": "Pending",
    "responsible_agency": "Department of Sanitation",
    "final_address": "3422 Annunciation St",
    "address_councildis": "B",
    "status": "Assigned to Contractor",
    "contractor": "Richards Disposal",
    "rowid": "961514",
    "final_x": "3675289.0923",
    "final_y": "518499.996919",
    "longitude": "-90.08812893210879",
    "latitude": "29.919882052544125",
    "geocoded_column": {
      "latitude": "29.919882052544125",
      "longitude": "-90.08812893210879"
    }
  },
  {
    "service_request": "2023-961513",
    "request_type": "Trash/Recycling",
    "request_reason": "MIssed Recycling Pick-Up",
    "date_created": "2023-01-05T19:49:43.000",
    "date_modified": "2023-01-05T19:49:44.000",
    "request_status": "Pending",
    "responsible_agency": "Department of Sanitation",
    "final_address": "410 Lowerline St",
    "address_councildis": "A",
    "status": "Assigned to Contractor",
    "contractor": "Richards Disposal",
    "rowid": "961513",
    "final_x": "3661666.96403",
    "final_y": "524041.37734",
    "longitude": "-90.13094403947427",
    "latitude": "29.93551913414109",
    "geocoded_column": {
      "latitude": "29.93551913414109",
      "longitude": "-90.13094403947427"
    }
  },
  {
    "service_request": "2023-961512",
    "request_type": "Trash/Recycling",
    "request_reason": "Missed Trash Pick-Up",
    "date_created": "2023-01-05T19:48:11.000",
    "date_modified": "2023-01-05T19:48:11.000",
    "request_status": "Pending",
    "responsible_agency": "Department of Sanitation",
    "final_address": "410 Lowerline St",
    "address_councildis": "A",
    "status": "Assigned to Contractor",
    "contractor": "Richards Disposal",
    "rowid": "961512",
    "final_x": "3661666.96403",
    "final_y": "524041.37734",
    "longitude": "-90.13094403947427",
    "latitude": "29.93551913414109",
    "geocoded_column": {
      "latitude": "29.93551913414109",
      "longitude": "-90.13094403947427"
    }
  },
  {
    "service_request": "2023-961511",
    "request_type": "Trash/Recycling",
    "request_reason": "Missed Trash Pick-Up",
    "date_created": "2023-01-05T19:46:52.000",
    "date_modified": "2023-01-05T19:46:53.000",
    "request_status": "Pending",
    "responsible_agency": "Department of Sanitation",
    "final_address": "1421 General Pershing St",
    "address_councildis": "B",
    "status": "Assigned to Contractor",
    "contractor": "Richards Disposal",
    "rowid": "961511",
    "final_x": "3671361.78433",
    "final_y": "520550.771576",
    "longitude": "-90.10045591150714",
    "latitude": "29.925637797976027",
    "geocoded_column": {
      "latitude": "29.925637797976027",
      "longitude": "-90.10045591150714"
    }
  },
  {
    "service_request": "2023-961510",
    "request_type": "Trash/Recycling",
    "request_reason": "Missed Trash Pick-Up",
    "date_created": "2023-01-05T19:46:41.000",
    "date_modified": "2023-01-05T19:46:42.000",
    "request_status": "Pending",
    "responsible_agency": "Department of Sanitation",
    "final_address": "3807 Peach Tree Ct",
    "address_councildis": "C",
    "status": "Assigned to Contractor",
    "contractor": "Richards Disposal",
    "rowid": "961510",
    "final_x": "3703825.85079",
    "final_y": "512603.100081",
    "longitude": "-89.99826982423347",
    "latitude": "29.902784049509137",
    "geocoded_column": {
      "latitude": "29.902784049509137",
      "longitude": "-89.99826982423347"
    }
  },
  {
    "service_request": "2023-961509",
    "request_type": "Trash/Recycling",
    "request_reason": "Missed Trash Pick-Up",
    "date_created": "2023-01-05T19:44:30.000",
    "date_modified": "2023-01-05T19:44:31.000",
    "request_status": "Pending",
    "responsible_agency": "Department of Sanitation",
    "final_address": "1515 Valmont St",
    "address_councildis": "B",
    "status": "Assigned to Contractor",
    "contractor": "Richards Disposal",
    "rowid": "961509",
    "final_x": "3667835.71975",
    "final_y": "520564.229176",
    "longitude": "-90.11158620829939",
    "latitude": "29.925778651202457",
    "geocoded_column": {
      "latitude": "29.925778651202457",
      "longitude": "-90.11158620829939"
    }
  },
  {
    "service_request": "2023-961508",
    "request_type": "Trash/Recycling",
    "request_reason": "Missed Trash Pick-Up",
    "date_created": "2023-01-05T19:42:14.000",
    "date_modified": "2023-01-05T19:42:14.000",
    "request_status": "Pending",
    "responsible_agency": "Department of Sanitation",
    "final_address": "1000 Harmony St",
    "address_councildis": "B",
    "status": "Assigned to Contractor",
    "contractor": "Richards Disposal",
    "rowid": "961508",
    "final_x": "3675932.62408",
    "final_y": "519681.881016",
    "longitude": "-90.08605700449877",
    "latitude": "29.923112608156774",
    "geocoded_column": {
      "latitude": "29.923112608156774",
      "longitude": "-90.08605700449877"
    }
  },
  {
    "service_request": "2023-961507",
    "request_type": "Property Maintenance",
    "request_reason": "Property Maintenance",
    "date_created": "2023-01-05T19:39:51.000",
    "date_modified": "2023-01-05T19:39:51.000",
    "request_status": "Pending",
    "responsible_agency": "Department of Code Enforcement",
    "final_address": "2220 St Anthony St",
    "address_councildis": "D",
    "status": "Pending",
    "rowid": "961507",
    "final_x": "3683095.96444",
    "final_y": "540410.298379",
    "longitude": "-90.06271955451078",
    "latitude": "29.97989238089113",
    "geocoded_column": {
      "latitude": "29.97989238089113",
      "longitude": "-90.06271955451078"
    }
  },