[
  {
    "service_request": "2024-1141382",
    "request_type": "Trash/Recycling",
    "request_reason": "Request a Large Item Pick Up",
    "date_created": "2024-10-15T23:58:17.000",
    "date_modified": "2024-10-15T23:58:18.000",
    "request_status": "Pending",
    "responsible_agency": "Department of Sanitation",
    "final_address": "7601 Berg Rd",
    "address_councildis": "E",
    "status": "Assigned to Contractor",
    "contractor": "Waste Pro",
    "rowid": "1141382",
    "final_x": "3712142.36107",
    "final_y": "566511.358755",
    "longitude": "-89.96999916537659",
    "latitude": "30.050742498190353",
    "geocoded_column": {
      "latitude": "30.050742498190353",
      "longitude": "-89.96999916537659"
    }
  },
  {
    "service_request": "2024-1141381",
    "request_type": "Trash/Recycling",
    "request_reason": "Request a Large Item Pick Up",
    "date_created": "2024-10-15T23:57:21.000",
    "date_modified": "2024-10-15T23:57:22.000",
    "request_status": "Pending",
    "responsible_agency": "Department of Sanitation",
    "final_address": "7601 Berg Rd",
    "address_councildis": "E",
    "status": "Assigned to Contractor",
    "contractor": "Waste Pro",
    "rowid": "1141381",
    "final_x": "3712142.36107",
    "final_y": "566511.358755",
    "longitude": "-89.96999916537659",
    "latitude": "30.050742498190353",
    "geocoded_column": {
      "latitude": "30.050742498190353",
      "longitude": "-89.96999916537659"
    }
  },
  {
    "service_request": "2024-1141380",
    "request_type": "Trash/Recycling",
    "request_reason": "Order Recycling Cart",
    "date_created": "2024-10-15T23:20:30.000",
    "date_modified": "2024-10-15T23:20:30.000",
    "request_status": "Pending",
    "responsible_agency": "Department of Sanitation",
    "final_address": "7015 Lake Willow Dr",
    "address_councildis": "E",
    "status": "Pending",
    "rowid": "1141380",
    "final_x": "3702522.84855",
    "final_y": "558959.186396",
    "longitude": "-90.00068053410376",
    "latitude": "30.030288186723276",
    "geocoded_column": {
      "latitude": "30.030288186723276",
      "longitude": "-90.00068053410376"
    }
  },
  {
    "service_request": "2024-1141379",
    "request_type": "Trash/Recycling",
    "request_reason": "Request a Large Item Pick Up",
    "date_created": "2024-10-15T23:14:26.000",
    "date_modified": "2024-10-15T23:14:27.000",
    "request_status": "Pending",
    "responsible_agency": "Department of Sanitation",
    "final_address": "2736 Jonquil St",
    "address_councildis": "D",
    "status": "Assigned to Contractor",
    "contractor": "IV Waste",
    "rowid": "1141379",
    "final_x": "3688046.51881",
    "final_y": "547215.230225",
    "longitude": "-90.04684239697757",
    "latitude": "29.998451632988573",
    "geocoded_column": {
      "latitude": "29.998451632988573",
      "longitude": "-90.04684239697757"
    }
  },
  {
    "service_request": "2024-1141378",
    "request_type": "Health Related Request",
    "request_reason": "Noise Ordinance Complaint",
    "date_created": "2024-10-15T23:08:07.000",
    "date_modified": "2024-10-15T23:08:07.000",
    "request_status": "Pending",
    "responsible_agency": "Health Department",
    "final_address": "1010 Girod St",
    "address_councildis": "B",
    "status": "Pending",
    "rowid": "1141378",
    "final_x": "3679281.10434",
    "final_y": "528792.09024",
    "longitude": "-90.07517137616092",
    "latitude": "29.948062031515523",
    "geocoded_column": {
      "latitude": "29.948062031515523",
      "longitude": "-90.07517137616092"
    }
  },
  {
    "service_request": "2024-1141377",
    "request_type": "Abandoned Vehicles",
    "request_reason": "Abandoned/Junk Vehicles",
    "date_created": "2024-10-15T22:57:33.000",
    "date_modified": "2024-10-15T22:57:33.000",
    "request_status": "Pending",
    "responsible_agency": "Department of Public Works",
    "final_address": "2713 Jasmine St",
    "address_councildis": "D",
    "status": "Pending",
    "rowid": "1141377",
    "final_x": "3687843.13788",
    "final_y": "548237.530514",
    "longitude": "-90.04744863411604",
    "latitude": "30.00126886556038",
    "geocoded_column": {
      "latitude": "30.00126886556038",
      "longitude": "-90.04744863411604"
    }
  },
  {
    "service_request": "2024-1141376",
    "request_type": "General Services",
    "request_reason": "General Service Request",
    "date_created": "2024-10-15T22:43:42.000",
    "date_modified": "2024-10-15T22:43:42.000",
    "request_status": "Pending",
    "responsible_agency": "Orleans Parish Communication District",
    "final_address": "1204 N Derbigny St",
    "address_councildis": "D",
    "status": "Pending",
    "rowid": "1141376",
    "final_x": "3680655.25077",
    "final_y": "536313.853575",
    "longitude": "-90.07057091548201",
    "latitude": "29.96870276730934",
    "geocoded_column": {
      "latitude": "29.96870276730934",
      "longitude": "-90.07057091548201"
    }
  },
  {
    "service_request": "2024-1141375",
    "request_type": "Streetlights",
    "request_reason": "Streetlight Outage/Malfunction",
    "date_created": "2024-10-15T22:37:56.000",
    "date_modified": "2024-10-15T22:37:58.000",
    "request_status": "Pending",
    "responsible_agency": "Department of Public Works",
    "final_address": "1ST ST & CARONDELET ST",
    "address_councildis": "B",
    "status": "Pending",
    "contractor": "Legacy Professional Services",
    "rowid": "1141375",
    "final_x": "3676739.2",
    "final_y": "523533.78",
    "longitude": "-90.08337831482923",
    "latitude": "29.933679912123125",
    "geocoded_column": {
      "latitude": "29.933679912123125",
      "longitude": "-90.08337831482923"
    }
  },
  {
    "service_request": "2024-1141374",
    "request_type": "Streetlights",
    "request_reason": "Streetlight Outage/Malfunction",
    "date_created": "2024-10-15T22:24:10.000",
    "date_modified": "2024-10-15T22:24:11.000",
    "request_status": "Pending",
    "responsible_agency": "Department of Public Works",
    "final_address": "1501 Fern St",
    "address_councildis": "A",
    "status": "Pending",
    "contractor": "Legacy Professional Services",
    "rowid": "1141374",
    "final_x": "3663341.34637",
    "final_y": "528652.070592",
    "longitude": "-90.12550454155887",
    "latitude": "29.948148651021377",
    "geocoded_column": {
      "latitude": "29.948148651021377",
      "longitude": "-90.12550454155887"
    }
  },
  {
    "service_request": "2024-1141373",
    "request_type": "Streetlights",
    "request_reason": "Streetlight Outage/Malfunction",
    "date_created": "2024-10-15T22:16:41.000",
    "date_modified": "2024-10-15T22:16:42.000",
    "request_status": "Pending",
    "responsible_agency": "Department of Public Works",
    "final_address": "1501 Fern St",
    "address_councildis": "A",
    "status": "Pending",
    "contractor": "Legacy Professional Services",
    "rowid": "1141373",
    "final_x": "3663341.34637",
    "final_y": "528652.070592",
    "longitude": "-90.12550454155887",
    "latitude": "29.948148651021377",
    "geocoded_column": {
      "latitude": "29.948148651021377",
      "longitude": "-90.12550454155887"
    }
  },
  {
    "service_request": "2024-1141372",
    "request_type": "Property Maintenance",
    "request_reason": "Property Maintenance",
    "date_created": "2024-10-15T22:08:36.000",
    "date_modified": "2024-10-15T22:08:36.000",
    "request_status": "Pending",
    "responsible_agency": "Department of Code Enforcement",
    "final_address": "2523 Soniat St",
    "address_councildis": "B",
    "status": "Pending",
    "rowid": "1141372",
    "final_x": "3668579.98983",
    "final_y": "524832.129084",
    "longitude": "-90.10909282059016",
    "latitude": "29.937492170444475",
    "geocoded_column": {
      "latitude": "29.937492170444475",
      "longitude": "-90.10909282059016"
    }
  },
  {
    "service_request": "2024-1141371",
    "request_type": "Abandoned Vehicles",
    "request_reason": "Abandoned/Junk Vehicles",
    "date_created": "2024-10-15T21:59:03.000",
    "date_modified": "2024-10-15T21:59:03.000",
    "request_status": "Pending",
    "responsible_agency": "Department of Public Works",
    "final_address": "2806 Baronne St",
    "address_councildis": "B",
    "status": "Pending",
    "rowid": "1141371",
    "final_x": "3675455.89153",
    "final_y": "523070.816571",
    "longitude": "-90.08744555145843",
    "latitude": "29.93244534412657",
    "geocoded_column": {
      "latitude": "29.93244534412657",
      "longitude": "-90.08744555145843"
    }
  },
  {
    "service_request": "2024-1141370",
    "request_type": "Property Maintenance",
    "request_reason": "Property Maintenance",
    "date_created": "2024-10-15T21:30:36.000",
    "date_modified": "2024-10-15T21:30:36.000",
    "request_status": "Pending",
    "responsible_agency": "Department of Code Enforcement",
    "final_address": "1714 Marais St",
    "address_councildis": "C",
    "status": "Pending",
    "rowid": "1141370",
    "final_x": "3683262.09916",
    "final_y": "536420.551175",
    "longitude": "-90.06233461000782",
    "latitude": "29.968916897745167",
    "geocoded_column": {
      "latitude": "29.968916897745167",
      "longitude": "-90.06233461000782"
    }
  },
  {
    "service_request": "2024-1141369",
    "request_type": "Parks & Parkways",
    "request_reason": "Request Tree Service (Right of Way/Public Property)",
    "date_created": "2024-10-15T21:25:06.000",
    "date_modified": "2024-10-15T21:25:06.000",
    "request_status": "Pending",
    "responsible_agency": "Department of Parks & Parkway",
    "final_address": "1782 N Dorgenois St",
    "address_councildis": "D",
    "status": "Pending",
    "rowid": "1141369",
    "final_x": "3680460.3037",
    "final_y": "540923.676811",
    "longitude": "-90.07102619121812",
    "latitude": "29.98138409271417",
    "geocoded_column": {
      "latitude": "29.98138409271417",
      "longitude": "-90.07102619121812"
    }
  },
  {
    "service_request": "2024-1141368",
    "request_type": "Abandoned Vehicles",
    "request_reason": "Vehicle Blocking Your Driveway",
    "date_created": "2024-10-15T20:47:45.000",
    "date_modified": "2024-10-15T20:47:45.000",
    "request_status": "Pending",
    "responsible_agency": "Department of Public Works",
    "final_address": "2114 Calhoun st",
    "address_councildis": "A",
    "status": "Pending",
    "rowid": "1141368",
    "final_x": "3665635.8313",
    "final_y": "524853.447484",
    "longitude": "-90.11838706008044",
    "latitude": "29.937636954653435",
    "geocoded_column": {
      "latitude": "29.937636954653435",
      "longitude": "-90.11838706008044"
    }
  },
  {
    "service_request": "2024-1141367",
    "request_type": "Abandoned Vehicles",
    "request_reason": "Abandoned/Junk Vehicles",
    "date_created": "2024-10-15T20:17:06.000",
    "date_modified": "2024-10-15T20:17:06.000",
    "request_status": "Pending",
    "responsible_agency": "Department of Public Works",
    "final_address": "2231 Felicity St Apt A",
    "address_councildis": "B",
    "status": "Pending",
    "rowid": "1141367",
    "final_x": "3676462.96744",
    "final_y": "526649.10131",
    "longitude": "-90.08414314804952",
    "latitude": "29.942254305681445",
    "geocoded_column": {
      "latitude": "29.942254305681445",
      "longitude": "-90.08414314804952"
    }
  },
  {
    "service_request": "2024-1141366",
    "request_type": "Trash/Recycling",
    "request_reason": "MIssed Recycling Pick-Up",
    "date_created": "2024-10-15T20:01:27.000",
    "date_modified": "2024-10-15T20:01:28.000",
    "request_status": "Pending",
    "responsible_agency": "Department of Sanitation",
    "final_address": "1723 Ursulines Ave",
    "address_councildis": "D",
    "status": "Assigned to Contractor",
    "contractor": "IV Waste",
    "rowid": "1141366",
    "final_x": "3680492.99535",
    "final_y": "535999.656583",
    "longitude": "-90.07109425777142",
    "latitude": "29.967843749135866",
    "geocoded_column": {
      "latitude": "29.967843749135866",
      "longitude": "-90.07109425777142"
    }
  },
  {
    "service_request": "2024-1141365",
    "request_type": "Healthy Homes",
    "request_reason": "Healthy Homes",
    "date_created": "2024-10-15T19:53:04.000",
    "date_modified": "2024-10-15T19:53:04.000",
    "request_status": "Pending",
    "responsible_agency": "Department of Code Enforcement",
    "final_address": "12151 N Interstate 10 Service Rd Apt 222",
    "address_councildis": "E",
    "status": "Pending",
    "rowid": "1141365",
    "final_x": "3714954.58002",
    "final_y": "566173.574947",
    "longitude": "-89.96112359315354",
    "latitude": "30.04972142841712",
    "geocoded_column": {
      "latitude": "30.04972142841712",
      "longitude": "-89.96112359315354"
    }
  },
  {
    "service_request": "2024-1141364",
    "request_type": "Healthy Homes",
    "request_reason": "Healthy Homes",
    "date_created": "2024-10-15T19:51:46.000",
    "date_modified": "2024-10-15T19:51:46.000",
    "request_status": "Pending",
    "responsible_agency": "Department of Code Enforcement",
    "final_address": "12151 N Interstate 10 Service Rd Apt 222",
    "address_councildis": "E",
    "status": "Pending",
    "rowid": "1141364",
    "final_x": "3714954.58002",
    "final_y": "566173.574947",
    "longitude": "-89.96112359315354",
    "latitude": "30.04972142841712",
    "geocoded_column": {
      "latitude": "30.04972142841712",
      "longitude": "-89.96112359315354"
    }
  },
  {
    "service_request": "2024-1141363",
    "request_type": "Trash/Recycling",
    "request_reason": "Request a Large Item Pick Up",
    "date_created": "2024-10-15T19:45:24.000",
    "date_modified": "2024-10-15T19:45:25.000",
    "request_status": "Pending",
    "responsible_agency": "Department of Sanitation",
    "final_address": "6269 Milne Blvd",
    "address_councildis": "A",
    "status": "Assigned to Contractor",
    "contractor": "IV Waste",
    "rowid": "1141363",
    "final_x": "3667283.88359",
    "final_y": "549205.741331",
    "longitude": "-90.11236478792354",
    "latitude": "30.0045494863506",
    "geocoded_column": {
      "latitude": "30.0045494863506",
      "longitude": "-90.11236478792354"
    }
  },
  {
    "service_request": "2024-1141362",
    "request_type": "Mosquito, Termite & Rodent Control",
    "request_reason": "Rodent Complaint (Rats)",
    "date_created": "2024-10-15T19:31:11.000",
    "date_modified": "2024-10-15T19:31:11.000",
    "request_status": "Pending",
    "responsible_agency": "Mosquito, Termite & Rodent Control Board",
    "final_address": "8333 Green St",
    "address_councildis": "A",
    "status": "Pending",
    "rowid": "1141362",
    "final_x": "3662428.50899",
    "final_y": "530370.332802",
    "longitude": "-90.12832970155549",
    "latitude": "29.952899745802675",
    "geocoded_column": {
      "latitude": "29.952899745802675",
      "longitude": "-90.12832970155549"
    }
  },
  {
    "service_request": "2024-1141361",
    "request_type": "Trash/Recycling",
    "request_reason": "Request a Large Item Pick Up",
    "date_created": "2024-10-15T19:07:17.000",
    "date_modified": "2024-10-15T19:07:18.000",
    "request_status": "Pending",
    "responsible_agency": "Department of Sanitation",
    "final_address": "734 France St",
    "address_councildis": "C",
    "status": "Assigned to Contractor",
    "contractor": "IV Waste",
    "rowid": "1141361",
    "final_x": "3692052.47664",
    "final_y": "533940.510725",
    "longitude": "-90.03466290654639",
    "latitude": "29.961826624951083",
    "geocoded_column": {
      "latitude": "29.961826624951083",
      "longitude": "-90.03466290654639"
    }
  },
  {
    "service_request": "2024-1141360",
    "request_type": "Trash/Recycling",
    "request_reason": "Request a Large Item Pick Up",
    "date_created": "2024-10-15T18:57:22.000",
    "date_modified": "2024-10-15T18:57:23.000",
    "request_status": "Pending",
    "responsible_agency": "Department of Sanitation",
    "final_address": "2150 Timoleon St",
    "address_councildis": "D",
    "status": "Assigned to Contractor",
    "contractor": "IV Waste",
    "rowid": "1141360",
    "final_x": "3683496.12309",
    "final_y": "551051.480533",
    "longitude": "-90.06108252002572",
    "latitude": "30.00913963233658",
    "geocoded_column": {
      "latitude": "30.00913963233658",
      "longitude": "-90.06108252002572"
    }
  },
  {
    "service_request": "2024-1141359",
    "request_type": "Trash/Recycling",
    "request_reason": "Order Recycling Cart",
    "date_created": "2024-10-15T18:20:05.000",
    "date_modified": "2024-10-15T18:20:05.000",
    "request_status": "Pending",
    "responsible_agency": "Department of Sanitation",
    "final_address": "6348 Pratt Dr",
    "address_councildis": "D",
    "status": "Pending",
    "rowid": "1141359",
    "final_x": "3679339.56648",
    "final_y": "557301.590491",
    "longitude": "-90.07399746649924",
    "latitude": "30.02645141112103",
    "geocoded_column": {
      "latitude": "30.02645141112103",
      "longitude": "-90.07399746649924"
    }
  },
  {
    "service_request": "2024-1141358",
    "request_type": "Trash/Recycling",
    "request_reason": "Order Recycling Cart",
    "date_created": "2024-10-15T18:17:36.000",
    "date_modified": "2024-10-15T18:17:36.000",
    "request_status": "Pending",
    "responsible_agency": "Department of Sanitation",
    "final_address": "6348 Pratt Dr",
    "address_councildis": "D",
    "status": "Pending",
    "rowid": "1141358",
    "final_x": "3679339.56648",
    "final_y": "557301.590491",
    "longitude": "-90.07399746649924",
    "latitude": "30.02645141112103",
    "geocoded_column": {
      "latitude": "30.02645141112103",
      "longitude": "-90.07399746649924"
    }
  },
  {
    "service_request": "2024-1141357",
    "request_type": "Property Maintenance",
    "request_reason": "Property Maintenance",
    "date_created": "2024-10-15T18:14:15.000",
    "date_modified": "2024-10-15T18:14:15.000",
    "request_status": "Pending",
    "responsible_agency": "Department of Code Enforcement",
    "final_address": "6569 Milne Blvd",
    "address_councildis": "A",
    "status": "Pending",
    "rowid": "1141357",
    "final_x": "3667530.21018",
    "final_y": "551389.680981",
    "longitude": "-90.11151302208019",
    "latitude": "30.01054733941356",
    "geocoded_column": {
      "latitude": "30.01054733941356",
      "longitude": "-90.11151302208019"
    }
  },
  {
    "service_request": "2024-1141356",
    "request_type": "Trash/Recycling",
    "request_reason": "Request a Large Item Pick Up",
    "date_created": "2024-10-15T18:12:57.000",
    "date_modified": "2024-10-15T18:12:58.000",
    "request_status": "Pending",
    "responsible_agency": "Department of Sanitation",
    "final_address": "6951 E Hermes St",
    "address_councildis": "D",
    "status": "Assigned to Contractor",
    "contractor": "Waste Pro",
    "rowid": "1141356",
    "final_x": "3697513.59018",
    "final_y": "557027.212314",
    "longitude": "-90.0165798986634",
    "latitude": "30.02513523760891",
    "geocoded_column": {
      "latitude": "30.02513523760891",
      "longitude": "-90.0165798986634"
    }
  },
  {
    "service_request": "2024-1141355",
    "request_type": "Property Maintenance",
    "request_reason": "Property Maintenance",
    "date_created": "2024-10-15T18:04:07.000",
    "date_modified": "2024-10-15T18:04:07.000",
    "request_status": "Pending",
    "responsible_agency": "Department of Code Enforcement",
    "final_address": "7341 Briarheath Dr",
    "address_councildis": "E",
    "status": "Pending",
    "rowid": "1141355",
    "final_x": "3714210.54085",
    "final_y": "566523.189987",
    "longitude": "-89.96346198483421",
    "latitude": "30.050707206109458",
    "geocoded_column": {
      "latitude": "30.050707206109458",
      "longitude": "-89.96346198483421"
    }
  },
  {
    "service_request": "2024-1141354",
    "request_type": "Abandoned Vehicles",
    "request_reason": "Abandoned/Junk Vehicles",
    "date_created": "2024-10-15T17:55:21.000",
    "date_modified": "2024-10-15T17:55:21.000",
    "request_status": "Pending",
    "responsible_agency": "Department of Public Works",
    "final_address": "3233 Lowerline St",
    "address_councildis": "B",
    "status": "Pending",
    "rowid": "1141354",
    "final_x": "3667901.89005",
    "final_y": "533044.517508",
    "longitude": "-90.11095704741513",
    "latitude": "29.960093470412172",
    "geocoded_column": {
      "latitude": "29.960093470412172",
      "longitude": "-90.11095704741513"
    }
  },
  {
    "service_request": "2024-1141353",
    "request_type": "Abandoned Vehicles",
    "request_reason": "Abandoned/Junk Vehicles",
    "date_created": "2024-10-15T17:51:41.000",
    "date_modified": "2024-10-15T17:51:41.000",
    "request_status": "Pending",
    "responsible_agency": "Department of Public Works",
    "final_address": "3229 Lowerline St",
    "address_councildis": "B",
    "status": "Pending",
    "rowid": "1141353",
    "final_x": "3667862.57255",
    "final_y": "532998.952068",
    "longitude": "-90.11108273887271",
    "latitude": "29.95996933372311",
    "geocoded_column": {
      "latitude": "29.95996933372311",
      "longitude": "-90.11108273887271"
    }
  },
  {
    "service_request": "2024-1141352",
    "request_type": "Trash/Recycling",
    "request_reason": "Request a Large Item Pick Up",
    "date_created": "2024-10-15T17:42:28.000",
    "date_modified": "2024-10-15T17:42:30.000",
    "request_status": "Pending",
    "responsible_agency": "Department of Sanitation",
    "final_address": "2700 BLK Fern St",
    "address_councildis": "A",
    "status": "Assigned to Contractor",
    "contractor": "IV Waste",
    "rowid": "1141352",
    "final_x": "3666288.31732",
    "final_y": "531968.464722",
    "longitude": "-90.11608848036703",
    "latitude": "29.957181910705835",
    "geocoded_column": {
      "latitude": "29.957181910705835",
      "longitude": "-90.11608848036703"
    }
  },
  {
    "service_request": "2024-1141351",
    "request_type": "Abandoned Vehicles",
    "request_reason": "Abandoned/Junk Vehicles",
    "date_created": "2024-10-15T17:37:32.000",
    "date_modified": "2024-10-15T17:37:32.000",
    "request_status": "Pending",
    "responsible_agency": "Department of Public Works",
    "final_address": "1524 Pauline St",
    "address_councildis": "D",
    "status": "Pending",
    "rowid": "1141351",
    "final_x": "3691590.7654",
    "final_y": "537151.199304",
    "longitude": "-90.03600611890383",
    "latitude": "29.970669269692227",
    "geocoded_column": {
      "latitude": "29.970669269692227",
      "longitude": "-90.03600611890383"
    }
  },
  {
    "service_request": "2024-1141350",
    "request_type": "Abandoned Vehicles",
    "request_reason": "Abandoned/Junk Vehicles",
    "date_created": "2024-10-15T17:31:16.000",
    "date_modified": "2024-10-15T17:31:16.000",
    "request_status": "Pending",
    "responsible_agency": "Department of Public Works",
    "final_address": "3225 Lowerline St",
    "address_councildis": "B",
    "status": "Pending",
    "rowid": "1141350",
    "final_x": "3667849.58004",
    "final_y": "532970.36986",
    "longitude": "-90.1111247292378",
    "latitude": "29.95989112313784",
    "geocoded_column": {
      "latitude": "29.95989112313784",
      "longitude": "-90.1111247292378"
    }
  },
  {
    "service_request": "2024-1141349",
    "request_type": "Roads and Streets",
    "request_reason": "Street Subsidence (Sinking)",
    "date_created": "2024-10-15T17:27:01.000",
    "date_modified": "2024-10-15T17:27:01.000",
    "request_status": "Pending",
    "responsible_agency": "Department of Public Works",
    "final_address": "508 Dumaine St",
    "address_councildis": "C",
    "status": "Inspected",
    "rowid": "1141349",
    "final_x": "3683511.67279",
    "final_y": "532624.29978",
    "longitude": "-90.06167949311465",
    "latitude": "29.958470897749752",
    "geocoded_column": {
      "latitude": "29.958470897749752",
      "longitude": "-90.06167949311465"
    }
  },
  {
    "service_request": "2024-1141348",
    "request_type": "Trash/Recycling",
    "request_reason": "Repair Recycling Cart",
    "date_created": "2024-10-15T17:13:02.000",
    "date_modified": "2024-10-15T17:13:02.000",
    "request_status": "Pending",
    "responsible_agency": "Department of Sanitation",
    "final_address": "2514 Adams St",
    "address_councildis": "A",
    "status": "Pending",
    "rowid": "1141348",
    "final_x": "3666291.92775",
    "final_y": "531000.21101",
    "longitude": "-90.11610955893856",
    "latitude": "29.95451942389691",
    "geocoded_column": {
      "latitude": "29.95451942389691",
      "longitude": "-90.11610955893856"
    }
  },
  {
    "service_request": "2024-1141347",
    "request_type": "Trash/Recycling",
    "request_reason": "Request a Large Item Pick Up",
    "date_created": "2024-10-15T17:03:20.000",
    "date_modified": "2024-10-15T17:03:21.000",
    "request_status": "Pending",
    "responsible_agency": "Department of Sanitation",
    "final_address": "3583 Mimosa Ct",
    "address_councildis": "C",
    "status": "Assigned to Contractor",
    "contractor": "Richards Disposal",
    "rowid": "1141347",
    "final_x": "3703041.0705",
    "final_y": "513018.316209",
    "longitude": "-90.00073131128478",
    "latitude": "29.903950872315548",
    "geocoded_column": {
      "latitude": "29.903950872315548",
      "longitude": "-90.00073131128478"
    }
  },
  {
    "service_request": "2024-1141346",
    "request_type": "Trash/Recycling",
    "request_reason": "Replace Recycling Cart",
    "date_created": "2024-10-15T17:01:27.000",
    "date_modified": "2024-10-15T17:01:27.000",
    "request_status": "Pending",
    "responsible_agency": "Department of Sanitation",
    "final_address": "1734 Martin Luther King, Jr. Blvd",
    "address_councildis": "B",
    "status": "Pending",
    "rowid": "1141346",
    "final_x": "3678521.00718",
    "final_y": "525916.590909",
    "longitude": "-90.07767080398807",
    "latitude": "29.940178290870644",
    "geocoded_column": {
      "latitude": "29.940178290870644",
      "longitude": "-90.07767080398807"
    }
  },
  {
    "service_request": "2024-1141345",
    "request_type": "Trash/Recycling",
    "request_reason": "Replace Trash Cart",
    "date_created": "2024-10-15T17:00:33.000",
    "date_modified": "2024-10-15T17:00:34.000",
    "request_status": "Pending",
    "responsible_agency": "Department of Sanitation",
    "final_address": "1734 Martin Luther King, Jr. Blvd",
    "address_councildis": "B",
    "status": "Assigned to Contractor",
    "contractor": "IV Waste",
    "rowid": "1141345",
    "final_x": "3678521.00718",
    "final_y": "525916.590909",
    "longitude": "-90.07767080398807",
    "latitude": "29.940178290870644",
    "geocoded_column": {
      "latitude": "29.940178290870644",
      "longitude": "-90.07767080398807"
    }
  },
  {
    "service_request": "2024-1141344",
    "request_type": "Trash/Recycling",
    "request_reason": "Request a Large Item Pick Up",
    "date_created": "2024-10-15T17:00:24.000",
    "date_modified": "2024-10-15T17:00:25.000",
    "request_status": "Pending",
    "responsible_agency": "Department of Sanitation",
    "final_address": "4717 Rosemont Pl",
    "address_councildis": "E",
    "status": "Assigned to Contractor",
    "contractor": "Waste Pro",
    "rowid": "1141344",
    "final_x": "3702787.70814",
    "final_y": "554741.68092",
    "longitude": "-89.99999866250313",
    "latitude": "30.018683201306757",
    "geocoded_column": {
      "latitude": "30.018683201306757",
      "longitude": "-89.99999866250313"
    }
  },
  {
    "service_request": "2024-1141343",
    "request_type": "Property Maintenance",
    "request_reason": "Property Maintenance",
    "date_created": "2024-10-15T16:56:35.000",
    "date_modified": "2024-10-15T16:56:36.000",
    "request_status": "Pending",
    "responsible_agency": "Department of Code Enforcement",
    "final_address": "5051 Mexico St",
    "address_councildis": "D",
    "status": "Pending",
    "rowid": "1141343",
    "final_x": "3691234.67683",
    "final_y": "556719.928282",
    "longitude": "-90.0364312076122",
    "latitude": "30.024487226151784",
    "geocoded_column": {
      "latitude": "30.024487226151784",
      "longitude": "-90.0364312076122"
    }
  },
  {
    "service_request": "2024-1141342",
    "request_type": "Property Maintenance",
    "request_reason": "Property Maintenance",
    "date_created": "2024-10-15T16:56:09.000",
    "date_modified": "2024-10-15T16:56:09.000",
    "request_status": "Pending",
    "responsible_agency": "Department of Code Enforcement",
    "final_address": "2728 Edna St",
    "address_councildis": "D",
    "status": "Pending",
    "rowid": "1141342",
    "final_x": "3689630.08726",
    "final_y": "545226.753231",
    "longitude": "-90.04191071758748",
    "latitude": "29.992935058842267",
    "geocoded_column": {
      "latitude": "29.992935058842267",
      "longitude": "-90.04191071758748"
    }
  },
  {
    "service_request": "2024-1141341",
    "request_type": "Trash/Recycling",
    "request_reason": "Illegal Dumping",
    "date_created": "2024-10-15T16:50:10.000",
    "date_modified": "2024-10-15T16:50:11.000",
    "request_status": "Pending",
    "responsible_agency": "Department of Sanitation",
    "final_address": "1421 General Ogden St",
    "address_councildis": "A",
    "status": "Pending",
    "rowid": "1141341",
    "final_x": "3660494.44589",
    "final_y": "530912.868226",
    "longitude": "-90.13441872688136",
    "latitude": "29.954447328381402",
    "geocoded_column": {
      "latitude": "29.954447328381402",
      "longitude": "-90.13441872688136"
    }
  },
  {
    "service_request": "2024-1141340",
    "request_type": "Property Maintenance",
    "request_reason": "Property Maintenance",
    "date_created": "2024-10-15T16:48:47.000",
    "date_modified": "2024-10-15T16:48:47.000",
    "request_status": "Pending",
    "responsible_agency": "Department of Code Enforcement",
    "final_address": "2755 Edna St",
    "address_councildis": "D",
    "status": "Pending",
    "rowid": "1141340",
    "final_x": "3689830.97513",
    "final_y": "545377.01416",
    "longitude": "-90.04127079785832",
    "latitude": "29.9933419950957",
    "geocoded_column": {
      "latitude": "29.9933419950957",
      "longitude": "-90.04127079785832"
    }
  },
  {
    "service_request": "2024-1141339",
    "request_type": "Trash/Recycling",
    "request_reason": "Request a Large Item Pick Up",
    "date_created": "2024-10-15T16:47:27.000",
    "date_modified": "2024-10-15T16:47:28.000",
    "request_status": "Pending",
    "responsible_agency": "Department of Sanitation",
    "final_address": "1731 S Carrollton Ave",
    "address_councildis": "A",
    "status": "Assigned to Contractor",
    "contractor": "IV Waste",
    "rowid": "1141339",
    "final_x": "3663441.05741",
    "final_y": "529738.397185",
    "longitude": "-90.12515354582045",
    "latitude": "29.951132808840708",
    "geocoded_column": {
      "latitude": "29.951132808840708",
      "longitude": "-90.12515354582045"
    }
  },
  {
    "service_request": "2024-1141338",
    "request_type": "Trash/Recycling",
    "request_reason": "Order Trash Cart",
    "date_created": "2024-10-15T16:44:22.000",
    "date_modified": "2024-10-15T16:44:23.000",
    "request_status": "Pending",
    "responsible_agency": "Department of Sanitation",
    "final_address": "4717 Rosemont Pl",
    "address_councildis": "E",
    "status": "Assigned to Contractor",
    "contractor": "Waste Pro",
    "rowid": "1141338",
    "final_x": "3702787.70814",
    "final_y": "554741.68092",
    "longitude": "-89.99999866250313",
    "latitude": "30.018683201306757",
    "geocoded_column": {
      "latitude": "30.018683201306757",
      "longitude": "-89.99999866250313"
    }
  },
  {
    "service_request": "2024-1141337",
    "request_type": "Mosquito, Termite & Rodent Control",
    "request_reason": "Rodent Complaint (Rats)",
    "date_created": "2024-10-15T16:42:46.000",
    "date_modified": "2024-10-15T16:42:46.000",
    "request_status": "Pending",
    "responsible_agency": "Mosquito, Termite & Rodent Control Board",
    "final_address": "4600 BLK Laurel St",
    "address_councildis": "B",
    "status": "Pending",
    "rowid": "1141337",
    "final_x": "3670201.58968",
    "final_y": "517957.987494",
    "longitude": "-90.10420609803656",
    "latitude": "29.9185427386356",
    "geocoded_column": {
      "latitude": "29.9185427386356",
      "longitude": "-90.10420609803656"
    }
  },
  {
    "service_request": "2024-1141336",
    "request_type": "Streetlights",
    "request_reason": "Streetlight Outage/Malfunction",
    "date_created": "2024-10-15T16:34:06.000",
    "date_modified": "2024-10-15T16:34:07.000",
    "request_status": "Pending",
    "responsible_agency": "Department of Public Works",
    "final_address": "1120 Soniat St",
    "address_councildis": "B",
    "status": "Pending",
    "contractor": "Legacy Professional Services",
    "rowid": "1141336",
    "final_x": "3668284.8642",
    "final_y": "519550.122743",
    "longitude": "-90.11020256109167",
    "latitude": "29.922977003877477",
    "geocoded_column": {
      "latitude": "29.922977003877477",
      "longitude": "-90.11020256109167"
    }
  },
  {
    "service_request": "2024-1141335",
    "request_type": "Trash/Recycling",
    "request_reason": "Request a Large Item Pick Up",
    "date_created": "2024-10-15T16:30:37.000",
    "date_modified": "2024-10-15T16:30:38.000",
    "request_status": "Pending",
    "responsible_agency": "Department of Sanitation",
    "final_address": "7141 Restgate Rd",
    "address_councildis": "E",
    "status": "Assigned to Contractor",
    "contractor": "Waste Pro",
    "rowid": "1141335",
    "final_x": "3710800.37054",
    "final_y": "563324.393376",
    "longitude": "-89.97436015910823",
    "latitude": "30.042023462523982",
    "geocoded_column": {
      "latitude": "30.042023462523982",
      "longitude": "-89.97436015910823"
    }
  },
  {
    "service_request": "2024-1141334",
    "request_type": "Parks & Parkways",
    "request_reason": "Request Tree Service (Right of Way/Public Property)",
    "date_created": "2024-10-15T16:29:43.000",
    "date_modified": "2024-10-15T16:30:42.000",
    "request_status": "Pending",
    "responsible_agency": "Department of Parks & Parkway",
    "final_address": "4700 Owens Blvd",
    "address_councildis": "D",
    "status": "Pending",
    "rowid": "1141334",
    "final_x": "3676451.41813",
    "final_y": "549529.674451",
    "longitude": "-90.08339159115",
    "latitude": "30.005168399634055",
    "geocoded_column": {
      "latitude": "30.005168399634055",
      "longitude": "-90.08339159115"
    }
  },
  {
    "service_request": "2024-1141333",
    "request_type": "Trash/Recycling",
    "request_reason": "Request a Large Item Pick Up",
    "date_created": "2024-10-15T16:29:00.000",
    "date_modified": "2024-10-15T16:30:25.000",
    "request_status": "Pending",
    "responsible_agency": "Department of Sanitation",
    "final_address": "2328 Frenchmen St",
    "address_councildis": "D",
    "status": "Assigned to Contractor",
    "contractor": "IV Waste",
    "rowid": "1141333",
    "final_x": "3684175.46735",
    "final_y": "540911.911947",
    "longitude": "-90.05929242911573",
    "latitude": "29.981238683097793",
    "geocoded_column": {
      "latitude": "29.981238683097793",
      "longitude": "-90.05929242911573"
    }
  },
  {
    "service_request": "2024-1141332",
    "request_type": "Abandoned Vehicles",
    "request_reason": "Abandoned/Junk Vehicles",
    "date_created": "2024-10-15T16:27:36.000",
    "date_modified": "2024-10-15T16:27:37.000",
    "request_status": "Pending",
    "responsible_agency": "Department of Public Works",
    "final_address": "2519 Republic St",
    "address_councildis": "D",
    "status": "Pending",
    "rowid": "1141332",
    "final_x": "3680840.58229",
    "final_y": "541326.588236",
    "longitude": "-90.06981106460972",
    "latitude": "29.982480433902772",
    "geocoded_column": {
      "latitude": "29.982480433902772",
      "longitude": "-90.06981106460972"
    }
  },
  {
    "service_request": "2024-1141331",
    "request_type": "Trash/Recycling",
    "request_reason": "Request a Large Item Pick Up",
    "date_created": "2024-10-15T16:22:02.000",
    "date_modified": "2024-10-15T16:22:03.000",
    "request_status": "Pending",
    "responsible_agency": "Department of Sanitation",
    "final_address": "939 Jourdan Ave",
    "address_councildis": "E",
    "status": "Assigned to Contractor",
    "contractor": "Waste Pro",
    "rowid": "1141331",
    "final_x": "3694946.17322",
    "final_y": "534011.921285",
    "longitude": "-90.02552254565832",
    "latitude": "29.961932482358126",
    "geocoded_column": {
      "latitude": "29.961932482358126",
      "longitude": "-90.02552254565832"
    }
  },
  {
    "service_request": "2024-1141330",
    "request_type": "Property Maintenance",
    "request_reason": "Property Maintenance",
    "date_created": "2024-10-15T16:20:07.000",
    "date_modified": "2024-10-15T16:20:07.000",
    "request_status": "Pending",
    "responsible_agency": "Department of Code Enforcement",
    "final_address": "1817 Leonidas St",
    "address_councildis": "A",
    "status": "Pending",
    "rowid": "1141330",
    "final_x": "3662200.59527",
    "final_y": "531213.922818",
    "longitude": "-90.12902135976364",
    "latitude": "29.95522593453805",
    "geocoded_column": {
      "latitude": "29.95522593453805",
      "longitude": "-90.12902135976364"
    }
  },
  {
    "service_request": "2024-1141329",
    "request_type": "Property Maintenance",
    "request_reason": "Property Maintenance",
    "date_created": "2024-10-15T16:18:57.000",
    "date_modified": "2024-10-15T16:18:57.000",
    "request_status": "Pending",
    "responsible_agency": "Department of Code Enforcement",
    "final_address": "1817 Leonidas St",
    "address_councildis": "A",
    "status": "Pending",
    "rowid": "1141329",
    "final_x": "3662200.59527",
    "final_y": "531213.922818",
    "longitude": "-90.12902135976364",
    "latitude": "29.95522593453805",
    "geocoded_column": {
      "latitude": "29.95522593453805",
      "longitude": "-90.12902135976364"
    }
  },
  {
    "service_request": "2024-1141328",
    "request_type": "Trash/Recycling",
    "request_reason": "Missed Trash Pick-Up",
    "date_created": "2024-10-15T16:18:16.000",
    "date_modified": "2024-10-15T16:18:17.000",
    "request_status": "Pending",
    "responsible_agency": "Department of Sanitation",
    "final_address": "1021 Forstall Street",
    "address_councildis": "E",
    "status": "Assigned to Contractor",
    "contractor": "Waste Pro",
    "rowid": "1141328",
    "final_x": "3696222.06839",
    "final_y": "533931.230789",
    "longitude": "-90.02149640668496",
    "latitude": "29.961670508538766",
    "geocoded_column": {
      "latitude": "29.961670508538766",
      "longitude": "-90.02149640668496"
    }
  },
  {
    "service_request": "2024-1141327",
    "request_type": "Trash/Recycling",
    "request_reason": "Request a Large Item Pick Up",
    "date_created": "2024-10-15T16:17:47.000",
    "date_modified": "2024-10-15T16:17:48.000",
    "request_status": "Pending",
    "responsible_agency": "Department of Sanitation",
    "final_address": "2263 Odin St",
    "address_councildis": "D",
    "status": "Assigned to Contractor",
    "contractor": "IV Waste",
    "rowid": "1141327",
    "final_x": "3684322.55881",
    "final_y": "553136.154711",
    "longitude": "-90.05839825208044",
    "latitude": "30.014846469743556",
    "geocoded_column": {
      "latitude": "30.014846469743556",
      "longitude": "-90.05839825208044"
    }
  },
  {
    "service_request": "2024-1141326",
    "request_type": "Trash/Recycling",
    "request_reason": "Illegal Dumping",
    "date_created": "2024-10-15T16:14:24.000",
    "date_modified": "2024-10-15T16:14:25.000",
    "request_status": "Pending",
    "responsible_agency": "Department of Sanitation",
    "final_address": "4854 Warren Dr",
    "address_councildis": "E",
    "status": "Pending",
    "rowid": "1141326",
    "final_x": "3713322.62104",
    "final_y": "556893.323994",
    "longitude": "-89.96663139572466",
    "latitude": "30.0242580949774",
    "geocoded_column": {
      "latitude": "30.0242580949774",
      "longitude": "-89.96663139572466"
    }
  },
  {
    "service_request": "2024-1141325",
    "request_type": "Trash/Recycling",
    "request_reason": "Request a Large Item Pick Up",
    "date_created": "2024-10-15T16:13:41.000",
    "date_modified": "2024-10-15T16:13:42.000",
    "request_status": "Pending",
    "responsible_agency": "Department of Sanitation",
    "final_address": "4537 Stemway Dr",
    "address_councildis": "D",
    "status": "Assigned to Contractor",
    "contractor": "Waste Pro",
    "rowid": "1141325",
    "final_x": "3697082.89059",
    "final_y": "553178.296535",
    "longitude": "-90.01808043605263",
    "latitude": "30.014565779254447",
    "geocoded_column": {
      "latitude": "30.014565779254447",
      "longitude": "-90.01808043605263"
    }
  },
  {
    "service_request": "2024-1141324",
    "request_type": "Abandoned Vehicles",
    "request_reason": "Abandoned/Junk Vehicles",
    "date_created": "2024-10-15T16:11:57.000",
    "date_modified": "2024-10-15T16:11:58.000",
    "request_status": "Pending",
    "responsible_agency": "Department of Public Works",
    "final_address": "7900 BLK Brevard Ave",
    "address_councildis": "E",
    "status": "Pending",
    "rowid": "1141324",
    "final_x": "3705800.76684",
    "final_y": "564451.662223",
    "longitude": "-89.99011891312087",
    "latitude": "30.045285096531714",
    "geocoded_column": {
      "latitude": "30.045285096531714",
      "longitude": "-89.99011891312087"
    }
  },
  {
    "service_request": "2024-1141323",
    "request_type": "Property Maintenance",
    "request_reason": "Property Maintenance",
    "date_created": "2024-10-15T16:07:51.000",
    "date_modified": "2024-10-15T16:07:51.000",
    "request_status": "Pending",
    "responsible_agency": "Department of Code Enforcement",
    "final_address": "1623 Deslonde St",
    "address_councildis": "E",
    "status": "Pending",
    "rowid": "1141323",
    "final_x": "3695990.6511",
    "final_y": "536451.464583",
    "longitude": "-90.02213611097591",
    "latitude": "29.96860753934511",
    "geocoded_column": {
      "latitude": "29.96860753934511",
      "longitude": "-90.02213611097591"
    }
  },
  {
    "service_request": "2024-1141322",
    "request_type": "Trash/Recycling",
    "request_reason": "Request a Large Item Pick Up",
    "date_created": "2024-10-15T16:03:17.000",
    "date_modified": "2024-10-15T16:03:18.000",
    "request_status": "Pending",
    "responsible_agency": "Department of Sanitation",
    "final_address": "5300 Toulon St",
    "address_councildis": "E",
    "status": "Assigned to Contractor",
    "contractor": "Waste Pro",
    "rowid": "1141322",
    "final_x": "3723472.08236",
    "final_y": "562757.60688",
    "longitude": "-89.93433516916612",
    "latitude": "30.040045712362687",
    "geocoded_column": {
      "latitude": "30.040045712362687",
      "longitude": "-89.93433516916612"
    }
  },
  {
    "service_request": "2024-1141321",
    "request_type": "Trash/Recycling",
    "request_reason": "Repair Recycling Cart",
    "date_created": "2024-10-15T16:03:09.000",
    "date_modified": "2024-10-15T16:03:10.000",
    "request_status": "Pending",
    "responsible_agency": "Department of Sanitation",
    "final_address": "1550 N Galvez St",
    "address_councildis": "D",
    "status": "Pending",
    "rowid": "1141321",
    "final_x": "3680665.92987",
    "final_y": "538587.473161",
    "longitude": "-90.07045805427593",
    "latitude": "29.97495411371902",
    "geocoded_column": {
      "latitude": "29.97495411371902",
      "longitude": "-90.07045805427593"
    }
  },
  {
    "service_request": "2024-1141320",
    "request_type": "Streetlights",
    "request_reason": "Streetlight Outage/Malfunction",
    "date_created": "2024-10-15T16:03:04.000",
    "date_modified": "2024-10-15T16:03:05.000",
    "request_status": "Pending",
    "responsible_agency": "Department of Public Works",
    "final_address": "64 Camellia Trce",
    "address_councildis": "C",
    "status": "Pending",
    "contractor": "Legacy Professional Services",
    "rowid": "1141320",
    "final_x": "3697317.86224",
    "final_y": "523317.181307",
    "longitude": "-90.018420718888",
    "latitude": "29.932451039954323",
    "geocoded_column": {
      "latitude": "29.932451039954323",
      "longitude": "-90.018420718888"
    }
  },
  {
    "service_request": "2024-1141319",
    "request_type": "Trash/Recycling",
    "request_reason": "Order Recycling Cart",
    "date_created": "2024-10-15T16:01:41.000",
    "date_modified": "2024-10-15T16:01:43.000",
    "request_status": "Pending",
    "responsible_agency": "Department of Sanitation",
    "final_address": "5501 Cameron Blvd",
    "address_councildis": "D",
    "status": "Pending",
    "rowid": "1141319",
    "final_x": "3682659.95317",
    "final_y": "553007.337687",
    "longitude": "-90.06365579045524",
    "latitude": "30.01454303117608",
    "geocoded_column": {
      "latitude": "30.01454303117608",
      "longitude": "-90.06365579045524"
    }
  },
  {
    "service_request": "2024-1141318",
    "request_type": "Trash/Recycling",
    "request_reason": "Order Trash Cart",
    "date_created": "2024-10-15T16:01:21.000",
    "date_modified": "2024-10-15T16:01:22.000",
    "request_status": "Pending",
    "responsible_agency": "Department of Sanitation",
    "final_address": "5501 Cameron Blvd",
    "address_councildis": "D",
    "status": "Assigned to Contractor",
    "contractor": "IV Waste",
    "rowid": "1141318",
    "final_x": "3682659.95317",
    "final_y": "553007.337687",
    "longitude": "-90.06365579045524",
    "latitude": "30.01454303117608",
    "geocoded_column": {
      "latitude": "30.01454303117608",
      "longitude": "-90.06365579045524"
    }
  },
  {
    "service_request": "2024-1141317",
    "request_type": "Trash/Recycling",
    "request_reason": "Request a Large Item Pick Up",
    "date_created": "2024-10-15T16:01:16.000",
    "date_modified": "2024-10-15T16:01:17.000",
    "request_status": "Pending",
    "responsible_agency": "Department of Sanitation",
    "final_address": "4603 Arts St",
    "address_councildis": "D",
    "status": "Assigned to Contractor",
    "contractor": "IV Waste",
    "rowid": "1141317",
    "final_x": "3686075.61398",
    "final_y": "549639.599188",
    "longitude": "-90.05298289541811",
    "latitude": "30.00517846870325",
    "geocoded_column": {
      "latitude": "30.00517846870325",
      "longitude": "-90.05298289541811"
    }
  },
  {
    "service_request": "2024-1141316",
    "request_type": "Health Related Request",
    "request_reason": "Homeless Encampment Complaint",
    "date_created": "2024-10-15T15:58:45.000",
    "date_modified": "2024-10-15T15:58:45.000",
    "request_status": "Pending",
    "responsible_agency": "Health Department",
    "final_address": "2100 Napoleon Ave",
    "address_councildis": "B",
    "rowid": "1141316",
    "final_x": "3670394.96826",
    "final_y": "522656.31161",
    "longitude": "-90.10343652210679",
    "latitude": "29.931455927719163",
    "geocoded_column": {
      "latitude": "29.931455927719163",
      "longitude": "-90.10343652210679"
    }
  },
  {
    "service_request": "2024-1141315",
    "request_type": "Safety & Permits",
    "request_reason": "Zoning Enforcement",
    "date_created": "2024-10-15T15:58:35.000",
    "date_modified": "2024-10-15T15:58:35.000",
    "request_status": "Pending",
    "responsible_agency": "Safety and Permits",
    "final_address": "9809 Old Gentilly Rd",
    "address_councildis": "E",
    "rowid": "1141315",
    "final_x": "3712027.72824",
    "final_y": "553014.867159",
    "longitude": "-89.97086869832809",
    "latitude": "30.013636261663233",
    "geocoded_column": {
      "latitude": "30.013636261663233",
      "longitude": "-89.97086869832809"
    }
  },
  {
    "service_request": "2024-1141314",
    "request_type": "Trash/Recycling",
    "request_reason": "Request a Large Item Pick Up",
    "date_created": "2024-10-15T15:58:24.000",
    "date_modified": "2024-10-15T15:58:25.000",
    "request_status": "Pending",
    "responsible_agency": "Department of Sanitation",
    "final_address": "1924 Clouet St",
    "address_councildis": "D",
    "status": "Assigned to Contractor",
    "contractor": "IV Waste",
    "rowid": "1141314",
    "final_x": "3689753.66063",
    "final_y": "539229.571594",
    "longitude": "-90.04173391060212",
    "latitude": "29.9764411239299",
    "geocoded_column": {
      "latitude": "29.9764411239299",
      "longitude": "-90.04173391060212"
    }
  },
  {
    "service_request": "2024-1141313",
    "request_type": "Trash/Recycling",
    "request_reason": "Order Second Trash Cart",
    "date_created": "2024-10-15T15:58:17.000",
    "date_modified": "2024-10-15T15:58:18.000",
    "request_status": "Pending",
    "responsible_agency": "Department of Sanitation",
    "final_address": "12431 N Lake Carmel Dr",
    "address_councildis": "E",
    "status": "Assigned to Contractor",
    "contractor": "Waste Pro",
    "rowid": "1141313",
    "final_x": "3715429.0268",
    "final_y": "567776.829156",
    "longitude": "-89.95956331002186",
    "latitude": "30.054114089597444",
    "geocoded_column": {
      "latitude": "30.054114089597444",
      "longitude": "-89.95956331002186"
    }
  },
  {
    "service_request": "2024-1141312",
    "request_type": "Abandoned Vehicles",
    "request_reason": "Abandoned/Junk Vehicles",
    "date_created": "2024-10-15T15:57:18.000",
    "date_modified": "2024-10-15T15:57:18.000",
    "request_status": "Pending",
    "responsible_agency": "Department of Public Works",
    "final_address": "3225 Lowerline St",
    "address_councildis": "B",
    "status": "Pending",
    "rowid": "1141312",
    "final_x": "3667849.58004",
    "final_y": "532970.36986",
    "longitude": "-90.1111247292378",
    "latitude": "29.95989112313784",
    "geocoded_column": {
      "latitude": "29.95989112313784",
      "longitude": "-90.1111247292378"
    }
  },
  {
    "service_request": "2024-1141311",
    "request_type": "Street and Traffic Signs",
    "request_reason": "Traffic or Parking Sign Damaged or Missing",
    "date_created": "2024-10-15T15:56:38.000",
    "date_modified": "2024-10-15T15:56:39.000",
    "request_status": "Pending",
    "responsible_agency": "Department of Public Works",
    "final_address": "CAMBRONNE ST & PALMETTO ST",
    "address_councildis": "A",
    "status": "Pending",
    "rowid": "1141311",
    "final_x": "3667321.0",
    "final_y": "535851.88",
    "longitude": "-90.11269694266282",
    "latitude": "29.967829815474726",
    "geocoded_column": {
      "latitude": "29.967829815474726",
      "longitude": "-90.11269694266282"
    }
  },
  {
    "service_request": "2024-1141310",
    "request_type": "Mosquito, Termite & Rodent Control",
    "request_reason": "Mosquito Complaint",
    "date_created": "2024-10-15T15:56:09.000",
    "date_modified": "2024-10-15T15:56:10.000",
    "request_status": "Pending",
    "responsible_agency": "Mosquito, Termite & Rodent Control Board",
    "final_address": "4910 Galahad Dr",
    "address_councildis": "E",
    "status": "Pending",
    "rowid": "1141310",
    "final_x": "3707044.93636",
    "final_y": "556498.597082",
    "longitude": "-89.98648221891386",
    "latitude": "30.023377139632036",
    "geocoded_column": {
      "latitude": "30.023377139632036",
      "longitude": "-89.98648221891386"
    }
  },
  {
    "service_request": "2024-1141309",
    "request_type": "Trash/Recycling",
    "request_reason": "Missed Trash Pick-Up",
    "date_created": "2024-10-15T15:56:07.000",
    "date_modified": "2024-10-15T15:56:08.000",
    "request_status": "Pending",
    "responsible_agency": "Department of Sanitation",
    "final_address": "6417 Maumus Ave",
    "address_councildis": "C",
    "status": "Assigned to Contractor",
    "contractor": "Richards Disposal",
    "rowid": "1141309",
    "final_x": "3707707.06596",
    "final_y": "516645.029301",
    "longitude": "-89.98587091610644",
    "latitude": "29.913773047333184",
    "geocoded_column": {
      "latitude": "29.913773047333184",
      "longitude": "-89.98587091610644"
    }
  },
  {
    "service_request": "2024-1141308",
    "request_type": "Property Maintenance",
    "request_reason": "Property Maintenance",
    "date_created": "2024-10-15T15:54:23.000",
    "date_modified": "2024-10-15T15:54:23.000",
    "request_status": "Pending",
    "responsible_agency": "Department of Code Enforcement",
    "final_address": "1629 Deslonde St",
    "address_councildis": "E",
    "status": "Pending",
    "rowid": "1141308",
    "final_x": "3696001.56803",
    "final_y": "536489.966407",
    "longitude": "-90.02210024347866",
    "latitude": "29.96871306213204",
    "geocoded_column": {
      "latitude": "29.96871306213204",
      "longitude": "-90.02210024347866"
    }
  },
  {
    "service_request": "2024-1141307",
    "request_type": "Trash/Recycling",
    "request_reason": "Order Recycling Cart",
    "date_created": "2024-10-15T15:54:02.000",
    "date_modified": "2024-10-15T15:54:03.000",
    "request_status": "Pending",
    "responsible_agency": "Department of Sanitation",
    "final_address": "4809 Crowder Blvd",
    "address_councildis": "E",
    "status": "Pending",
    "rowid": "1141307",
    "final_x": "3706469.31569",
    "final_y": "556022.106137",
    "longitude": "-89.988318716533",
    "latitude": "30.022085565976273",
    "geocoded_column": {
      "latitude": "30.022085565976273",
      "longitude": "-89.988318716533"
    }
  },
  {
    "service_request": "2024-1141306",
    "request_type": "Trash/Recycling",
    "request_reason": "Repair Trash Cart",
    "date_created": "2024-10-15T15:53:07.000",
    "date_modified": "2024-10-15T15:53:08.000",
    "request_status": "Pending",
    "responsible_agency": "Department of Sanitation",
    "final_address": "1517 S White St",
    "address_councildis": "B",
    "status": "Assigned to Contractor",
    "contractor": "IV Waste",
    "rowid": "1141306",
    "final_x": "3671246.59585",
    "final_y": "530317.868354",
    "longitude": "-90.10048779863762",
    "latitude": "29.95249755249957",
    "geocoded_column": {
      "latitude": "29.95249755249957",
      "longitude": "-90.10048779863762"
    }
  },
  {
    "service_request": "2024-1141305",
    "request_type": "Trash/Recycling",
    "request_reason": "Replace Recycling Cart",
    "date_created": "2024-10-15T15:51:36.000",
    "date_modified": "2024-10-15T15:51:36.000",
    "request_status": "Pending",
    "responsible_agency": "Department of Sanitation",
    "final_address": "2247 St Claude Ave",
    "address_councildis": "C",
    "status": "Pending",
    "rowid": "1141305",
    "final_x": "3685510.8911",
    "final_y": "536451.937223",
    "longitude": "-90.05523168779702",
    "latitude": "29.968934418766807",
    "geocoded_column": {
      "latitude": "29.968934418766807",
      "longitude": "-90.05523168779702"
    }
  },
  {
    "service_request": "2024-1141304",
    "request_type": "Trash/Recycling",
    "request_reason": "Replace Trash Cart",
    "date_created": "2024-10-15T15:50:20.000",
    "date_modified": "2024-10-15T15:50:21.000",
    "request_status": "Pending",
    "responsible_agency": "Department of Sanitation",
    "final_address": "2247 St Claude Ave",
    "address_councildis": "C",
    "status": "Assigned to Contractor",
    "contractor": "IV Waste",
    "rowid": "1141304",
    "final_x": "3685510.8911",
    "final_y": "536451.937223",
    "longitude": "-90.05523168779702",
    "latitude": "29.968934418766807",
    "geocoded_column": {
      "latitude": "29.968934418766807",
      "longitude": "-90.05523168779702"
    }
  },
  {
    "service_request": "2024-1141303",
    "request_type": "Trash/Recycling",
    "request_reason": "Order Trash Cart",
    "date_created": "2024-10-15T15:48:48.000",
    "date_modified": "2024-10-15T15:48:49.000",
    "request_status": "Pending",
    "responsible_agency": "Department of Sanitation",
    "final_address": "2249 St Claude Ave",
    "address_councildis": "C",
    "status": "Assigned to Contractor",
    "contractor": "IV Waste",
    "rowid": "1141303",
    "final_x": "3685523.39106",
    "final_y": "536452.770503",
    "longitude": "-90.05519218283078",
    "latitude": "29.96893632661225",
    "geocoded_column": {
      "latitude": "29.96893632661225",
      "longitude": "-90.05519218283078"
    }
  },
  {
    "service_request": "2024-1141302",
    "request_type": "Streetlights",
    "request_reason": "Streetlight Outage/Malfunction",
    "date_created": "2024-10-15T15:48:19.000",
    "date_modified": "2024-10-15T15:48:20.000",
    "request_status": "Pending",
    "responsible_agency": "Department of Public Works",
    "final_address": "749 S Genois St",
    "address_councildis": "B",
    "status": "Pending",
    "contractor": "Legacy Professional Services",
    "rowid": "1141302",
    "final_x": "3670881.31438",
    "final_y": "535010.131846",
    "longitude": "-90.10148191227124",
    "latitude": "29.96541052252787",
    "geocoded_column": {
      "latitude": "29.96541052252787",
      "longitude": "-90.10148191227124"
    }
  },
  {
    "service_request": "2024-1141301",
    "request_type": "Property Maintenance",
    "request_reason": "Property Maintenance",
    "date_created": "2024-10-15T15:48:11.000",
    "date_modified": "2024-10-15T15:48:11.000",
    "request_status": "Pending",
    "responsible_agency": "Department of Code Enforcement",
    "final_address": "1619 Deslonde St",
    "address_councildis": "E",
    "status": "Pending",
    "rowid": "1141301",
    "final_x": "3695980.1807",
    "final_y": "536413.104711",
    "longitude": "-90.0221705631102",
    "latitude": "29.968502392814734",
    "geocoded_column": {
      "latitude": "29.968502392814734",
      "longitude": "-90.0221705631102"
    }
  },
  {
    "service_request": "2024-1141300",
    "request_type": "Trash/Recycling",
    "request_reason": "Request a Large Item Pick Up",
    "date_created": "2024-10-15T15:41:28.000",
    "date_modified": "2024-10-15T15:41:29.000",
    "request_status": "Pending",
    "responsible_agency": "Department of Sanitation",
    "final_address": "4811 Sandalwood St",
    "address_councildis": "E",
    "status": "Assigned to Contractor",
    "contractor": "Waste Pro",
    "rowid": "1141300",
    "final_x": "3712273.2092",
    "final_y": "556477.429978",
    "longitude": "-89.96996294689595",
    "latitude": "30.023148925216304",
    "geocoded_column": {
      "latitude": "30.023148925216304",
      "longitude": "-89.96996294689595"
    }
  },
  {
    "service_request": "2024-1141299",
    "request_type": "Trash/Recycling",
    "request_reason": "Request a Large Item Pick Up",
    "date_created": "2024-10-15T15:40:53.000",
    "date_modified": "2024-10-15T15:40:54.000",
    "request_status": "Pending",
    "responsible_agency": "Department of Sanitation",
    "final_address": "1223 Delery St",
    "address_councildis": "E",
    "status": "Assigned to Contractor",
    "contractor": "Waste Pro",
    "rowid": "1141299",
    "final_x": "3700652.97687",
    "final_y": "533373.181892",
    "longitude": "-90.00752481071372",
    "latitude": "29.959995844982707",
    "geocoded_column": {
      "latitude": "29.959995844982707",
      "longitude": "-90.00752481071372"
    }
  },
  {
    "service_request": "2024-1141298",
    "request_type": "Trash/Recycling",
    "request_reason": "Request a Large Item Pick Up",
    "date_created": "2024-10-15T15:40:20.000",
    "date_modified": "2024-10-15T15:40:22.000",
    "request_status": "Pending",
    "responsible_agency": "Department of Sanitation",
    "final_address": "921 Odeon St",
    "address_councildis": "C",
    "status": "Assigned to Contractor",
    "contractor": "Richards Disposal",
    "rowid": "1141298",
    "final_x": "3696008.21302",
    "final_y": "527936.604095",
    "longitude": "-90.02238829966082",
    "latitude": "29.945194117644785",
    "geocoded_column": {
      "latitude": "29.945194117644785",
      "longitude": "-90.02238829966082"
    }
  },
  {
    "service_request": "2024-1141297",
    "request_type": "Trash/Recycling",
    "request_reason": "Order Trash Cart",
    "date_created": "2024-10-15T15:38:45.000",
    "date_modified": "2024-10-15T15:38:46.000",
    "request_status": "Pending",
    "responsible_agency": "Department of Sanitation",
    "final_address": "6260 Vicksburg St",
    "address_councildis": "A",
    "status": "Assigned to Contractor",
    "contractor": "IV Waste",
    "rowid": "1141297",
    "final_x": "3668938.66215",
    "final_y": "549057.750483",
    "longitude": "-90.10714201055495",
    "latitude": "30.004093975446406",
    "geocoded_column": {
      "latitude": "30.004093975446406",
      "longitude": "-90.10714201055495"
    }
  },
  {
    "service_request": "2024-1141296",
    "request_type": "Trash/Recycling",
    "request_reason": "Request a Large Item Pick Up",
    "date_created": "2024-10-15T15:38:07.000",
    "date_modified": "2024-10-15T15:38:08.000",
    "request_status": "Pending",
    "responsible_agency": "Department of Sanitation",
    "final_address": "1511 Egania St",
    "address_councildis": "E",
    "status": "Assigned to Contractor",
    "contractor": "Waste Pro",
    "rowid": "1141296",
    "final_x": "3697285.79824",
    "final_y": "535622.505734",
    "longitude": "-90.01807603775082",
    "latitude": "29.966287383803177",
    "geocoded_column": {
      "latitude": "29.966287383803177",
      "longitude": "-90.01807603775082"
    }
  },
  {
    "service_request": "2024-1141295",
    "request_type": "Roads and Streets",
    "request_reason": "Pothole",
    "date_created": "2024-10-15T15:37:30.000",
    "date_modified": "2024-10-15T15:37:31.000",
    "request_status": "Pending",
    "responsible_agency": "Department of Public Works",
    "final_address": "NEWCASTLE ST & DORCHESTER ST",
    "address_councildis": "E",
    "status": "Pending",
    "rowid": "1141295",
    "final_x": "3697420.5",
    "final_y": "558755.38",
    "longitude": "-90.0168113060437",
    "latitude": "30.029889978870468",
    "geocoded_column": {
      "latitude": "30.029889978870468",
      "longitude": "-90.0168113060437"
    }
  },
  {
    "service_request": "2024-1141294",
    "request_type": "Trash/Recycling",
    "request_reason": "Order Trash Cart",
    "date_created": "2024-10-15T15:34:06.000",
    "date_modified": "2024-10-15T15:34:50.000",
    "request_status": "Pending",
    "responsible_agency": "Department of Sanitation",
    "final_address": "6219 N Robertson St",
    "address_councildis": "E",
    "status": "Assigned to Contractor",
    "contractor": "Waste Pro",
    "rowid": "1141294",
    "final_x": "3700584.03364",
    "final_y": "534550.997829",
    "longitude": "-90.00769948829243",
    "latitude": "29.963236610656452",
    "geocoded_column": {
      "latitude": "29.963236610656452",
      "longitude": "-90.00769948829243"
    }
  },
  {
    "service_request": "2024-1141293",
    "request_type": "Streetlights",
    "request_reason": "Streetlight Outage/Malfunction",
    "date_created": "2024-10-15T15:33:21.000",
    "date_modified": "2024-10-15T15:33:22.000",
    "request_status": "Pending",
    "responsible_agency": "Department of Public Works",
    "final_address": "5314 Tullis Dr",
    "address_councildis": "C",
    "status": "Pending",
    "contractor": "Legacy Professional Services",
    "rowid": "1141293",
    "final_x": "3703452.4419",
    "final_y": "511979.640432",
    "longitude": "-89.99947118852805",
    "latitude": "29.901081704408004",
    "geocoded_column": {
      "latitude": "29.901081704408004",
      "longitude": "-89.99947118852805"
    }
  },
  {
    "service_request": "2024-1141292",
    "request_type": "Drainage",
    "request_reason": "Drainage Manhole Cover Missing or Damaged",
    "date_created": "2024-10-15T15:29:40.000",
    "date_modified": "2024-10-15T15:29:40.000",
    "request_status": "Pending",
    "responsible_agency": "Department of Public Works",
    "final_address": "5432 Grand Bayou Dr",
    "address_councildis": "E",
    "status": "Reviewed",
    "rowid": "1141292",
    "final_x": "3725948.91059",
    "final_y": "563737.593825",
    "longitude": "-89.92646969748021",
    "latitude": "30.04265688805647",
    "geocoded_column": {
      "latitude": "30.04265688805647",
      "longitude": "-89.92646969748021"
    }
  },
  {
    "service_request": "2024-1141291",
    "request_type": "Trash/Recycling",
    "request_reason": "Request a Large Item Pick Up",
    "date_created": "2024-10-15T15:29:00.000",
    "date_modified": "2024-10-15T15:29:01.000",
    "request_status": "Pending",
    "responsible_agency": "Department of Sanitation",
    "final_address": "6001 Eastover Dr",
    "address_councildis": "E",
    "status": "Assigned to Contractor",
    "contractor": "Waste Pro",
    "rowid": "1141291",
    "final_x": "3718852.70764",
    "final_y": "565261.171426",
    "longitude": "-89.9488380760335",
    "latitude": "30.047083759291052",
    "geocoded_column": {
      "latitude": "30.047083759291052",
      "longitude": "-89.9488380760335"
    }
  },
  {
    "service_request": "2024-1141290",
    "request_type": "Trash/Recycling",
    "request_reason": "Order Trash Cart",
    "date_created": "2024-10-15T15:26:57.000",
    "date_modified": "2024-10-15T15:26:58.000",
    "request_status": "Pending",
    "responsible_agency": "Department of Sanitation",
    "final_address": "7831 Burthe St",
    "address_councildis": "A",
    "status": "Assigned to Contractor",
    "contractor": "IV Waste",
    "rowid": "1141290",
    "final_x": "3661900.03443",
    "final_y": "527051.684606",
    "longitude": "-90.13010843535409",
    "latitude": "29.943789797473023",
    "geocoded_column": {
      "latitude": "29.943789797473023",
      "longitude": "-90.13010843535409"
    }
  },
  {
    "service_request": "2024-1141289",
    "request_type": "Trash/Recycling",
    "request_reason": "Order Trash Cart",
    "date_created": "2024-10-15T15:26:30.000",
    "date_modified": "2024-10-15T15:26:32.000",
    "request_status": "Pending",
    "responsible_agency": "Department of Sanitation",
    "final_address": "7835 Burthe St",
    "address_councildis": "A",
    "status": "Assigned to Contractor",
    "contractor": "IV Waste",
    "rowid": "1141289",
    "final_x": "3661884.92743",
    "final_y": "527065.031422",
    "longitude": "-90.13015568998772",
    "latitude": "29.94382693315147",
    "geocoded_column": {
      "latitude": "29.94382693315147",
      "longitude": "-90.13015568998772"
    }
  },
  {
    "service_request": "2024-1141288",
    "request_type": "Trash/Recycling",
    "request_reason": "Order Trash Cart",
    "date_created": "2024-10-15T15:25:58.000",
    "date_modified": "2024-10-15T15:25:59.000",
    "request_status": "Pending",
    "responsible_agency": "Department of Sanitation",
    "final_address": "7831 Burthe St",
    "address_councildis": "A",
    "status": "Assigned to Contractor",
    "contractor": "IV Waste",
    "rowid": "1141288",
    "final_x": "3661900.03443",
    "final_y": "527051.684606",
    "longitude": "-90.13010843535409",
    "latitude": "29.943789797473023",
    "geocoded_column": {
      "latitude": "29.943789797473023",
      "longitude": "-90.13010843535409"
    }
  },
  {
    "service_request": "2024-1141287",
    "request_type": "Trash/Recycling",
    "request_reason": "Order Recycling Cart",
    "date_created": "2024-10-15T15:24:13.000",
    "date_modified": "2024-10-15T15:24:15.000",
    "request_status": "Pending",
    "responsible_agency": "Department of Sanitation",
    "final_address": "11301 Prentiss Ave",
    "address_councildis": "E",
    "status": "Pending",
    "rowid": "1141287",
    "final_x": "3717039.43122",
    "final_y": "556840.331994",
    "longitude": "-89.95488911059726",
    "latitude": "30.023989967248013",
    "geocoded_column": {
      "latitude": "30.023989967248013",
      "longitude": "-89.95488911059726"
    }
  },
  {
    "service_request": "2024-1141286",
    "request_type": "Trash/Recycling",
    "request_reason": "Request a Large Item Pick Up",
    "date_created": "2024-10-15T15:22:07.000",
    "date_modified": "2024-10-15T15:22:09.000",
    "request_status": "Pending",
    "responsible_agency": "Department of Sanitation",
    "final_address": "5176 Forest Park Ln",
    "address_councildis": "C",
    "status": "Assigned to Contractor",
    "contractor": "Richards Disposal",
    "rowid": "1141286",
    "final_x": "3703586.57674",
    "final_y": "510676.986799",
    "longitude": "-89.99909574295562",
    "latitude": "29.89749555283955",
    "geocoded_column": {
      "latitude": "29.89749555283955",
      "longitude": "-89.99909574295562"
    }
  },
  {
    "service_request": "2024-1141285",
    "request_type": "Parks & Parkways",
    "request_reason": "Request Tree Service (Right of Way/Public Property)",
    "date_created": "2024-10-15T15:20:48.000",
    "date_modified": "2024-10-15T15:20:49.000",
    "request_status": "Pending",
    "responsible_agency": "Department of Parks & Parkway",
    "final_address": "721 Lowerline St",
    "address_councildis": "A",
    "status": "Pending",
    "rowid": "1141285",
    "final_x": "3662841.33178",
    "final_y": "525505.080061",
    "longitude": "-90.12718789194122",
    "latitude": "29.939509915361526",
    "geocoded_column": {
      "latitude": "29.939509915361526",
      "longitude": "-90.12718789194122"
    }
  },
  {
    "service_request": "2024-1141284",
    "request_type": "Trash/Recycling",
    "request_reason": "Request a Large Item Pick Up",
    "date_created": "2024-10-15T15:20:45.000",
    "date_modified": "2024-10-15T16:00:34.000",
    "request_status": "Pending",
    "responsible_agency": "Department of Sanitation",
    "final_address": "830 Roosevelt Pl, New Orleans, Louisiana, 70119",
    "address_councildis": "A",
    "status": "Assigned to Contractor",
    "contractor": "IV Waste",
    "rowid": "1141284",
    "final_x": "3673604.51092",
    "final_y": "539863.930314",
    "longitude": "-90.09271621026495",
    "latitude": "29.978676042625626",
    "geocoded_column": {
      "latitude": "29.978676042625626",
      "longitude": "-90.09271621026495"
    }
  },
  {
    "service_request": "2024-1141283",
    "request_type": "Parks & Parkways",
    "request_reason": "Request Tree Service (Right of Way/Public Property)",
    "date_created": "2024-10-15T15:20:11.000",
    "date_modified": "2024-10-15T15:20:12.000",
    "request_status": "Pending",
    "responsible_agency": "Department of Parks & Parkway",
    "final_address": "1308 S Prieur St",
    "address_councildis": "B",
    "status": "Pending",
    "rowid": "1141283",
    "final_x": "3674472.50657",
    "final_y": "529125.5344",
    "longitude": "-90.0903426662228",
    "latitude": "29.949123198070964",
    "geocoded_column": {
      "latitude": "29.949123198070964",
      "longitude": "-90.0903426662228"
    }
  },
  {
    "service_request": "2024-1141282",
    "request_type": "Parks & Parkways",
    "request_reason": "Request Tree Service (Right of Way/Public Property)",
    "date_created": "2024-10-15T15:19:25.000",
    "date_modified": "2024-10-15T15:19:26.000",
    "request_status": "Pending",
    "responsible_agency": "Department of Parks & Parkway",
    "final_address": "4602 Franklin Ave",
    "address_councildis": "D",
    "status": "Pending",
    "rowid": "1141282",
    "final_x": "3686802.65065",
    "final_y": "549714.235284",
    "longitude": "-90.05068339782875",
    "latitude": "30.00536133316424",
    "geocoded_column": {
      "latitude": "30.00536133316424",
      "longitude": "-90.05068339782875"
    }
  },
  {
    "service_request": "2024-1141281",
    "request_type": "Trash/Recycling",
    "request_reason": "Request a Large Item Pick Up",
    "date_created": "2024-10-15T15:19:11.000",
    "date_modified": "2024-10-15T15:19:12.000",
    "request_status": "Pending",
    "responsible_agency": "Department of Sanitation",
    "final_address": "2456 Mendez St",
    "address_councildis": "D",
    "status": "Assigned to Contractor",
    "contractor": "IV Waste",
    "rowid": "1141281",
    "final_x": "3685635.40534",
    "final_y": "553520.065687",
    "longitude": "-90.05423675637127",
    "latitude": "30.015861853184962",
    "geocoded_column": {
      "latitude": "30.015861853184962",
      "longitude": "-90.05423675637127"
    }
  },
  {
    "service_request": "2024-1141280",
    "request_type": "Parks & Parkways",
    "request_reason": "Request Tree Service (Right of Way/Public Property)",
    "date_created": "2024-10-15T15:18:51.000",
    "date_modified": "2024-10-15T15:18:52.000",
    "request_status": "Pending",
    "responsible_agency": "Department of Parks & Parkway",
    "final_address": "2432 Spain St",
    "address_councildis": "D",
    "status": "Pending",
    "rowid": "1141280",
    "final_x": "3685691.69929",
    "final_y": "541509.67438",
    "longitude": "-90.05448241712281",
    "latitude": "29.982835875989203",
    "geocoded_column": {
      "latitude": "29.982835875989203",
      "longitude": "-90.05448241712281"
    }
  },
  {
    "service_request": "2024-1141279",
    "request_type": "Trash/Recycling",
    "request_reason": "Request a Large Item Pick Up",
    "date_created": "2024-10-15T15:18:07.000",
    "date_modified": "2024-10-15T15:18:08.000",
    "request_status": "Pending",
    "responsible_agency": "Department of Sanitation",
    "final_address": "830 Roosevelt Pl",
    "address_councildis": "A",
    "status": "Assigned to Contractor",
    "contractor": "IV Waste",
    "rowid": "1141279",
    "final_x": "3673604.51092",
    "final_y": "539863.930314",
    "longitude": "-90.09271621026495",
    "latitude": "29.978676042625626",
    "geocoded_column": {
      "latitude": "29.978676042625626",
      "longitude": "-90.09271621026495"
    }
  },
  {
    "service_request": "2024-1141278",
    "request_type": "Property Maintenance",
    "request_reason": "Property Maintenance",
    "date_created": "2024-10-15T15:17:40.000",
    "date_modified": "2024-10-15T15:17:41.000",
    "request_status": "Pending",
    "responsible_agency": "Department of Code Enforcement",
    "final_address": "2045 Jackson Ave",
    "address_councildis": "B",
    "status": "Pending",
    "rowid": "1141278",
    "final_x": "3676422.87451",
    "final_y": "525321.920189",
    "longitude": "-90.08431540552787",
    "latitude": "29.938606196280343",
    "geocoded_column": {
      "latitude": "29.938606196280343",
      "longitude": "-90.08431540552787"
    }
  },
  {
    "service_request": "2024-1141277",
    "request_type": "Utility Poles",
    "request_reason": "Utility Pole Leaning",
    "date_created": "2024-10-15T15:17:08.000",
    "date_modified": "2024-10-15T15:17:13.000",
    "request_status": "Pending",
    "responsible_agency": "Utility Company Collective",
    "final_address": "2201 Third St",
    "address_councildis": "B",
    "status": "Pending",
    "rowid": "1141277",
    "final_x": "3675266.98401",
    "final_y": "524705.184636",
    "longitude": "-90.08798584012007",
    "latitude": "29.936944969826335",
    "geocoded_column": {
      "latitude": "29.936944969826335",
      "longitude": "-90.08798584012007"
    }
  },
  {
    "service_request": "2024-1141276",
    "request_type": "Streetlights",
    "request_reason": "Streetlight Outage/Malfunction",
    "date_created": "2024-10-15T15:14:38.000",
    "date_modified": "2024-10-15T15:14:39.000",
    "request_status": "Pending",
    "responsible_agency": "Department of Public Works",
    "final_address": "ALABO ST & N ROCHEBLAVE ST",
    "address_councildis": "E",
    "status": "Pending",
    "contractor": "Legacy Professional Services",
    "rowid": "1141276",
    "final_x": "3700218.5",
    "final_y": "538409.78",
    "longitude": "-90.00871292570996",
    "latitude": "29.973858494645775",
    "geocoded_column": {
      "latitude": "29.973858494645775",
      "longitude": "-90.00871292570996"
    }
  },
  {
    "service_request": "2024-1141275",
    "request_type": "Parks & Parkways",
    "request_reason": "Request Tree Service (Right of Way/Public Property)",
    "date_created": "2024-10-15T15:14:19.000",
    "date_modified": "2024-10-15T15:14:20.000",
    "request_status": "Pending",
    "responsible_agency": "Department of Parks & Parkway",
    "final_address": "1100 BLK Mirabeau Ave",
    "address_councildis": "D",
    "status": "Pending",
    "rowid": "1141275",
    "final_x": "3676016.61381",
    "final_y": "550091.114172",
    "longitude": "-90.08474590410873",
    "latitude": "30.006725194179953",
    "geocoded_column": {
      "latitude": "30.006725194179953",
      "longitude": "-90.08474590410873"
    }
  },
  {
    "service_request": "2024-1141274",
    "request_type": "Streetlights",
    "request_reason": "Streetlight Outage/Malfunction",
    "date_created": "2024-10-15T15:11:52.000",
    "date_modified": "2024-10-15T15:11:53.000",
    "request_status": "Pending",
    "responsible_agency": "Department of Public Works",
    "final_address": "6434 Peony St",
    "address_councildis": "C",
    "status": "Pending",
    "contractor": "Legacy Professional Services",
    "rowid": "1141274",
    "final_x": "3707817.77233",
    "final_y": "516484.177013",
    "longitude": "-89.98552746634157",
    "latitude": "29.91332717911587",
    "geocoded_column": {
      "latitude": "29.91332717911587",
      "longitude": "-89.98552746634157"
    }
  },
  {
    "service_request": "2024-1141273",
    "request_type": "Property Maintenance",
    "request_reason": "Property Maintenance",
    "date_created": "2024-10-15T15:09:33.000",
    "date_modified": "2024-10-15T15:09:34.000",
    "request_status": "Pending",
    "responsible_agency": "Department of Code Enforcement",
    "final_address": "1312 Short St",
    "address_councildis": "A",
    "status": "Pending",
    "rowid": "1141273",
    "final_x": "3662611.44378",
    "final_y": "528484.059968",
    "longitude": "-90.127814733839",
    "latitude": "29.947707811182493",
    "geocoded_column": {
      "latitude": "29.947707811182493",
      "longitude": "-90.127814733839"
    }
  },
  {
    "service_request": "2024-1141272",
    "request_type": "Trash/Recycling",
    "request_reason": "Illegal Dumping",
    "date_created": "2024-10-15T15:07:46.000",
    "date_modified": "2024-10-15T15:07:47.000",
    "request_status": "Pending",
    "responsible_agency": "Department of Sanitation",
    "final_address": "PALMETTO ST & CHERRY ST",
    "address_councildis": "A",
    "status": "Pending",
    "rowid": "1141272",
    "final_x": "3665067.5",
    "final_y": "538064.48",
    "longitude": "-90.1197395872712",
    "latitude": "29.973979547653936",
    "geocoded_column": {
      "latitude": "29.973979547653936",
      "longitude": "-90.1197395872712"
    }
  },
  {
    "service_request": "2024-1141271",
    "request_type": "Trash/Recycling",
    "request_reason": "Illegal Dumping",
    "date_created": "2024-10-15T15:07:16.000",
    "date_modified": "2024-10-15T15:07:17.000",
    "request_status": "Pending",
    "responsible_agency": "Department of Sanitation",
    "final_address": "2401 Charbonnet St",
    "address_councildis": "E",
    "status": "Pending",
    "rowid": "1141271",
    "final_x": "3700029.6129",
    "final_y": "538502.474569",
    "longitude": "-90.00930608632234",
    "latitude": "29.974119373872863",
    "geocoded_column": {
      "latitude": "29.974119373872863",
      "longitude": "-90.00930608632234"
    }
  },
  {
    "service_request": "2024-1141270",
    "request_type": "Trash/Recycling",
    "request_reason": "Request a Large Item Pick Up",
    "date_created": "2024-10-15T15:05:16.000",
    "date_modified": "2024-10-15T15:05:17.000",
    "request_status": "Pending",
    "responsible_agency": "Department of Sanitation",
    "final_address": "11359 Will Stutley Dr",
    "address_councildis": "E",
    "status": "Assigned to Contractor",
    "contractor": "Waste Pro",
    "rowid": "1141270",
    "final_x": "3717310.34277",
    "final_y": "558289.867484",
    "longitude": "-89.95397795571061",
    "latitude": "30.027966646735873",
    "geocoded_column": {
      "latitude": "30.027966646735873",
      "longitude": "-89.95397795571061"
    }
  },
  {
    "service_request": "2024-1141269",
    "request_type": "Property Maintenance",
    "request_reason": "Property Maintenance",
    "date_created": "2024-10-15T14:58:17.000",
    "date_modified": "2024-10-15T14:58:18.000",
    "request_status": "Pending",
    "responsible_agency": "Department of Code Enforcement",
    "final_address": "2000 Forstall St",
    "address_councildis": "E",
    "status": "Pending",
    "rowid": "1141269",
    "final_x": "3697166.15664",
    "final_y": "537598.689672",
    "longitude": "-90.01838224369705",
    "latitude": "29.97172495832455",
    "geocoded_column": {
      "latitude": "29.97172495832455",
      "longitude": "-90.01838224369705"
    }
  },
  {
    "service_request": "2024-1141268",
    "request_type": "Trash/Recycling",
    "request_reason": "Request a Large Item Pick Up",
    "date_created": "2024-10-15T14:57:11.000",
    "date_modified": "2024-10-15T14:57:12.000",
    "request_status": "Pending",
    "responsible_agency": "Department of Sanitation",
    "final_address": "3657 Piedmont Dr",
    "address_councildis": "D",
    "status": "Assigned to Contractor",
    "contractor": "IV Waste",
    "rowid": "1141268",
    "final_x": "3686016.97398",
    "final_y": "546233.707408",
    "longitude": "-90.05328835293862",
    "latitude": "29.995815297330473",
    "geocoded_column": {
      "latitude": "29.995815297330473",
      "longitude": "-90.05328835293862"
    }
  },
  {
    "service_request": "2024-1141267",
    "request_type": "Drainage",
    "request_reason": "Catch Basin Clogged",
    "date_created": "2024-10-15T14:55:49.000",
    "date_modified": "2024-10-15T14:55:51.000",
    "request_status": "Pending",
    "responsible_agency": "Department of Public Works",
    "final_address": "923 Decatur St",
    "address_councildis": "C",
    "status": "Pending",
    "rowid": "1141267",
    "final_x": "3683710.87215",
    "final_y": "532757.097796",
    "longitude": "-90.0610458192153",
    "latitude": "29.95882996663902",
    "geocoded_column": {
      "latitude": "29.95882996663902",
      "longitude": "-90.0610458192153"
    }
  },
  {
    "service_request": "2024-1141266",
    "request_type": "Trash/Recycling",
    "request_reason": "Illegal Dumping",
    "date_created": "2024-10-15T14:54:40.000",
    "date_modified": "2024-10-15T14:54:40.000",
    "request_status": "Pending",
    "responsible_agency": "Department of Sanitation",
    "final_address": "2224 Desire St",
    "address_councildis": "D",
    "status": "Pending",
    "rowid": "1141266",
    "final_x": "3691221.24425",
    "final_y": "540040.069195",
    "longitude": "-90.03706989593447",
    "latitude": "29.978624135536318",
    "geocoded_column": {
      "latitude": "29.978624135536318",
      "longitude": "-90.03706989593447"
    }
  },
  {
    "service_request": "2024-1141265",
    "request_type": "Trash/Recycling",
    "request_reason": "Request a Large Item Pick Up",
    "date_created": "2024-10-15T14:49:29.000",
    "date_modified": "2024-10-15T14:49:30.000",
    "request_status": "Pending",
    "responsible_agency": "Department of Sanitation",
    "final_address": "212 S Scott St",
    "address_councildis": "A",
    "status": "Assigned to Contractor",
    "contractor": "IV Waste",
    "rowid": "1141265",
    "final_x": "3671480.7243",
    "final_y": "537358.768328",
    "longitude": "-90.0995091351663",
    "latitude": "29.9718507514004",
    "geocoded_column": {
      "latitude": "29.9718507514004",
      "longitude": "-90.0995091351663"
    }
  },
  {
    "service_request": "2024-1141264",
    "request_type": "Property Maintenance",
    "request_reason": "Property Maintenance",
    "date_created": "2024-10-15T14:48:27.000",
    "date_modified": "2024-10-15T14:48:27.000",
    "request_status": "Pending",
    "responsible_agency": "Department of Code Enforcement",
    "final_address": "6112 Pratt Dr",
    "address_councildis": "D",
    "status": "Pending",
    "rowid": "1141264",
    "final_x": "3680071.98504",
    "final_y": "555071.274649",
    "longitude": "-90.07176070108632",
    "latitude": "30.020296704572278",
    "geocoded_column": {
      "latitude": "30.020296704572278",
      "longitude": "-90.07176070108632"
    }
  },
  {
    "service_request": "2024-1141263",
    "request_type": "Trash/Recycling",
    "request_reason": "Return Trash Cart",
    "date_created": "2024-10-15T14:47:22.000",
    "date_modified": "2024-10-15T14:47:23.000",
    "request_status": "Pending",
    "responsible_agency": "Department of Sanitation",
    "final_address": "2805 Fourth St",
    "address_councildis": "B",
    "status": "Assigned to Contractor",
    "contractor": "IV Waste",
    "rowid": "1141263",
    "final_x": "3673827.80302",
    "final_y": "526331.103294",
    "longitude": "-90.09247383037962",
    "latitude": "29.941458645968005",
    "geocoded_column": {
      "latitude": "29.941458645968005",
      "longitude": "-90.09247383037962"
    }
  },
  {
    "service_request": "2024-1141262",
    "request_type": "Trash/Recycling",
    "request_reason": "Order Trash Cart",
    "date_created": "2024-10-15T14:46:42.000",
    "date_modified": "2024-10-15T14:46:43.000",
    "request_status": "Pending",
    "responsible_agency": "Department of Sanitation",
    "final_address": "2805 Fourth St",
    "address_councildis": "B",
    "status": "Assigned to Contractor",
    "contractor": "IV Waste",
    "rowid": "1141262",
    "final_x": "3673827.80302",
    "final_y": "526331.103294",
    "longitude": "-90.09247383037962",
    "latitude": "29.941458645968005",
    "geocoded_column": {
      "latitude": "29.941458645968005",
      "longitude": "-90.09247383037962"
    }
  },
  {
    "service_request": "2024-1141261",
    "request_type": "Trash/Recycling",
    "request_reason": "Order Trash Cart",
    "date_created": "2024-10-15T14:45:55.000",
    "date_modified": "2024-10-15T14:45:56.000",
    "request_status": "Pending",
    "responsible_agency": "Department of Sanitation",
    "final_address": "2505 George Nick Connor Dr",
    "address_councildis": "D",
    "status": "Assigned to Contractor",
    "contractor": "IV Waste",
    "rowid": "1141261",
    "final_x": "3681214.842",
    "final_y": "541247.45838",
    "longitude": "-90.0686317268679",
    "latitude": "29.982251501398327",
    "geocoded_column": {
      "latitude": "29.982251501398327",
      "longitude": "-90.0686317268679"
    }
  },
  {
    "service_request": "2024-1141260",
    "request_type": "Traffic Signals",
    "request_reason": "Traffic Signal Malfunctioning or Damaged",
    "date_created": "2024-10-15T14:44:09.000",
    "date_modified": "2024-10-15T14:44:09.000",
    "request_status": "Pending",
    "responsible_agency": "Department of Public Works",
    "final_address": "6400 BLK Willow St",
    "address_councildis": "A",
    "status": "Pending",
    "rowid": "1141260",
    "final_x": "3665746.14977",
    "final_y": "526279.781218",
    "longitude": "-90.11799101316846",
    "latitude": "29.94155569894226",
    "geocoded_column": {
      "latitude": "29.94155569894226",
      "longitude": "-90.11799101316846"
    }
  },
  {
    "service_request": "2024-1141259",
    "request_type": "Streetlights",
    "request_reason": "Streetlight Outage/Malfunction",
    "date_created": "2024-10-15T14:43:06.000",
    "date_modified": "2024-10-15T14:43:07.000",
    "request_status": "Pending",
    "responsible_agency": "Department of Public Works",
    "final_address": "4500 San Marco Rd",
    "address_councildis": "E",
    "status": "Pending",
    "contractor": "Legacy Professional Services",
    "rowid": "1141259",
    "final_x": "3762511.0184",
    "final_y": "573285.592554",
    "longitude": "-89.81052098641185",
    "latitude": "30.067624516855204",
    "geocoded_column": {
      "latitude": "30.067624516855204",
      "longitude": "-89.81052098641185"
    }
  },
  {
    "service_request": "2024-1141258",
    "request_type": "Trash/Recycling",
    "request_reason": "Repair Trash Cart",
    "date_created": "2024-10-15T14:42:27.000",
    "date_modified": "2024-10-15T14:42:28.000",
    "request_status": "Pending",
    "responsible_agency": "Department of Sanitation",
    "final_address": "5701 Abbey Dr",
    "address_councildis": "C",
    "status": "Assigned to Contractor",
    "contractor": "Richards Disposal",
    "rowid": "1141258",
    "final_x": "3704659.35754",
    "final_y": "521092.698809",
    "longitude": "-89.99532645800521",
    "latitude": "29.9261007958277",
    "geocoded_column": {
      "latitude": "29.9261007958277",
      "longitude": "-89.99532645800521"
    }
  },
  {
    "service_request": "2024-1141257",
    "request_type": "Trash/Recycling",
    "request_reason": "Request a Large Item Pick Up",
    "date_created": "2024-10-15T14:41:26.000",
    "date_modified": "2024-10-15T14:41:28.000",
    "request_status": "Pending",
    "responsible_agency": "Department of Sanitation",
    "final_address": "2522 Hudson Pl",
    "address_councildis": "C",
    "status": "Assigned to Contractor",
    "contractor": "Richards Disposal",
    "rowid": "1141257",
    "final_x": "3703478.02545",
    "final_y": "521786.115642",
    "longitude": "-89.9990300633913",
    "latitude": "29.928045328649784",
    "geocoded_column": {
      "latitude": "29.928045328649784",
      "longitude": "-89.9990300633913"
    }
  },
  {
    "service_request": "2024-1141256",
    "request_type": "Trash/Recycling",
    "request_reason": "Missed Trash Pick-Up",
    "date_created": "2024-10-15T14:40:58.000",
    "date_modified": "2024-10-15T14:40:59.000",
    "request_status": "Pending",
    "responsible_agency": "Department of Sanitation",
    "final_address": "1422 Urania St",
    "address_councildis": "B",
    "status": "Assigned to Contractor",
    "contractor": "IV Waste",
    "rowid": "1141256",
    "final_x": "3679170.02408",
    "final_y": "524012.449404",
    "longitude": "-90.07568773937474",
    "latitude": "29.93492295866107",
    "geocoded_column": {
      "latitude": "29.93492295866107",
      "longitude": "-90.07568773937474"
    }
  },
  {
    "service_request": "2024-1141255",
    "request_type": "Roads and Streets",
    "request_reason": "Street Subsidence (Sinking)",
    "date_created": "2024-10-15T14:37:42.000",
    "date_modified": "2024-10-15T14:37:43.000",
    "request_status": "Pending",
    "responsible_agency": "Department of Public Works",
    "final_address": "2022 Hope St",
    "address_councildis": "D",
    "status": "Pending",
    "rowid": "1141255",
    "final_x": "3682572.88892",
    "final_y": "542010.05134",
    "longitude": "-90.06431568245328",
    "latitude": "29.984307079417434",
    "geocoded_column": {
      "latitude": "29.984307079417434",
      "longitude": "-90.06431568245328"
    }
  },
  {
    "service_request": "2024-1141254",
    "request_type": "Abandoned Vehicles",
    "request_reason": "Abandoned/Junk Vehicles",
    "date_created": "2024-10-15T14:36:11.000",
    "date_modified": "2024-10-15T14:36:11.000",
    "request_status": "Pending",
    "responsible_agency": "Department of Public Works",
    "final_address": "6019 Hurst St",
    "address_councildis": "A",
    "status": "Pending",
    "rowid": "1141254",
    "final_x": "3665347.38829",
    "final_y": "521919.929146",
    "longitude": "-90.1193958175336",
    "latitude": "29.929579117509892",
    "geocoded_column": {
      "latitude": "29.929579117509892",
      "longitude": "-90.1193958175336"
    }
  },
  {
    "service_request": "2024-1141253",
    "request_type": "Trash/Recycling",
    "request_reason": "Illegal Dumping",
    "date_created": "2024-10-15T14:33:11.000",
    "date_modified": "2024-10-15T14:33:12.000",
    "request_status": "Pending",
    "responsible_agency": "Department of Sanitation",
    "final_address": "PALMETTO ST & CHERRY ST",
    "address_councildis": "A",
    "status": "Pending",
    "rowid": "1141253",
    "final_x": "3665067.5",
    "final_y": "538064.48",
    "longitude": "-90.1197395872712",
    "latitude": "29.973979547653936",
    "geocoded_column": {
      "latitude": "29.973979547653936",
      "longitude": "-90.1197395872712"
    }
  },
  {
    "service_request": "2024-1141252",
    "request_type": "Parks & Parkways",
    "request_reason": "Request Tree Service (Right of Way/Public Property)",
    "date_created": "2024-10-15T14:29:52.000",
    "date_modified": "2024-10-15T14:29:52.000",
    "request_status": "Pending",
    "responsible_agency": "Department of Parks & Parkway",
    "final_address": "1019 General Taylor St",
    "address_councildis": "B",
    "status": "Pending",
    "rowid": "1141252",
    "final_x": "3673034.4242",
    "final_y": "519507.740983",
    "longitude": "-90.09521146403766",
    "latitude": "29.922720206453953",
    "geocoded_column": {
      "latitude": "29.922720206453953",
      "longitude": "-90.09521146403766"
    }
  },
  {
    "service_request": "2024-1141251",
    "request_type": "Trash/Recycling",
    "request_reason": "Request a Large Item Pick Up",
    "date_created": "2024-10-15T14:28:09.000",
    "date_modified": "2024-10-15T14:28:11.000",
    "request_status": "Pending",
    "responsible_agency": "Department of Sanitation",
    "final_address": "7500 Malvern Dr",
    "address_councildis": "E",
    "status": "Assigned to Contractor",
    "contractor": "Waste Pro",
    "rowid": "1141251",
    "final_x": "3702508.01751",
    "final_y": "561186.909534",
    "longitude": "-90.00064552471571",
    "latitude": "30.036414031842614",
    "geocoded_column": {
      "latitude": "30.036414031842614",
      "longitude": "-90.00064552471571"
    }
  },
  {
    "service_request": "2024-1141250",
    "request_type": "Trash/Recycling",
    "request_reason": "Request a Large Item Pick Up",
    "date_created": "2024-10-15T14:26:06.000",
    "date_modified": "2024-10-15T14:26:07.000",
    "request_status": "Pending",
    "responsible_agency": "Department of Sanitation",
    "final_address": "8550 Curran Rd",
    "address_councildis": "E",
    "status": "Assigned to Contractor",
    "contractor": "Waste Pro",
    "rowid": "1141250",
    "final_x": "3703995.91562",
    "final_y": "562265.494687",
    "longitude": "-89.99590371746834",
    "latitude": "30.039332050458732",
    "geocoded_column": {
      "latitude": "30.039332050458732",
      "longitude": "-89.99590371746834"
    }
  },
  {
    "service_request": "2024-1141249",
    "request_type": "Trash/Recycling",
    "request_reason": "Request a Large Item Pick Up",
    "date_created": "2024-10-15T14:26:01.000",
    "date_modified": "2024-10-15T14:26:02.000",
    "request_status": "Pending",
    "responsible_agency": "Department of Sanitation",
    "final_address": "2237 Killdeer St",
    "address_councildis": "D",
    "status": "Assigned to Contractor",
    "contractor": "IV Waste",
    "rowid": "1141249",
    "final_x": "3683993.64508",
    "final_y": "557609.033243",
    "longitude": "-90.05928032533144",
    "latitude": "30.02715529801988",
    "geocoded_column": {
      "latitude": "30.02715529801988",
      "longitude": "-90.05928032533144"
    }
  },
  {
    "service_request": "2024-1141248",
    "request_type": "Trash/Recycling",
    "request_reason": "Repair Trash Cart",
    "date_created": "2024-10-15T14:25:54.000",
    "date_modified": "2024-10-15T14:25:55.000",
    "request_status": "Pending",
    "responsible_agency": "Department of Sanitation",
    "final_address": "6505 Oakland Dr",
    "address_councildis": "A",
    "status": "Assigned to Contractor",
    "contractor": "IV Waste",
    "rowid": "1141248",
    "final_x": "3666758.82356",
    "final_y": "540321.327115",
    "longitude": "-90.11432215944251",
    "latitude": "29.980135756331062",
    "geocoded_column": {
      "latitude": "29.980135756331062",
      "longitude": "-90.11432215944251"
    }
  },
  {
    "service_request": "2024-1141247",
    "request_type": "Trash/Recycling",
    "request_reason": "Illegal Dumping",
    "date_created": "2024-10-15T14:25:09.000",
    "date_modified": "2024-10-15T14:27:26.000",
    "request_status": "Pending",
    "responsible_agency": "Department of Sanitation",
    "final_address": "2036 Lamanche St",
    "address_councildis": "E",
    "status": "Pending",
    "rowid": "1141247",
    "final_x": "3699316.52388",
    "final_y": "537389.18932",
    "longitude": "-90.01159872822912",
    "latitude": "29.971080878631998",
    "geocoded_column": {
      "latitude": "29.971080878631998",
      "longitude": "-90.01159872822912"
    }
  },
  {
    "service_request": "2024-1141246",
    "request_type": "Trash/Recycling",
    "request_reason": "Illegal Dumping",
    "date_created": "2024-10-15T14:22:17.000",
    "date_modified": "2024-10-15T14:23:16.000",
    "request_status": "Pending",
    "responsible_agency": "Department of Sanitation",
    "final_address": "6238 N Rampart St",
    "address_councildis": "E",
    "status": "Pending",
    "rowid": "1141246",
    "final_x": "3699924.66928",
    "final_y": "532611.12762",
    "longitude": "-90.00985242735707",
    "latitude": "29.95792361833792",
    "geocoded_column": {
      "latitude": "29.95792361833792",
      "longitude": "-90.00985242735707"
    }
  },
  {
    "service_request": "2024-1141245",
    "request_type": "Street and Traffic Signs",
    "request_reason": "Stop Sign Missing or Damaged",
    "date_created": "2024-10-15T14:22:03.000",
    "date_modified": "2024-10-15T14:22:05.000",
    "request_status": "Pending",
    "responsible_agency": "Department of Public Works",
    "final_address": "N JOHNSON ST & CLOUET ST",
    "address_councildis": "D",
    "status": "Pending",
    "rowid": "1141245",
    "final_x": "3689847.0",
    "final_y": "539382.78",
    "longitude": "-90.04143366199807",
    "latitude": "29.97685949942823",
    "geocoded_column": {
      "latitude": "29.97685949942823",
      "longitude": "-90.04143366199807"
    }
  },
  {
    "service_request": "2024-1141244",
    "request_type": "Trash/Recycling",
    "request_reason": "Request a Large Item Pick Up",
    "date_created": "2024-10-15T14:19:23.000",
    "date_modified": "2024-10-15T14:19:24.000",
    "request_status": "Pending",
    "responsible_agency": "Department of Sanitation",
    "final_address": "2001 W Homestead Dr",
    "address_councildis": "C",
    "status": "Assigned to Contractor",
    "contractor": "Richards Disposal",
    "rowid": "1141244",
    "final_x": "3696840.64983",
    "final_y": "524617.727484",
    "longitude": "-90.01988016493495",
    "latitude": "29.936042143558513",
    "geocoded_column": {
      "latitude": "29.936042143558513",
      "longitude": "-90.01988016493495"
    }
  },