[
  {
    "service_request": "2025-1230828",
    "request_type": "Abandoned Vehicles",
    "request_reason": "Abandoned/Junk Vehicles",
    "date_created": "2025-10-02T23:58:45.000",
    "date_modified": "2025-10-02T23:58:47.000",
    "request_status": "Pending",
    "responsible_agency": "Department of Public Works",
    "final_address": "1828 Arts St",
    "address_councildis": "D",
    "status": "Pending",
    "rowid": "1230828",
    "final_x": "3686953.02447",
    "final_y": "539298.219722",
    "longitude": "-90.05057671944581",
    "latitude": "29.976716388569496",
    "geocoded_column": {
      "latitude": "29.976716388569496",
      "longitude": "-90.05057671944581"
    }
  },
  {
    "service_request": "2025-1230827",
    "request_type": "Traffic Signals",
    "request_reason": "Traffic Signal Malfunctioning or Damaged",
    "date_created": "2025-10-02T23:55:23.000",
    "date_modified": "2025-10-02T23:55:25.000",
    "request_status": "Pending",
    "responsible_agency": "Department of Public Works",
    "final_address": "BARONNE ST & CALLIOPE ST",
    "address_councildis": "B",
    "status": "Pending",
    "rowid": "1230827",
    "final_x": "3679060.1",
    "final_y": "527019.36",
    "longitude": "-90.07593059822653",
    "latitude": "29.94319428493894",
    "geocoded_column": {
      "latitude": "29.94319428493894",
      "longitude": "-90.07593059822653"
    }
  },
  {
    "service_request": "2025-1230826",
    "request_type": "Roads and Streets",
    "request_reason": "Pothole",
    "date_created": "2025-10-02T23:48:57.000",
    "date_modified": "2025-10-02T23:48:58.000",
    "request_status": "Pending",
    "responsible_agency": "Department of Public Works",
    "final_address": "5215 Pratt Dr",
    "address_councildis": "D",
    "status": "Pending",
    "rowid": "1230826",
    "final_x": "3680543.19515",
    "final_y": "551576.287381",
    "longitude": "-90.07039353934051",
    "latitude": "30.010672483896563",
    "geocoded_column": {
      "latitude": "30.010672483896563",
      "longitude": "-90.07039353934051"
    }
  },
  {
    "service_request": "2025-1230825",
    "request_type": "Roads and Streets",
    "request_reason": "Curb Damage",
    "date_created": "2025-10-02T22:50:58.000",
    "date_modified": "2025-10-02T22:50:59.000",
    "request_status": "Pending",
    "responsible_agency": "Department of Public Works",
    "final_address": "254 Roselyn Park Pl",
    "address_councildis": "C",
    "status": "Pending",
    "rowid": "1230825",
    "final_x": "3702684.66372",
    "final_y": "523142.972795",
    "longitude": "-90.001484720871",
    "latitude": "29.9318015929379",
    "geocoded_column": {
      "latitude": "29.9318015929379",
      "longitude": "-90.001484720871"
    }
  },
  {
    "service_request": "2025-1230824",
    "request_type": "Abandoned Vehicles",
    "request_reason": "Abandoned/Junk Vehicles",
    "date_created": "2025-10-02T22:49:46.000",
    "date_modified": "2025-10-02T22:49:48.000",
    "request_status": "Pending",
    "responsible_agency": "Department of Public Works",
    "final_address": "3027 Allen St",
    "address_councildis": "D",
    "status": "Pending",
    "rowid": "1230824",
    "final_x": "3682216.38818",
    "final_y": "543706.405646",
    "longitude": "-90.06538241729272",
    "latitude": "29.988982308064404",
    "geocoded_column": {
      "latitude": "29.988982308064404",
      "longitude": "-90.06538241729272"
    }
  },
  {
    "service_request": "2025-1230823",
    "request_type": "Abandoned Vehicles",
    "request_reason": "Abandoned/Junk Vehicles",
    "date_created": "2025-10-02T22:45:06.000",
    "date_modified": "2025-10-02T22:45:07.000",
    "request_status": "Pending",
    "responsible_agency": "Department of Public Works",
    "final_address": "1955 Abundance St",
    "address_councildis": "D",
    "status": "Pending",
    "rowid": "1230823",
    "final_x": "3682736.01589",
    "final_y": "543575.022926",
    "longitude": "-90.06374566927333",
    "latitude": "29.988605231194352",
    "geocoded_column": {
      "latitude": "29.988605231194352",
      "longitude": "-90.06374566927333"
    }
  },
  {
    "service_request": "2025-1230822",
    "request_type": "Abandoned Vehicles",
    "request_reason": "Abandoned/Junk Vehicles",
    "date_created": "2025-10-02T22:37:42.000",
    "date_modified": "2025-10-02T22:37:44.000",
    "request_status": "Pending",
    "responsible_agency": "Department of Public Works",
    "final_address": "2160 Treasure St",
    "address_councildis": "D",
    "status": "Pending",
    "rowid": "1230822",
    "final_x": "3684130.54645",
    "final_y": "543974.659022",
    "longitude": "-90.05932675391306",
    "latitude": "29.989661529227785",
    "geocoded_column": {
      "latitude": "29.989661529227785",
      "longitude": "-90.05932675391306"
    }
  },
  {
    "service_request": "2025-1230821",
    "request_type": "Streetlights",
    "request_reason": "Streetlight Outage/Malfunction",
    "date_created": "2025-10-02T22:18:14.000",
    "date_modified": "2025-10-02T22:18:16.000",
    "request_status": "Pending",
    "responsible_agency": "Department of Public Works",
    "final_address": "6808 W Coronet Ct",
    "address_councildis": "E",
    "status": "Pending",
    "rowid": "1230821",
    "final_x": "3702361.29156",
    "final_y": "557276.188891",
    "longitude": "-90.00125287866251",
    "latitude": "30.02566576037831",
    "geocoded_column": {
      "latitude": "30.02566576037831",
      "longitude": "-90.00125287866251"
    }
  },
  {
    "service_request": "2025-1230820",
    "request_type": "Trash/Recycling",
    "request_reason": "Replace Trash Cart",
    "date_created": "2025-10-02T21:27:53.000",
    "date_modified": "2025-10-02T21:27:55.000",
    "request_status": "Pending",
    "responsible_agency": "Department of Sanitation",
    "final_address": "2037 Joseph St",
    "address_councildis": "A",
    "status": "Assigned to Contractor",
    "contractor": "IV Waste",
    "rowid": "1230820",
    "final_x": "3667266.17447",
    "final_y": "523732.355643",
    "longitude": "-90.11327761237604",
    "latitude": "29.934506677502434",
    "geocoded_column": {
      "latitude": "29.934506677502434",
      "longitude": "-90.11327761237604"
    }
  },
  {
    "service_request": "2025-1230819",
    "request_type": "Property Maintenance",
    "request_reason": "Property Maintenance",
    "date_created": "2025-10-02T21:17:42.000",
    "date_modified": "2025-10-02T21:17:44.000",
    "request_status": "Pending",
    "responsible_agency": "Department of Code Enforcement",
    "final_address": "4516 S Robertson St",
    "address_councildis": "B",
    "status": "Pending",
    "rowid": "1230819",
    "final_x": "3669948.49806",
    "final_y": "524303.036476",
    "longitude": "-90.10479024132798",
    "latitude": "29.935997061313838",
    "geocoded_column": {
      "latitude": "29.935997061313838",
      "longitude": "-90.10479024132798"
    }
  },
  {
    "service_request": "2025-1230818",
    "request_type": "Streetlights",
    "request_reason": "Streetlight Outage/Malfunction",
    "date_created": "2025-10-02T21:10:53.000",
    "date_modified": "2025-10-02T21:10:54.000",
    "request_status": "Pending",
    "responsible_agency": "Department of Public Works",
    "final_address": "2321 Laurel St",
    "address_councildis": "B",
    "status": "Pending",
    "rowid": "1230818",
    "final_x": "3678817.63592",
    "final_y": "521160.475129",
    "longitude": "-90.07689895173172",
    "latitude": "29.927091594306507",
    "geocoded_column": {
      "latitude": "29.927091594306507",
      "longitude": "-90.07689895173172"
    }
  },
  {
    "service_request": "2025-1230817",
    "request_type": "Trash/Recycling",
    "request_reason": "Order Recycling Cart",
    "date_created": "2025-10-02T21:07:32.000",
    "date_modified": "2025-10-02T21:07:34.000",
    "request_status": "Pending",
    "responsible_agency": "Department of Sanitation",
    "final_address": "1325 Marigny St",
    "address_councildis": "C",
    "status": "Pending",
    "rowid": "1230817",
    "final_x": "3685433.43509",
    "final_y": "537290.554376",
    "longitude": "-90.05544676238947",
    "latitude": "29.971242699418077",
    "geocoded_column": {
      "latitude": "29.971242699418077",
      "longitude": "-90.05544676238947"
    }
  },
  {
    "service_request": "2025-1230816",
    "request_type": "Trash/Recycling",
    "request_reason": "Order Recycling Cart",
    "date_created": "2025-10-02T20:47:04.000",
    "date_modified": "2025-10-02T20:47:05.000",
    "request_status": "Pending",
    "responsible_agency": "Department of Sanitation",
    "final_address": "5000 Laurel St",
    "address_councildis": "B",
    "status": "Pending",
    "rowid": "1230816",
    "final_x": "3668548.3714",
    "final_y": "517798.014454",
    "longitude": "-90.10942984387758",
    "latitude": "29.918151521998347",
    "geocoded_column": {
      "latitude": "29.918151521998347",
      "longitude": "-90.10942984387758"
    }
  },
  {
    "service_request": "2025-1230815",
    "request_type": "Abandoned Vehicles",
    "request_reason": "Abandoned/Junk Vehicles",
    "date_created": "2025-10-02T20:23:18.000",
    "date_modified": "2025-10-02T20:23:20.000",
    "request_status": "Pending",
    "responsible_agency": "Department of Public Works",
    "final_address": "4422 Chestnut St",
    "address_councildis": "B",
    "status": "Pending",
    "rowid": "1230815",
    "final_x": "3670745.88046",
    "final_y": "519457.795575",
    "longitude": "-90.1024372004076",
    "latitude": "29.922650669594727",
    "geocoded_column": {
      "latitude": "29.922650669594727",
      "longitude": "-90.1024372004076"
    }
  },
  {
    "service_request": "2025-1230814",
    "request_type": "Streetlights",
    "request_reason": "Streetlight Outage/Malfunction",
    "date_created": "2025-10-02T19:43:12.000",
    "date_modified": "2025-10-02T19:43:14.000",
    "request_status": "Pending",
    "responsible_agency": "Department of Public Works",
    "final_address": "409 S Alexander St",
    "address_councildis": "A",
    "status": "Pending",
    "rowid": "1230814",
    "final_x": "3669154.82593",
    "final_y": "538147.293577",
    "longitude": "-90.10682805454235",
    "latitude": "29.974087591118334",
    "geocoded_column": {
      "latitude": "29.974087591118334",
      "longitude": "-90.10682805454235"
    }
  },
  {
    "service_request": "2025-1230813",
    "request_type": "Streetlights",
    "request_reason": "Streetlight Outage/Malfunction",
    "date_created": "2025-10-02T19:33:38.000",
    "date_modified": "2025-10-02T19:33:40.000",
    "request_status": "Pending",
    "responsible_agency": "Department of Public Works",
    "final_address": "7003 Walmsley Ave",
    "address_councildis": "B",
    "status": "Pending",
    "rowid": "1230813",
    "final_x": "3667840.62561",
    "final_y": "530847.702018",
    "longitude": "-90.11122449621737",
    "latitude": "29.954054746310433",
    "geocoded_column": {
      "latitude": "29.954054746310433",
      "longitude": "-90.11122449621737"
    }
  },
  {
    "service_request": "2025-1230812",
    "request_type": "Trash/Recycling",
    "request_reason": "Missed Trash Pick-Up",
    "date_created": "2025-10-02T18:35:12.000",
    "date_modified": "2025-10-02T18:35:15.000",
    "request_status": "Pending",
    "responsible_agency": "Department of Sanitation",
    "final_address": "2008 Congress St, New Orleans, Louisiana, 70117",
    "address_councildis": "D",
    "status": "Assigned to Contractor",
    "contractor": "IV Waste",
    "rowid": "1230812",
    "final_x": "3691534.72937",
    "final_y": "539061.248266",
    "longitude": "-90.03611479604069",
    "latitude": "29.975922971523467",
    "geocoded_column": {
      "latitude": "29.975922971523467",
      "longitude": "-90.03611479604069"
    }
  },
  {
    "service_request": "2025-1230811",
    "request_type": "General Services",
    "request_reason": "General Service Request",
    "date_created": "2025-10-02T18:30:20.000",
    "date_modified": "2025-10-02T18:30:23.000",
    "request_status": "Pending",
    "responsible_agency": "Orleans Parish Communication District",
    "final_address": "8702 Spruce St",
    "address_councildis": "A",
    "status": "Pending",
    "rowid": "1230811",
    "final_x": "3662222.42183",
    "final_y": "531890.921155",
    "longitude": "-90.12892996947194",
    "latitude": "29.957086830092276",
    "geocoded_column": {
      "latitude": "29.957086830092276",
      "longitude": "-90.12892996947194"
    }
  },
  {
    "service_request": "2025-1230810",
    "request_type": "Safety & Permits",
    "request_reason": "Licenses & Permits",
    "date_created": "2025-10-02T18:13:40.000",
    "date_modified": "2025-10-02T18:13:43.000",
    "request_status": "Pending",
    "responsible_agency": "Safety and Permits",
    "final_address": "8535 Green St",
    "address_councildis": "A",
    "status": "Pending",
    "rowid": "1230810",
    "final_x": "3661924.58285",
    "final_y": "530838.03533",
    "longitude": "-90.12990537537776",
    "latitude": "29.954200339104936",
    "geocoded_column": {
      "latitude": "29.954200339104936",
      "longitude": "-90.12990537537776"
    }
  },
  {
    "service_request": "2025-1230809",
    "request_type": "Mosquito, Termite & Rodent Control",
    "request_reason": "Rodent Complaint (Mice & Rats)",
    "date_created": "2025-10-02T18:02:15.000",
    "date_modified": "2025-10-02T18:02:18.000",
    "request_status": "Pending",
    "responsible_agency": "Mosquito, Termite & Rodent Control Board",
    "final_address": "2600 BLK N Rocheblave St",
    "address_councildis": "D",
    "status": "Pending",
    "rowid": "1230809",
    "final_x": "3686645.16768",
    "final_y": "541250.638743",
    "longitude": "-90.05148004190555",
    "latitude": "29.982094324898434",
    "geocoded_column": {
      "latitude": "29.982094324898434",
      "longitude": "-90.05148004190555"
    }
  },
  {
    "service_request": "2025-1230808",
    "request_type": "Trash/Recycling",
    "request_reason": "Replace Trash Cart",
    "date_created": "2025-10-02T17:54:49.000",
    "date_modified": "2025-10-02T17:54:51.000",
    "request_status": "Pending",
    "responsible_agency": "Department of Sanitation",
    "final_address": "2421 Rousseau St",
    "address_councildis": "B",
    "status": "Assigned to Contractor",
    "contractor": "IV Waste",
    "rowid": "1230808",
    "final_x": "3679150.46223",
    "final_y": "519548.432823",
    "longitude": "-90.07590414889077",
    "latitude": "29.92264896400704",
    "geocoded_column": {
      "latitude": "29.92264896400704",
      "longitude": "-90.07590414889077"
    }
  },
  {
    "service_request": "2025-1230807",
    "request_type": "Trash/Recycling",
    "request_reason": "Order Second Trash Cart",
    "date_created": "2025-10-02T17:53:34.000",
    "date_modified": "2025-10-02T17:53:36.000",
    "request_status": "Pending",
    "responsible_agency": "Department of Sanitation",
    "final_address": "6701 Pauline Dr",
    "address_councildis": "D",
    "status": "Assigned to Contractor",
    "contractor": "IV Waste",
    "rowid": "1230807",
    "final_x": "3690871.50454",
    "final_y": "558368.234908",
    "longitude": "-90.03751986367625",
    "latitude": "30.029030746209777",
    "geocoded_column": {
      "latitude": "30.029030746209777",
      "longitude": "-90.03751986367625"
    }
  },
  {
    "service_request": "2025-1230806",
    "request_type": "Trash/Recycling",
    "request_reason": "Order Recycling Cart",
    "date_created": "2025-10-02T17:52:27.000",
    "date_modified": "2025-10-02T17:52:29.000",
    "request_status": "Pending",
    "responsible_agency": "Department of Sanitation",
    "final_address": "2421 Rousseau St",
    "address_councildis": "B",
    "status": "Pending",
    "rowid": "1230806",
    "final_x": "3679150.46223",
    "final_y": "519548.432823",
    "longitude": "-90.07590414889077",
    "latitude": "29.92264896400704",
    "geocoded_column": {
      "latitude": "29.92264896400704",
      "longitude": "-90.07590414889077"
    }
  },
  {
    "service_request": "2025-1230805",
    "request_type": "Trash/Recycling",
    "request_reason": "Request a Large Item Pick Up",
    "date_created": "2025-10-02T17:51:02.000",
    "date_modified": "2025-10-02T17:51:03.000",
    "request_status": "Pending",
    "responsible_agency": "Department of Sanitation",
    "final_address": "3021 Toulouse St",
    "address_councildis": "A",
    "status": "Assigned to Contractor",
    "contractor": "IV Waste",
    "rowid": "1230805",
    "final_x": "3675305.69857",
    "final_y": "537464.66004",
    "longitude": "-90.08742561357663",
    "latitude": "29.972028113666838",
    "geocoded_column": {
      "latitude": "29.972028113666838",
      "longitude": "-90.08742561357663"
    }
  },
  {
    "service_request": "2025-1230804",
    "request_type": "Trash/Recycling",
    "request_reason": "Missed Trash Pick-Up",
    "date_created": "2025-10-02T17:50:11.000",
    "date_modified": "2025-10-02T17:50:13.000",
    "request_status": "Pending",
    "responsible_agency": "Department of Sanitation",
    "final_address": "4755 Deanne St",
    "address_councildis": "D",
    "status": "Assigned to Contractor",
    "contractor": "Waste Pro",
    "rowid": "1230804",
    "final_x": "3696425.08144",
    "final_y": "554290.996504",
    "longitude": "-90.02011848853518",
    "latitude": "30.01764603028123",
    "geocoded_column": {
      "latitude": "30.01764603028123",
      "longitude": "-90.02011848853518"
    }
  },
  {
    "service_request": "2025-1230803",
    "request_type": "Trash/Recycling",
    "request_reason": "Replace Trash Cart",
    "date_created": "2025-10-02T17:48:27.000",
    "date_modified": "2025-10-02T17:48:29.000",
    "request_status": "Pending",
    "responsible_agency": "Department of Sanitation",
    "final_address": "1912 Josephine St",
    "address_councildis": "B",
    "status": "Assigned to Contractor",
    "contractor": "IV Waste",
    "rowid": "1230803",
    "final_x": "3677017.98363",
    "final_y": "525048.417213",
    "longitude": "-90.08244600834448",
    "latitude": "29.937836302629474",
    "geocoded_column": {
      "latitude": "29.937836302629474",
      "longitude": "-90.08244600834448"
    }
  },
  {
    "service_request": "2025-1230802",
    "request_type": "Abandoned Vehicles",
    "request_reason": "Abandoned/Junk Vehicles",
    "date_created": "2025-10-02T17:45:18.000",
    "date_modified": "2025-10-02T17:45:20.000",
    "request_status": "Pending",
    "responsible_agency": "Department of Public Works",
    "final_address": "1528 Cambronne St",
    "address_councildis": "A",
    "status": "Pending",
    "rowid": "1230802",
    "final_x": "3662012.30618",
    "final_y": "530087.710977",
    "longitude": "-90.12965326708512",
    "latitude": "29.952134655330976",
    "geocoded_column": {
      "latitude": "29.952134655330976",
      "longitude": "-90.12965326708512"
    }
  },
  {
    "service_request": "2025-1230801",
    "request_type": "Trash/Recycling",
    "request_reason": "Illegal Dumping",
    "date_created": "2025-10-02T17:44:41.000",
    "date_modified": "2025-10-02T17:44:43.000",
    "request_status": "Pending",
    "responsible_agency": "Department of Sanitation",
    "final_address": "1224 Mazant St",
    "address_councildis": "D",
    "status": "Pending",
    "rowid": "1230801",
    "final_x": "3692206.40182",
    "final_y": "535799.299271",
    "longitude": "-90.03411028260675",
    "latitude": "29.96693284208069",
    "geocoded_column": {
      "latitude": "29.96693284208069",
      "longitude": "-90.03411028260675"
    }
  },
  {
    "service_request": "2025-1230800",
    "request_type": "Trash/Recycling",
    "request_reason": "Request a Large Item Pick Up",
    "date_created": "2025-10-02T17:24:48.000",
    "date_modified": "2025-10-02T17:24:50.000",
    "request_status": "Pending",
    "responsible_agency": "Department of Sanitation",
    "final_address": "209 Fairfax Pl",
    "address_councildis": "C",
    "status": "Assigned to Contractor",
    "contractor": "Richards Disposal",
    "rowid": "1230800",
    "final_x": "3706368.12996",
    "final_y": "517361.187701",
    "longitude": "-89.99007049231997",
    "latitude": "29.91578546203886",
    "geocoded_column": {
      "latitude": "29.91578546203886",
      "longitude": "-89.99007049231997"
    }
  },
  {
    "service_request": "2025-1230799",
    "request_type": "Safety & Permits",
    "request_reason": "Zoning Enforcement",
    "date_created": "2025-10-02T17:23:42.000",
    "date_modified": "2025-10-02T17:23:45.000",
    "request_status": "Pending",
    "responsible_agency": "Safety and Permits",
    "final_address": "2315 Mazant St",
    "address_councildis": "D",
    "status": "Pending",
    "rowid": "1230799",
    "final_x": "3693302.1071",
    "final_y": "539866.453706",
    "longitude": "-90.03050402043655",
    "latitude": "29.9780818633477",
    "geocoded_column": {
      "latitude": "29.9780818633477",
      "longitude": "-90.03050402043655"
    }
  },
  {
    "service_request": "2025-1230798",
    "request_type": "Trash/Recycling",
    "request_reason": "Return Trash Cart",
    "date_created": "2025-10-02T17:05:00.000",
    "date_modified": "2025-10-02T17:05:02.000",
    "request_status": "Pending",
    "responsible_agency": "Department of Sanitation",
    "final_address": "7911 Burthe St",
    "address_councildis": "A",
    "status": "Assigned to Contractor",
    "contractor": "IV Waste",
    "rowid": "1230798",
    "final_x": "3661762.49549",
    "final_y": "527182.507455",
    "longitude": "-90.13053834936106",
    "latitude": "29.944153489176987",
    "geocoded_column": {
      "latitude": "29.944153489176987",
      "longitude": "-90.13053834936106"
    }
  },
  {
    "service_request": "2025-1230797",
    "request_type": "Trash/Recycling",
    "request_reason": "Order Recycling Cart",
    "date_created": "2025-10-02T16:54:33.000",
    "date_modified": "2025-10-02T16:54:35.000",
    "request_status": "Pending",
    "responsible_agency": "Department of Sanitation",
    "final_address": "2616 First St",
    "address_councildis": "B",
    "status": "Pending",
    "rowid": "1230797",
    "final_x": "3674838.48053",
    "final_y": "526341.294782",
    "longitude": "-90.08928257003687",
    "latitude": "29.94145653571407",
    "geocoded_column": {
      "latitude": "29.94145653571407",
      "longitude": "-90.08928257003687"
    }
  },
  {
    "service_request": "2025-1230796",
    "request_type": "Trash/Recycling",
    "request_reason": "Illegal Dumping",
    "date_created": "2025-10-02T16:52:03.000",
    "date_modified": "2025-10-02T16:56:00.000",
    "request_status": "Pending",
    "responsible_agency": "Department of Sanitation",
    "final_address": "4900 BLK Spain St",
    "address_councildis": "D",
    "status": "Pending",
    "rowid": "1230796",
    "final_x": "3684934.83974",
    "final_y": "551113.584568",
    "longitude": "-90.05653494921434",
    "latitude": "30.009266393603923",
    "geocoded_column": {
      "latitude": "30.009266393603923",
      "longitude": "-90.05653494921434"
    }
  },
  {
    "service_request": "2025-1230795",
    "request_type": "Property Maintenance",
    "request_reason": "Property Maintenance",
    "date_created": "2025-10-02T16:34:13.000",
    "date_modified": "2025-10-02T16:34:15.000",
    "request_status": "Pending",
    "responsible_agency": "Department of Code Enforcement",
    "final_address": "5207 Sandhurst Dr",
    "address_councildis": "E",
    "status": "Pending",
    "rowid": "1230795",
    "final_x": "3704997.92932",
    "final_y": "557058.525018",
    "longitude": "-89.99292958081962",
    "latitude": "30.02498272447879",
    "geocoded_column": {
      "latitude": "30.02498272447879",
      "longitude": "-89.99292958081962"
    }
  },
  {
    "service_request": "2025-1230794",
    "request_type": "Trash/Recycling",
    "request_reason": "Replace Trash Cart",
    "date_created": "2025-10-02T16:28:59.000",
    "date_modified": "2025-10-02T16:29:00.000",
    "request_status": "Pending",
    "responsible_agency": "Department of Sanitation",
    "final_address": "3927 Downman Rd",
    "address_councildis": "D",
    "status": "Assigned to Contractor",
    "contractor": "Waste Pro",
    "rowid": "1230794",
    "final_x": "3696251.90589",
    "final_y": "551799.07791",
    "longitude": "-90.02075584424622",
    "latitude": "30.010799646283694",
    "geocoded_column": {
      "latitude": "30.010799646283694",
      "longitude": "-90.02075584424622"
    }
  },
  {
    "service_request": "2025-1230793",
    "request_type": "Trash/Recycling",
    "request_reason": "Request a Large Item Pick Up",
    "date_created": "2025-10-02T16:26:29.000",
    "date_modified": "2025-10-02T16:26:31.000",
    "request_status": "Pending",
    "responsible_agency": "Department of Sanitation",
    "final_address": "7701 Dogwood Dr",
    "address_councildis": "E",
    "status": "Assigned to Contractor",
    "contractor": "Waste Pro",
    "rowid": "1230793",
    "final_x": "3701272.82769",
    "final_y": "561266.111774",
    "longitude": "-90.00454604507651",
    "latitude": "30.03667125054502",
    "geocoded_column": {
      "latitude": "30.03667125054502",
      "longitude": "-90.00454604507651"
    }
  },
  {
    "service_request": "2025-1230792",
    "request_type": "Streetlights",
    "request_reason": "Streetlight Outage/Malfunction",
    "date_created": "2025-10-02T16:25:48.000",
    "date_modified": "2025-10-02T16:25:50.000",
    "request_status": "Pending",
    "responsible_agency": "Department of Public Works",
    "final_address": "1925 Audubon St",
    "address_councildis": "A",
    "status": "Pending",
    "rowid": "1230792",
    "final_x": "3665943.80308",
    "final_y": "528545.125888",
    "longitude": "-90.11729107648797",
    "latitude": "29.94777890089649",
    "geocoded_column": {
      "latitude": "29.94777890089649",
      "longitude": "-90.11729107648797"
    }
  },
  {
    "service_request": "2025-1230791",
    "request_type": "Abandoned Vehicles",
    "request_reason": "Abandoned/Junk Vehicles",
    "date_created": "2025-10-02T16:24:04.000",
    "date_modified": "2025-10-02T16:24:05.000",
    "request_status": "Pending",
    "responsible_agency": "Department of Public Works",
    "final_address": "4214 Dauphine St",
    "address_councildis": "C",
    "status": "Pending",
    "rowid": "1230791",
    "final_x": "3692218.83344",
    "final_y": "533950.161861",
    "longitude": "-90.03413723489696",
    "latitude": "29.961847976798374",
    "geocoded_column": {
      "latitude": "29.961847976798374",
      "longitude": "-90.03413723489696"
    }
  },
  {
    "service_request": "2025-1230790",
    "request_type": "Abandoned Vehicles",
    "request_reason": "Abandoned/Junk Vehicles",
    "date_created": "2025-10-02T16:23:45.000",
    "date_modified": "2025-10-02T16:23:47.000",
    "request_status": "Pending",
    "responsible_agency": "Department of Public Works",
    "final_address": "1734 Elysian Fields Ave",
    "address_councildis": "D",
    "status": "Pending",
    "rowid": "1230790",
    "final_x": "3684673.41532",
    "final_y": "538803.279369",
    "longitude": "-90.0577938243644",
    "latitude": "29.975425449926476",
    "geocoded_column": {
      "latitude": "29.975425449926476",
      "longitude": "-90.0577938243644"
    }
  },
  {
    "service_request": "2025-1230789",
    "request_type": "Trash/Recycling",
    "request_reason": "Request a Large Item Pick Up",
    "date_created": "2025-10-02T16:22:10.000",
    "date_modified": "2025-10-02T16:22:12.000",
    "request_status": "Pending",
    "responsible_agency": "Department of Sanitation",
    "final_address": "7723 Hampson St",
    "address_councildis": "A",
    "status": "Assigned to Contractor",
    "contractor": "IV Waste",
    "rowid": "1230789",
    "final_x": "3661761.25645",
    "final_y": "526266.050494",
    "longitude": "-90.1305726339203",
    "latitude": "29.941633559925393",
    "geocoded_column": {
      "latitude": "29.941633559925393",
      "longitude": "-90.1305726339203"
    }
  },
  {
    "service_request": "2025-1230788",
    "request_type": "Trash/Recycling",
    "request_reason": "Request a Large Item Pick Up",
    "date_created": "2025-10-02T16:21:05.000",
    "date_modified": "2025-10-02T16:21:08.000",
    "request_status": "Pending",
    "responsible_agency": "Department of Sanitation",
    "final_address": "1427 St Mary St",
    "address_councildis": "B",
    "status": "Assigned to Contractor",
    "contractor": "IV Waste",
    "rowid": "1230788",
    "final_x": "3678984.6484",
    "final_y": "523767.974395",
    "longitude": "-90.07628143555137",
    "latitude": "29.934256326135813",
    "geocoded_column": {
      "latitude": "29.934256326135813",
      "longitude": "-90.07628143555137"
    }
  },
  {
    "service_request": "2025-1230787",
    "request_type": "Trash/Recycling",
    "request_reason": "Request a Large Item Pick Up",
    "date_created": "2025-10-02T16:16:25.000",
    "date_modified": "2025-10-02T16:16:38.000",
    "request_status": "Pending",
    "responsible_agency": "Department of Sanitation",
    "final_address": "6900 Virgilian St",
    "address_councildis": "D",
    "status": "Assigned to Contractor",
    "contractor": "Waste Pro",
    "rowid": "1230787",
    "final_x": "3696877.76016",
    "final_y": "556410.319322",
    "longitude": "-90.01861137774054",
    "latitude": "30.023459092047506",
    "geocoded_column": {
      "latitude": "30.023459092047506",
      "longitude": "-90.01861137774054"
    }
  },
  {
    "service_request": "2025-1230786",
    "request_type": "Abandoned Vehicles",
    "request_reason": "Abandoned/Junk Vehicles",
    "date_created": "2025-10-02T16:14:43.000",
    "date_modified": "2025-10-02T16:14:45.000",
    "request_status": "Pending",
    "responsible_agency": "Department of Public Works",
    "final_address": "4127 Erato St",
    "address_councildis": "B",
    "status": "Pending",
    "rowid": "1230786",
    "final_x": "3671278.41569",
    "final_y": "531288.721154",
    "longitude": "-90.1003543394303",
    "latitude": "29.95516613590411",
    "geocoded_column": {
      "latitude": "29.95516613590411",
      "longitude": "-90.1003543394303"
    }
  },
  {
    "service_request": "2025-1230785",
    "request_type": "Property Maintenance",
    "request_reason": "Property Maintenance",
    "date_created": "2025-10-02T16:13:55.000",
    "date_modified": "2025-10-02T16:14:00.000",
    "request_status": "Pending",
    "responsible_agency": "Department of Code Enforcement",
    "final_address": "3318 S Roman St",
    "address_councildis": "B",
    "status": "Pending",
    "rowid": "1230785",
    "final_x": "3672142.74747",
    "final_y": "526940.621566",
    "longitude": "-90.09777314148151",
    "latitude": "29.943184690395363",
    "geocoded_column": {
      "latitude": "29.943184690395363",
      "longitude": "-90.09777314148151"
    }
  },
  {
    "service_request": "2025-1230784",
    "request_type": "Trash/Recycling",
    "request_reason": "Request a Large Item Pick Up",
    "date_created": "2025-10-02T16:01:37.000",
    "date_modified": "2025-10-02T16:01:39.000",
    "request_status": "Pending",
    "responsible_agency": "Department of Sanitation",
    "final_address": "4716 St Ferdinand Dr",
    "address_councildis": "D",
    "status": "Assigned to Contractor",
    "contractor": "IV Waste",
    "rowid": "1230784",
    "final_x": "3689286.11606",
    "final_y": "550630.146708",
    "longitude": "-90.04280502285768",
    "latitude": "30.00780308074532",
    "geocoded_column": {
      "latitude": "30.00780308074532",
      "longitude": "-90.04280502285768"
    }
  },
  {
    "service_request": "2025-1230783",
    "request_type": "Parks & Parkways",
    "request_reason": "Park Maintenance/Clean Up",
    "date_created": "2025-10-02T16:01:37.000",
    "date_modified": "2025-10-02T16:01:38.000",
    "request_status": "Pending",
    "responsible_agency": "Department of Parks & Parkway",
    "final_address": "5749 Congress Dr",
    "address_councildis": "D",
    "status": "Pending",
    "rowid": "1230783",
    "final_x": "3691303.1638",
    "final_y": "555228.271961",
    "longitude": "-90.03626815584708",
    "latitude": "30.020383598964248",
    "geocoded_column": {
      "latitude": "30.020383598964248",
      "longitude": "-90.03626815584708"
    }
  },
  {
    "service_request": "2025-1230782",
    "request_type": "Trash/Recycling",
    "request_reason": "Request a Large Item Pick Up",
    "date_created": "2025-10-02T15:57:20.000",
    "date_modified": "2025-10-02T15:57:23.000",
    "request_status": "Pending",
    "responsible_agency": "Department of Sanitation",
    "final_address": "7046 Lake Willow Dr",
    "address_councildis": "E",
    "status": "Assigned to Contractor",
    "contractor": "Waste Pro",
    "rowid": "1230782",
    "final_x": "3702245.72721",
    "final_y": "559069.97398",
    "longitude": "-90.00155216452771",
    "latitude": "30.030601668775283",
    "geocoded_column": {
      "latitude": "30.030601668775283",
      "longitude": "-90.00155216452771"
    }
  },
  {
    "service_request": "2025-1230781",
    "request_type": "Trash/Recycling",
    "request_reason": "Request a Large Item Pick Up",
    "date_created": "2025-10-02T15:57:09.000",
    "date_modified": "2025-10-02T15:57:11.000",
    "request_status": "Pending",
    "responsible_agency": "Department of Sanitation",
    "final_address": "3460 Annunciation St",
    "address_councildis": "B",
    "status": "Assigned to Contractor",
    "contractor": "IV Waste",
    "rowid": "1230781",
    "final_x": "3674964.01089",
    "final_y": "518374.860662",
    "longitude": "-90.08915934618129",
    "latitude": "29.919547677765323",
    "geocoded_column": {
      "latitude": "29.919547677765323",
      "longitude": "-90.08915934618129"
    }
  },
  {
    "service_request": "2025-1230780",
    "request_type": "Trash/Recycling",
    "request_reason": "Request a Large Item Pick Up",
    "date_created": "2025-10-02T15:53:04.000",
    "date_modified": "2025-10-02T15:53:06.000",
    "request_status": "Pending",
    "responsible_agency": "Department of Sanitation",
    "final_address": "5518 Royal St",
    "address_councildis": "E",
    "status": "Assigned to Contractor",
    "contractor": "Waste Pro",
    "rowid": "1230780",
    "final_x": "3697454.19728",
    "final_y": "532282.502147",
    "longitude": "-90.01766534910855",
    "latitude": "29.957098243862255",
    "geocoded_column": {
      "latitude": "29.957098243862255",
      "longitude": "-90.01766534910855"
    }
  },
  {
    "service_request": "2025-1230779",
    "request_type": "Abandoned Vehicles",
    "request_reason": "Abandoned/Junk Vehicles",
    "date_created": "2025-10-02T15:50:50.000",
    "date_modified": "2025-10-02T15:50:52.000",
    "request_status": "Pending",
    "responsible_agency": "Department of Public Works",
    "final_address": "4000 Mithra St",
    "address_councildis": "D",
    "status": "Pending",
    "rowid": "1230779",
    "final_x": "3688776.69532",
    "final_y": "552956.800535",
    "longitude": "-90.04433173933487",
    "latitude": "30.01421628912314",
    "geocoded_column": {
      "latitude": "30.01421628912314",
      "longitude": "-90.04433173933487"
    }
  },
  {
    "service_request": "2025-1230778",
    "request_type": "Healthy Homes",
    "request_reason": "Healthy Homes",
    "date_created": "2025-10-02T15:46:50.000",
    "date_modified": "2025-10-02T15:46:52.000",
    "request_status": "Pending",
    "responsible_agency": "Department of Code Enforcement",
    "final_address": "4924 Haik Dr",
    "address_councildis": "D",
    "status": "Pending",
    "rowid": "1230778",
    "final_x": "3681916.22933",
    "final_y": "550850.878869",
    "longitude": "-90.06608094380329",
    "latitude": "30.008636189475226",
    "geocoded_column": {
      "latitude": "30.008636189475226",
      "longitude": "-90.06608094380329"
    }
  },
  {
    "service_request": "2025-1230777",
    "request_type": "Trash/Recycling",
    "request_reason": "Replace Recycling Cart",
    "date_created": "2025-10-02T15:46:25.000",
    "date_modified": "2025-10-02T15:46:30.000",
    "request_status": "Pending",
    "responsible_agency": "Department of Sanitation",
    "final_address": "1911 Holiday Dr",
    "address_councildis": "C",
    "status": "Pending",
    "rowid": "1230777",
    "final_x": "3698842.58807",
    "final_y": "523905.711996",
    "longitude": "-90.01358592539326",
    "latitude": "29.93402109690619",
    "geocoded_column": {
      "latitude": "29.93402109690619",
      "longitude": "-90.01358592539326"
    }
  },
  {
    "service_request": "2025-1230776",
    "request_type": "Trash/Recycling",
    "request_reason": "Request a Large Item Pick Up",
    "date_created": "2025-10-02T15:39:49.000",
    "date_modified": "2025-10-02T15:39:51.000",
    "request_status": "Pending",
    "responsible_agency": "Department of Sanitation",
    "final_address": "4654 Tulip St",
    "address_councildis": "E",
    "status": "Assigned to Contractor",
    "contractor": "Waste Pro",
    "rowid": "1230776",
    "final_x": "3702043.19889",
    "final_y": "553841.575255",
    "longitude": "-90.00238406183011",
    "latitude": "30.016232054616193",
    "geocoded_column": {
      "latitude": "30.016232054616193",
      "longitude": "-90.00238406183011"
    }
  },
  {
    "service_request": "2025-1230775",
    "request_type": "Trash/Recycling",
    "request_reason": "Request a Large Item Pick Up",
    "date_created": "2025-10-02T15:35:58.000",
    "date_modified": "2025-10-02T15:36:00.000",
    "request_status": "Pending",
    "responsible_agency": "Department of Sanitation",
    "final_address": "7540 Ligustrum Dr",
    "address_councildis": "E",
    "status": "Assigned to Contractor",
    "contractor": "Waste Pro",
    "rowid": "1230775",
    "final_x": "3701508.27255",
    "final_y": "560958.916638",
    "longitude": "-90.00381325912241",
    "latitude": "30.03581907414187",
    "geocoded_column": {
      "latitude": "30.03581907414187",
      "longitude": "-90.00381325912241"
    }
  },
  {
    "service_request": "2025-1230774",
    "request_type": "Trash/Recycling",
    "request_reason": "Order Recycling Cart",
    "date_created": "2025-10-02T15:32:36.000",
    "date_modified": "2025-10-02T15:32:37.000",
    "request_status": "Pending",
    "responsible_agency": "Department of Sanitation",
    "final_address": "510 S Telemachus St",
    "address_councildis": "B",
    "status": "Pending",
    "rowid": "1230774",
    "final_x": "3671323.41511",
    "final_y": "536007.036487",
    "longitude": "-90.10005189112438",
    "latitude": "29.968138600109675",
    "geocoded_column": {
      "latitude": "29.968138600109675",
      "longitude": "-90.10005189112438"
    }
  },
  {
    "service_request": "2025-1230773",
    "request_type": "Trash/Recycling",
    "request_reason": "Repair Recycling Cart",
    "date_created": "2025-10-02T15:31:07.000",
    "date_modified": "2025-10-02T15:31:08.000",
    "request_status": "Pending",
    "responsible_agency": "Department of Sanitation",
    "final_address": "1712 St Ann St",
    "address_councildis": "D",
    "status": "Pending",
    "rowid": "1230773",
    "final_x": "3679811.64271",
    "final_y": "534991.327942",
    "longitude": "-90.07328100722383",
    "latitude": "29.9650918105825",
    "geocoded_column": {
      "latitude": "29.9650918105825",
      "longitude": "-90.07328100722383"
    }
  },
  {
    "service_request": "2025-1230772",
    "request_type": "Abandoned Vehicles",
    "request_reason": "Abandoned/Junk Vehicles",
    "date_created": "2025-10-02T15:30:15.000",
    "date_modified": "2025-10-02T15:30:17.000",
    "request_status": "Pending",
    "responsible_agency": "Department of Public Works",
    "final_address": "6727 Pauline Dr",
    "address_councildis": "D",
    "status": "Pending",
    "rowid": "1230772",
    "final_x": "3690795.71139",
    "final_y": "558550.584732",
    "longitude": "-90.03775285157745",
    "latitude": "30.029534495963514",
    "geocoded_column": {
      "latitude": "30.029534495963514",
      "longitude": "-90.03775285157745"
    }
  },
  {
    "service_request": "2025-1230771",
    "request_type": "Trash/Recycling",
    "request_reason": "Request a Large Item Pick Up",
    "date_created": "2025-10-02T15:29:17.000",
    "date_modified": "2025-10-02T15:29:20.000",
    "request_status": "Pending",
    "responsible_agency": "Department of Sanitation",
    "final_address": "5711 Laurel St",
    "address_councildis": "A",
    "status": "Assigned to Contractor",
    "contractor": "IV Waste",
    "rowid": "1230771",
    "final_x": "3665499.15661",
    "final_y": "517992.558838",
    "longitude": "-90.11904809621416",
    "latitude": "29.918775661836026",
    "geocoded_column": {
      "latitude": "29.918775661836026",
      "longitude": "-90.11904809621416"
    }
  },
  {
    "service_request": "2025-1230770",
    "request_type": "Trash/Recycling",
    "request_reason": "Order Trash Cart",
    "date_created": "2025-10-02T15:29:06.000",
    "date_modified": "2025-10-02T15:29:07.000",
    "request_status": "Pending",
    "responsible_agency": "Department of Sanitation",
    "final_address": "510 S Telemachus St",
    "address_councildis": "B",
    "status": "Assigned to Contractor",
    "contractor": "IV Waste",
    "rowid": "1230770",
    "final_x": "3671323.41511",
    "final_y": "536007.036487",
    "longitude": "-90.10005189112438",
    "latitude": "29.968138600109675",
    "geocoded_column": {
      "latitude": "29.968138600109675",
      "longitude": "-90.10005189112438"
    }
  },
  {
    "service_request": "2025-1230769",
    "request_type": "Mosquito, Termite & Rodent Control",
    "request_reason": "Rodent Complaint (Mice & Rats)",
    "date_created": "2025-10-02T15:24:54.000",
    "date_modified": "2025-10-02T15:24:56.000",
    "request_status": "Pending",
    "responsible_agency": "Mosquito, Termite & Rodent Control Board",
    "final_address": "2200 BLK Leon C Simon Dr",
    "address_councildis": "D",
    "status": "Pending",
    "rowid": "1230769",
    "final_x": "3683773.71936",
    "final_y": "556882.460826",
    "longitude": "-90.06000078316801",
    "latitude": "30.025164214786383",
    "geocoded_column": {
      "latitude": "30.025164214786383",
      "longitude": "-90.06000078316801"
    }
  },
  {
    "service_request": "2025-1230768",
    "request_type": "Drainage",
    "request_reason": "Drainage Manhole Cover Missing or Damaged",
    "date_created": "2025-10-02T15:21:34.000",
    "date_modified": "2025-10-02T15:21:36.000",
    "request_status": "Pending",
    "responsible_agency": "Sewerage & Water Board",
    "final_address": "300 BLK Board of Trade Pl",
    "address_councildis": "B",
    "status": "Pending",
    "rowid": "1230768",
    "final_x": "3681696.17889",
    "final_y": "529514.038529",
    "longitude": "-90.06752083268675",
    "latitude": "29.949974009232125",
    "geocoded_column": {
      "latitude": "29.949974009232125",
      "longitude": "-90.06752083268675"
    }
  },
  {
    "service_request": "2025-1230767",
    "request_type": "Trash/Recycling",
    "request_reason": "Illegal Dumping",
    "date_created": "2025-10-02T15:20:23.000",
    "date_modified": "2025-10-02T15:20:24.000",
    "request_status": "Pending",
    "responsible_agency": "Department of Sanitation",
    "final_address": "N RAMPART ST & ORLEANS AVE",
    "address_councildis": "C",
    "status": "Pending",
    "rowid": "1230767",
    "final_x": "3681501.1",
    "final_y": "533470.28",
    "longitude": "-90.06799884317248",
    "latitude": "29.960858256082833",
    "geocoded_column": {
      "latitude": "29.960858256082833",
      "longitude": "-90.06799884317248"
    }
  },
  {
    "service_request": "2025-1230766",
    "request_type": "Abandoned Vehicles",
    "request_reason": "Abandoned/Junk Vehicles",
    "date_created": "2025-10-02T15:18:53.000",
    "date_modified": "2025-10-02T15:18:54.000",
    "request_status": "Pending",
    "responsible_agency": "Department of Public Works",
    "final_address": "7900 BLK Fig St",
    "address_councildis": "B",
    "status": "Pending",
    "rowid": "1230766",
    "final_x": "3666754.55195",
    "final_y": "532725.17187",
    "longitude": "-90.11459083419786",
    "latitude": "29.959248980137897",
    "geocoded_column": {
      "latitude": "29.959248980137897",
      "longitude": "-90.11459083419786"
    }
  },
  {
    "service_request": "2025-1230765",
    "request_type": "Drainage",
    "request_reason": "Catch Basin Frame and Cover Missing or Damaged",
    "date_created": "2025-10-02T15:15:40.000",
    "date_modified": "2025-10-02T15:15:42.000",
    "request_status": "Pending",
    "responsible_agency": "Sewerage & Water Board",
    "final_address": "TCHOUPITOULAS ST & HENDERSTON ST",
    "address_councildis": "B",
    "status": "Pending",
    "rowid": "1230765",
    "final_x": "3682142.76",
    "final_y": "524105.36",
    "longitude": "-90.06629960944835",
    "latitude": "29.935088380982346",
    "geocoded_column": {
      "latitude": "29.935088380982346",
      "longitude": "-90.06629960944835"
    }
  },
  {
    "service_request": "2025-1230764",
    "request_type": "Mosquito, Termite & Rodent Control",
    "request_reason": "Rodent Complaint (Mice & Rats)",
    "date_created": "2025-10-02T15:14:26.000",
    "date_modified": "2025-10-02T15:14:27.000",
    "request_status": "Pending",
    "responsible_agency": "Mosquito, Termite & Rodent Control Board",
    "final_address": "2277 Leon C Simon Dr",
    "address_councildis": "D",
    "status": "Pending",
    "rowid": "1230764",
    "final_x": "3684033.78364",
    "final_y": "557058.801818",
    "longitude": "-90.05917282523626",
    "latitude": "30.025641138244737",
    "geocoded_column": {
      "latitude": "30.025641138244737",
      "longitude": "-90.05917282523626"
    }
  },
  {
    "service_request": "2025-1230763",
    "request_type": "Roads and Streets",
    "request_reason": "Pothole",
    "date_created": "2025-10-02T15:11:21.000",
    "date_modified": "2025-10-02T15:11:24.000",
    "request_status": "Pending",
    "responsible_agency": "Department of Public Works",
    "final_address": "4301 S Derbigny St",
    "address_councildis": "B",
    "status": "Pending",
    "rowid": "1230763",
    "final_x": "3670670.58695",
    "final_y": "526313.509822",
    "longitude": "-90.10244240190839",
    "latitude": "29.941503904039614",
    "geocoded_column": {
      "latitude": "29.941503904039614",
      "longitude": "-90.10244240190839"
    }
  },
  {
    "service_request": "2025-1230762",
    "request_type": "Trash/Recycling",
    "request_reason": "MIssed Recycling Pick-Up",
    "date_created": "2025-10-02T15:10:28.000",
    "date_modified": "2025-10-02T15:10:31.000",
    "request_status": "Pending",
    "responsible_agency": "Department of Sanitation",
    "final_address": "4326 Joycelyn Dr",
    "address_councildis": "C",
    "status": "Assigned to Contractor",
    "contractor": "Richards Disposal",
    "rowid": "1230762",
    "final_x": "3708234.04651",
    "final_y": "514622.842995",
    "longitude": "-89.98428275765816",
    "latitude": "29.90819568412872",
    "geocoded_column": {
      "latitude": "29.90819568412872",
      "longitude": "-89.98428275765816"
    }
  },
  {
    "service_request": "2025-1230761",
    "request_type": "Parks & Parkways",
    "request_reason": "Request Tree Service (Right of Way/Public Property)",
    "date_created": "2025-10-02T15:10:24.000",
    "date_modified": "2025-10-02T15:10:27.000",
    "request_status": "Pending",
    "responsible_agency": "Department of Parks & Parkway",
    "final_address": "2212 Orleans Ave",
    "address_councildis": "D",
    "status": "Pending",
    "rowid": "1230761",
    "final_x": "3678220.19701",
    "final_y": "535854.990919",
    "longitude": "-90.07827683079236",
    "latitude": "29.967514614737645",
    "geocoded_column": {
      "latitude": "29.967514614737645",
      "longitude": "-90.07827683079236"
    }
  },
  {
    "service_request": "2025-1230760",
    "request_type": "Abandoned Vehicles",
    "request_reason": "Abandoned/Junk Vehicles",
    "date_created": "2025-10-02T15:09:28.000",
    "date_modified": "2025-10-02T15:09:30.000",
    "request_status": "Pending",
    "responsible_agency": "Department of Public Works",
    "final_address": "5509 Seminary Pl",
    "address_councildis": "D",
    "status": "Pending",
    "rowid": "1230760",
    "final_x": "3688606.231",
    "final_y": "553519.888343",
    "longitude": "-90.0448503141709",
    "latitude": "30.01576984426056",
    "geocoded_column": {
      "latitude": "30.01576984426056",
      "longitude": "-90.0448503141709"
    }
  },
  {
    "service_request": "2025-1230759",
    "request_type": "Parks & Parkways",
    "request_reason": "Request Tree Service (Right of Way/Public Property)",
    "date_created": "2025-10-02T15:09:11.000",
    "date_modified": "2025-10-02T15:09:13.000",
    "request_status": "Pending",
    "responsible_agency": "Department of Parks & Parkway",
    "final_address": "2302 Orleans Ave",
    "address_councildis": "D",
    "status": "Pending",
    "rowid": "1230759",
    "final_x": "3678047.8909",
    "final_y": "535981.063047",
    "longitude": "-90.07881661817058",
    "latitude": "29.967866458398287",
    "geocoded_column": {
      "latitude": "29.967866458398287",
      "longitude": "-90.07881661817058"
    }
  },
  {
    "service_request": "2025-1230758",
    "request_type": "Street and Traffic Signs",
    "request_reason": "Stop Sign Missing or Damaged",
    "date_created": "2025-10-02T15:08:41.000",
    "date_modified": "2025-10-02T15:08:43.000",
    "request_status": "Pending",
    "responsible_agency": "Department of Public Works",
    "final_address": "202 S Pierce St",
    "address_councildis": "A",
    "status": "Pending",
    "rowid": "1230758",
    "final_x": "3671228.00078",
    "final_y": "537648.0034",
    "longitude": "-90.10029744813016",
    "latitude": "29.972653530534956",
    "geocoded_column": {
      "latitude": "29.972653530534956",
      "longitude": "-90.10029744813016"
    }
  },
  {
    "service_request": "2025-1230757",
    "request_type": "Trash/Recycling",
    "request_reason": "Request a Large Item Pick Up",
    "date_created": "2025-10-02T15:07:35.000",
    "date_modified": "2025-10-02T15:07:37.000",
    "request_status": "Pending",
    "responsible_agency": "Department of Sanitation",
    "final_address": "7341 Briarheath Dr",
    "address_councildis": "E",
    "status": "Assigned to Contractor",
    "contractor": "Waste Pro",
    "rowid": "1230757",
    "final_x": "3714210.54085",
    "final_y": "566523.189987",
    "longitude": "-89.96346198483421",
    "latitude": "30.050707206109458",
    "geocoded_column": {
      "latitude": "30.050707206109458",
      "longitude": "-89.96346198483421"
    }
  },
  {
    "service_request": "2025-1230756",
    "request_type": "Trash/Recycling",
    "request_reason": "Order Recycling Cart",
    "date_created": "2025-10-02T15:07:01.000",
    "date_modified": "2025-10-02T15:07:02.000",
    "request_status": "Pending",
    "responsible_agency": "Department of Sanitation",
    "final_address": "7331 Lake Barrington Dr",
    "address_councildis": "E",
    "status": "Pending",
    "rowid": "1230756",
    "final_x": "3712328.25426",
    "final_y": "564914.15133",
    "longitude": "-89.969471714379",
    "latitude": "30.046344742150804",
    "geocoded_column": {
      "latitude": "30.046344742150804",
      "longitude": "-89.969471714379"
    }
  },
  {
    "service_request": "2025-1230755",
    "request_type": "Parks & Parkways",
    "request_reason": "Request Tree Service (Right of Way/Public Property)",
    "date_created": "2025-10-02T15:06:50.000",
    "date_modified": "2025-10-02T15:06:52.000",
    "request_status": "Pending",
    "responsible_agency": "Department of Parks & Parkway",
    "final_address": "2310 Orleans Ave",
    "address_councildis": "D",
    "status": "Pending",
    "rowid": "1230755",
    "final_x": "3677990.9853",
    "final_y": "536021.563335",
    "longitude": "-90.07899492778701",
    "latitude": "29.967979533370716",
    "geocoded_column": {
      "latitude": "29.967979533370716",
      "longitude": "-90.07899492778701"
    }
  },
  {
    "service_request": "2025-1230754",
    "request_type": "Trash/Recycling",
    "request_reason": "Order Trash Cart",
    "date_created": "2025-10-02T15:05:36.000",
    "date_modified": "2025-10-02T15:05:40.000",
    "request_status": "Pending",
    "responsible_agency": "Department of Sanitation",
    "final_address": "7331 Lake Barrington Dr",
    "address_councildis": "E",
    "status": "Assigned to Contractor",
    "contractor": "Waste Pro",
    "rowid": "1230754",
    "final_x": "3712328.25426",
    "final_y": "564914.15133",
    "longitude": "-89.969471714379",
    "latitude": "30.046344742150804",
    "geocoded_column": {
      "latitude": "30.046344742150804",
      "longitude": "-89.969471714379"
    }
  },
  {
    "service_request": "2025-1230753",
    "request_type": "Property Maintenance",
    "request_reason": "Property Maintenance",
    "date_created": "2025-10-02T15:05:16.000",
    "date_modified": "2025-10-02T15:05:18.000",
    "request_status": "Pending",
    "responsible_agency": "Department of Code Enforcement",
    "final_address": "5724 Wildair Dr",
    "address_councildis": "D",
    "status": "Pending",
    "rowid": "1230753",
    "final_x": "3681504.18888",
    "final_y": "554011.86812",
    "longitude": "-90.06727236778961",
    "latitude": "30.017340287681115",
    "geocoded_column": {
      "latitude": "30.017340287681115",
      "longitude": "-90.06727236778961"
    }
  },
  {
    "service_request": "2025-1230752",
    "request_type": "Parks & Parkways",
    "request_reason": "Request Tree Service (Right of Way/Public Property)",
    "date_created": "2025-10-02T15:05:11.000",
    "date_modified": "2025-10-02T15:05:15.000",
    "request_status": "Pending",
    "responsible_agency": "Department of Parks & Parkway",
    "final_address": "2211 Magic St",
    "address_councildis": "D",
    "status": "Pending",
    "rowid": "1230752",
    "final_x": "3678101.15528",
    "final_y": "535655.04135",
    "longitude": "-90.07865968131264",
    "latitude": "29.966968406261234",
    "geocoded_column": {
      "latitude": "29.966968406261234",
      "longitude": "-90.07865968131264"
    }
  },
  {
    "service_request": "2025-1230751",
    "request_type": "Trash/Recycling",
    "request_reason": "Missed Trash Pick-Up",
    "date_created": "2025-10-02T15:04:59.000",
    "date_modified": "2025-10-02T15:11:18.000",
    "case_close_date": "2025-10-02T10:11:17.000",
    "request_status": "Closed",
    "responsible_agency": "Department of Sanitation",
    "final_address": "4217 Tchoupitoulas St",
    "address_councildis": "B",
    "status": "Invalid Request",
    "contractor": "IV Waste",
    "contractor_action": "Invalid",
    "rowid": "1230751",
    "final_x": "3671796.50823",
    "final_y": "517566.214326",
    "longitude": "-90.09918509179559",
    "latitude": "29.91741834758617",
    "geocoded_column": {
      "latitude": "29.91741834758617",
      "longitude": "-90.09918509179559"
    }
  },
  {
    "service_request": "2025-1230750",
    "request_type": "Parks & Parkways",
    "request_reason": "Request Tree Service (Right of Way/Public Property)",
    "date_created": "2025-10-02T15:03:41.000",
    "date_modified": "2025-10-02T15:03:43.000",
    "request_status": "Pending",
    "responsible_agency": "Department of Parks & Parkway",
    "final_address": "2207 Magic St",
    "address_councildis": "D",
    "status": "Pending",
    "rowid": "1230750",
    "final_x": "3678128.46779",
    "final_y": "535634.943366",
    "longitude": "-90.07857412332375",
    "latitude": "29.966912321292913",
    "geocoded_column": {
      "latitude": "29.966912321292913",
      "longitude": "-90.07857412332375"
    }
  },
  {
    "service_request": "2025-1230749",
    "request_type": "Parks & Parkways",
    "request_reason": "Request Tree Service (Right of Way/Public Property)",
    "date_created": "2025-10-02T15:01:51.000",
    "date_modified": "2025-10-02T15:01:53.000",
    "request_status": "Pending",
    "responsible_agency": "Department of Parks & Parkway",
    "final_address": "710 N Rocheblave St",
    "address_councildis": "D",
    "status": "Pending",
    "rowid": "1230749",
    "final_x": "3677569.89877",
    "final_y": "536314.067975",
    "longitude": "-90.08031463298587",
    "latitude": "29.96879648950677",
    "geocoded_column": {
      "latitude": "29.96879648950677",
      "longitude": "-90.08031463298587"
    }
  },
  {
    "service_request": "2025-1230748",
    "request_type": "Trash/Recycling",
    "request_reason": "Request a Large Item Pick Up",
    "date_created": "2025-10-02T15:00:52.000",
    "date_modified": "2025-10-02T15:00:57.000",
    "request_status": "Pending",
    "responsible_agency": "Department of Sanitation",
    "final_address": "1031 Leontine St",
    "address_councildis": "B",
    "status": "Assigned to Contractor",
    "contractor": "IV Waste",
    "rowid": "1230748",
    "final_x": "3667299.86548",
    "final_y": "519409.149623",
    "longitude": "-90.11331656826961",
    "latitude": "29.92261824671207",
    "geocoded_column": {
      "latitude": "29.92261824671207",
      "longitude": "-90.11331656826961"
    }
  },
  {
    "service_request": "2025-1230747",
    "request_type": "Trash/Recycling",
    "request_reason": "Request a Large Item Pick Up",
    "date_created": "2025-10-02T14:58:35.000",
    "date_modified": "2025-10-02T14:58:36.000",
    "request_status": "Pending",
    "responsible_agency": "Department of Sanitation",
    "final_address": "3120 Monroe St",
    "address_councildis": "A",
    "status": "Assigned to Contractor",
    "contractor": "IV Waste",
    "rowid": "1230747",
    "final_x": "3665097.14791",
    "final_y": "535028.529734",
    "longitude": "-90.11974750321656",
    "latitude": "29.96563082649201",
    "geocoded_column": {
      "latitude": "29.96563082649201",
      "longitude": "-90.11974750321656"
    }
  },
  {
    "service_request": "2025-1230746",
    "request_type": "Trash/Recycling",
    "request_reason": "Request a Large Item Pick Up",
    "date_created": "2025-10-02T14:58:07.000",
    "date_modified": "2025-10-02T14:58:09.000",
    "request_status": "Pending",
    "responsible_agency": "Department of Sanitation",
    "final_address": "2715 Magazine St",
    "address_councildis": "B",
    "status": "Assigned to Contractor",
    "contractor": "IV Waste",
    "rowid": "1230746",
    "final_x": "3677180.11419",
    "final_y": "520953.217913",
    "longitude": "-90.08207533206196",
    "latitude": "29.926570975086243",
    "geocoded_column": {
      "latitude": "29.926570975086243",
      "longitude": "-90.08207533206196"
    }
  },
  {
    "service_request": "2025-1230745",
    "request_type": "Trash/Recycling",
    "request_reason": "Request a Large Item Pick Up",
    "date_created": "2025-10-02T14:55:46.000",
    "date_modified": "2025-10-02T14:55:48.000",
    "request_status": "Pending",
    "responsible_agency": "Department of Sanitation",
    "final_address": "10830 Yardley Rd",
    "address_councildis": "E",
    "status": "Assigned to Contractor",
    "contractor": "Waste Pro",
    "rowid": "1230745",
    "final_x": "3711679.83922",
    "final_y": "563455.312096",
    "longitude": "-89.97157581507152",
    "latitude": "30.042354727067966",
    "geocoded_column": {
      "latitude": "30.042354727067966",
      "longitude": "-89.97157581507152"
    }
  },
  {
    "service_request": "2025-1230744",
    "request_type": "Trash/Recycling",
    "request_reason": "Request a Large Item Pick Up",
    "date_created": "2025-10-02T14:53:10.000",
    "date_modified": "2025-10-02T14:53:12.000",
    "request_status": "Pending",
    "responsible_agency": "Department of Sanitation",
    "final_address": "1516 Frankfort St",
    "address_councildis": "D",
    "status": "Assigned to Contractor",
    "contractor": "IV Waste",
    "rowid": "1230744",
    "final_x": "3678584.95675",
    "final_y": "556129.306074",
    "longitude": "-90.07642258170804",
    "latitude": "30.023250839761143",
    "geocoded_column": {
      "latitude": "30.023250839761143",
      "longitude": "-90.07642258170804"
    }
  },
  {
    "service_request": "2025-1230743",
    "request_type": "Trash/Recycling",
    "request_reason": "Request a Large Item Pick Up",
    "date_created": "2025-10-02T14:52:23.000",
    "date_modified": "2025-10-02T14:52:25.000",
    "request_status": "Pending",
    "responsible_agency": "Department of Sanitation",
    "final_address": "5861 Macarthur Blvd",
    "address_councildis": "C",
    "status": "Assigned to Contractor",
    "contractor": "Richards Disposal",
    "rowid": "1230743",
    "final_x": "3705121.04587",
    "final_y": "519062.145975",
    "longitude": "-89.99394397922369",
    "latitude": "29.920502649183724",
    "geocoded_column": {
      "latitude": "29.920502649183724",
      "longitude": "-89.99394397922369"
    }
  },
  {
    "service_request": "2025-1230742",
    "request_type": "Trash/Recycling",
    "request_reason": "Request a Large Item Pick Up",
    "date_created": "2025-10-02T14:47:16.000",
    "date_modified": "2025-10-02T14:47:20.000",
    "request_status": "Pending",
    "responsible_agency": "Department of Sanitation",
    "final_address": "5730 Red Maple Dr",
    "address_councildis": "E",
    "status": "Assigned to Contractor",
    "contractor": "Waste Pro",
    "rowid": "1230742",
    "final_x": "3723264.86745",
    "final_y": "564732.178914",
    "longitude": "-89.93491386692288",
    "latitude": "30.045481925604395",
    "geocoded_column": {
      "latitude": "30.045481925604395",
      "longitude": "-89.93491386692288"
    }
  },
  {
    "service_request": "2025-1230741",
    "request_type": "Trash/Recycling",
    "request_reason": "Request a Large Item Pick Up",
    "date_created": "2025-10-02T14:44:44.000",
    "date_modified": "2025-10-02T14:44:46.000",
    "request_status": "Pending",
    "responsible_agency": "Department of Sanitation",
    "final_address": "4711 Major Dr",
    "address_councildis": "E",
    "status": "Assigned to Contractor",
    "contractor": "Waste Pro",
    "rowid": "1230741",
    "final_x": "3718353.69081",
    "final_y": "556736.878682",
    "longitude": "-89.95074029780515",
    "latitude": "30.023661973505387",
    "geocoded_column": {
      "latitude": "30.023661973505387",
      "longitude": "-89.95074029780515"
    }
  },
  {
    "service_request": "2025-1230740",
    "request_type": "Abandoned Vehicles",
    "request_reason": "Abandoned/Junk Vehicles",
    "date_created": "2025-10-02T14:43:14.000",
    "date_modified": "2025-10-02T14:43:16.000",
    "request_status": "Pending",
    "responsible_agency": "Department of Public Works",
    "final_address": "2600 BLK Louisa St",
    "address_councildis": "D",
    "status": "Pending",
    "rowid": "1230740",
    "final_x": "3691072.2543",
    "final_y": "541891.906489",
    "longitude": "-90.0374743145575",
    "latitude": "29.983720660079783",
    "geocoded_column": {
      "latitude": "29.983720660079783",
      "longitude": "-90.0374743145575"
    }
  },
  {
    "service_request": "2025-1230739",
    "request_type": "Trash/Recycling",
    "request_reason": "Missed Trash Pick-Up",
    "date_created": "2025-10-02T14:42:20.000",
    "date_modified": "2025-10-02T15:00:05.000",
    "case_close_date": "2025-10-02T10:00:04.000",
    "request_status": "Closed",
    "responsible_agency": "Department of Sanitation",
    "final_address": "4217 Tchoupitoulas St",
    "address_councildis": "B",
    "status": "Invalid Request",
    "contractor": "IV Waste",
    "contractor_action": "Invalid",
    "rowid": "1230739",
    "final_x": "3671796.50823",
    "final_y": "517566.214326",
    "longitude": "-90.09918509179559",
    "latitude": "29.91741834758617",
    "geocoded_column": {
      "latitude": "29.91741834758617",
      "longitude": "-90.09918509179559"
    }
  },
  {
    "service_request": "2025-1230738",
    "request_type": "Trash/Recycling",
    "request_reason": "Illegal Dumping",
    "date_created": "2025-10-02T14:42:16.000",
    "date_modified": "2025-10-02T14:42:17.000",
    "request_status": "Pending",
    "responsible_agency": "Department of Sanitation",
    "final_address": "6203 Elysian Fields Ave",
    "address_councildis": "D",
    "status": "Pending",
    "rowid": "1230738",
    "final_x": "3683605.97116",
    "final_y": "555974.068121",
    "longitude": "-90.06056272436395",
    "latitude": "30.022671594683796",
    "geocoded_column": {
      "latitude": "30.022671594683796",
      "longitude": "-90.06056272436395"
    }
  },
  {
    "service_request": "2025-1230737",
    "request_type": "Trash/Recycling",
    "request_reason": "Repair Trash Cart",
    "date_created": "2025-10-02T14:41:16.000",
    "date_modified": "2025-10-02T14:41:18.000",
    "request_status": "Pending",
    "responsible_agency": "Department of Sanitation",
    "final_address": "2059 Sumpter St",
    "address_councildis": "D",
    "status": "Assigned to Contractor",
    "contractor": "IV Waste",
    "rowid": "1230737",
    "final_x": "3683017.13544",
    "final_y": "549537.162515",
    "longitude": "-90.06264885728312",
    "latitude": "30.00499041953659",
    "geocoded_column": {
      "latitude": "30.00499041953659",
      "longitude": "-90.06264885728312"
    }
  },
  {
    "service_request": "2025-1230736",
    "request_type": "Parks & Parkways",
    "request_reason": "Request Grass Cutting Service (City Owned Property)",
    "date_created": "2025-10-02T14:31:06.000",
    "date_modified": "2025-10-02T14:31:08.000",
    "request_status": "Pending",
    "responsible_agency": "Department of Parks & Parkway",
    "final_address": "4870 Francis Dr",
    "address_councildis": "D",
    "status": "Pending",
    "rowid": "1230736",
    "final_x": "3698125.69635",
    "final_y": "555103.585369",
    "longitude": "-90.01471569826731",
    "latitude": "30.019826640833795",
    "geocoded_column": {
      "latitude": "30.019826640833795",
      "longitude": "-90.01471569826731"
    }
  },
  {
    "service_request": "2025-1230735",
    "request_type": "Drainage",
    "request_reason": "Catch Basin Frame and Cover Missing or Damaged",
    "date_created": "2025-10-02T14:30:08.000",
    "date_modified": "2025-10-02T14:30:11.000",
    "request_status": "Pending",
    "responsible_agency": "Sewerage & Water Board",
    "final_address": "3218 Hamilton St",
    "address_councildis": "A",
    "status": "Pending",
    "rowid": "1230735",
    "final_x": "3664246.43968",
    "final_y": "536173.677127",
    "longitude": "-90.12239580037483",
    "latitude": "29.968804351654146",
    "geocoded_column": {
      "latitude": "29.968804351654146",
      "longitude": "-90.12239580037483"
    }
  },
  {
    "service_request": "2025-1230734",
    "request_type": "Trash/Recycling",
    "request_reason": "Request a Large Item Pick Up",
    "date_created": "2025-10-02T14:22:31.000",
    "date_modified": "2025-10-02T14:22:32.000",
    "request_status": "Pending",
    "responsible_agency": "Department of Sanitation",
    "final_address": "7121 Cove Dr",
    "address_councildis": "E",
    "status": "Assigned to Contractor",
    "contractor": "Waste Pro",
    "rowid": "1230734",
    "final_x": "3700335.43204",
    "final_y": "558686.491356",
    "longitude": "-90.00760271281641",
    "latitude": "30.02960815088477",
    "geocoded_column": {
      "latitude": "30.02960815088477",
      "longitude": "-90.00760271281641"
    }
  },
  {
    "service_request": "2025-1230733",
    "request_type": "Drainage",
    "request_reason": "Drainage Manhole Cover Missing or Damaged",
    "date_created": "2025-10-02T14:21:47.000",
    "date_modified": "2025-10-02T14:21:49.000",
    "request_status": "Pending",
    "responsible_agency": "Sewerage & Water Board",
    "final_address": "ST BERNARD AVE & PRENTISS AVE",
    "address_councildis": "D",
    "status": "Pending",
    "rowid": "1230733",
    "final_x": "3676857.9",
    "final_y": "553233.88",
    "longitude": "-90.08197962796231",
    "latitude": "30.015341442278828",
    "geocoded_column": {
      "latitude": "30.015341442278828",
      "longitude": "-90.08197962796231"
    }
  },
  {
    "service_request": "2025-1230732",
    "request_type": "Roads and Streets",
    "request_reason": "Debris in Driving Lanes",
    "date_created": "2025-10-02T14:18:23.000",
    "date_modified": "2025-10-02T14:57:12.000",
    "request_status": "Pending",
    "responsible_agency": "Department of Public Works",
    "final_address": "647 S Pierce St",
    "address_councildis": "A",
    "status": "Pending",
    "rowid": "1230732",
    "final_x": "3670006.23079",
    "final_y": "536160.953991",
    "longitude": "-90.10420640923394",
    "latitude": "29.96860073795869",
    "geocoded_column": {
      "latitude": "29.96860073795869",
      "longitude": "-90.10420640923394"
    }
  },
  {
    "service_request": "2025-1230731",
    "request_type": "Trash/Recycling",
    "request_reason": "Return Trash Cart",
    "date_created": "2025-10-02T14:17:32.000",
    "date_modified": "2025-10-02T14:17:35.000",
    "request_status": "Pending",
    "responsible_agency": "Department of Sanitation",
    "final_address": "3205 Behrman Hwy",
    "address_councildis": "C",
    "status": "Assigned to Contractor",
    "contractor": "Richards Disposal",
    "rowid": "1230731",
    "final_x": "3695040.9311",
    "final_y": "518567.526711",
    "longitude": "-90.02577985618775",
    "latitude": "29.919462752730457",
    "geocoded_column": {
      "latitude": "29.919462752730457",
      "longitude": "-90.02577985618775"
    }
  },
  {
    "service_request": "2025-1230730",
    "request_type": "Trash/Recycling",
    "request_reason": "Repair Trash Cart",
    "date_created": "2025-10-02T14:15:11.000",
    "date_modified": "2025-10-02T14:15:16.000",
    "request_status": "Pending",
    "responsible_agency": "Department of Sanitation",
    "final_address": "4536 S Prieur St",
    "address_councildis": "B",
    "status": "Assigned to Contractor",
    "contractor": "IV Waste",
    "rowid": "1230730",
    "final_x": "3669552.0075",
    "final_y": "526778.704702",
    "longitude": "-90.1059582558257",
    "latitude": "29.94281603196149",
    "geocoded_column": {
      "latitude": "29.94281603196149",
      "longitude": "-90.1059582558257"
    }
  },
  {
    "service_request": "2025-1230729",
    "request_type": "Trash/Recycling",
    "request_reason": "Request a Large Item Pick Up",
    "date_created": "2025-10-02T14:15:08.000",
    "date_modified": "2025-10-02T14:15:09.000",
    "request_status": "Pending",
    "responsible_agency": "Department of Sanitation",
    "final_address": "5445 N Claiborne Ave",
    "address_councildis": "E",
    "status": "Assigned to Contractor",
    "contractor": "Waste Pro",
    "rowid": "1230729",
    "final_x": "3698017.73616",
    "final_y": "535781.160199",
    "longitude": "-90.01575884369755",
    "latitude": "29.966700505146264",
    "geocoded_column": {
      "latitude": "29.966700505146264",
      "longitude": "-90.01575884369755"
    }
  },
  {
    "service_request": "2025-1230728",
    "request_type": "Trash/Recycling",
    "request_reason": "Request a Large Item Pick Up",
    "date_created": "2025-10-02T14:14:42.000",
    "date_modified": "2025-10-02T14:14:45.000",
    "request_status": "Pending",
    "responsible_agency": "Department of Sanitation",
    "final_address": "8531 Dinkins St",
    "address_councildis": "E",
    "status": "Assigned to Contractor",
    "contractor": "Waste Pro",
    "rowid": "1230728",
    "final_x": "3703592.69425",
    "final_y": "562912.141024",
    "longitude": "-89.9971541756265",
    "latitude": "30.041123008055827",
    "geocoded_column": {
      "latitude": "30.041123008055827",
      "longitude": "-89.9971541756265"
    }
  },
  {
    "service_request": "2025-1230727",
    "request_type": "Trash/Recycling",
    "request_reason": "Replace Trash Cart",
    "date_created": "2025-10-02T14:13:16.000",
    "date_modified": "2025-10-02T14:13:18.000",
    "request_status": "Pending",
    "responsible_agency": "Department of Sanitation",
    "final_address": "1431 Joseph St",
    "address_councildis": "A",
    "status": "Assigned to Contractor",
    "contractor": "IV Waste",
    "rowid": "1230727",
    "final_x": "3666687.46081",
    "final_y": "521251.466105",
    "longitude": "-90.11518786770773",
    "latitude": "29.927701950480422",
    "geocoded_column": {
      "latitude": "29.927701950480422",
      "longitude": "-90.11518786770773"
    }
  },
  {
    "service_request": "2025-1230726",
    "request_type": "Trash/Recycling",
    "request_reason": "Request a Large Item Pick Up",
    "date_created": "2025-10-02T14:12:26.000",
    "date_modified": "2025-10-02T14:12:28.000",
    "request_status": "Pending",
    "responsible_agency": "Department of Sanitation",
    "final_address": "2008 S Liberty St",
    "address_councildis": "B",
    "status": "Assigned to Contractor",
    "contractor": "IV Waste",
    "rowid": "1230726",
    "final_x": "3676493.55227",
    "final_y": "526141.142654",
    "longitude": "-90.08406406989208",
    "latitude": "29.9408566699607",
    "geocoded_column": {
      "latitude": "29.9408566699607",
      "longitude": "-90.08406406989208"
    }
  },
  {
    "service_request": "2025-1230725",
    "request_type": "Trash/Recycling",
    "request_reason": "Request a Large Item Pick Up",
    "date_created": "2025-10-02T14:09:10.000",
    "date_modified": "2025-10-02T14:09:13.000",
    "request_status": "Pending",
    "responsible_agency": "Department of Sanitation",
    "final_address": "7811 Mullet St",
    "address_councildis": "E",
    "status": "Assigned to Contractor",
    "contractor": "Waste Pro",
    "rowid": "1230725",
    "final_x": "3698972.69968",
    "final_y": "560671.69603",
    "longitude": "-90.0118365535781",
    "latitude": "30.03510997966935",
    "geocoded_column": {
      "latitude": "30.03510997966935",
      "longitude": "-90.0118365535781"
    }
  },
  {
    "service_request": "2025-1230724",
    "request_type": "Trash/Recycling",
    "request_reason": "Order Recycling Cart",
    "date_created": "2025-10-02T14:06:27.000",
    "date_modified": "2025-10-02T14:06:29.000",
    "request_status": "Pending",
    "responsible_agency": "Department of Sanitation",
    "final_address": "647 S Pierce St",
    "address_councildis": "A",
    "status": "Pending",
    "rowid": "1230724",
    "final_x": "3670006.23079",
    "final_y": "536160.953991",
    "longitude": "-90.10420640923394",
    "latitude": "29.96860073795869",
    "geocoded_column": {
      "latitude": "29.96860073795869",
      "longitude": "-90.10420640923394"
    }
  },
  {
    "service_request": "2025-1230723",
    "request_type": "Trash/Recycling",
    "request_reason": "Request a Large Item Pick Up",
    "date_created": "2025-10-02T14:01:44.000",
    "date_modified": "2025-10-02T14:01:46.000",
    "request_status": "Pending",
    "responsible_agency": "Department of Sanitation",
    "final_address": "2437 First St",
    "address_councildis": "B",
    "status": "Assigned to Contractor",
    "contractor": "IV Waste",
    "rowid": "1230723",
    "final_x": "3675221.9595",
    "final_y": "525899.855357",
    "longitude": "-90.08808699661715",
    "latitude": "29.940231268501517",
    "geocoded_column": {
      "latitude": "29.940231268501517",
      "longitude": "-90.08808699661715"
    }
  },
  {
    "service_request": "2025-1230722",
    "request_type": "General Services",
    "request_reason": "General Service Request",
    "date_created": "2025-10-02T14:01:13.000",
    "date_modified": "2025-10-02T14:01:14.000",
    "request_status": "Pending",
    "responsible_agency": "Orleans Parish Communication District",
    "final_address": "3720 Banks St",
    "address_councildis": "B",
    "status": "Pending",
    "rowid": "1230722",
    "final_x": "3671416.85326",
    "final_y": "536493.658055",
    "longitude": "-90.099740264391",
    "latitude": "29.96947388032957",
    "geocoded_column": {
      "latitude": "29.96947388032957",
      "longitude": "-90.099740264391"
    }
  },
  {
    "service_request": "2025-1230721",
    "request_type": "Roads and Streets",
    "request_reason": "Curb Damage",
    "date_created": "2025-10-02T13:53:47.000",
    "date_modified": "2025-10-02T13:53:50.000",
    "request_status": "Pending",
    "responsible_agency": "Department of Public Works",
    "final_address": "1805 Frenchmen St",
    "address_councildis": "D",
    "status": "Pending",
    "rowid": "1230721",
    "final_x": "3684412.22857",
    "final_y": "538913.612106",
    "longitude": "-90.05861484496207",
    "latitude": "29.97573681845766",
    "geocoded_column": {
      "latitude": "29.97573681845766",
      "longitude": "-90.05861484496207"
    }
  },
  {
    "service_request": "2025-1230720",
    "request_type": "Trash/Recycling",
    "request_reason": "Request a Large Item Pick Up",
    "date_created": "2025-10-02T13:50:02.000",
    "date_modified": "2025-10-02T13:50:40.000",
    "request_status": "Pending",
    "responsible_agency": "Department of Sanitation",
    "final_address": "1221 N White St",
    "address_councildis": "A",
    "status": "Assigned to Contractor",
    "contractor": "IV Waste",
    "rowid": "1230720",
    "final_x": "3677384.9469",
    "final_y": "539363.914762",
    "longitude": "-90.08079343767405",
    "latitude": "29.977188083555657",
    "geocoded_column": {
      "latitude": "29.977188083555657",
      "longitude": "-90.08079343767405"
    }
  },
  {
    "service_request": "2025-1230719",
    "request_type": "Trash/Recycling",
    "request_reason": "Order Trash Cart",
    "date_created": "2025-10-02T13:47:50.000",
    "date_modified": "2025-10-02T13:47:52.000",
    "request_status": "Pending",
    "responsible_agency": "Department of Sanitation",
    "final_address": "647 S Pierce St",
    "address_councildis": "A",
    "status": "Assigned to Contractor",
    "contractor": "IV Waste",
    "rowid": "1230719",
    "final_x": "3670006.23079",
    "final_y": "536160.953991",
    "longitude": "-90.10420640923394",
    "latitude": "29.96860073795869",
    "geocoded_column": {
      "latitude": "29.96860073795869",
      "longitude": "-90.10420640923394"
    }
  },
  {
    "service_request": "2025-1230718",
    "request_type": "Trash/Recycling",
    "request_reason": "Illegal Dumping",
    "date_created": "2025-10-02T13:45:25.000",
    "date_modified": "2025-10-02T13:45:27.000",
    "request_status": "Pending",
    "responsible_agency": "Department of Sanitation",
    "final_address": "4902 Flake Ave",
    "address_councildis": "E",
    "status": "Pending",
    "rowid": "1230718",
    "final_x": "3705973.74923",
    "final_y": "556216.640282",
    "longitude": "-89.98987736181765",
    "latitude": "30.022636444933475",
    "geocoded_column": {
      "latitude": "30.022636444933475",
      "longitude": "-89.98987736181765"
    }
  },
  {
    "service_request": "2025-1230717",
    "request_type": "Property Maintenance",
    "request_reason": "Property Maintenance",
    "date_created": "2025-10-02T13:43:35.000",
    "date_modified": "2025-10-02T13:43:37.000",
    "request_status": "Pending",
    "responsible_agency": "Department of Code Enforcement",
    "final_address": "4902 Flake Ave",
    "address_councildis": "E",
    "status": "Pending",
    "rowid": "1230717",
    "final_x": "3705973.74923",
    "final_y": "556216.640282",
    "longitude": "-89.98987736181765",
    "latitude": "30.022636444933475",
    "geocoded_column": {
      "latitude": "30.022636444933475",
      "longitude": "-89.98987736181765"
    }
  },
  {
    "service_request": "2025-1230716",
    "request_type": "Trash/Recycling",
    "request_reason": "Replace Trash Cart",
    "date_created": "2025-10-02T13:43:05.000",
    "date_modified": "2025-10-02T13:43:07.000",
    "request_status": "Pending",
    "responsible_agency": "Department of Sanitation",
    "final_address": "3637 S Carrollton Ave",
    "address_councildis": "B",
    "status": "Assigned to Contractor",
    "contractor": "IV Waste",
    "rowid": "1230716",
    "final_x": "3668032.73709",
    "final_y": "534796.62567",
    "longitude": "-90.11048481289325",
    "latitude": "29.964907349606616",
    "geocoded_column": {
      "latitude": "29.964907349606616",
      "longitude": "-90.11048481289325"
    }
  },
  {
    "service_request": "2025-1230715",
    "request_type": "Trash/Recycling",
    "request_reason": "Missed Trash Pick-Up",
    "date_created": "2025-10-02T13:39:34.000",
    "date_modified": "2025-10-02T15:09:03.000",
    "case_close_date": "2025-10-02T10:09:02.000",
    "request_status": "Closed",
    "responsible_agency": "Department of Sanitation",
    "final_address": "2533 Marengo St",
    "address_councildis": "B",
    "status": "Invalid Request",
    "contractor": "IV Waste",
    "contractor_action": "Invalid",
    "rowid": "1230715",
    "final_x": "3671662.16654",
    "final_y": "524433.460348",
    "longitude": "-90.09937570402671",
    "latitude": "29.936305052265535",
    "geocoded_column": {
      "latitude": "29.936305052265535",
      "longitude": "-90.09937570402671"
    }
  },
  {
    "service_request": "2025-1230714",
    "request_type": "Trash/Recycling",
    "request_reason": "Illegal Dumping",
    "date_created": "2025-10-02T13:38:09.000",
    "date_modified": "2025-10-02T13:38:11.000",
    "request_status": "Pending",
    "responsible_agency": "Department of Sanitation",
    "final_address": "3000 BLK Wall Blvd",
    "address_councildis": "C",
    "status": "Pending",
    "rowid": "1230714",
    "final_x": "3695196.83299",
    "final_y": "523930.809538",
    "longitude": "-90.02509446904338",
    "latitude": "29.93420506374631",
    "geocoded_column": {
      "latitude": "29.93420506374631",
      "longitude": "-90.02509446904338"
    }
  },
  {
    "service_request": "2025-1230713",
    "request_type": "Roads and Streets",
    "request_reason": "Debris in Driving Lanes",
    "date_created": "2025-10-02T13:32:23.000",
    "date_modified": "2025-10-02T13:32:24.000",
    "request_status": "Pending",
    "responsible_agency": "Department of Public Works",
    "final_address": "4714 Rosalia Dr",
    "address_councildis": "E",
    "status": "Pending",
    "rowid": "1230713",
    "final_x": "3711155.76145",
    "final_y": "555615.360281",
    "longitude": "-89.97352612857524",
    "latitude": "30.02081508299181",
    "geocoded_column": {
      "latitude": "30.02081508299181",
      "longitude": "-89.97352612857524"
    }
  },
  {
    "service_request": "2025-1230712",
    "request_type": "Roads and Streets",
    "request_reason": "Street Subsidence (Sinking)",
    "date_created": "2025-10-02T13:26:41.000",
    "date_modified": "2025-10-02T13:26:43.000",
    "request_status": "Pending",
    "responsible_agency": "Sewerage & Water Board",
    "final_address": "4001 Vendome Pl",
    "address_councildis": "B",
    "status": "Pending",
    "rowid": "1230712",
    "final_x": "3668753.29319",
    "final_y": "529810.854145",
    "longitude": "-90.10837765325668",
    "latitude": "29.951176956964733",
    "geocoded_column": {
      "latitude": "29.951176956964733",
      "longitude": "-90.10837765325668"
    }
  },
  {
    "service_request": "2025-1230711",
    "request_type": "Trash/Recycling",
    "request_reason": "Request a Large Item Pick Up",
    "date_created": "2025-10-02T13:23:01.000",
    "date_modified": "2025-10-02T13:23:04.000",
    "request_status": "Pending",
    "responsible_agency": "Department of Sanitation",
    "final_address": "2601 Gordon St",
    "address_councildis": "E",
    "status": "Assigned to Contractor",
    "contractor": "Waste Pro",
    "rowid": "1230711",
    "final_x": "3701387.19338",
    "final_y": "538854.840265",
    "longitude": "-90.0050056646644",
    "latitude": "29.97504504797997",
    "geocoded_column": {
      "latitude": "29.97504504797997",
      "longitude": "-90.0050056646644"
    }
  },
  {
    "service_request": "2025-1230710",
    "request_type": "Trash/Recycling",
    "request_reason": "Replace Trash Cart",
    "date_created": "2025-10-02T13:21:34.000",
    "date_modified": "2025-10-02T13:21:35.000",
    "request_status": "Pending",
    "responsible_agency": "Department of Sanitation",
    "final_address": "4823 Shalimar Dr",
    "address_councildis": "D",
    "status": "Assigned to Contractor",
    "contractor": "Waste Pro",
    "rowid": "1230710",
    "final_x": "3697180.32247",
    "final_y": "554644.842712",
    "longitude": "-90.01771939986013",
    "latitude": "30.018595152212335",
    "geocoded_column": {
      "latitude": "30.018595152212335",
      "longitude": "-90.01771939986013"
    }
  },
  {
    "service_request": "2025-1230709",
    "request_type": "Trash/Recycling",
    "request_reason": "Repair Recycling Cart",
    "date_created": "2025-10-02T13:19:17.000",
    "date_modified": "2025-10-02T13:19:18.000",
    "request_status": "Pending",
    "responsible_agency": "Department of Sanitation",
    "final_address": "7251 Northgate Dr",
    "address_councildis": "E",
    "status": "Pending",
    "rowid": "1230709",
    "final_x": "3713471.47167",
    "final_y": "565525.940002",
    "longitude": "-89.96583551935227",
    "latitude": "30.047989448193054",
    "geocoded_column": {
      "latitude": "30.047989448193054",
      "longitude": "-89.96583551935227"
    }
  },
  {
    "service_request": "2025-1230708",
    "request_type": "Parks & Parkways",
    "request_reason": "Request Tree Service (Right of Way/Public Property)",
    "date_created": "2025-10-02T13:17:12.000",
    "date_modified": "2025-10-02T13:17:13.000",
    "request_status": "Pending",
    "responsible_agency": "Department of Parks & Parkway",
    "final_address": "606 Dearmas St",
    "address_councildis": "C",
    "status": "Pending",
    "rowid": "1230708",
    "final_x": "3687380.95542",
    "final_y": "527352.131839",
    "longitude": "-90.04964786653508",
    "latitude": "29.943855599736874",
    "geocoded_column": {
      "latitude": "29.943855599736874",
      "longitude": "-90.04964786653508"
    }
  },
  {
    "service_request": "2025-1230707",
    "request_type": "Trash/Recycling",
    "request_reason": "Missed Trash Pick-Up",
    "date_created": "2025-10-02T13:15:06.000",
    "date_modified": "2025-10-02T15:15:10.000",
    "case_close_date": "2025-10-02T10:15:08.000",
    "request_status": "Closed",
    "responsible_agency": "Department of Sanitation",
    "final_address": "3007 Jefferson Ave",
    "address_councildis": "B",
    "status": "Invalid Request",
    "contractor": "IV Waste",
    "contractor_action": "Invalid",
    "rowid": "1230707",
    "final_x": "3668527.99156",
    "final_y": "526417.842366",
    "longitude": "-90.10920350068555",
    "latitude": "29.94185389816711",
    "geocoded_column": {
      "latitude": "29.94185389816711",
      "longitude": "-90.10920350068555"
    }
  },
  {
    "service_request": "2025-1230706",
    "request_type": "Property Maintenance",
    "request_reason": "Property Maintenance",
    "date_created": "2025-10-02T13:11:21.000",
    "date_modified": "2025-10-02T13:11:23.000",
    "request_status": "Pending",
    "responsible_agency": "Department of Code Enforcement",
    "final_address": "2746 Verbena St",
    "address_councildis": "D",
    "status": "Pending",
    "rowid": "1230706",
    "final_x": "3688110.73238",
    "final_y": "547850.911442",
    "longitude": "-90.04661699684924",
    "latitude": "30.000197543517032",
    "geocoded_column": {
      "latitude": "30.000197543517032",
      "longitude": "-90.04661699684924"
    }
  },
  {
    "service_request": "2025-1230705",
    "request_type": "Trash/Recycling",
    "request_reason": "Damaged Caused By Contractor",
    "date_created": "2025-10-02T13:10:58.000",
    "date_modified": "2025-10-02T13:15:27.000",
    "request_status": "Pending",
    "responsible_agency": "Department of Sanitation",
    "final_address": "2313 Delachaise St",
    "address_councildis": "B",
    "status": "Assigned to Contractor",
    "contractor": "Sanitation Dept. ",
    "rowid": "1230705",
    "final_x": "3672814.53768",
    "final_y": "523813.263227",
    "longitude": "-90.09575877091778",
    "latitude": "29.934565537885934",
    "geocoded_column": {
      "latitude": "29.934565537885934",
      "longitude": "-90.09575877091778"
    }
  },
  {
    "service_request": "2025-1230703",
    "request_type": "Property Maintenance",
    "request_reason": "Property Maintenance",
    "date_created": "2025-10-02T13:07:59.000",
    "date_modified": "2025-10-02T13:08:52.000",
    "request_status": "Pending",
    "responsible_agency": "Department of Code Enforcement",
    "final_address": "2722 Verbena St",
    "address_councildis": "D",
    "status": "Pending",
    "rowid": "1230703",
    "final_x": "3687952.81987",
    "final_y": "547790.724114",
    "longitude": "-90.04711798409072",
    "latitude": "30.000036925098076",
    "geocoded_column": {
      "latitude": "30.000036925098076",
      "longitude": "-90.04711798409072"
    }
  },
  {
    "service_request": "2025-1230702",
    "request_type": "Trash/Recycling",
    "request_reason": "Repair Recycling Cart",
    "date_created": "2025-10-02T13:05:44.000",
    "date_modified": "2025-10-02T13:05:46.000",
    "request_status": "Pending",
    "responsible_agency": "Department of Sanitation",
    "final_address": "2113 Valence St",
    "address_councildis": "B",
    "status": "Pending",
    "rowid": "1230702",
    "final_x": "3669597.90324",
    "final_y": "522665.68985",
    "longitude": "-90.10595245037628",
    "latitude": "29.931505215262934",
    "geocoded_column": {
      "latitude": "29.931505215262934",
      "longitude": "-90.10595245037628"
    }
  },
  {
    "service_request": "2025-1230701",
    "request_type": "Property Maintenance",
    "request_reason": "Property Maintenance",
    "date_created": "2025-10-02T13:03:46.000",
    "date_modified": "2025-10-02T13:03:48.000",
    "request_status": "Pending",
    "responsible_agency": "Department of Code Enforcement",
    "final_address": "4755 Reynes St",
    "address_councildis": "E",
    "status": "Pending",
    "rowid": "1230701",
    "final_x": "3699186.14999",
    "final_y": "555102.927321",
    "longitude": "-90.01136505236074",
    "latitude": "30.01979123354204",
    "geocoded_column": {
      "latitude": "30.01979123354204",
      "longitude": "-90.01136505236074"
    }
  },
  {
    "service_request": "2025-1230700",
    "request_type": "Trash/Recycling",
    "request_reason": "Replace Recycling Cart",
    "date_created": "2025-10-02T13:03:42.000",
    "date_modified": "2025-10-02T13:03:44.000",
    "request_status": "Pending",
    "responsible_agency": "Department of Sanitation",
    "final_address": "2115 Valence St",
    "address_councildis": "B",
    "status": "Pending",
    "rowid": "1230700",
    "final_x": "3669595.81991",
    "final_y": "522673.241914",
    "longitude": "-90.10595877184574",
    "latitude": "29.931526042380955",
    "geocoded_column": {
      "latitude": "29.931526042380955",
      "longitude": "-90.10595877184574"
    }
  },
  {
    "service_request": "2025-1230699",
    "request_type": "Abandoned Vehicles",
    "request_reason": "Abandoned/Junk Vehicles",
    "date_created": "2025-10-02T13:02:35.000",
    "date_modified": "2025-10-02T13:03:39.000",
    "request_status": "Pending",
    "responsible_agency": "Department of Public Works",
    "final_address": "4808 Kendall Dr",
    "address_councildis": "D",
    "status": "Pending",
    "rowid": "1230699",
    "final_x": "3690323.38883",
    "final_y": "550876.429461",
    "longitude": "-90.03951919690017",
    "latitude": "30.008448104231444",
    "geocoded_column": {
      "latitude": "30.008448104231444",
      "longitude": "-90.03951919690017"
    }
  },
  {
    "service_request": "2025-1230698",
    "request_type": "Trash/Recycling",
    "request_reason": "Request a Large Item Pick Up",
    "date_created": "2025-10-02T12:52:41.000",
    "date_modified": "2025-10-02T12:52:45.000",
    "request_status": "Pending",
    "responsible_agency": "Department of Sanitation",
    "final_address": "7300 Edward St",
    "address_councildis": "E",
    "status": "Assigned to Contractor",
    "contractor": "Waste Pro",
    "rowid": "1230698",
    "final_x": "3701332.91652",
    "final_y": "559890.600221",
    "longitude": "-90.00440656761589",
    "latitude": "30.03288721289897",
    "geocoded_column": {
      "latitude": "30.03288721289897",
      "longitude": "-90.00440656761589"
    }
  },
  {
    "service_request": "2025-1230697",
    "request_type": "Trash/Recycling",
    "request_reason": "Order Trash Cart",
    "date_created": "2025-10-02T12:51:15.000",
    "date_modified": "2025-10-02T12:51:18.000",
    "request_status": "Pending",
    "responsible_agency": "Department of Sanitation",
    "final_address": "7803 W Laverne St",
    "address_councildis": "E",
    "status": "Assigned to Contractor",
    "contractor": "Waste Pro",
    "rowid": "1230697",
    "final_x": "3695047.06947",
    "final_y": "559165.880412",
    "longitude": "-90.02429648004178",
    "latitude": "30.03109346625167",
    "geocoded_column": {
      "latitude": "30.03109346625167",
      "longitude": "-90.02429648004178"
    }
  },
  {
    "service_request": "2025-1230696",
    "request_type": "Trash/Recycling",
    "request_reason": "Order Recycling Cart",
    "date_created": "2025-10-02T12:42:15.000",
    "date_modified": "2025-10-02T12:42:17.000",
    "request_status": "Pending",
    "responsible_agency": "Department of Sanitation",
    "final_address": "111 Maryland Dr, New Orleans, Louisiana, 70124",
    "address_councildis": "A",
    "status": "Pending",
    "rowid": "1230696",
    "final_x": "3663771.76339",
    "final_y": "542172.709965",
    "longitude": "-90.12369486214116",
    "latitude": "29.98531347899699",
    "geocoded_column": {
      "latitude": "29.98531347899699",
      "longitude": "-90.12369486214116"
    }
  },
  {
    "service_request": "2025-1230695",
    "request_type": "Abandoned Vehicles",
    "request_reason": "Abandoned/Junk Vehicles",
    "date_created": "2025-10-02T12:39:40.000",
    "date_modified": "2025-10-02T12:39:41.000",
    "request_status": "Pending",
    "responsible_agency": "Department of Public Works",
    "final_address": "5427 N Prieur St",
    "address_councildis": "E",
    "status": "Pending",
    "rowid": "1230695",
    "final_x": "3698244.79018",
    "final_y": "536937.530184",
    "longitude": "-90.01499979719378",
    "latitude": "29.969872927352036",
    "geocoded_column": {
      "latitude": "29.969872927352036",
      "longitude": "-90.01499979719378"
    }
  },
  {
    "service_request": "2025-1230694",
    "request_type": "Streetlights",
    "request_reason": "Streetlight Outage/Malfunction",
    "date_created": "2025-10-02T12:37:00.000",
    "date_modified": "2025-10-02T12:37:30.000",
    "request_status": "Pending",
    "responsible_agency": "Department of Public Works",
    "final_address": "S SARATOGA ST & EUTERPE ST",
    "address_councildis": "B",
    "status": "Pending",
    "rowid": "1230694",
    "final_x": "3677221.5",
    "final_y": "526068.98",
    "longitude": "-90.08176829736688",
    "latitude": "29.940636403496875",
    "geocoded_column": {
      "latitude": "29.940636403496875",
      "longitude": "-90.08176829736688"
    }
  },
  {
    "service_request": "2025-1230693",
    "request_type": "Trash/Recycling",
    "request_reason": "Request a Large Item Pick Up",
    "date_created": "2025-10-02T12:33:52.000",
    "date_modified": "2025-10-02T15:52:36.000",
    "case_close_date": "2025-10-02T10:52:34.000",
    "request_status": "Closed",
    "responsible_agency": "Department of Sanitation",
    "final_address": "927 Flood St",
    "address_councildis": "E",
    "status": "Assigned to Contractor",
    "contractor": "Waste Pro",
    "contractor_action": "Duplicate",
    "rowid": "1230693",
    "final_x": "3697616.58621",
    "final_y": "533264.086084",
    "longitude": "-90.01711697399054",
    "latitude": "29.959792124309473",
    "geocoded_column": {
      "latitude": "29.959792124309473",
      "longitude": "-90.01711697399054"
    }
  },
  {
    "service_request": "2025-1230692",
    "request_type": "Traffic Signals",
    "request_reason": "Traffic Signal Malfunctioning or Damaged",
    "date_created": "2025-10-02T12:32:20.000",
    "date_modified": "2025-10-02T12:32:22.000",
    "request_status": "Pending",
    "responsible_agency": "Department of Public Works",
    "final_address": "MICHOUD BLVD & OLD GENTILLY RD",
    "address_councildis": "E",
    "status": "Pending",
    "rowid": "1230692",
    "final_x": "3726042.6",
    "final_y": "555862.58",
    "longitude": "-89.92647917974014",
    "latitude": "30.021000667161825",
    "geocoded_column": {
      "latitude": "30.021000667161825",
      "longitude": "-89.92647917974014"
    }
  },
  {
    "service_request": "2025-1230691",
    "request_type": "Trash/Recycling",
    "request_reason": "Request a Large Item Pick Up",
    "date_created": "2025-10-02T12:30:41.000",
    "date_modified": "2025-10-02T12:30:43.000",
    "request_status": "Pending",
    "responsible_agency": "Department of Sanitation",
    "final_address": "2308 Third St",
    "address_councildis": "B",
    "status": "Assigned to Contractor",
    "contractor": "IV Waste",
    "rowid": "1230691",
    "final_x": "3674982.28558",
    "final_y": "525009.310525",
    "longitude": "-90.08887422152522",
    "latitude": "29.937789721634402",
    "geocoded_column": {
      "latitude": "29.937789721634402",
      "longitude": "-90.08887422152522"
    }
  },
  {
    "service_request": "2025-1230690",
    "request_type": "Trash/Recycling",
    "request_reason": "Order Second Trash Cart",
    "date_created": "2025-10-02T12:30:25.000",
    "date_modified": "2025-10-02T12:30:26.000",
    "request_status": "Pending",
    "responsible_agency": "Department of Sanitation",
    "final_address": "6827 Glengary Rd",
    "address_councildis": "E",
    "status": "Assigned to Contractor",
    "contractor": "Waste Pro",
    "rowid": "1230690",
    "final_x": "3701738.67921",
    "final_y": "557225.166747",
    "longitude": "-90.00322210528948",
    "latitude": "30.0255453565037",
    "geocoded_column": {
      "latitude": "30.0255453565037",
      "longitude": "-90.00322210528948"
    }
  },
  {
    "service_request": "2025-1230689",
    "request_type": "Trash/Recycling",
    "request_reason": "MIssed Recycling Pick-Up",
    "date_created": "2025-10-02T12:29:34.000",
    "date_modified": "2025-10-02T12:30:00.000",
    "request_status": "Pending",
    "responsible_agency": "Department of Sanitation",
    "final_address": "1827 Tupelo St",
    "address_councildis": "E",
    "status": "Assigned to Contractor",
    "contractor": "Waste Pro",
    "rowid": "1230689",
    "final_x": "3700608.59351",
    "final_y": "535972.166343",
    "longitude": "-90.00757000582054",
    "latitude": "29.967143532273962",
    "geocoded_column": {
      "latitude": "29.967143532273962",
      "longitude": "-90.00757000582054"
    }
  },