[
  {
    "service_request": "2024-1087479",
    "request_type": "Abandoned Vehicles",
    "request_reason": "Abandoned/Junk Vehicles",
    "date_created": "2024-04-23T22:44:00.000",
    "date_modified": "2024-04-23T22:44:00.000",
    "request_status": "Pending",
    "responsible_agency": "Department of Public Works",
    "final_address": "604 Pelican Ave",
    "address_councildis": "C",
    "status": "Pending",
    "rowid": "1087479",
    "final_x": "3687340.32265",
    "final_y": "530838.709698",
    "longitude": "-90.04965283200441",
    "latitude": "29.953443750131477",
    "geocoded_column": {
      "latitude": "29.953443750131477",
      "longitude": "-90.04965283200441"
    }
  },
  {
    "service_request": "2024-1087478",
    "request_type": "Mosquito, Termite & Rodent Control",
    "request_reason": "Mosquito Complaint",
    "date_created": "2024-04-23T22:39:16.000",
    "date_modified": "2024-04-23T22:39:16.000",
    "request_status": "Pending",
    "responsible_agency": "Mosquito, Termite & Rodent Control Board",
    "final_address": "7640 Expedition Dr",
    "address_councildis": "E",
    "status": "Pending",
    "rowid": "1087478",
    "final_x": "3725826.94848",
    "final_y": "571329.997032",
    "longitude": "-89.92656055009786",
    "latitude": "30.063536926951034",
    "geocoded_column": {
      "latitude": "30.063536926951034",
      "longitude": "-89.92656055009786"
    }
  },
  {
    "service_request": "2024-1087477",
    "request_type": "Roads/Drainage",
    "request_reason": "Pothole",
    "date_created": "2024-04-23T22:24:29.000",
    "date_modified": "2024-04-23T22:24:29.000",
    "request_status": "Pending",
    "responsible_agency": "Department of Public Works",
    "final_address": "515 Constantinople St",
    "address_councildis": "B",
    "status": "Pending",
    "rowid": "1087477",
    "final_x": "3672670.23067",
    "final_y": "517772.705078",
    "longitude": "-90.09642020202877",
    "latitude": "29.917960226514673",
    "geocoded_column": {
      "latitude": "29.917960226514673",
      "longitude": "-90.09642020202877"
    }
  },
  {
    "service_request": "2024-1087476",
    "request_type": "Abandoned Vehicles",
    "request_reason": "Abandoned/Junk Vehicles",
    "date_created": "2024-04-23T21:32:42.000",
    "date_modified": "2024-04-23T21:32:42.000",
    "request_status": "Pending",
    "responsible_agency": "Department of Public Works",
    "final_address": "2436 Valence St, New Orleans, Louisiana, 70115",
    "address_councildis": "B",
    "status": "Pending",
    "rowid": "1087476",
    "final_x": "3669381.05255",
    "final_y": "523889.742524",
    "longitude": "-90.10659565413309",
    "latitude": "29.93487735271193",
    "geocoded_column": {
      "latitude": "29.93487735271193",
      "longitude": "-90.10659565413309"
    }
  },
  {
    "service_request": "2024-1087475",
    "request_type": "Trash/Recycling",
    "request_reason": "Repair Trash Cart",
    "date_created": "2024-04-23T21:11:38.000",
    "date_modified": "2024-04-23T21:11:38.000",
    "request_status": "Pending",
    "responsible_agency": "Department of Sanitation",
    "final_address": "6309 Tchoupitoulas St",
    "address_councildis": "A",
    "status": "Assigned to Contractor",
    "contractor": "IV Waste",
    "rowid": "1087475",
    "final_x": "3662669.41651",
    "final_y": "518197.151414",
    "longitude": "-90.12797336026402",
    "latitude": "29.91942038124139",
    "geocoded_column": {
      "latitude": "29.91942038124139",
      "longitude": "-90.12797336026402"
    }
  },
  {
    "service_request": "2024-1087474",
    "request_type": "Trash/Recycling",
    "request_reason": "Request a Large Item Pick Up",
    "date_created": "2024-04-23T21:07:27.000",
    "date_modified": "2024-04-23T21:07:27.000",
    "request_status": "Pending",
    "responsible_agency": "Department of Sanitation",
    "final_address": "2711 N Tonti St",
    "address_councildis": "D",
    "status": "Assigned to Contractor",
    "contractor": "IV Waste",
    "rowid": "1087474",
    "final_x": "3688032.63555",
    "final_y": "541028.863371",
    "longitude": "-90.04710562475329",
    "latitude": "29.981441769360366",
    "geocoded_column": {
      "latitude": "29.981441769360366",
      "longitude": "-90.04710562475329"
    }
  },
  {
    "service_request": "2024-1087473",
    "request_type": "Roads/Drainage",
    "request_reason": "Road Shoulder Repair",
    "date_created": "2024-04-23T21:01:50.000",
    "date_modified": "2024-04-23T21:01:50.000",
    "request_status": "Pending",
    "responsible_agency": "Department of Public Works",
    "final_address": "307 S Olympia St",
    "address_councildis": "A",
    "status": "Pending",
    "rowid": "1087473",
    "final_x": "3668829.3099",
    "final_y": "538940.521994",
    "longitude": "-90.10782931795029",
    "latitude": "29.976278279126632",
    "geocoded_column": {
      "latitude": "29.976278279126632",
      "longitude": "-90.10782931795029"
    }
  },
  {
    "service_request": "2024-1087472",
    "request_type": "Roads/Drainage",
    "request_reason": "Pothole",
    "date_created": "2024-04-23T20:59:53.000",
    "date_modified": "2024-04-23T20:59:53.000",
    "request_status": "Pending",
    "responsible_agency": "Department of Public Works",
    "final_address": "BANKS ST & S MURAT ST",
    "address_councildis": "A",
    "status": "Pending",
    "rowid": "1087472",
    "final_x": "3668966.5",
    "final_y": "538422.18",
    "longitude": "-90.10741354436256",
    "latitude": "29.974848977889756",
    "geocoded_column": {
      "latitude": "29.974848977889756",
      "longitude": "-90.10741354436256"
    }
  },
  {
    "service_request": "2024-1087471",
    "request_type": "Traffic Signals/Signs/Striping/Streetlights",
    "request_reason": "Additional signage",
    "date_created": "2024-04-23T20:58:58.000",
    "date_modified": "2024-04-23T20:58:58.000",
    "request_status": "Pending",
    "responsible_agency": "Department of Public Works",
    "final_address": "ARGONNE BLVD & FILMORE AVE",
    "address_councildis": "A",
    "status": "Pending",
    "rowid": "1087471",
    "final_x": "3670608.0",
    "final_y": "551855.08",
    "longitude": "-90.1017732771915",
    "latitude": "30.011736423602848",
    "geocoded_column": {
      "latitude": "30.011736423602848",
      "longitude": "-90.1017732771915"
    }
  },
  {
    "service_request": "2024-1087470",
    "request_type": "Trash/Recycling",
    "request_reason": "Request a Large Item Pick Up",
    "date_created": "2024-04-23T20:58:25.000",
    "date_modified": "2024-04-23T20:58:25.000",
    "request_status": "Pending",
    "responsible_agency": "Department of Sanitation",
    "final_address": "6070 Wright Rd",
    "address_councildis": "E",
    "status": "Assigned to Contractor",
    "contractor": "Waste Pro",
    "rowid": "1087470",
    "final_x": "3712874.50597",
    "final_y": "562930.13072",
    "longitude": "-89.96782002134972",
    "latitude": "30.040871596930888",
    "geocoded_column": {
      "latitude": "30.040871596930888",
      "longitude": "-89.96782002134972"
    }
  },
  {
    "service_request": "2024-1087469",
    "request_type": "Traffic Signals/Signs/Striping/Streetlights",
    "request_reason": "Street Light Outage/Malfunction",
    "date_created": "2024-04-23T20:53:17.000",
    "date_modified": "2024-04-23T20:53:18.000",
    "request_status": "Pending",
    "responsible_agency": "Department of Public Works",
    "final_address": "5404 Hawthorne Pl",
    "address_councildis": "A",
    "status": "Assigned to Contractor",
    "contractor": "Legacy Professional Services",
    "rowid": "1087469",
    "final_x": "3667701.97959",
    "final_y": "543122.445261",
    "longitude": "-90.11124890860475",
    "latitude": "29.98781025839443",
    "geocoded_column": {
      "latitude": "29.98781025839443",
      "longitude": "-90.11124890860475"
    }
  },
  {
    "service_request": "2024-1087468",
    "request_type": "Trash/Recycling",
    "request_reason": "Request a Large Item Pick Up",
    "date_created": "2024-04-23T20:27:46.000",
    "date_modified": "2024-04-23T20:27:46.000",
    "request_status": "Pending",
    "responsible_agency": "Department of Sanitation",
    "final_address": "1026 Cadiz St",
    "address_councildis": "B",
    "status": "Assigned to Contractor",
    "contractor": "IV Waste",
    "rowid": "1087468",
    "final_x": "3670211.66036",
    "final_y": "519290.557623",
    "longitude": "-90.10412918774753",
    "latitude": "29.92220658724318",
    "geocoded_column": {
      "latitude": "29.92220658724318",
      "longitude": "-90.10412918774753"
    }
  },
  {
    "service_request": "2024-1087467",
    "request_type": "Trash/Recycling",
    "request_reason": "Request a Large Item Pick Up",
    "date_created": "2024-04-23T20:19:20.000",
    "date_modified": "2024-04-23T20:19:21.000",
    "request_status": "Pending",
    "responsible_agency": "Department of Sanitation",
    "final_address": "3504 Cleveland Ave",
    "address_councildis": "B",
    "status": "Assigned to Contractor",
    "contractor": "IV Waste",
    "rowid": "1087467",
    "final_x": "3672541.11124",
    "final_y": "536654.345351",
    "longitude": "-90.09618427909707",
    "latitude": "29.96988238760421",
    "geocoded_column": {
      "latitude": "29.96988238760421",
      "longitude": "-90.09618427909707"
    }
  },
  {
    "service_request": "2024-1087466",
    "request_type": "Abandoned Vehicles",
    "request_reason": "Abandoned/Junk Vehicles",
    "date_created": "2024-04-23T20:08:31.000",
    "date_modified": "2024-04-23T20:08:31.000",
    "request_status": "Pending",
    "responsible_agency": "Department of Public Works",
    "final_address": "1837 Dumaine St",
    "address_councildis": "D",
    "status": "Pending",
    "rowid": "1087466",
    "final_x": "3679684.41263",
    "final_y": "535630.63559",
    "longitude": "-90.07366059795147",
    "latitude": "29.96685353469244",
    "geocoded_column": {
      "latitude": "29.96685353469244",
      "longitude": "-90.07366059795147"
    }
  },
  {
    "service_request": "2024-1087465",
    "request_type": "Traffic Signals/Signs/Striping/Streetlights",
    "request_reason": "Street Light Outage/Malfunction",
    "date_created": "2024-04-23T20:05:54.000",
    "date_modified": "2024-04-23T20:05:55.000",
    "request_status": "Pending",
    "responsible_agency": "Department of Public Works",
    "final_address": "2233 Washington Ave",
    "address_councildis": "B",
    "status": "Assigned to Contractor",
    "contractor": "Legacy Professional Services",
    "rowid": "1087465",
    "final_x": "3674625.65736",
    "final_y": "524567.716476",
    "longitude": "-90.09001525431059",
    "latitude": "29.936586127445302",
    "geocoded_column": {
      "latitude": "29.936586127445302",
      "longitude": "-90.09001525431059"
    }
  },
  {
    "service_request": "2024-1087464",
    "request_type": "Abandoned Vehicles",
    "request_reason": "Abandoned/Junk Vehicles",
    "date_created": "2024-04-23T20:04:12.000",
    "date_modified": "2024-04-23T20:04:12.000",
    "request_status": "Pending",
    "responsible_agency": "Department of Public Works",
    "final_address": "1837 Dumaine St",
    "address_councildis": "D",
    "status": "Pending",
    "rowid": "1087464",
    "final_x": "3679684.41263",
    "final_y": "535630.63559",
    "longitude": "-90.07366059795147",
    "latitude": "29.96685353469244",
    "geocoded_column": {
      "latitude": "29.96685353469244",
      "longitude": "-90.07366059795147"
    }
  },
  {
    "service_request": "2024-1087463",
    "request_type": "Trash/Recycling",
    "request_reason": "Order Trash Cart",
    "date_created": "2024-04-23T19:57:13.000",
    "date_modified": "2024-04-23T19:57:13.000",
    "request_status": "Pending",
    "responsible_agency": "Department of Sanitation",
    "final_address": "3219 Boyd St",
    "address_councildis": "C",
    "status": "Assigned to Contractor",
    "contractor": "Richards Disposal",
    "rowid": "1087463",
    "final_x": "3707993.31371",
    "final_y": "518770.502455",
    "longitude": "-89.98488848608092",
    "latitude": "29.919608100494344",
    "geocoded_column": {
      "latitude": "29.919608100494344",
      "longitude": "-89.98488848608092"
    }
  },
  {
    "service_request": "2024-1087462",
    "request_type": "Trash/Recycling",
    "request_reason": "Request a Large Item Pick Up",
    "date_created": "2024-04-23T19:54:28.000",
    "date_modified": "2024-04-23T19:54:28.000",
    "request_status": "Pending",
    "responsible_agency": "Department of Sanitation",
    "final_address": "5225 Chestnut St",
    "address_councildis": "B",
    "status": "Assigned to Contractor",
    "contractor": "IV Waste",
    "rowid": "1087462",
    "final_x": "3667837.95565",
    "final_y": "519402.932023",
    "longitude": "-90.11161823636263",
    "latitude": "29.922585385754452",
    "geocoded_column": {
      "latitude": "29.922585385754452",
      "longitude": "-90.11161823636263"
    }
  },
  {
    "service_request": "2024-1087461",
    "request_type": "Traffic Signals/Signs/Striping/Streetlights",
    "request_reason": "Request for Stop Sign",
    "date_created": "2024-04-23T19:53:53.000",
    "date_modified": "2024-04-23T19:53:53.000",
    "request_status": "Pending",
    "responsible_agency": "Department of Public Works",
    "final_address": "4543 Longfellow Dr",
    "address_councildis": "E",
    "status": "Pending",
    "rowid": "1087461",
    "final_x": "3709794.66801",
    "final_y": "554767.048728",
    "longitude": "-89.97785845305098",
    "latitude": "30.018526900290798",
    "geocoded_column": {
      "latitude": "30.018526900290798",
      "longitude": "-89.97785845305098"
    }
  },
  {
    "service_request": "2024-1087460",
    "request_type": "Utility Poles",
    "request_reason": "Utility Pole Leaning",
    "date_created": "2024-04-23T19:45:55.000",
    "date_modified": "2024-04-23T19:45:58.000",
    "request_status": "Pending",
    "responsible_agency": "Utility Company Collective",
    "final_address": "2112 Laurel St",
    "address_councildis": "B",
    "status": "Pending",
    "rowid": "1087460",
    "final_x": "3679534.57544",
    "final_y": "521619.750009",
    "longitude": "-90.07461983299856",
    "latitude": "29.92833281432612",
    "geocoded_column": {
      "latitude": "29.92833281432612",
      "longitude": "-90.07461983299856"
    }
  },
  {
    "service_request": "2024-1087458",
    "request_type": "Trash/Recycling",
    "request_reason": "Request a Large Item Pick Up",
    "date_created": "2024-04-23T19:23:38.000",
    "date_modified": "2024-04-23T19:23:39.000",
    "request_status": "Pending",
    "responsible_agency": "Department of Sanitation",
    "final_address": "203 Audubon Blvd",
    "address_councildis": "A",
    "status": "Assigned to Contractor",
    "contractor": "IV Waste",
    "rowid": "1087458",
    "final_x": "3666360.57639",
    "final_y": "528402.465856",
    "longitude": "-90.11597993864528",
    "latitude": "29.947374463402497",
    "geocoded_column": {
      "latitude": "29.947374463402497",
      "longitude": "-90.11597993864528"
    }
  },
  {
    "service_request": "2024-1087457",
    "request_type": "Trash/Recycling",
    "request_reason": "Request a Large Item Pick Up",
    "date_created": "2024-04-23T19:17:57.000",
    "date_modified": "2024-04-23T19:17:58.000",
    "request_status": "Pending",
    "responsible_agency": "Department of Sanitation",
    "final_address": "6030 Coliseum St",
    "address_councildis": "A",
    "status": "Assigned to Contractor",
    "contractor": "IV Waste",
    "rowid": "1087457",
    "final_x": "3664743.47194",
    "final_y": "520238.86124",
    "longitude": "-90.12135841230429",
    "latitude": "29.924974288917436",
    "geocoded_column": {
      "latitude": "29.924974288917436",
      "longitude": "-90.12135841230429"
    }
  },
  {
    "service_request": "2024-1087456",
    "request_type": "Property Maintenance",
    "request_reason": "Property Maintenance",
    "date_created": "2024-04-23T19:13:26.000",
    "date_modified": "2024-04-23T19:13:26.000",
    "request_status": "Pending",
    "responsible_agency": "Department of Code Enforcement",
    "final_address": "5184 Metropolitan Dr",
    "address_councildis": "D",
    "status": "Pending",
    "rowid": "1087456",
    "final_x": "3690229.19241",
    "final_y": "552664.976534",
    "longitude": "-90.03975300075561",
    "latitude": "30.013368872906554",
    "geocoded_column": {
      "latitude": "30.013368872906554",
      "longitude": "-90.03975300075561"
    }
  },
  {
    "service_request": "2024-1087455",
    "request_type": "Trash/Recycling",
    "request_reason": "MIssed Recycling Pick-Up",
    "date_created": "2024-04-23T19:11:30.000",
    "date_modified": "2024-04-23T19:11:30.000",
    "request_status": "Pending",
    "responsible_agency": "Department of Sanitation",
    "final_address": "1013 Thalia St",
    "address_councildis": "B",
    "status": "Assigned to Contractor",
    "contractor": "IV Waste",
    "rowid": "1087455",
    "final_x": "3680797.64757",
    "final_y": "525202.070909",
    "longitude": "-90.07050796174185",
    "latitude": "29.938144802079158",
    "geocoded_column": {
      "latitude": "29.938144802079158",
      "longitude": "-90.07050796174185"
    }
  },
  {
    "service_request": "2024-1087454",
    "request_type": "Trash/Recycling",
    "request_reason": "Repair Recycling Cart",
    "date_created": "2024-04-23T19:10:44.000",
    "date_modified": "2024-04-23T19:10:44.000",
    "request_status": "Pending",
    "responsible_agency": "Department of Sanitation",
    "final_address": "1438 Mithra St",
    "address_councildis": "D",
    "status": "Pending",
    "rowid": "1087454",
    "final_x": "3677698.35054",
    "final_y": "552015.170582",
    "longitude": "-90.0793663332603",
    "latitude": "30.011965165520632",
    "geocoded_column": {
      "latitude": "30.011965165520632",
      "longitude": "-90.0793663332603"
    }
  },
  {
    "service_request": "2024-1087453",
    "request_type": "Trash/Recycling",
    "request_reason": "Replace Recycling Cart",
    "date_created": "2024-04-23T19:04:20.000",
    "date_modified": "2024-04-23T19:04:20.000",
    "request_status": "Pending",
    "responsible_agency": "Department of Sanitation",
    "final_address": "3200 BLK Nashville Ave",
    "address_councildis": "A",
    "status": "Pending",
    "rowid": "1087453",
    "final_x": "3667891.97061",
    "final_y": "527645.621334",
    "longitude": "-90.11117021252213",
    "latitude": "29.9452485613509",
    "geocoded_column": {
      "latitude": "29.9452485613509",
      "longitude": "-90.11117021252213"
    }
  },
  {
    "service_request": "2024-1087452",
    "request_type": "Abandoned Vehicles",
    "request_reason": "Abandoned/Junk Vehicles",
    "date_created": "2024-04-23T18:48:19.000",
    "date_modified": "2024-04-23T18:48:19.000",
    "request_status": "Pending",
    "responsible_agency": "Department of Public Works",
    "final_address": "817 Louisiana Ave",
    "address_councildis": "B",
    "status": "Pending",
    "rowid": "1087452",
    "final_x": "3675537.50677",
    "final_y": "518798.464183",
    "longitude": "-90.08733456295849",
    "latitude": "29.920695316402607",
    "geocoded_column": {
      "latitude": "29.920695316402607",
      "longitude": "-90.08733456295849"
    }
  },
  {
    "service_request": "2024-1087451",
    "request_type": "Abandoned Vehicles",
    "request_reason": "Abandoned/Junk Vehicles",
    "date_created": "2024-04-23T18:46:51.000",
    "date_modified": "2024-04-23T18:46:51.000",
    "request_status": "Pending",
    "responsible_agency": "Department of Public Works",
    "final_address": "1851 Agriculture St",
    "address_councildis": "D",
    "status": "Pending",
    "rowid": "1087451",
    "final_x": "3681921.99304",
    "final_y": "543137.645005",
    "longitude": "-90.06633218749519",
    "latitude": "29.987427370947184",
    "geocoded_column": {
      "latitude": "29.987427370947184",
      "longitude": "-90.06633218749519"
    }
  },
  {
    "service_request": "2024-1087450",
    "request_type": "Abandoned Vehicles",
    "request_reason": "Abandoned/Junk Vehicles",
    "date_created": "2024-04-23T18:31:50.000",
    "date_modified": "2024-04-23T18:31:50.000",
    "request_status": "Pending",
    "responsible_agency": "Department of Public Works",
    "final_address": "1636 Lesseps St",
    "address_councildis": "D",
    "status": "Pending",
    "rowid": "1087450",
    "final_x": "3693193.39504",
    "final_y": "537220.605768",
    "longitude": "-90.03094235244467",
    "latitude": "29.970810122871228",
    "geocoded_column": {
      "latitude": "29.970810122871228",
      "longitude": "-90.03094235244467"
    }
  },
  {
    "service_request": "2024-1087449",
    "request_type": "Trash/Recycling",
    "request_reason": "Missed Trash Pick-Up",
    "date_created": "2024-04-23T18:17:20.000",
    "date_modified": "2024-04-23T18:17:21.000",
    "request_status": "Pending",
    "responsible_agency": "Department of Sanitation",
    "final_address": "525 St Louis St",
    "address_councildis": "C",
    "status": "Assigned to Contractor",
    "contractor": "Empire Services",
    "rowid": "1087449",
    "final_x": "3682545.52258",
    "final_y": "531571.277379",
    "longitude": "-90.06476714850398",
    "latitude": "29.95560489217756",
    "geocoded_column": {
      "latitude": "29.95560489217756",
      "longitude": "-90.06476714850398"
    }
  },
  {
    "service_request": "2024-1087448",
    "request_type": "Trash/Recycling",
    "request_reason": "Request a Large Item Pick Up",
    "date_created": "2024-04-23T18:16:57.000",
    "date_modified": "2024-04-23T18:16:58.000",
    "request_status": "Pending",
    "responsible_agency": "Department of Sanitation",
    "final_address": "7400 Freret St",
    "address_councildis": "A",
    "status": "Assigned to Contractor",
    "contractor": "IV Waste",
    "rowid": "1087448",
    "final_x": "3663199.31706",
    "final_y": "526259.013118",
    "longitude": "-90.12603259958138",
    "latitude": "29.94157262481918",
    "geocoded_column": {
      "latitude": "29.94157262481918",
      "longitude": "-90.12603259958138"
    }
  },
  {
    "service_request": "2024-1087447",
    "request_type": "Trash/Recycling",
    "request_reason": "Order Trash Cart",
    "date_created": "2024-04-23T18:14:56.000",
    "date_modified": "2024-04-23T18:14:57.000",
    "request_status": "Pending",
    "responsible_agency": "Department of Sanitation",
    "final_address": "525 St Louis St",
    "address_councildis": "C",
    "status": "Assigned to Contractor",
    "contractor": "Empire Services",
    "rowid": "1087447",
    "final_x": "3682545.52258",
    "final_y": "531571.277379",
    "longitude": "-90.06476714850398",
    "latitude": "29.95560489217756",
    "geocoded_column": {
      "latitude": "29.95560489217756",
      "longitude": "-90.06476714850398"
    }
  },
  {
    "service_request": "2024-1087446",
    "request_type": "Roads/Drainage",
    "request_reason": "Street Subsidence (Sinking)",
    "date_created": "2024-04-23T18:08:07.000",
    "date_modified": "2024-04-23T18:08:07.000",
    "request_status": "Pending",
    "responsible_agency": "Department of Public Works",
    "final_address": "2880 Maurepas St",
    "address_councildis": "A",
    "status": "Pending",
    "rowid": "1087446",
    "final_x": "3677771.09237",
    "final_y": "540649.884555",
    "longitude": "-90.07952942173833",
    "latitude": "29.98071244455563",
    "geocoded_column": {
      "latitude": "29.98071244455563",
      "longitude": "-90.07952942173833"
    }
  },
  {
    "service_request": "2024-1087445",
    "request_type": "Trash/Recycling",
    "request_reason": "Illegal Dumping",
    "date_created": "2024-04-23T18:04:20.000",
    "date_modified": "2024-04-23T18:04:20.000",
    "request_status": "Pending",
    "responsible_agency": "Department of Sanitation",
    "final_address": "2408 S Derbigny St",
    "address_councildis": "B",
    "status": "Pending",
    "rowid": "1087445",
    "final_x": "3673913.21006",
    "final_y": "527635.037695",
    "longitude": "-90.09215959028283",
    "latitude": "29.945041494235543",
    "geocoded_column": {
      "latitude": "29.945041494235543",
      "longitude": "-90.09215959028283"
    }
  },
  {
    "service_request": "2024-1087444",
    "request_type": "Abandoned Vehicles",
    "request_reason": "Abandoned/Junk Vehicles",
    "date_created": "2024-04-23T18:01:55.000",
    "date_modified": "2024-04-23T18:01:55.000",
    "request_status": "Pending",
    "responsible_agency": "Department of Public Works",
    "final_address": "2016 Foucher St",
    "address_councildis": "B",
    "status": "Pending",
    "rowid": "1087444",
    "final_x": "3672932.01339",
    "final_y": "522777.443642",
    "longitude": "-90.09542323015846",
    "latitude": "29.93171387992932",
    "geocoded_column": {
      "latitude": "29.93171387992932",
      "longitude": "-90.09542323015846"
    }
  },
  {
    "service_request": "2024-1087443",
    "request_type": "Trash/Recycling",
    "request_reason": "Illegal Dumping",
    "date_created": "2024-04-23T17:52:24.000",
    "date_modified": "2024-04-23T17:52:24.000",
    "request_status": "Pending",
    "responsible_agency": "Department of Sanitation",
    "final_address": "1ST ST & S DERBIGNY ST",
    "address_councildis": "B",
    "status": "Pending",
    "rowid": "1087443",
    "final_x": "3673973.7",
    "final_y": "527730.68",
    "longitude": "-90.0919653330652",
    "latitude": "29.945302677319887",
    "geocoded_column": {
      "latitude": "29.945302677319887",
      "longitude": "-90.0919653330652"
    }
  },
  {
    "service_request": "2024-1087441",
    "request_type": "Property Maintenance",
    "request_reason": "Property Maintenance",
    "date_created": "2024-04-23T17:32:08.000",
    "date_modified": "2024-04-23T17:32:08.000",
    "request_status": "Pending",
    "responsible_agency": "Department of Code Enforcement",
    "final_address": "1ST ST & S CLAIBORNE AVE",
    "address_councildis": "B",
    "status": "Pending",
    "rowid": "1087441",
    "final_x": "3674234.0",
    "final_y": "527341.38",
    "longitude": "-90.09115680695304",
    "latitude": "29.944224473739705",
    "geocoded_column": {
      "latitude": "29.944224473739705",
      "longitude": "-90.09115680695304"
    }
  },
  {
    "service_request": "2024-1087440",
    "request_type": "Utility Poles",
    "request_reason": "Utility Pole Leaning",
    "date_created": "2024-04-23T17:27:05.000",
    "date_modified": "2024-04-23T17:27:10.000",
    "request_status": "Pending",
    "responsible_agency": "Utility Company Collective",
    "final_address": "2110 General Pershing St",
    "address_councildis": "B",
    "status": "Pending",
    "rowid": "1087440",
    "final_x": "3671009.85729",
    "final_y": "522801.066107",
    "longitude": "-90.1014904740937",
    "latitude": "29.931835793986203",
    "geocoded_column": {
      "latitude": "29.931835793986203",
      "longitude": "-90.1014904740937"
    }
  },
  {
    "service_request": "2024-1087439",
    "request_type": "Parks & Parkways",
    "request_reason": "Request Tree Service (Right of Way/Public Property)",
    "date_created": "2024-04-23T17:21:12.000",
    "date_modified": "2024-04-23T17:21:12.000",
    "request_status": "Pending",
    "responsible_agency": "Department of Parks & Parkway",
    "final_address": "4437 S Liberty St",
    "address_councildis": "B",
    "status": "Pending",
    "rowid": "1087439",
    "final_x": "3670254.30375",
    "final_y": "523351.815483",
    "longitude": "-90.10385702535233",
    "latitude": "29.933372490783984",
    "geocoded_column": {
      "latitude": "29.933372490783984",
      "longitude": "-90.10385702535233"
    }
  },
  {
    "service_request": "2024-1087438",
    "request_type": "Tax and Revenue",
    "request_reason": "Occupational License Tax",
    "date_created": "2024-04-23T17:06:53.000",
    "date_modified": "2024-04-23T17:06:53.000",
    "request_status": "Pending",
    "responsible_agency": "Bureau of Revenue",
    "final_address": " & BALDWIN ST",
    "address_councildis": "D",
    "status": "Pending",
    "rowid": "1087438",
    "final_x": "3687880.8",
    "final_y": "560035.64",
    "longitude": "-90.04691121641319",
    "latitude": "30.03370814054373",
    "geocoded_column": {
      "latitude": "30.03370814054373",
      "longitude": "-90.04691121641319"
    }
  },
  {
    "service_request": "2024-1087437",
    "request_type": "Trash/Recycling",
    "request_reason": "Repair Trash Cart",
    "date_created": "2024-04-23T17:02:44.000",
    "date_modified": "2024-04-23T17:02:45.000",
    "request_status": "Pending",
    "responsible_agency": "Department of Sanitation",
    "final_address": "2817 Monroe St",
    "address_councildis": "A",
    "status": "Assigned to Contractor",
    "contractor": "IV Waste",
    "rowid": "1087437",
    "final_x": "3664404.02752",
    "final_y": "534147.126021",
    "longitude": "-90.12196578593053",
    "latitude": "29.96322742291956",
    "geocoded_column": {
      "latitude": "29.96322742291956",
      "longitude": "-90.12196578593053"
    }
  },
  {
    "service_request": "2024-1087436",
    "request_type": "Trash/Recycling",
    "request_reason": "Request a Large Item Pick Up",
    "date_created": "2024-04-23T16:59:56.000",
    "date_modified": "2024-04-23T16:59:57.000",
    "request_status": "Pending",
    "responsible_agency": "Department of Sanitation",
    "final_address": "6125 N Robertson St",
    "address_councildis": "E",
    "status": "Assigned to Contractor",
    "contractor": "Waste Pro",
    "rowid": "1087436",
    "final_x": "3700248.56298",
    "final_y": "534677.337542",
    "longitude": "-90.0087542470864",
    "latitude": "29.963594667008035",
    "geocoded_column": {
      "latitude": "29.963594667008035",
      "longitude": "-90.0087542470864"
    }
  },
  {
    "service_request": "2024-1087435",
    "request_type": "Trash/Recycling",
    "request_reason": "MIssed Recycling Pick-Up",
    "date_created": "2024-04-23T16:59:34.000",
    "date_modified": "2024-04-23T16:59:35.000",
    "request_status": "Pending",
    "responsible_agency": "Department of Sanitation",
    "final_address": "2300 Bienville Ave",
    "address_councildis": "B",
    "status": "Assigned to Contractor",
    "contractor": "IV Waste",
    "rowid": "1087435",
    "final_x": "3677097.55432",
    "final_y": "534677.650246",
    "longitude": "-90.08186276958943",
    "latitude": "29.964311090905422",
    "geocoded_column": {
      "latitude": "29.964311090905422",
      "longitude": "-90.08186276958943"
    }
  },
  {
    "service_request": "2024-1087434",
    "request_type": "Property Maintenance",
    "request_reason": "Property Maintenance",
    "date_created": "2024-04-23T16:46:40.000",
    "date_modified": "2024-04-23T16:46:40.000",
    "request_status": "Pending",
    "responsible_agency": "Department of Code Enforcement",
    "final_address": "4040 Piedmont Dr",
    "address_councildis": "D",
    "status": "Pending",
    "rowid": "1087434",
    "final_x": "3685146.85929",
    "final_y": "547449.713425",
    "longitude": "-90.05599414642947",
    "latitude": "29.999185575886116",
    "geocoded_column": {
      "latitude": "29.999185575886116",
      "longitude": "-90.05599414642947"
    }
  },
  {
    "service_request": "2024-1087433",
    "request_type": "Property Maintenance",
    "request_reason": "Property Maintenance",
    "date_created": "2024-04-23T16:44:09.000",
    "date_modified": "2024-04-23T16:44:09.000",
    "request_status": "Pending",
    "responsible_agency": "Department of Code Enforcement",
    "final_address": "2117 Piety St",
    "address_councildis": "D",
    "status": "Pending",
    "rowid": "1087433",
    "final_x": "3690844.19446",
    "final_y": "539700.951882",
    "longitude": "-90.0382728605188",
    "latitude": "29.977703406806896",
    "geocoded_column": {
      "latitude": "29.977703406806896",
      "longitude": "-90.0382728605188"
    }
  },
  {
    "service_request": "2024-1087432",
    "request_type": "Trash/Recycling",
    "request_reason": "Repair Trash Cart",
    "date_created": "2024-04-23T16:36:41.000",
    "date_modified": "2024-04-23T16:36:41.000",
    "request_status": "Pending",
    "responsible_agency": "Department of Sanitation",
    "final_address": "2114 Magnolia St",
    "address_councildis": "B",
    "status": "Assigned to Contractor",
    "contractor": "IV Waste",
    "rowid": "1087432",
    "final_x": "3675426.1163",
    "final_y": "526964.13843",
    "longitude": "-90.08740590472628",
    "latitude": "29.943151594766434",
    "geocoded_column": {
      "latitude": "29.943151594766434",
      "longitude": "-90.08740590472628"
    }
  },
  {
    "service_request": "2024-1087431",
    "request_type": "Trash/Recycling",
    "request_reason": "Missed Trash Pick-Up",
    "date_created": "2024-04-23T16:34:51.000",
    "date_modified": "2024-04-23T16:34:51.000",
    "request_status": "Pending",
    "responsible_agency": "Department of Sanitation",
    "final_address": "4957 Chantilly Dr",
    "address_councildis": "E",
    "status": "Assigned to Contractor",
    "contractor": "Waste Pro",
    "rowid": "1087431",
    "final_x": "3700838.95633",
    "final_y": "555471.063897",
    "longitude": "-90.00612928265917",
    "latitude": "30.020750933229035",
    "geocoded_column": {
      "latitude": "30.020750933229035",
      "longitude": "-90.00612928265917"
    }
  },
  {
    "service_request": "2024-1087430",
    "request_type": "Property Maintenance",
    "request_reason": "Property Maintenance",
    "date_created": "2024-04-23T16:32:39.000",
    "date_modified": "2024-04-23T16:32:39.000",
    "request_status": "Pending",
    "responsible_agency": "Department of Code Enforcement",
    "final_address": "12330 Carmel Pl",
    "address_councildis": "E",
    "status": "Pending",
    "rowid": "1087430",
    "final_x": "3715925.91218",
    "final_y": "566548.995939",
    "longitude": "-89.95803937135074",
    "latitude": "30.050721662513816",
    "geocoded_column": {
      "latitude": "30.050721662513816",
      "longitude": "-89.95803937135074"
    }
  },
  {
    "service_request": "2024-1087429",
    "request_type": "Trash/Recycling",
    "request_reason": "Request a Large Item Pick Up",
    "date_created": "2024-04-23T16:23:29.000",
    "date_modified": "2024-04-23T16:23:30.000",
    "request_status": "Pending",
    "responsible_agency": "Department of Sanitation",
    "final_address": "3507 Nashville Ave",
    "address_councildis": "A",
    "status": "Assigned to Contractor",
    "contractor": "IV Waste",
    "rowid": "1087429",
    "final_x": "3668279.3778",
    "final_y": "528505.468224",
    "longitude": "-90.10991805566245",
    "latitude": "29.94760149341001",
    "geocoded_column": {
      "latitude": "29.94760149341001",
      "longitude": "-90.10991805566245"
    }
  },
  {
    "service_request": "2024-1087428",
    "request_type": "Safety & Permits",
    "request_reason": "Licenses & Permits",
    "date_created": "2024-04-23T16:21:29.000",
    "date_modified": "2024-04-23T16:21:29.000",
    "request_status": "Pending",
    "responsible_agency": "Safety and Permits",
    "final_address": "1125 N Robertson St",
    "address_councildis": "D",
    "status": "Pending",
    "rowid": "1087428",
    "final_x": "3681069.92655",
    "final_y": "535737.154567",
    "longitude": "-90.06928143750918",
    "latitude": "29.967104470997075",
    "geocoded_column": {
      "latitude": "29.967104470997075",
      "longitude": "-90.06928143750918"
    }
  },
  {
    "service_request": "2024-1087427",
    "request_type": "Abandoned Vehicles",
    "request_reason": "Abandoned/Junk Vehicles",
    "date_created": "2024-04-23T16:21:15.000",
    "date_modified": "2024-04-23T16:21:15.000",
    "request_status": "Pending",
    "responsible_agency": "Department of Public Works",
    "final_address": "EARHART BLVD & STATE STREET DR",
    "address_councildis": "B",
    "status": "Pending",
    "rowid": "1087427",
    "final_x": "3668786.1",
    "final_y": "532053.78",
    "longitude": "-90.1081983438693",
    "latitude": "29.95734330266896",
    "geocoded_column": {
      "latitude": "29.95734330266896",
      "longitude": "-90.1081983438693"
    }
  },
  {
    "service_request": "2024-1087426",
    "request_type": "Trash/Recycling",
    "request_reason": "Request a Large Item Pick Up",
    "date_created": "2024-04-23T16:20:49.000",
    "date_modified": "2024-04-23T16:20:50.000",
    "request_status": "Pending",
    "responsible_agency": "Department of Sanitation",
    "final_address": "1909 Napoleon Ave",
    "address_councildis": "B",
    "status": "Assigned to Contractor",
    "contractor": "IV Waste",
    "rowid": "1087426",
    "final_x": "3670848.32609",
    "final_y": "522034.268026",
    "longitude": "-90.10202642440025",
    "latitude": "29.929732119426728",
    "geocoded_column": {
      "latitude": "29.929732119426728",
      "longitude": "-90.10202642440025"
    }
  },
  {
    "service_request": "2024-1087424",
    "request_type": "Trash/Recycling",
    "request_reason": "Order Recycling Cart",
    "date_created": "2024-04-23T16:18:22.000",
    "date_modified": "2024-04-23T16:18:23.000",
    "request_status": "Pending",
    "responsible_agency": "Department of Sanitation",
    "final_address": "1623 Dufossat St",
    "address_councildis": "B",
    "status": "Pending",
    "rowid": "1087424",
    "final_x": "3668165.29748",
    "final_y": "521363.401593",
    "longitude": "-90.11051890468237",
    "latitude": "29.927966454847226",
    "geocoded_column": {
      "latitude": "29.927966454847226",
      "longitude": "-90.11051890468237"
    }
  },
  {
    "service_request": "2024-1087423",
    "request_type": "Trash/Recycling",
    "request_reason": "Request a Large Item Pick Up",
    "date_created": "2024-04-23T16:17:21.000",
    "date_modified": "2024-04-23T17:01:41.000",
    "case_close_date": "2024-04-23T12:01:41.000",
    "request_status": "Closed",
    "responsible_agency": "Department of Sanitation",
    "final_address": "10130 Brookfield Dr",
    "address_councildis": "E",
    "status": "Duplicate Request",
    "contractor": "Waste Pro",
    "contractor_action": "Duplicate",
    "rowid": "1087423",
    "final_x": "3710048.50904",
    "final_y": "562830.161568",
    "longitude": "-89.97675479641984",
    "latitude": "30.040689019917604",
    "geocoded_column": {
      "latitude": "30.040689019917604",
      "longitude": "-89.97675479641984"
    }
  },
  {
    "service_request": "2024-1087422",
    "request_type": "Trash/Recycling",
    "request_reason": "Request a Large Item Pick Up",
    "date_created": "2024-04-23T16:16:05.000",
    "date_modified": "2024-04-23T16:16:06.000",
    "request_status": "Pending",
    "responsible_agency": "Department of Sanitation",
    "final_address": "4227 Fontainebleau Dr",
    "address_councildis": "B",
    "status": "Assigned to Contractor",
    "contractor": "IV Waste",
    "rowid": "1087422",
    "final_x": "3669627.99758",
    "final_y": "529355.935681",
    "longitude": "-90.10563115366931",
    "latitude": "29.9499003390365",
    "geocoded_column": {
      "latitude": "29.9499003390365",
      "longitude": "-90.10563115366931"
    }
  },
  {
    "service_request": "2024-1087421",
    "request_type": "Trash/Recycling",
    "request_reason": "Request a Large Item Pick Up",
    "date_created": "2024-04-23T16:15:36.000",
    "date_modified": "2024-04-23T16:15:36.000",
    "request_status": "Pending",
    "responsible_agency": "Department of Sanitation",
    "final_address": "10130 Brookfield Dr",
    "address_councildis": "E",
    "status": "Assigned to Contractor",
    "contractor": "Waste Pro",
    "rowid": "1087421",
    "final_x": "3710048.50904",
    "final_y": "562830.161568",
    "longitude": "-89.97675479641984",
    "latitude": "30.040689019917604",
    "geocoded_column": {
      "latitude": "30.040689019917604",
      "longitude": "-89.97675479641984"
    }
  },
  {
    "service_request": "2024-1087420",
    "request_type": "Trash/Recycling",
    "request_reason": "Order Trash Cart",
    "date_created": "2024-04-23T16:14:40.000",
    "date_modified": "2024-04-23T16:14:52.000",
    "request_status": "Pending",
    "responsible_agency": "Department of Sanitation",
    "final_address": "4227 Fontainebleau Dr",
    "address_councildis": "B",
    "status": "Assigned to Contractor",
    "contractor": "IV Waste",
    "rowid": "1087420",
    "final_x": "3669627.99758",
    "final_y": "529355.935681",
    "longitude": "-90.10563115366931",
    "latitude": "29.9499003390365",
    "geocoded_column": {
      "latitude": "29.9499003390365",
      "longitude": "-90.10563115366931"
    }
  },
  {
    "service_request": "2024-1087419",
    "request_type": "Trash/Recycling",
    "request_reason": "Illegal Dumping",
    "date_created": "2024-04-23T16:14:33.000",
    "date_modified": "2024-04-23T16:14:33.000",
    "request_status": "Pending",
    "responsible_agency": "Department of Sanitation",
    "final_address": "2106 New Orleans St",
    "address_councildis": "D",
    "status": "Pending",
    "rowid": "1087419",
    "final_x": "3682057.45474",
    "final_y": "539874.36961",
    "longitude": "-90.0660183145116",
    "latitude": "29.978450387744648",
    "geocoded_column": {
      "latitude": "29.978450387744648",
      "longitude": "-90.0660183145116"
    }
  },
  {
    "service_request": "2024-1087418",
    "request_type": "Trash/Recycling",
    "request_reason": "Repair Trash Cart",
    "date_created": "2024-04-23T16:13:56.000",
    "date_modified": "2024-04-23T16:13:56.000",
    "request_status": "Pending",
    "responsible_agency": "Department of Sanitation",
    "final_address": "1937 Bordeaux St",
    "address_councildis": "B",
    "status": "Assigned to Contractor",
    "contractor": "IV Waste",
    "rowid": "1087418",
    "final_x": "3669274.96391",
    "final_y": "522107.977722",
    "longitude": "-90.10699077771058",
    "latitude": "29.929981192993143",
    "geocoded_column": {
      "latitude": "29.929981192993143",
      "longitude": "-90.10699077771058"
    }
  },
  {
    "service_request": "2024-1087417",
    "request_type": "Trash/Recycling",
    "request_reason": "Repair Recycling Cart",
    "date_created": "2024-04-23T16:10:09.000",
    "date_modified": "2024-04-23T16:10:10.000",
    "request_status": "Pending",
    "responsible_agency": "Department of Sanitation",
    "final_address": "23 Kristen Ct",
    "address_councildis": "E",
    "status": "Pending",
    "rowid": "1087417",
    "final_x": "3713458.08005",
    "final_y": "567287.67434",
    "longitude": "-89.96581139107467",
    "latitude": "30.052833939842643",
    "geocoded_column": {
      "latitude": "30.052833939842643",
      "longitude": "-89.96581139107467"
    }
  },
  {
    "service_request": "2024-1087416",
    "request_type": "Property Maintenance",
    "request_reason": "Property Maintenance",
    "date_created": "2024-04-23T16:06:30.000",
    "date_modified": "2024-04-23T16:06:30.000",
    "request_status": "Pending",
    "responsible_agency": "Department of Code Enforcement",
    "final_address": "4824 Bonita Dr",
    "address_councildis": "E",
    "status": "Pending",
    "rowid": "1087416",
    "final_x": "3704396.18481",
    "final_y": "555793.593177",
    "longitude": "-89.99487767089465",
    "latitude": "30.02152399254928",
    "geocoded_column": {
      "latitude": "30.02152399254928",
      "longitude": "-89.99487767089465"
    }
  },
  {
    "service_request": "2024-1087415",
    "request_type": "Trash/Recycling",
    "request_reason": "Request a Large Item Pick Up",
    "date_created": "2024-04-23T16:00:46.000",
    "date_modified": "2024-04-23T16:00:47.000",
    "request_status": "Pending",
    "responsible_agency": "Department of Sanitation",
    "final_address": "6940 Salem Dr",
    "address_councildis": "E",
    "status": "Assigned to Contractor",
    "contractor": "Waste Pro",
    "rowid": "1087415",
    "final_x": "3706778.07895",
    "final_y": "560478.755166",
    "longitude": "-89.9871776744944",
    "latitude": "30.034329638948023",
    "geocoded_column": {
      "latitude": "30.034329638948023",
      "longitude": "-89.9871776744944"
    }
  },
  {
    "service_request": "2024-1087414",
    "request_type": "Trash/Recycling",
    "request_reason": "Start Trash Service",
    "date_created": "2024-04-23T15:56:23.000",
    "date_modified": "2024-04-23T15:56:24.000",
    "request_status": "Pending",
    "responsible_agency": "Department of Sanitation",
    "final_address": "415 Bouny St",
    "address_councildis": "C",
    "status": "Assigned to Contractor",
    "contractor": "Richards Disposal",
    "rowid": "1087414",
    "final_x": "3685948.17084",
    "final_y": "529913.918081",
    "longitude": "-90.05408124756813",
    "latitude": "29.95094369996993",
    "geocoded_column": {
      "latitude": "29.95094369996993",
      "longitude": "-90.05408124756813"
    }
  },
  {
    "service_request": "2024-1087413",
    "request_type": "Abandoned Vehicles",
    "request_reason": "Abandoned/Junk Vehicles",
    "date_created": "2024-04-23T15:49:05.000",
    "date_modified": "2024-04-23T15:49:06.000",
    "request_status": "Pending",
    "responsible_agency": "Department of Public Works",
    "final_address": "4513 Eve St",
    "address_councildis": "B",
    "status": "Pending",
    "rowid": "1087413",
    "final_x": "3669767.96942",
    "final_y": "531193.286018",
    "longitude": "-90.10512701265971",
    "latitude": "29.954948324911935",
    "geocoded_column": {
      "latitude": "29.954948324911935",
      "longitude": "-90.10512701265971"
    }
  },
  {
    "service_request": "2024-1087412",
    "request_type": "Trash/Recycling",
    "request_reason": "Request a Large Item Pick Up",
    "date_created": "2024-04-23T15:49:04.000",
    "date_modified": "2024-04-23T15:49:05.000",
    "request_status": "Pending",
    "responsible_agency": "Department of Sanitation",
    "final_address": "7901 Pebble Dr",
    "address_councildis": "E",
    "status": "Assigned to Contractor",
    "contractor": "Waste Pro",
    "rowid": "1087412",
    "final_x": "3714601.19506",
    "final_y": "569825.252262",
    "longitude": "-89.96210237971339",
    "latitude": "30.0597736748143",
    "geocoded_column": {
      "latitude": "30.0597736748143",
      "longitude": "-89.96210237971339"
    }
  },
  {
    "service_request": "2024-1087411",
    "request_type": "Abandoned Vehicles",
    "request_reason": "Abandoned/Junk Vehicles",
    "date_created": "2024-04-23T15:48:57.000",
    "date_modified": "2024-04-23T15:48:57.000",
    "request_status": "Pending",
    "responsible_agency": "Department of Public Works",
    "final_address": "6046 Pines Blvd",
    "address_councildis": "D",
    "status": "Pending",
    "rowid": "1087411",
    "final_x": "3696185.44323",
    "final_y": "556057.734681",
    "longitude": "-90.02081170516817",
    "latitude": "30.022511441711345",
    "geocoded_column": {
      "latitude": "30.022511441711345",
      "longitude": "-90.02081170516817"
    }
  },
  {
    "service_request": "2024-1087410",
    "request_type": "Trash/Recycling",
    "request_reason": "Illegal Dumping",
    "date_created": "2024-04-23T15:47:05.000",
    "date_modified": "2024-04-23T15:47:06.000",
    "request_status": "Pending",
    "responsible_agency": "Department of Sanitation",
    "final_address": "4618 Longfellow Dr",
    "address_councildis": "E",
    "status": "Pending",
    "rowid": "1087410",
    "final_x": "3709636.78526",
    "final_y": "554993.145688",
    "longitude": "-89.97834885248561",
    "latitude": "30.019153713352896",
    "geocoded_column": {
      "latitude": "30.019153713352896",
      "longitude": "-89.97834885248561"
    }
  },
  {
    "service_request": "2024-1087409",
    "request_type": "Trash/Recycling",
    "request_reason": "Replace Trash Cart",
    "date_created": "2024-04-23T15:46:04.000",
    "date_modified": "2024-04-23T15:46:05.000",
    "request_status": "Pending",
    "responsible_agency": "Department of Sanitation",
    "final_address": "2033 Pace Blvd",
    "address_councildis": "C",
    "status": "Assigned to Contractor",
    "contractor": "Richards Disposal",
    "rowid": "1087409",
    "final_x": "3694368.06339",
    "final_y": "522990.323067",
    "longitude": "-90.0277446847537",
    "latitude": "29.931645039358344",
    "geocoded_column": {
      "latitude": "29.931645039358344",
      "longitude": "-90.0277446847537"
    }
  },
  {
    "service_request": "2024-1087408",
    "request_type": "Property Maintenance",
    "request_reason": "Property Maintenance",
    "date_created": "2024-04-23T15:45:26.000",
    "date_modified": "2024-04-23T15:45:26.000",
    "request_status": "Pending",
    "responsible_agency": "Department of Code Enforcement",
    "final_address": "2300 Jefferson Ave",
    "address_councildis": "A",
    "status": "Pending",
    "rowid": "1087408",
    "final_x": "3667868.54445",
    "final_y": "524062.473084",
    "longitude": "-90.11136482427918",
    "latitude": "29.9353967450289",
    "geocoded_column": {
      "latitude": "29.9353967450289",
      "longitude": "-90.11136482427918"
    }
  },
  {
    "service_request": "2024-1087407",
    "request_type": "Trash/Recycling",
    "request_reason": "Repair Trash Cart",
    "date_created": "2024-04-23T15:45:17.000",
    "date_modified": "2024-04-23T15:45:17.000",
    "request_status": "Pending",
    "responsible_agency": "Department of Sanitation",
    "final_address": "11111 Whiteside Rd",
    "address_councildis": "E",
    "status": "Assigned to Contractor",
    "contractor": "Waste Pro",
    "rowid": "1087407",
    "final_x": "3711718.0812",
    "final_y": "564980.31901",
    "longitude": "-89.9713976713684",
    "latitude": "30.046546632120176",
    "geocoded_column": {
      "latitude": "30.046546632120176",
      "longitude": "-89.9713976713684"
    }
  },
  {
    "service_request": "2024-1087406",
    "request_type": "Trash/Recycling",
    "request_reason": "Order Recycling Cart",
    "date_created": "2024-04-23T15:44:18.000",
    "date_modified": "2024-04-23T15:44:19.000",
    "request_status": "Pending",
    "responsible_agency": "Department of Sanitation",
    "final_address": "5843 Rhodes Ave",
    "address_councildis": "C",
    "status": "Pending",
    "rowid": "1087406",
    "final_x": "3705010.3891",
    "final_y": "519479.681655",
    "longitude": "-89.99427786616201",
    "latitude": "29.92165428375972",
    "geocoded_column": {
      "latitude": "29.92165428375972",
      "longitude": "-89.99427786616201"
    }
  },
  {
    "service_request": "2024-1087405",
    "request_type": "Trash/Recycling",
    "request_reason": "Replace Trash Cart",
    "date_created": "2024-04-23T15:42:00.000",
    "date_modified": "2024-04-23T15:42:00.000",
    "request_status": "Pending",
    "responsible_agency": "Department of Sanitation",
    "final_address": "1223 Joliet St",
    "address_councildis": "A",
    "status": "Assigned to Contractor",
    "contractor": "IV Waste",
    "rowid": "1087405",
    "final_x": "3661067.40282",
    "final_y": "529448.592577",
    "longitude": "-90.13265799331937",
    "latitude": "29.95040454415885",
    "geocoded_column": {
      "latitude": "29.95040454415885",
      "longitude": "-90.13265799331937"
    }
  },
  {
    "service_request": "2024-1087404",
    "request_type": "Trash/Recycling",
    "request_reason": "Request a Large Item Pick Up",
    "date_created": "2024-04-23T15:35:33.000",
    "date_modified": "2024-04-23T15:35:33.000",
    "request_status": "Pending",
    "responsible_agency": "Department of Sanitation",
    "final_address": "3427 Plymouth Pl",
    "address_councildis": "C",
    "status": "Assigned to Contractor",
    "contractor": "Richards Disposal",
    "rowid": "1087404",
    "final_x": "3702720.36823",
    "final_y": "518468.304438",
    "longitude": "-90.00154352884044",
    "latitude": "29.918946731875863",
    "geocoded_column": {
      "latitude": "29.918946731875863",
      "longitude": "-90.00154352884044"
    }
  },
  {
    "service_request": "2024-1087403",
    "request_type": "Traffic Signals/Signs/Striping/Streetlights",
    "request_reason": "Traffic Signal Malfunctioning/Damaged",
    "date_created": "2024-04-23T15:32:30.000",
    "date_modified": "2024-04-23T15:32:31.000",
    "request_status": "Pending",
    "responsible_agency": "Department of Public Works",
    "final_address": "3414 S Claiborne Ave",
    "address_councildis": "B",
    "status": "Pending",
    "rowid": "1087403",
    "final_x": "3672110.19975",
    "final_y": "525940.912701",
    "longitude": "-90.09790993398968",
    "latitude": "29.94043678206443",
    "geocoded_column": {
      "latitude": "29.94043678206443",
      "longitude": "-90.09790993398968"
    }
  },
  {
    "service_request": "2024-1087402",
    "request_type": "Trash/Recycling",
    "request_reason": "Request a Large Item Pick Up",
    "date_created": "2024-04-23T15:31:50.000",
    "date_modified": "2024-04-23T15:31:51.000",
    "request_status": "Pending",
    "responsible_agency": "Department of Sanitation",
    "final_address": "4978 De Montluzin St",
    "address_councildis": "D",
    "status": "Assigned to Contractor",
    "contractor": "IV Waste",
    "rowid": "1087402",
    "final_x": "3687023.66191",
    "final_y": "551565.239509",
    "longitude": "-90.0499196784599",
    "latitude": "30.010444114761707",
    "geocoded_column": {
      "latitude": "30.010444114761707",
      "longitude": "-90.0499196784599"
    }
  },
  {
    "service_request": "2024-1087401",
    "request_type": "Trash/Recycling",
    "request_reason": "Order Recycling Cart",
    "date_created": "2024-04-23T15:30:40.000",
    "date_modified": "2024-04-23T15:30:40.000",
    "request_status": "Pending",
    "responsible_agency": "Department of Sanitation",
    "final_address": "221 S Hennessey St",
    "address_councildis": "A",
    "status": "Pending",
    "rowid": "1087401",
    "final_x": "3669900.09806",
    "final_y": "538490.274569",
    "longitude": "-90.10446269142155",
    "latitude": "29.975008717165426",
    "geocoded_column": {
      "latitude": "29.975008717165426",
      "longitude": "-90.10446269142155"
    }
  },
  {
    "service_request": "2024-1087400",
    "request_type": "Trash/Recycling",
    "request_reason": "Order Trash Cart",
    "date_created": "2024-04-23T15:30:30.000",
    "date_modified": "2024-04-23T15:30:31.000",
    "request_status": "Pending",
    "responsible_agency": "Department of Sanitation",
    "final_address": "2135 Allen St",
    "address_councildis": "D",
    "status": "Assigned to Contractor",
    "contractor": "IV Waste",
    "rowid": "1087400",
    "final_x": "3682488.35733",
    "final_y": "540107.169099",
    "longitude": "-90.0646492266919",
    "latitude": "29.97907739363543",
    "geocoded_column": {
      "latitude": "29.97907739363543",
      "longitude": "-90.0646492266919"
    }
  },
  {
    "service_request": "2024-1087399",
    "request_type": "Trash/Recycling",
    "request_reason": "MIssed Recycling Pick-Up",
    "date_created": "2024-04-23T15:29:09.000",
    "date_modified": "2024-04-23T15:29:10.000",
    "request_status": "Pending",
    "responsible_agency": "Department of Sanitation",
    "final_address": "2830 Audubon St",
    "address_councildis": "B",
    "status": "Assigned to Contractor",
    "contractor": "IV Waste",
    "rowid": "1087399",
    "final_x": "3667641.8153",
    "final_y": "531333.695618",
    "longitude": "-90.111835901721",
    "latitude": "29.955396898587033",
    "geocoded_column": {
      "latitude": "29.955396898587033",
      "longitude": "-90.111835901721"
    }
  },
  {
    "service_request": "2024-1087398",
    "request_type": "Trash/Recycling",
    "request_reason": "Request a Large Item Pick Up",
    "date_created": "2024-04-23T15:20:15.000",
    "date_modified": "2024-04-23T15:20:16.000",
    "request_status": "Pending",
    "responsible_agency": "Department of Sanitation",
    "final_address": "5619 Annunciation St",
    "address_councildis": "A",
    "status": "Assigned to Contractor",
    "contractor": "IV Waste",
    "rowid": "1087398",
    "final_x": "3665664.50868",
    "final_y": "517605.323318",
    "longitude": "-90.11853912243622",
    "latitude": "29.917706065856777",
    "geocoded_column": {
      "latitude": "29.917706065856777",
      "longitude": "-90.11853912243622"
    }
  },
  {
    "service_request": "2024-1087397",
    "request_type": "Abandoned Vehicles",
    "request_reason": "Abandoned/Junk Vehicles",
    "date_created": "2024-04-23T15:20:07.000",
    "date_modified": "2024-04-23T15:20:07.000",
    "request_status": "Pending",
    "responsible_agency": "Department of Public Works",
    "final_address": "1927 Touro St",
    "address_councildis": "D",
    "status": "Pending",
    "rowid": "1087397",
    "final_x": "3684013.60533",
    "final_y": "539414.22177",
    "longitude": "-90.05985623529766",
    "latitude": "29.977125507663622",
    "geocoded_column": {
      "latitude": "29.977125507663622",
      "longitude": "-90.05985623529766"
    }
  },
  {
    "service_request": "2024-1087396",
    "request_type": "Abandoned Vehicles",
    "request_reason": "Abandoned/Junk Vehicles",
    "date_created": "2024-04-23T15:19:30.000",
    "date_modified": "2024-04-23T15:19:30.000",
    "request_status": "Pending",
    "responsible_agency": "Department of Public Works",
    "final_address": "1927 Touro St",
    "address_councildis": "D",
    "status": "Pending",
    "rowid": "1087396",
    "final_x": "3684013.60533",
    "final_y": "539414.22177",
    "longitude": "-90.05985623529766",
    "latitude": "29.977125507663622",
    "geocoded_column": {
      "latitude": "29.977125507663622",
      "longitude": "-90.05985623529766"
    }
  },
  {
    "service_request": "2024-1087395",
    "request_type": "Trash/Recycling",
    "request_reason": "Request a Large Item Pick Up",
    "date_created": "2024-04-23T15:19:15.000",
    "date_modified": "2024-04-23T15:19:15.000",
    "request_status": "Pending",
    "responsible_agency": "Department of Sanitation",
    "final_address": "2123 Arts St",
    "address_councildis": "D",
    "status": "Assigned to Contractor",
    "contractor": "IV Waste",
    "rowid": "1087395",
    "final_x": "3686933.48943",
    "final_y": "540350.574091",
    "longitude": "-90.0506012097162",
    "latitude": "29.97961059337586",
    "geocoded_column": {
      "latitude": "29.97961059337586",
      "longitude": "-90.0506012097162"
    }
  },
  {
    "service_request": "2024-1087394",
    "request_type": "Roads/Drainage",
    "request_reason": "Pothole",
    "date_created": "2024-04-23T15:18:05.000",
    "date_modified": "2024-04-23T15:18:26.000",
    "case_close_date": "2024-04-23T10:18:26.000",
    "request_status": "Closed",
    "responsible_agency": "Department of Public Works",
    "final_address": "2800 BLK Paris Ave",
    "address_councildis": "D",
    "status": "Resolved",
    "rowid": "1087394",
    "final_x": "3679931.36845",
    "final_y": "542753.347024",
    "longitude": "-90.0726332290528",
    "latitude": "29.98643105880179",
    "geocoded_column": {
      "latitude": "29.98643105880179",
      "longitude": "-90.0726332290528"
    }
  },
  {
    "service_request": "2024-1087393",
    "request_type": "Roads/Drainage",
    "request_reason": "Pothole",
    "date_created": "2024-04-23T15:16:43.000",
    "date_modified": "2024-04-23T15:17:10.000",
    "case_close_date": "2024-04-23T10:17:10.000",
    "request_status": "Closed",
    "responsible_agency": "Department of Public Works",
    "final_address": "3018 Paris Ave",
    "address_councildis": "D",
    "status": "Resolved",
    "rowid": "1087393",
    "final_x": "3679770.86363",
    "final_y": "543506.474126",
    "longitude": "-90.07311403954843",
    "latitude": "29.988506749234578",
    "geocoded_column": {
      "latitude": "29.988506749234578",
      "longitude": "-90.07311403954843"
    }
  },
  {
    "service_request": "2024-1087392",
    "request_type": "Abandoned Vehicles",
    "request_reason": "Abandoned/Junk Vehicles",
    "date_created": "2024-04-23T15:12:34.000",
    "date_modified": "2024-04-23T15:12:34.000",
    "request_status": "Pending",
    "responsible_agency": "Department of Public Works",
    "final_address": "1927 Touro St",
    "address_councildis": "D",
    "status": "Pending",
    "rowid": "1087392",
    "final_x": "3684013.60533",
    "final_y": "539414.22177",
    "longitude": "-90.05985623529766",
    "latitude": "29.977125507663622",
    "geocoded_column": {
      "latitude": "29.977125507663622",
      "longitude": "-90.05985623529766"
    }
  },
  {
    "service_request": "2024-1087391",
    "request_type": "Roads/Drainage",
    "request_reason": "Pothole",
    "date_created": "2024-04-23T15:11:59.000",
    "date_modified": "2024-04-23T15:15:45.000",
    "case_close_date": "2024-04-23T10:15:45.000",
    "request_status": "Closed",
    "responsible_agency": "Department of Public Works",
    "final_address": "3325 Belfort St",
    "address_councildis": "A",
    "status": "Resolved",
    "rowid": "1087391",
    "final_x": "3677495.85858",
    "final_y": "542598.154829",
    "longitude": "-90.0803314412444",
    "latitude": "29.986077790385817",
    "geocoded_column": {
      "latitude": "29.986077790385817",
      "longitude": "-90.0803314412444"
    }
  },
  {
    "service_request": "2024-1087390",
    "request_type": "Trash/Recycling",
    "request_reason": "Request a Large Item Pick Up",
    "date_created": "2024-04-23T15:11:51.000",
    "date_modified": "2024-04-23T15:11:52.000",
    "request_status": "Pending",
    "responsible_agency": "Department of Sanitation",
    "final_address": "554 Octavia St",
    "address_councildis": "A",
    "status": "Assigned to Contractor",
    "contractor": "IV Waste",
    "rowid": "1087390",
    "final_x": "3666285.57351",
    "final_y": "518320.833206",
    "longitude": "-90.11655477524326",
    "latitude": "29.919655374478577",
    "geocoded_column": {
      "latitude": "29.919655374478577",
      "longitude": "-90.11655477524326"
    }
  },
  {
    "service_request": "2024-1087389",
    "request_type": "Trash/Recycling",
    "request_reason": "Request a Large Item Pick Up",
    "date_created": "2024-04-23T15:10:19.000",
    "date_modified": "2024-04-23T15:10:20.000",
    "request_status": "Pending",
    "responsible_agency": "Department of Sanitation",
    "final_address": "7701 Swift St",
    "address_councildis": "E",
    "status": "Assigned to Contractor",
    "contractor": "Waste Pro",
    "rowid": "1087389",
    "final_x": "3695422.87581",
    "final_y": "558983.635228",
    "longitude": "-90.02311551044862",
    "latitude": "30.03058055130747",
    "geocoded_column": {
      "latitude": "30.03058055130747",
      "longitude": "-90.02311551044862"
    }
  },
  {
    "service_request": "2024-1087388",
    "request_type": "Roads/Drainage",
    "request_reason": "Pothole",
    "date_created": "2024-04-23T15:10:08.000",
    "date_modified": "2024-04-23T15:10:29.000",
    "case_close_date": "2024-04-23T10:10:29.000",
    "request_status": "Closed",
    "responsible_agency": "Department of Public Works",
    "final_address": "2000 BLK Ursulines Ave",
    "address_councildis": "D",
    "status": "Resolved",
    "rowid": "1087388",
    "final_x": "3679689.6606",
    "final_y": "536564.362354",
    "longitude": "-90.07361160716194",
    "latitude": "29.969420804871362",
    "geocoded_column": {
      "latitude": "29.969420804871362",
      "longitude": "-90.07361160716194"
    }
  },
  {
    "service_request": "2024-1087387",
    "request_type": "Roads/Drainage",
    "request_reason": "Pothole",
    "date_created": "2024-04-23T15:09:24.000",
    "date_modified": "2024-04-23T15:09:24.000",
    "request_status": "Pending",
    "responsible_agency": "Department of Public Works",
    "final_address": "1312 Milan St",
    "address_councildis": "B",
    "status": "Pending",
    "rowid": "1087387",
    "final_x": "3671625.82823",
    "final_y": "520286.919608",
    "longitude": "-90.09963137110304",
    "latitude": "29.92490447494246",
    "geocoded_column": {
      "latitude": "29.92490447494246",
      "longitude": "-90.09963137110304"
    }
  },
  {
    "service_request": "2024-1087386",
    "request_type": "Trash/Recycling",
    "request_reason": "Request a Large Item Pick Up",
    "date_created": "2024-04-23T15:09:10.000",
    "date_modified": "2024-04-23T15:09:10.000",
    "request_status": "Pending",
    "responsible_agency": "Department of Sanitation",
    "final_address": "5542 Chamberlain Dr",
    "address_councildis": "D",
    "status": "Assigned to Contractor",
    "contractor": "IV Waste",
    "rowid": "1087386",
    "final_x": "3679340.07093",
    "final_y": "552890.911127",
    "longitude": "-90.0741490313644",
    "latitude": "30.01432363277341",
    "geocoded_column": {
      "latitude": "30.01432363277341",
      "longitude": "-90.0741490313644"
    }
  },
  {
    "service_request": "2024-1087385",
    "request_type": "Roads/Drainage",
    "request_reason": "Pothole",
    "date_created": "2024-04-23T15:08:06.000",
    "date_modified": "2024-04-23T15:08:32.000",
    "case_close_date": "2024-04-23T10:08:32.000",
    "request_status": "Closed",
    "responsible_agency": "Department of Public Works",
    "final_address": "1900 BLK Ursulines Ave",
    "address_councildis": "D",
    "status": "Resolved",
    "rowid": "1087385",
    "final_x": "3679966.80473",
    "final_y": "536348.518954",
    "longitude": "-90.07274386301141",
    "latitude": "29.968818928775313",
    "geocoded_column": {
      "latitude": "29.968818928775313",
      "longitude": "-90.07274386301141"
    }
  },
  {
    "service_request": "2024-1087384",
    "request_type": "Trash/Recycling",
    "request_reason": "MIssed Recycling Pick-Up",
    "date_created": "2024-04-23T15:07:36.000",
    "date_modified": "2024-04-23T15:07:37.000",
    "request_status": "Pending",
    "responsible_agency": "Department of Sanitation",
    "final_address": "2020 Barracks St",
    "address_councildis": "D",
    "status": "Assigned to Contractor",
    "contractor": "IV Waste",
    "rowid": "1087384",
    "final_x": "3680078.49512",
    "final_y": "537091.329928",
    "longitude": "-90.07236532258773",
    "latitude": "29.970858024687544",
    "geocoded_column": {
      "latitude": "29.970858024687544",
      "longitude": "-90.07236532258773"
    }
  },
  {
    "service_request": "2024-1087383",
    "request_type": "Roads/Drainage",
    "request_reason": "Pothole",
    "date_created": "2024-04-23T15:07:22.000",
    "date_modified": "2024-04-23T15:07:23.000",
    "request_status": "Pending",
    "responsible_agency": "Department of Public Works",
    "final_address": "1900 BLK Ursulines Ave",
    "address_councildis": "D",
    "status": "Pending",
    "rowid": "1087383",
    "final_x": "3679966.80473",
    "final_y": "536348.518954",
    "longitude": "-90.07274386301141",
    "latitude": "29.968818928775313",
    "geocoded_column": {
      "latitude": "29.968818928775313",
      "longitude": "-90.07274386301141"
    }
  },
  {
    "service_request": "2024-1087382",
    "request_type": "Roads/Drainage",
    "request_reason": "Pothole",
    "date_created": "2024-04-23T15:05:55.000",
    "date_modified": "2024-04-23T15:06:24.000",
    "case_close_date": "2024-04-23T10:06:24.000",
    "request_status": "Closed",
    "responsible_agency": "Department of Public Works",
    "final_address": "1800 BLK Ursulines Ave",
    "address_councildis": "D",
    "status": "Resolved",
    "rowid": "1087382",
    "final_x": "3680224.96661",
    "final_y": "536108.616547",
    "longitude": "-90.07193691248102",
    "latitude": "29.96815146748645",
    "geocoded_column": {
      "latitude": "29.96815146748645",
      "longitude": "-90.07193691248102"
    }
  },
  {
    "service_request": "2024-1087381",
    "request_type": "Roads/Drainage",
    "request_reason": "Pothole",
    "date_created": "2024-04-23T15:03:54.000",
    "date_modified": "2024-04-23T15:04:28.000",
    "case_close_date": "2024-04-23T10:04:28.000",
    "request_status": "Closed",
    "responsible_agency": "Department of Public Works",
    "final_address": "JACKSON AVE & S JOHNSON ST",
    "address_councildis": "B",
    "status": "Resolved",
    "rowid": "1087381",
    "final_x": "3673734.5",
    "final_y": "528755.88",
    "longitude": "-90.09268551758272",
    "latitude": "29.948128763077964",
    "geocoded_column": {
      "latitude": "29.948128763077964",
      "longitude": "-90.09268551758272"
    }
  },
  {
    "service_request": "2024-1087380",
    "request_type": "Safety & Permits",
    "request_reason": "Construction permit",
    "date_created": "2024-04-23T15:00:07.000",
    "date_modified": "2024-04-23T15:03:36.000",
    "request_status": "Pending",
    "responsible_agency": "Department of Code Enforcement",
    "final_address": "2100 BLK Filmore Ave",
    "address_councildis": "D",
    "rowid": "1087380",
    "final_x": "3683145.33348",
    "final_y": "552175.900685",
    "longitude": "-90.06215137154345",
    "latitude": "30.012242084585747",
    "geocoded_column": {
      "latitude": "30.012242084585747",
      "longitude": "-90.06215137154345"
    }
  },
  {
    "service_request": "2024-1087379",
    "request_type": "Trash/Recycling",
    "request_reason": "Request a Large Item Pick Up",
    "date_created": "2024-04-23T14:58:07.000",
    "date_modified": "2024-04-23T17:43:02.000",
    "case_close_date": "2024-04-23T12:43:02.000",
    "request_status": "Closed",
    "responsible_agency": "Department of Sanitation",
    "final_address": "302 French St",
    "address_councildis": "A",
    "status": "Assigned to Contractor",
    "contractor": "IV Waste",
    "contractor_action": "Completed",
    "rowid": "1087379",
    "final_x": "3667270.43956",
    "final_y": "548640.016595",
    "longitude": "-90.11242630357232",
    "latitude": "30.00299433344589",
    "geocoded_column": {
      "latitude": "30.00299433344589",
      "longitude": "-90.11242630357232"
    }
  },
  {
    "service_request": "2024-1087378",
    "request_type": "Trash/Recycling",
    "request_reason": "Request a Large Item Pick Up",
    "date_created": "2024-04-23T14:52:41.000",
    "date_modified": "2024-04-23T14:52:41.000",
    "request_status": "Pending",
    "responsible_agency": "Department of Sanitation",
    "final_address": "4846 Warren Dr",
    "address_councildis": "E",
    "status": "Assigned to Contractor",
    "contractor": "Waste Pro",
    "rowid": "1087378",
    "final_x": "3713329.30494",
    "final_y": "556826.516378",
    "longitude": "-89.9666127939708",
    "latitude": "30.02407418122198",
    "geocoded_column": {
      "latitude": "30.02407418122198",
      "longitude": "-89.9666127939708"
    }
  },
  {
    "service_request": "2024-1087376",
    "request_type": "Trash/Recycling",
    "request_reason": "Request a Large Item Pick Up",
    "date_created": "2024-04-23T14:49:30.000",
    "date_modified": "2024-04-23T14:49:30.000",
    "request_status": "Pending",
    "responsible_agency": "Department of Sanitation",
    "final_address": "7123 Salem Dr",
    "address_councildis": "E",
    "status": "Assigned to Contractor",
    "contractor": "Waste Pro",
    "rowid": "1087376",
    "final_x": "3706500.9939",
    "final_y": "561250.703006",
    "longitude": "-89.98802465237715",
    "latitude": "30.036461139156014",
    "geocoded_column": {
      "latitude": "30.036461139156014",
      "longitude": "-89.98802465237715"
    }
  },
  {
    "service_request": "2024-1087375",
    "request_type": "Trash/Recycling",
    "request_reason": "Request a Large Item Pick Up",
    "date_created": "2024-04-23T14:47:28.000",
    "date_modified": "2024-04-23T14:47:29.000",
    "request_status": "Pending",
    "responsible_agency": "Department of Sanitation",
    "final_address": "7531 Willow St",
    "address_councildis": "A",
    "status": "Assigned to Contractor",
    "contractor": "IV Waste",
    "rowid": "1087375",
    "final_x": "3663887.24711",
    "final_y": "527621.261119",
    "longitude": "-90.12381525828374",
    "latitude": "29.94529842240596",
    "geocoded_column": {
      "latitude": "29.94529842240596",
      "longitude": "-90.12381525828374"
    }
  },
  {
    "service_request": "2024-1087374",
    "request_type": "Trash/Recycling",
    "request_reason": "Request a Large Item Pick Up",
    "date_created": "2024-04-23T14:45:01.000",
    "date_modified": "2024-04-23T14:59:09.000",
    "case_close_date": "2024-04-23T09:59:09.000",
    "request_status": "Closed",
    "responsible_agency": "Department of Sanitation",
    "final_address": "6318 Colbert St",
    "address_councildis": "A",
    "status": "Assigned to Contractor",
    "contractor": "IV Waste",
    "contractor_action": "Completed",
    "rowid": "1087374",
    "final_x": "3667521.525",
    "final_y": "549594.214995",
    "longitude": "-90.11160094478313",
    "latitude": "30.00561068902178",
    "geocoded_column": {
      "latitude": "30.00561068902178",
      "longitude": "-90.11160094478313"
    }
  },
  {
    "service_request": "2024-1087373",
    "request_type": "Trash/Recycling",
    "request_reason": "Replace Trash Cart",
    "date_created": "2024-04-23T14:44:02.000",
    "date_modified": "2024-04-23T14:44:03.000",
    "request_status": "Pending",
    "responsible_agency": "Department of Sanitation",
    "final_address": "4600 BLK Saint Charles Ave",
    "address_councildis": "B",
    "status": "Assigned to Contractor",
    "contractor": "IV Waste",
    "rowid": "1087373",
    "final_x": "3669924.68242",
    "final_y": "520729.272962",
    "longitude": "-90.10498637666578",
    "latitude": "29.92617105891771",
    "geocoded_column": {
      "latitude": "29.92617105891771",
      "longitude": "-90.10498637666578"
    }
  },
  {
    "service_request": "2024-1087372",
    "request_type": "Trash/Recycling",
    "request_reason": "Request a Large Item Pick Up",
    "date_created": "2024-04-23T14:39:01.000",
    "date_modified": "2024-04-23T14:39:02.000",
    "request_status": "Pending",
    "responsible_agency": "Department of Sanitation",
    "final_address": "4103 Rayne Dr",
    "address_councildis": "D",
    "status": "Assigned to Contractor",
    "contractor": "IV Waste",
    "rowid": "1087372",
    "final_x": "3680130.20258",
    "final_y": "547406.519185",
    "longitude": "-90.07184337773975",
    "latitude": "29.99921962366907",
    "geocoded_column": {
      "latitude": "29.99921962366907",
      "longitude": "-90.07184337773975"
    }
  },
  {
    "service_request": "2024-1087371",
    "request_type": "Roads/Drainage",
    "request_reason": "Pothole",
    "date_created": "2024-04-23T14:38:35.000",
    "date_modified": "2024-04-23T14:39:06.000",
    "case_close_date": "2024-04-23T09:39:06.000",
    "request_status": "Closed",
    "responsible_agency": "Department of Public Works",
    "final_address": "1000 BLK N Lopez St",
    "address_councildis": "A",
    "status": "Resolved",
    "rowid": "1087371",
    "final_x": "3676066.82565",
    "final_y": "539115.939928",
    "longitude": "-90.08496503142901",
    "latitude": "29.97654579073563",
    "geocoded_column": {
      "latitude": "29.97654579073563",
      "longitude": "-90.08496503142901"
    }
  },
  {
    "service_request": "2024-1087370",
    "request_type": "Roads/Drainage",
    "request_reason": "Pothole",
    "date_created": "2024-04-23T14:36:20.000",
    "date_modified": "2024-04-23T14:36:43.000",
    "case_close_date": "2024-04-23T09:36:43.000",
    "request_status": "Closed",
    "responsible_agency": "Department of Public Works",
    "final_address": "2400 BLK Saint Ann St",
    "address_councildis": "D",
    "status": "Resolved",
    "rowid": "1087370",
    "final_x": "3677872.36928",
    "final_y": "536495.357571",
    "longitude": "-90.07935314677705",
    "latitude": "29.969285875708994",
    "geocoded_column": {
      "latitude": "29.969285875708994",
      "longitude": "-90.07935314677705"
    }
  },
  {
    "service_request": "2024-1087369",
    "request_type": "Parks & Parkways",
    "request_reason": "Request Tree Service (Right of Way/Public Property)",
    "date_created": "2024-04-23T14:34:52.000",
    "date_modified": "2024-04-23T14:34:53.000",
    "request_status": "Pending",
    "responsible_agency": "Department of Parks & Parkway",
    "final_address": "4501 Annette St",
    "address_councildis": "D",
    "status": "Pending",
    "rowid": "1087369",
    "final_x": "3682149.91855",
    "final_y": "549090.205523",
    "longitude": "-90.06540419709086",
    "latitude": "30.00378786333618",
    "geocoded_column": {
      "latitude": "30.00378786333618",
      "longitude": "-90.06540419709086"
    }
  },
  {
    "service_request": "2024-1087368",
    "request_type": "Roads/Drainage",
    "request_reason": "Pothole",
    "date_created": "2024-04-23T14:33:34.000",
    "date_modified": "2024-04-23T14:34:04.000",
    "case_close_date": "2024-04-23T09:34:04.000",
    "request_status": "Closed",
    "responsible_agency": "Department of Public Works",
    "final_address": "900 BLK N Lopez St",
    "address_councildis": "A",
    "status": "Resolved",
    "rowid": "1087368",
    "final_x": "3675827.20376",
    "final_y": "538801.300794",
    "longitude": "-90.08573265125841",
    "latitude": "29.97568781701815",
    "geocoded_column": {
      "latitude": "29.97568781701815",
      "longitude": "-90.08573265125841"
    }
  },
  {
    "service_request": "2024-1087367",
    "request_type": "Roads/Drainage",
    "request_reason": "Pothole",
    "date_created": "2024-04-23T14:32:23.000",
    "date_modified": "2024-04-23T14:32:49.000",
    "case_close_date": "2024-04-23T09:32:49.000",
    "request_status": "Closed",
    "responsible_agency": "Department of Public Works",
    "final_address": "800 BLK N Lopez St",
    "address_councildis": "A",
    "status": "Resolved",
    "rowid": "1087367",
    "final_x": "3675583.3299",
    "final_y": "538480.314559",
    "longitude": "-90.08651390481423",
    "latitude": "29.97481251357737",
    "geocoded_column": {
      "latitude": "29.97481251357737",
      "longitude": "-90.08651390481423"
    }
  },
  {
    "service_request": "2024-1087366",
    "request_type": "Trash/Recycling",
    "request_reason": "Return Trash Cart",
    "date_created": "2024-04-23T14:31:31.000",
    "date_modified": "2024-04-23T14:31:31.000",
    "request_status": "Pending",
    "responsible_agency": "Department of Sanitation",
    "final_address": "4600 BLK Cleveland Ave",
    "address_councildis": "A",
    "status": "Assigned to Contractor",
    "contractor": "IV Waste",
    "rowid": "1087366",
    "final_x": "3669012.23674",
    "final_y": "539397.506294",
    "longitude": "-90.10723613493906",
    "latitude": "29.977529451036247",
    "geocoded_column": {
      "latitude": "29.977529451036247",
      "longitude": "-90.10723613493906"
    }
  },
  {
    "service_request": "2024-1087365",
    "request_type": "Trash/Recycling",
    "request_reason": "Replace Trash Cart",
    "date_created": "2024-04-23T14:29:04.000",
    "date_modified": "2024-04-23T14:29:04.000",
    "request_status": "Pending",
    "responsible_agency": "Department of Sanitation",
    "final_address": "4602 Cleveland Ave",
    "address_councildis": "A",
    "status": "Assigned to Contractor",
    "contractor": "IV Waste",
    "rowid": "1087365",
    "final_x": "3669051.65479",
    "final_y": "539320.102474",
    "longitude": "-90.10711425523216",
    "latitude": "29.977315456813756",
    "geocoded_column": {
      "latitude": "29.977315456813756",
      "longitude": "-90.10711425523216"
    }
  },
  {
    "service_request": "2024-1087364",
    "request_type": "Trash/Recycling",
    "request_reason": "Request a Large Item Pick Up",
    "date_created": "2024-04-23T14:28:54.000",
    "date_modified": "2024-04-23T14:28:55.000",
    "request_status": "Pending",
    "responsible_agency": "Department of Sanitation",
    "final_address": "822 Philip St",
    "address_councildis": "B",
    "status": "Assigned to Contractor",
    "contractor": "IV Waste",
    "rowid": "1087364",
    "final_x": "3679063.61397",
    "final_y": "521101.689977",
    "longitude": "-90.076124498656",
    "latitude": "29.926922535638944",
    "geocoded_column": {
      "latitude": "29.926922535638944",
      "longitude": "-90.076124498656"
    }
  },
  {
    "service_request": "2024-1087363",
    "request_type": "Health Related Request",
    "request_reason": "Request Health Records (Immunization, Lead and Health)",
    "date_created": "2024-04-23T14:27:02.000",
    "date_modified": "2024-04-23T14:27:02.000",
    "request_status": "Pending",
    "responsible_agency": "Health Department",
    "final_address": "7528 W Laverne St",
    "address_councildis": "D",
    "status": "Pending",
    "rowid": "1087363",
    "final_x": "3695144.12438",
    "final_y": "558443.635292",
    "longitude": "-90.02401586409448",
    "latitude": "30.029104518723823",
    "geocoded_column": {
      "latitude": "30.029104518723823",
      "longitude": "-90.02401586409448"
    }
  },
  {
    "service_request": "2024-1087362",
    "request_type": "Trash/Recycling",
    "request_reason": "Request a Large Item Pick Up",
    "date_created": "2024-04-23T14:25:14.000",
    "date_modified": "2024-04-23T14:25:15.000",
    "request_status": "Pending",
    "responsible_agency": "Department of Sanitation",
    "final_address": "4729 Francisco Verrett Dr",
    "address_councildis": "E",
    "status": "Assigned to Contractor",
    "contractor": "Waste Pro",
    "rowid": "1087362",
    "final_x": "3704257.64286",
    "final_y": "555170.051097",
    "longitude": "-89.99533842889987",
    "latitude": "30.01981394119544",
    "geocoded_column": {
      "latitude": "30.01981394119544",
      "longitude": "-89.99533842889987"
    }
  },
  {
    "service_request": "2024-1087361",
    "request_type": "Trash/Recycling",
    "request_reason": "Repair Trash Cart",
    "date_created": "2024-04-23T14:22:30.000",
    "date_modified": "2024-04-23T14:22:30.000",
    "request_status": "Pending",
    "responsible_agency": "Department of Sanitation",
    "final_address": "5424 Pauline Dr",
    "address_councildis": "D",
    "status": "Assigned to Contractor",
    "contractor": "IV Waste",
    "rowid": "1087361",
    "final_x": "3692087.56182",
    "final_y": "554027.76668",
    "longitude": "-90.03383272671753",
    "latitude": "30.017058220520767",
    "geocoded_column": {
      "latitude": "30.017058220520767",
      "longitude": "-90.03383272671753"
    }
  },
  {
    "service_request": "2024-1087360",
    "request_type": "Trash/Recycling",
    "request_reason": "Illegal Dumping",
    "date_created": "2024-04-23T14:20:38.000",
    "date_modified": "2024-04-23T14:20:38.000",
    "request_status": "Pending",
    "responsible_agency": "Department of Sanitation",
    "final_address": "125 N Derbigny St",
    "address_councildis": "B",
    "status": "Pending",
    "rowid": "1087360",
    "final_x": "3678192.51291",
    "final_y": "533304.095428",
    "longitude": "-90.07845248160864",
    "latitude": "29.96050135221552",
    "geocoded_column": {
      "latitude": "29.96050135221552",
      "longitude": "-90.07845248160864"
    }
  },
  {
    "service_request": "2024-1087358",
    "request_type": "Property Maintenance",
    "request_reason": "Property Maintenance",
    "date_created": "2024-04-23T14:18:24.000",
    "date_modified": "2024-04-23T14:54:21.000",
    "case_close_date": "2024-04-23T09:54:21.000",
    "request_status": "Closed",
    "responsible_agency": "Department of Code Enforcement",
    "final_address": "1409 S Saratoga St",
    "address_councildis": "B",
    "status": "Referred to Code Enforcement",
    "rowid": "1087358",
    "final_x": "3677638.55816",
    "final_y": "526785.014398",
    "longitude": "-90.0804268545731",
    "latitude": "29.942592728939537",
    "geocoded_column": {
      "latitude": "29.942592728939537",
      "longitude": "-90.0804268545731"
    }
  },
  {
    "service_request": "2024-1087357",
    "request_type": "Abandoned Vehicles",
    "request_reason": "Vehicle Blocking Your Driveway",
    "date_created": "2024-04-23T14:18:07.000",
    "date_modified": "2024-04-23T14:18:07.000",
    "request_status": "Pending",
    "responsible_agency": "Department of Public Works",
    "final_address": "126 S Olympia St",
    "address_councildis": "A",
    "status": "Pending",
    "rowid": "1087357",
    "final_x": "3669276.30414",
    "final_y": "539381.091914",
    "longitude": "-90.10640267367336",
    "latitude": "29.977476544873365",
    "geocoded_column": {
      "latitude": "29.977476544873365",
      "longitude": "-90.10640267367336"
    }
  },
  {
    "service_request": "2024-1087356",
    "request_type": "Trash/Recycling",
    "request_reason": "Request a Large Item Pick Up",
    "date_created": "2024-04-23T14:15:48.000",
    "date_modified": "2024-04-23T14:15:48.000",
    "request_status": "Pending",
    "responsible_agency": "Department of Sanitation",
    "final_address": "5510 Bentley Dr",
    "address_councildis": "E",
    "status": "Assigned to Contractor",
    "contractor": "Waste Pro",
    "rowid": "1087356",
    "final_x": "3703962.66794",
    "final_y": "556461.620826",
    "longitude": "-89.9962228255209",
    "latitude": "30.023374727481794",
    "geocoded_column": {
      "latitude": "30.023374727481794",
      "longitude": "-89.9962228255209"
    }
  },
  {
    "service_request": "2024-1087355",
    "request_type": "Roads/Drainage",
    "request_reason": "Catch Basin - Clogged",
    "date_created": "2024-04-23T14:14:40.000",
    "date_modified": "2024-04-23T14:14:41.000",
    "request_status": "Pending",
    "responsible_agency": "Department of Public Works",
    "final_address": "4640 S Carrollton Ave",
    "address_councildis": "A",
    "status": "Pending",
    "rowid": "1087355",
    "final_x": "3670862.63694",
    "final_y": "537913.135817",
    "longitude": "-90.10144233464126",
    "latitude": "29.973393360986492",
    "geocoded_column": {
      "latitude": "29.973393360986492",
      "longitude": "-90.10144233464126"
    }
  },
  {
    "service_request": "2024-1087354",
    "request_type": "Trash/Recycling",
    "request_reason": "Order Trash Cart",
    "date_created": "2024-04-23T14:10:02.000",
    "date_modified": "2024-04-23T14:10:03.000",
    "request_status": "Pending",
    "responsible_agency": "Department of Sanitation",
    "final_address": "7750 N Coronet Ct Apt B",
    "address_councildis": "E",
    "status": "Assigned to Contractor",
    "contractor": "Waste Pro",
    "rowid": "1087354",
    "final_x": "3702657.76247",
    "final_y": "557476.823195",
    "longitude": "-90.000308703021",
    "latitude": "30.02620794705358",
    "geocoded_column": {
      "latitude": "30.02620794705358",
      "longitude": "-90.000308703021"
    }
  },
  {
    "service_request": "2024-1087353",
    "request_type": "Trash/Recycling",
    "request_reason": "Repair Trash Cart",
    "date_created": "2024-04-23T14:09:33.000",
    "date_modified": "2024-04-23T14:09:34.000",
    "request_status": "Pending",
    "responsible_agency": "Department of Sanitation",
    "final_address": "7984 Edgelake Ct",
    "address_councildis": "E",
    "status": "Assigned to Contractor",
    "contractor": "Waste Pro",
    "rowid": "1087353",
    "final_x": "3702544.82193",
    "final_y": "562067.837919",
    "longitude": "-90.00049683388623",
    "latitude": "30.038835062966676",
    "geocoded_column": {
      "latitude": "30.038835062966676",
      "longitude": "-90.00049683388623"
    }
  },
  {
    "service_request": "2024-1087351",
    "request_type": "Trash/Recycling",
    "request_reason": "Request a Large Item Pick Up",
    "date_created": "2024-04-23T14:07:07.000",
    "date_modified": "2024-04-23T14:07:07.000",
    "request_status": "Pending",
    "responsible_agency": "Department of Sanitation",
    "final_address": "4759 Painters St",
    "address_councildis": "D",
    "status": "Assigned to Contractor",
    "contractor": "IV Waste",
    "rowid": "1087351",
    "final_x": "3686281.83074",
    "final_y": "550702.131477",
    "longitude": "-90.05229388590628",
    "latitude": "30.008093708480573",
    "geocoded_column": {
      "latitude": "30.008093708480573",
      "longitude": "-90.05229388590628"
    }
  },
  {
    "service_request": "2024-1087350",
    "request_type": "Trash/Recycling",
    "request_reason": "Repair Trash Cart",
    "date_created": "2024-04-23T14:05:40.000",
    "date_modified": "2024-04-23T14:13:22.000",
    "request_status": "Pending",
    "responsible_agency": "Department of Sanitation",
    "final_address": "927 N White St",
    "address_councildis": "A",
    "status": "Assigned to Contractor",
    "contractor": "IV Waste",
    "rowid": "1087350",
    "final_x": "3676775.85563",
    "final_y": "538118.874569",
    "longitude": "-90.08276006476191",
    "latitude": "29.973782943449358",
    "geocoded_column": {
      "latitude": "29.973782943449358",
      "longitude": "-90.08276006476191"
    }
  },
  {
    "service_request": "2024-1087349",
    "request_type": "Trash/Recycling",
    "request_reason": "Request a Large Item Pick Up",
    "date_created": "2024-04-23T14:05:24.000",
    "date_modified": "2024-04-23T14:05:24.000",
    "request_status": "Pending",
    "responsible_agency": "Department of Sanitation",
    "final_address": "80 Yosemite Dr",
    "address_councildis": "C",
    "status": "Assigned to Contractor",
    "contractor": "Richards Disposal",
    "rowid": "1087349",
    "final_x": "3699493.14826",
    "final_y": "516061.934196",
    "longitude": "-90.01181773451229",
    "latitude": "29.912432775643875",
    "geocoded_column": {
      "latitude": "29.912432775643875",
      "longitude": "-90.01181773451229"
    }
  },
  {
    "service_request": "2024-1087348",
    "request_type": "Roads/Drainage",
    "request_reason": "Accessibility Ramps, Curbs and Sidewalk Repair",
    "date_created": "2024-04-23T14:04:53.000",
    "date_modified": "2024-04-23T14:04:54.000",
    "request_status": "Pending",
    "responsible_agency": "Department of Public Works",
    "final_address": "8921 Dixon St",
    "address_councildis": "A",
    "status": "Pending",
    "rowid": "1087348",
    "final_x": "3666218.85825",
    "final_y": "537522.896968",
    "longitude": "-90.11612149477742",
    "latitude": "29.97245679428914",
    "geocoded_column": {
      "latitude": "29.97245679428914",
      "longitude": "-90.11612149477742"
    }
  },
  {
    "service_request": "2024-1087347",
    "request_type": "Trash/Recycling",
    "request_reason": "Request a Large Item Pick Up",
    "date_created": "2024-04-23T14:04:23.000",
    "date_modified": "2024-04-23T14:11:28.000",
    "request_status": "Pending",
    "responsible_agency": "Department of Sanitation",
    "final_address": "3936 Toledano St, New Orleans, Louisiana, 70125",
    "address_councildis": "B",
    "status": "Assigned to Contractor",
    "contractor": "IV Waste",
    "rowid": "1087347",
    "final_x": "3671267.69659",
    "final_y": "529300.959553",
    "longitude": "-90.10045572032408",
    "latitude": "29.949700763539546",
    "geocoded_column": {
      "latitude": "29.949700763539546",
      "longitude": "-90.10045572032408"
    }
  },
  {
    "service_request": "2024-1087346",
    "request_type": "Roads/Drainage",
    "request_reason": "Pothole",
    "date_created": "2024-04-23T13:59:54.000",
    "date_modified": "2024-04-23T14:18:12.000",
    "case_close_date": "2024-04-23T09:18:12.000",
    "request_status": "Closed",
    "responsible_agency": "Department of Public Works",
    "final_address": "2600 BLK Esplanade Ave",
    "address_councildis": "A",
    "status": "Resolved",
    "rowid": "1087346",
    "final_x": "3677935.04862",
    "final_y": "539135.308",
    "longitude": "-90.07906393958703",
    "latitude": "29.97654294783955",
    "geocoded_column": {
      "latitude": "29.97654294783955",
      "longitude": "-90.07906393958703"
    }
  },
  {
    "service_request": "2024-1087345",
    "request_type": "Trash/Recycling",
    "request_reason": "Return Trash Cart",
    "date_created": "2024-04-23T13:58:05.000",
    "date_modified": "2024-04-23T13:58:05.000",
    "request_status": "Pending",
    "responsible_agency": "Department of Sanitation",
    "final_address": "1847 Gentilly Blvd",
    "address_councildis": "A",
    "status": "Assigned to Contractor",
    "contractor": "IV Waste",
    "rowid": "1087345",
    "final_x": "3678727.7252",
    "final_y": "542726.785229",
    "longitude": "-90.07643600038786",
    "latitude": "29.986394381772953",
    "geocoded_column": {
      "latitude": "29.986394381772953",
      "longitude": "-90.07643600038786"
    }
  },
  {
    "service_request": "2024-1087344",
    "request_type": "Property Maintenance",
    "request_reason": "Property Maintenance",
    "date_created": "2024-04-23T13:51:45.000",
    "date_modified": "2024-04-23T14:15:52.000",
    "case_close_date": "2024-04-23T09:15:52.000",
    "request_status": "Closed",
    "responsible_agency": "Department of Code Enforcement",
    "final_address": "6949 Pinebrook Dr",
    "address_councildis": "E",
    "status": "Referred to Code Enforcement",
    "rowid": "1087344",
    "final_x": "3720031.26457",
    "final_y": "569317.818918",
    "longitude": "-89.9449578982205",
    "latitude": "30.058198652019918",
    "geocoded_column": {
      "latitude": "30.058198652019918",
      "longitude": "-89.9449578982205"
    }
  },
  {
    "service_request": "2024-1087343",
    "request_type": "Abandoned Vehicles",
    "request_reason": "Abandoned/Junk Vehicles",
    "date_created": "2024-04-23T13:50:25.000",
    "date_modified": "2024-04-23T13:50:25.000",
    "request_status": "Pending",
    "responsible_agency": "Department of Public Works",
    "final_address": "703 S Solomon St",
    "address_councildis": "A",
    "status": "Pending",
    "rowid": "1087343",
    "final_x": "3669111.56366",
    "final_y": "536841.865544",
    "longitude": "-90.10700881141247",
    "latitude": "29.97049937514244",
    "geocoded_column": {
      "latitude": "29.97049937514244",
      "longitude": "-90.10700881141247"
    }
  },
  {
    "service_request": "2024-1087342",
    "request_type": "Traffic Signals/Signs/Striping/Streetlights",
    "request_reason": "Street Light Knocked Down/Leaning",
    "date_created": "2024-04-23T13:49:56.000",
    "date_modified": "2024-04-23T13:49:56.000",
    "request_status": "Pending",
    "responsible_agency": "Department of Public Works",
    "final_address": "2300 Lark St",
    "address_councildis": "D",
    "status": "Pending",
    "contractor": "Legacy Professional Services",
    "rowid": "1087342",
    "final_x": "3684120.79708",
    "final_y": "557733.026203",
    "longitude": "-90.05887417933425",
    "latitude": "30.02749234463083",
    "geocoded_column": {
      "latitude": "30.02749234463083",
      "longitude": "-90.05887417933425"
    }
  },
  {
    "service_request": "2024-1087341",
    "request_type": "Trash/Recycling",
    "request_reason": "Illegal Dumping",
    "date_created": "2024-04-23T13:49:06.000",
    "date_modified": "2024-04-23T13:49:07.000",
    "request_status": "Pending",
    "responsible_agency": "Department of Sanitation",
    "final_address": "8014 Vanderkloot Ave",
    "address_councildis": "E",
    "status": "Pending",
    "contractor": "Waste Pro",
    "rowid": "1087341",
    "final_x": "3705185.81732",
    "final_y": "564273.703777",
    "longitude": "-89.99206901870423",
    "latitude": "30.04481558849272",
    "geocoded_column": {
      "latitude": "30.04481558849272",
      "longitude": "-89.99206901870423"
    }
  },
  {
    "service_request": "2024-1087340",
    "request_type": "Roads/Drainage",
    "request_reason": "Damaged Sidewalk",
    "date_created": "2024-04-23T13:47:13.000",
    "date_modified": "2024-04-23T13:47:13.000",
    "request_status": "Pending",
    "responsible_agency": "Department of Public Works",
    "final_address": "744 Florida Blvd",
    "address_councildis": "A",
    "status": "Pending",
    "rowid": "1087340",
    "final_x": "3668777.03802",
    "final_y": "545212.592783",
    "longitude": "-90.1077825375656",
    "latitude": "29.993525876893493",
    "geocoded_column": {
      "latitude": "29.993525876893493",
      "longitude": "-90.1077825375656"
    }
  },
  {
    "service_request": "2024-1087339",
    "request_type": "Traffic Signals/Signs/Striping/Streetlights",
    "request_reason": "Street Light Outage/Malfunction",
    "date_created": "2024-04-23T13:44:53.000",
    "date_modified": "2024-04-23T13:44:54.000",
    "request_status": "Pending",
    "responsible_agency": "Department of Public Works",
    "final_address": "2313 Harmony St",
    "address_councildis": "B",
    "status": "Assigned to Contractor",
    "contractor": "Legacy Professional Services",
    "rowid": "1087339",
    "final_x": "3673690.4866",
    "final_y": "524191.109244",
    "longitude": "-90.09298050263509",
    "latitude": "29.93557844859737",
    "geocoded_column": {
      "latitude": "29.93557844859737",
      "longitude": "-90.09298050263509"
    }
  },
  {
    "service_request": "2024-1087338",
    "request_type": "Trash/Recycling",
    "request_reason": "Request a Large Item Pick Up",
    "date_created": "2024-04-23T13:42:56.000",
    "date_modified": "2024-04-23T13:42:57.000",
    "request_status": "Pending",
    "responsible_agency": "Department of Sanitation",
    "final_address": "2310 Leon C Simon Dr",
    "address_councildis": "D",
    "status": "Assigned to Contractor",
    "contractor": "IV Waste",
    "rowid": "1087338",
    "final_x": "3684244.95036",
    "final_y": "556844.975962",
    "longitude": "-90.05851308593039",
    "latitude": "30.025046738066283",
    "geocoded_column": {
      "latitude": "30.025046738066283",
      "longitude": "-90.05851308593039"
    }
  },
  {
    "service_request": "2024-1087337",
    "request_type": "Property Maintenance",
    "request_reason": "Property Maintenance",
    "date_created": "2024-04-23T13:41:28.000",
    "date_modified": "2024-04-23T14:35:38.000",
    "case_close_date": "2024-04-23T09:35:37.000",
    "request_status": "Closed",
    "responsible_agency": "Department of Code Enforcement",
    "final_address": "3717 Cadiz St",
    "address_councildis": "B",
    "status": "Referred to Code Enforcement",
    "rowid": "1087337",
    "final_x": "3669399.51495",
    "final_y": "528235.264256",
    "longitude": "-90.10639047055597",
    "latitude": "29.946825587778118",
    "geocoded_column": {
      "latitude": "29.946825587778118",
      "longitude": "-90.10639047055597"
    }
  },
  {
    "service_request": "2024-1087336",
    "request_type": "Trash/Recycling",
    "request_reason": "MIssed Recycling Pick-Up",
    "date_created": "2024-04-23T13:36:55.000",
    "date_modified": "2024-04-23T13:36:55.000",
    "request_status": "Pending",
    "responsible_agency": "Department of Sanitation",
    "final_address": "7741 Sandpiper Dr",
    "address_councildis": "E",
    "status": "Assigned to Contractor",
    "contractor": "Waste Pro",
    "rowid": "1087336",
    "final_x": "3715660.49164",
    "final_y": "570144.469159",
    "longitude": "-89.95874193787441",
    "latitude": "30.060616490890748",
    "geocoded_column": {
      "latitude": "30.060616490890748",
      "longitude": "-89.95874193787441"
    }
  },