[
  {
    "service_request": "2024-1094370",
    "request_type": "Safety & Permits",
    "request_reason": "Licenses & Permits",
    "date_created": "2024-05-17T23:33:01.000",
    "date_modified": "2024-05-17T23:33:01.000",
    "request_status": "Pending",
    "responsible_agency": "Safety and Permits",
    "final_address": "4523 Magazine St",
    "address_councildis": "B",
    "status": "Pending",
    "rowid": "1094370",
    "final_x": "3670459.91399",
    "final_y": "518764.599223",
    "longitude": "-90.10336337284775",
    "latitude": "29.920753043460966",
    "geocoded_column": {
      "latitude": "29.920753043460966",
      "longitude": "-90.10336337284775"
    }
  },
  {
    "service_request": "2024-1094369",
    "request_type": "Roads/Drainage",
    "request_reason": "Pothole",
    "date_created": "2024-05-17T23:21:20.000",
    "date_modified": "2024-05-17T23:21:20.000",
    "request_status": "Pending",
    "responsible_agency": "Department of Public Works",
    "final_address": "1120 Aline St Apt 1A",
    "address_councildis": "B",
    "status": "Pending",
    "rowid": "1094369",
    "final_x": "3674351.3012",
    "final_y": "519525.785335",
    "longitude": "-90.0910539823041",
    "latitude": "29.92273063089548",
    "geocoded_column": {
      "latitude": "29.92273063089548",
      "longitude": "-90.0910539823041"
    }
  },
  {
    "service_request": "2024-1094368",
    "request_type": "Roads/Drainage",
    "request_reason": "Pothole",
    "date_created": "2024-05-17T23:08:57.000",
    "date_modified": "2024-05-17T23:08:57.000",
    "request_status": "Pending",
    "responsible_agency": "Department of Public Works",
    "final_address": "4216 Chestnut St",
    "address_councildis": "B",
    "status": "Pending",
    "rowid": "1094368",
    "final_x": "3671574.31393",
    "final_y": "519539.203703",
    "longitude": "-90.09981939416457",
    "latitude": "29.922850019854593",
    "geocoded_column": {
      "latitude": "29.922850019854593",
      "longitude": "-90.09981939416457"
    }
  },
  {
    "service_request": "2024-1094367",
    "request_type": "Roads/Drainage",
    "request_reason": "Catch Basin - Clogged",
    "date_created": "2024-05-17T22:13:35.000",
    "date_modified": "2024-05-17T22:13:35.000",
    "request_status": "Pending",
    "responsible_agency": "Department of Public Works",
    "final_address": "977 N Carrollton Ave",
    "address_councildis": "A",
    "status": "Pending",
    "rowid": "1094367",
    "final_x": "3673488.93064",
    "final_y": "541086.234572",
    "longitude": "-90.0930394693642",
    "latitude": "29.98204040144654",
    "geocoded_column": {
      "latitude": "29.98204040144654",
      "longitude": "-90.0930394693642"
    }
  },
  {
    "service_request": "2024-1094366",
    "request_type": "Roads/Drainage",
    "request_reason": "Catch Basin - Clogged",
    "date_created": "2024-05-17T22:09:22.000",
    "date_modified": "2024-05-17T22:09:22.000",
    "request_status": "Pending",
    "responsible_agency": "Department of Public Works",
    "final_address": "977 N Carrollton Ave",
    "address_councildis": "A",
    "status": "Pending",
    "rowid": "1094366",
    "final_x": "3673488.93064",
    "final_y": "541086.234572",
    "longitude": "-90.0930394693642",
    "latitude": "29.98204040144654",
    "geocoded_column": {
      "latitude": "29.98204040144654",
      "longitude": "-90.0930394693642"
    }
  },
  {
    "service_request": "2024-1094365",
    "request_type": "Trash/Recycling",
    "request_reason": "Request a Large Item Pick Up",
    "date_created": "2024-05-17T21:21:23.000",
    "date_modified": "2024-05-17T21:21:24.000",
    "request_status": "Pending",
    "responsible_agency": "Department of Sanitation",
    "final_address": "6528 Marigny St",
    "address_councildis": "D",
    "status": "Assigned to Contractor",
    "contractor": "IV Waste",
    "rowid": "1094365",
    "final_x": "3683576.79759",
    "final_y": "557461.339163",
    "longitude": "-90.06060270750383",
    "latitude": "30.026761931687332",
    "geocoded_column": {
      "latitude": "30.026761931687332",
      "longitude": "-90.06060270750383"
    }
  },
  {
    "service_request": "2024-1094364",
    "request_type": "Trash/Recycling",
    "request_reason": "Replace Trash Cart",
    "date_created": "2024-05-17T21:06:25.000",
    "date_modified": "2024-05-17T21:06:25.000",
    "request_status": "Pending",
    "responsible_agency": "Department of Sanitation",
    "final_address": "4900 Nighthart St",
    "address_councildis": "E",
    "status": "Assigned to Contractor",
    "contractor": "Waste Pro",
    "rowid": "1094364",
    "final_x": "3716018.92114",
    "final_y": "557523.212315",
    "longitude": "-89.95808779190553",
    "latitude": "30.025901333287795",
    "geocoded_column": {
      "latitude": "30.025901333287795",
      "longitude": "-89.95808779190553"
    }
  },
  {
    "service_request": "2024-1094363",
    "request_type": "Trash/Recycling",
    "request_reason": "Replace Trash Cart",
    "date_created": "2024-05-17T21:06:08.000",
    "date_modified": "2024-05-17T21:06:09.000",
    "request_status": "Pending",
    "responsible_agency": "Department of Sanitation",
    "final_address": "4900 Nighthart St",
    "address_councildis": "E",
    "status": "Assigned to Contractor",
    "contractor": "Waste Pro",
    "rowid": "1094363",
    "final_x": "3716018.92114",
    "final_y": "557523.212315",
    "longitude": "-89.95808779190553",
    "latitude": "30.025901333287795",
    "geocoded_column": {
      "latitude": "30.025901333287795",
      "longitude": "-89.95808779190553"
    }
  },
  {
    "service_request": "2024-1094362",
    "request_type": "Trash/Recycling",
    "request_reason": "Replace Trash Cart",
    "date_created": "2024-05-17T21:04:14.000",
    "date_modified": "2024-05-17T21:04:14.000",
    "request_status": "Pending",
    "responsible_agency": "Department of Sanitation",
    "final_address": "4900 Nighthart St",
    "address_councildis": "E",
    "status": "Assigned to Contractor",
    "contractor": "Waste Pro",
    "rowid": "1094362",
    "final_x": "3716018.92114",
    "final_y": "557523.212315",
    "longitude": "-89.95808779190553",
    "latitude": "30.025901333287795",
    "geocoded_column": {
      "latitude": "30.025901333287795",
      "longitude": "-89.95808779190553"
    }
  },
  {
    "service_request": "2024-1094361",
    "request_type": "Trash/Recycling",
    "request_reason": "Request a Large Item Pick Up",
    "date_created": "2024-05-17T20:35:59.000",
    "date_modified": "2024-05-17T20:36:00.000",
    "request_status": "Pending",
    "responsible_agency": "Department of Sanitation",
    "final_address": "2741 Dreux Ave",
    "address_councildis": "D",
    "status": "Assigned to Contractor",
    "contractor": "IV Waste",
    "rowid": "1094361",
    "final_x": "3687669.92598",
    "final_y": "552343.28111",
    "longitude": "-90.04785031334103",
    "latitude": "30.01256352429885",
    "geocoded_column": {
      "latitude": "30.01256352429885",
      "longitude": "-90.04785031334103"
    }
  },
  {
    "service_request": "2024-1094360",
    "request_type": "Trash/Recycling",
    "request_reason": "Request a Large Item Pick Up",
    "date_created": "2024-05-17T20:34:08.000",
    "date_modified": "2024-05-17T20:34:08.000",
    "request_status": "Pending",
    "responsible_agency": "Department of Sanitation",
    "final_address": "1118 Melpomene St",
    "address_councildis": "B",
    "status": "Assigned to Contractor",
    "contractor": "IV Waste",
    "rowid": "1094360",
    "final_x": "3680271.22312",
    "final_y": "524899.19878",
    "longitude": "-90.07218045531863",
    "latitude": "29.937327946345647",
    "geocoded_column": {
      "latitude": "29.937327946345647",
      "longitude": "-90.07218045531863"
    }
  },
  {
    "service_request": "2024-1094358",
    "request_type": "Trash/Recycling",
    "request_reason": "MIssed Recycling Pick-Up",
    "date_created": "2024-05-17T20:33:18.000",
    "date_modified": "2024-05-17T20:33:19.000",
    "request_status": "Pending",
    "responsible_agency": "Department of Sanitation",
    "final_address": "4528 Eastview Dr",
    "address_councildis": "E",
    "status": "Assigned to Contractor",
    "contractor": "Waste Pro",
    "rowid": "1094358",
    "final_x": "3705191.60414",
    "final_y": "553954.52796",
    "longitude": "-89.99243238210092",
    "latitude": "30.016441700656987",
    "geocoded_column": {
      "latitude": "30.016441700656987",
      "longitude": "-89.99243238210092"
    }
  },
  {
    "service_request": "2024-1094357",
    "request_type": "Roads/Drainage",
    "request_reason": "Man hole cover issue",
    "date_created": "2024-05-17T20:32:22.000",
    "date_modified": "2024-05-17T20:32:22.000",
    "request_status": "Pending",
    "responsible_agency": "Department of Public Works",
    "final_address": "801 Olga St",
    "address_councildis": "A",
    "status": "Pending",
    "rowid": "1094357",
    "final_x": "3673266.4402",
    "final_y": "539818.284746",
    "longitude": "-90.09378552534",
    "latitude": "29.978560593231077",
    "geocoded_column": {
      "latitude": "29.978560593231077",
      "longitude": "-90.09378552534"
    }
  },
  {
    "service_request": "2024-1094356",
    "request_type": "Roads/Drainage",
    "request_reason": "Pothole",
    "date_created": "2024-05-17T20:19:30.000",
    "date_modified": "2024-05-17T20:19:30.000",
    "request_status": "Pending",
    "responsible_agency": "Department of Public Works",
    "final_address": "1501 General Taylor St",
    "address_councildis": "B",
    "status": "Pending",
    "rowid": "1094356",
    "final_x": "3672757.23963",
    "final_y": "520814.498105",
    "longitude": "-90.09604188611411",
    "latitude": "29.926321602463354",
    "geocoded_column": {
      "latitude": "29.926321602463354",
      "longitude": "-90.09604188611411"
    }
  },
  {
    "service_request": "2024-1094354",
    "request_type": "Property Maintenance",
    "request_reason": "Property Maintenance",
    "date_created": "2024-05-17T20:04:37.000",
    "date_modified": "2024-05-17T20:04:37.000",
    "request_status": "Pending",
    "responsible_agency": "Department of Code Enforcement",
    "final_address": "6522 Argonne Blvd",
    "address_councildis": "A",
    "status": "Pending",
    "rowid": "1094354",
    "final_x": "3670416.29722",
    "final_y": "550758.710165",
    "longitude": "-90.10241615931696",
    "latitude": "30.008727456737827",
    "geocoded_column": {
      "latitude": "30.008727456737827",
      "longitude": "-90.10241615931696"
    }
  },
  {
    "service_request": "2024-1094353",
    "request_type": "Trash/Recycling",
    "request_reason": "Dead Animal Pick Up",
    "date_created": "2024-05-17T20:03:07.000",
    "date_modified": "2024-05-17T20:03:07.000",
    "request_status": "Pending",
    "responsible_agency": "Department of Sanitation",
    "final_address": "7556 Michigan St",
    "address_councildis": "E",
    "status": "Assigned to Contractor",
    "contractor": "Waste Pro",
    "rowid": "1094353",
    "final_x": "3711927.33278",
    "final_y": "566235.051619",
    "longitude": "-89.97068917439678",
    "latitude": "30.049989798609325",
    "geocoded_column": {
      "latitude": "30.049989798609325",
      "longitude": "-89.97068917439678"
    }
  },
  {
    "service_request": "2024-1094352",
    "request_type": "Trash/Recycling",
    "request_reason": "Missed Trash Pick-Up",
    "date_created": "2024-05-17T19:55:37.000",
    "date_modified": "2024-05-17T19:55:38.000",
    "request_status": "Pending",
    "responsible_agency": "Department of Sanitation",
    "final_address": "10136 Rosewood Pl",
    "address_councildis": "E",
    "status": "Assigned to Contractor",
    "contractor": "Waste Pro",
    "rowid": "1094352",
    "final_x": "3713002.49291",
    "final_y": "557595.788123",
    "longitude": "-89.96761647546153",
    "latitude": "30.02620008874544",
    "geocoded_column": {
      "latitude": "30.02620008874544",
      "longitude": "-89.96761647546153"
    }
  },
  {
    "service_request": "2024-1094351",
    "request_type": "Abandoned Vehicles",
    "request_reason": "Abandoned/Junk Vehicles",
    "date_created": "2024-05-17T19:51:29.000",
    "date_modified": "2024-05-17T19:51:29.000",
    "request_status": "Pending",
    "responsible_agency": "Department of Public Works",
    "final_address": "7000 BLK Edinburgh St",
    "address_councildis": "B",
    "status": "Pending",
    "rowid": "1094351",
    "final_x": "3669081.75005",
    "final_y": "532995.888192",
    "longitude": "-90.10723293465063",
    "latitude": "29.95992509398085",
    "geocoded_column": {
      "latitude": "29.95992509398085",
      "longitude": "-90.10723293465063"
    }
  },
  {
    "service_request": "2024-1094350",
    "request_type": "Roads/Drainage",
    "request_reason": "Pothole",
    "date_created": "2024-05-17T19:46:37.000",
    "date_modified": "2024-05-17T19:46:37.000",
    "request_status": "Pending",
    "responsible_agency": "Department of Public Works",
    "final_address": "1469 Calhoun St",
    "address_councildis": "A",
    "status": "Pending",
    "rowid": "1094350",
    "final_x": "3664517.47636",
    "final_y": "522124.241786",
    "longitude": "-90.1220088932127",
    "latitude": "29.930165062765358",
    "geocoded_column": {
      "latitude": "29.930165062765358",
      "longitude": "-90.1220088932127"
    }
  },
  {
    "service_request": "2024-1094349",
    "request_type": "Trash/Recycling",
    "request_reason": "Order Recycling Cart",
    "date_created": "2024-05-17T19:46:31.000",
    "date_modified": "2024-05-17T19:46:31.000",
    "request_status": "Pending",
    "responsible_agency": "Department of Sanitation",
    "final_address": "709 Constantinople St",
    "address_councildis": "B",
    "status": "Pending",
    "rowid": "1094349",
    "final_x": "3672620.60366",
    "final_y": "518290.658294",
    "longitude": "-90.09655920123843",
    "latitude": "29.91938590599556",
    "geocoded_column": {
      "latitude": "29.91938590599556",
      "longitude": "-90.09655920123843"
    }
  },
  {
    "service_request": "2024-1094348",
    "request_type": "Abandoned Vehicles",
    "request_reason": "Vehicle Blocking Your Driveway",
    "date_created": "2024-05-17T19:46:24.000",
    "date_modified": "2024-05-17T19:46:24.000",
    "request_status": "Pending",
    "responsible_agency": "Department of Public Works",
    "final_address": "1 Edinburgh St. ",
    "address_councildis": "B",
    "status": "Pending",
    "rowid": "1094348",
    "final_x": "3668958.63297",
    "final_y": "533137.142404",
    "longitude": "-90.10761694105948",
    "latitude": "29.960317118228723",
    "geocoded_column": {
      "latitude": "29.960317118228723",
      "longitude": "-90.10761694105948"
    }
  },
  {
    "service_request": "2024-1094347",
    "request_type": "Roads/Drainage",
    "request_reason": "Pothole",
    "date_created": "2024-05-17T19:34:28.000",
    "date_modified": "2024-05-17T19:34:28.000",
    "request_status": "Pending",
    "responsible_agency": "Department of Public Works",
    "final_address": "6218 Camp St",
    "address_councildis": "A",
    "status": "Pending",
    "rowid": "1094347",
    "final_x": "3663735.52493",
    "final_y": "519935.705976",
    "longitude": "-90.12455028280617",
    "latitude": "29.924169983324653",
    "geocoded_column": {
      "latitude": "29.924169983324653",
      "longitude": "-90.12455028280617"
    }
  },
  {
    "service_request": "2024-1094346",
    "request_type": "Roads/Drainage",
    "request_reason": "Pothole",
    "date_created": "2024-05-17T19:32:23.000",
    "date_modified": "2024-05-17T19:32:23.000",
    "request_status": "Pending",
    "responsible_agency": "Department of Public Works",
    "final_address": "6003 Chestnut St",
    "address_councildis": "A",
    "status": "Pending",
    "rowid": "1094346",
    "final_x": "3664843.83136",
    "final_y": "519920.84268",
    "longitude": "-90.12105222985214",
    "latitude": "29.924096918512866",
    "geocoded_column": {
      "latitude": "29.924096918512866",
      "longitude": "-90.12105222985214"
    }
  },
  {
    "service_request": "2024-1094344",
    "request_type": "Trash/Recycling",
    "request_reason": "Illegal Dumping",
    "date_created": "2024-05-17T19:22:21.000",
    "date_modified": "2024-05-17T19:22:21.000",
    "request_status": "Pending",
    "responsible_agency": "Department of Sanitation",
    "final_address": "8601 Zimple St",
    "address_councildis": "A",
    "status": "Pending",
    "rowid": "1094344",
    "final_x": "3660392.59981",
    "final_y": "529379.898881",
    "longitude": "-90.13479095012634",
    "latitude": "29.950235084027565",
    "geocoded_column": {
      "latitude": "29.950235084027565",
      "longitude": "-90.13479095012634"
    }
  },
  {
    "service_request": "2024-1094342",
    "request_type": "Trash/Recycling",
    "request_reason": "Request a Large Item Pick Up",
    "date_created": "2024-05-17T19:06:26.000",
    "date_modified": "2024-05-17T19:06:27.000",
    "request_status": "Pending",
    "responsible_agency": "Department of Sanitation",
    "final_address": "7910 Read Blvd",
    "address_councildis": "E",
    "status": "Assigned to Contractor",
    "contractor": "Waste Pro",
    "rowid": "1094342",
    "final_x": "3707968.809",
    "final_y": "565353.24797",
    "longitude": "-89.98323333968693",
    "latitude": "30.047694036821962",
    "geocoded_column": {
      "latitude": "30.047694036821962",
      "longitude": "-89.98323333968693"
    }
  },
  {
    "service_request": "2024-1094341",
    "request_type": "Abandoned Vehicles",
    "request_reason": "Abandoned/Junk Vehicles",
    "date_created": "2024-05-17T19:04:10.000",
    "date_modified": "2024-05-17T19:04:10.000",
    "request_status": "Pending",
    "responsible_agency": "Department of Public Works",
    "final_address": "300 BLK N dOrgenois St",
    "address_councildis": "B",
    "status": "Pending",
    "rowid": "1094341",
    "final_x": "3676385.19969",
    "final_y": "535553.722315",
    "longitude": "-90.08408216716967",
    "latitude": "29.96674136612868",
    "geocoded_column": {
      "latitude": "29.96674136612868",
      "longitude": "-90.08408216716967"
    }
  },
  {
    "service_request": "2024-1094340",
    "request_type": "Abandoned Vehicles",
    "request_reason": "Abandoned/Junk Vehicles",
    "date_created": "2024-05-17T19:02:46.000",
    "date_modified": "2024-05-17T19:02:46.000",
    "request_status": "Pending",
    "responsible_agency": "Department of Public Works",
    "final_address": "300 BLK N dOrgenois St",
    "address_councildis": "B",
    "status": "Pending",
    "rowid": "1094340",
    "final_x": "3676385.19969",
    "final_y": "535553.722315",
    "longitude": "-90.08408216716967",
    "latitude": "29.96674136612868",
    "geocoded_column": {
      "latitude": "29.96674136612868",
      "longitude": "-90.08408216716967"
    }
  },
  {
    "service_request": "2024-1094339",
    "request_type": "Roads/Drainage",
    "request_reason": "Pothole",
    "date_created": "2024-05-17T19:02:30.000",
    "date_modified": "2024-05-17T19:02:30.000",
    "request_status": "Pending",
    "responsible_agency": "Department of Public Works",
    "final_address": "4213 Perrier St",
    "address_councildis": "B",
    "status": "Pending",
    "rowid": "1094339",
    "final_x": "3671535.69063",
    "final_y": "520157.127352",
    "longitude": "-90.09992031686575",
    "latitude": "29.92455025593362",
    "geocoded_column": {
      "latitude": "29.92455025593362",
      "longitude": "-90.09992031686575"
    }
  },
  {
    "service_request": "2024-1094338",
    "request_type": "Utility Poles",
    "request_reason": "Utility Pole Leaning",
    "date_created": "2024-05-17T19:01:32.000",
    "date_modified": "2024-05-17T19:01:51.000",
    "request_status": "Pending",
    "responsible_agency": "Utility Company Collective",
    "final_address": "1600 Numa St",
    "address_councildis": "C",
    "status": "Pending",
    "rowid": "1094338",
    "final_x": "3691793.46262",
    "final_y": "525451.958077",
    "longitude": "-90.0357843731309",
    "latitude": "29.938494109817714",
    "geocoded_column": {
      "latitude": "29.938494109817714",
      "longitude": "-90.0357843731309"
    }
  },
  {
    "service_request": "2024-1094337",
    "request_type": "Abandoned Vehicles",
    "request_reason": "Abandoned/Junk Vehicles",
    "date_created": "2024-05-17T19:01:11.000",
    "date_modified": "2024-05-17T19:01:11.000",
    "request_status": "Pending",
    "responsible_agency": "Department of Public Works",
    "final_address": "2500 BLK Conti St",
    "address_councildis": "B",
    "status": "Pending",
    "rowid": "1094337",
    "final_x": "3676669.62989",
    "final_y": "535568.438821",
    "longitude": "-90.0831834300607",
    "latitude": "29.966773301775145",
    "geocoded_column": {
      "latitude": "29.966773301775145",
      "longitude": "-90.0831834300607"
    }
  },
  {
    "service_request": "2024-1094336",
    "request_type": "Trash/Recycling",
    "request_reason": "Request a Large Item Pick Up",
    "date_created": "2024-05-17T19:00:01.000",
    "date_modified": "2024-05-17T19:00:02.000",
    "request_status": "Pending",
    "responsible_agency": "Department of Sanitation",
    "final_address": "1600 Numa St",
    "address_councildis": "C",
    "status": "Assigned to Contractor",
    "contractor": "Richards Disposal",
    "rowid": "1094336",
    "final_x": "3691793.46262",
    "final_y": "525451.958077",
    "longitude": "-90.0357843731309",
    "latitude": "29.938494109817714",
    "geocoded_column": {
      "latitude": "29.938494109817714",
      "longitude": "-90.0357843731309"
    }
  },
  {
    "service_request": "2024-1094335",
    "request_type": "Trash/Recycling",
    "request_reason": "Request a Large Item Pick Up",
    "date_created": "2024-05-17T18:59:06.000",
    "date_modified": "2024-05-17T18:59:06.000",
    "request_status": "Pending",
    "responsible_agency": "Department of Sanitation",
    "final_address": "4524 Annette St",
    "address_councildis": "D",
    "status": "Assigned to Contractor",
    "contractor": "IV Waste",
    "rowid": "1094335",
    "final_x": "3682049.96431",
    "final_y": "549301.714323",
    "longitude": "-90.0657125770461",
    "latitude": "30.004372477416094",
    "geocoded_column": {
      "latitude": "30.004372477416094",
      "longitude": "-90.0657125770461"
    }
  },
  {
    "service_request": "2024-1094334",
    "request_type": "Trash/Recycling",
    "request_reason": "Replace Trash Cart",
    "date_created": "2024-05-17T18:57:43.000",
    "date_modified": "2024-05-17T18:57:43.000",
    "request_status": "Pending",
    "responsible_agency": "Department of Sanitation",
    "final_address": "7816 Hickory St",
    "address_councildis": "A",
    "status": "Assigned to Contractor",
    "contractor": "IV Waste",
    "rowid": "1094334",
    "final_x": "3664071.58605",
    "final_y": "529249.327041",
    "longitude": "-90.12317895069712",
    "latitude": "29.949769728108325",
    "geocoded_column": {
      "latitude": "29.949769728108325",
      "longitude": "-90.12317895069712"
    }
  },
  {
    "service_request": "2024-1094333",
    "request_type": "Trash/Recycling",
    "request_reason": "Missed Trash Pick-Up",
    "date_created": "2024-05-17T18:55:37.000",
    "date_modified": "2024-05-17T19:40:46.000",
    "case_close_date": "2024-05-17T14:40:46.000",
    "request_status": "Closed",
    "responsible_agency": "Department of Sanitation",
    "final_address": "2702 Chippewa St, New Orleans, Louisiana, 70130",
    "address_councildis": "B",
    "status": "Invalid Request",
    "contractor": "IV Waste",
    "contractor_action": "Invalid",
    "rowid": "1094333",
    "final_x": "3678119.8084",
    "final_y": "519691.343352",
    "longitude": "-90.07915257515744",
    "latitude": "29.92307298090807",
    "geocoded_column": {
      "latitude": "29.92307298090807",
      "longitude": "-90.07915257515744"
    }
  },
  {
    "service_request": "2024-1094332",
    "request_type": "Trash/Recycling",
    "request_reason": "Request a Large Item Pick Up",
    "date_created": "2024-05-17T18:55:07.000",
    "date_modified": "2024-05-17T18:55:08.000",
    "request_status": "Pending",
    "responsible_agency": "Department of Sanitation",
    "final_address": "7818 Hickory St",
    "address_councildis": "A",
    "status": "Assigned to Contractor",
    "contractor": "IV Waste",
    "rowid": "1094332",
    "final_x": "3664063.68295",
    "final_y": "529255.792321",
    "longitude": "-90.12320368892902",
    "latitude": "29.949787735046293",
    "geocoded_column": {
      "latitude": "29.949787735046293",
      "longitude": "-90.12320368892902"
    }
  },
  {
    "service_request": "2024-1094331",
    "request_type": "Safety & Permits",
    "request_reason": "Licenses & Permits",
    "date_created": "2024-05-17T18:52:54.000",
    "date_modified": "2024-05-17T18:52:54.000",
    "request_status": "Pending",
    "responsible_agency": "Safety and Permits",
    "final_address": "1133 Touro St",
    "address_councildis": "C",
    "status": "Pending",
    "rowid": "1094331",
    "final_x": "3684238.97109",
    "final_y": "536514.049607",
    "longitude": "-90.05924630683607",
    "latitude": "29.969144155301134",
    "geocoded_column": {
      "latitude": "29.969144155301134",
      "longitude": "-90.05924630683607"
    }
  },
  {
    "service_request": "2024-1094330",
    "request_type": "Trash/Recycling",
    "request_reason": "Request a Large Item Pick Up",
    "date_created": "2024-05-17T18:52:53.000",
    "date_modified": "2024-05-17T18:52:53.000",
    "request_status": "Pending",
    "responsible_agency": "Department of Sanitation",
    "final_address": "2826 Baronne St",
    "address_councildis": "B",
    "status": "Assigned to Contractor",
    "contractor": "IV Waste",
    "rowid": "1094330",
    "final_x": "3675337.64411",
    "final_y": "522991.933883",
    "longitude": "-90.0878215553151",
    "latitude": "29.93223197717614",
    "geocoded_column": {
      "latitude": "29.93223197717614",
      "longitude": "-90.0878215553151"
    }
  },
  {
    "service_request": "2024-1094329",
    "request_type": "Trash/Recycling",
    "request_reason": "Request a Large Item Pick Up",
    "date_created": "2024-05-17T18:50:58.000",
    "date_modified": "2024-05-17T18:50:58.000",
    "request_status": "Pending",
    "responsible_agency": "Department of Sanitation",
    "final_address": "925 N Dupre St",
    "address_councildis": "A",
    "status": "Assigned to Contractor",
    "contractor": "IV Waste",
    "rowid": "1094329",
    "final_x": "3676540.56302",
    "final_y": "538262.853513",
    "longitude": "-90.08349821099995",
    "latitude": "29.974185895269123",
    "geocoded_column": {
      "latitude": "29.974185895269123",
      "longitude": "-90.08349821099995"
    }
  },
  {
    "service_request": "2024-1094328",
    "request_type": "Trash/Recycling",
    "request_reason": "Request a Large Item Pick Up",
    "date_created": "2024-05-17T18:50:52.000",
    "date_modified": "2024-05-17T18:50:53.000",
    "request_status": "Pending",
    "responsible_agency": "Department of Sanitation",
    "final_address": "2840 Baronne St",
    "address_councildis": "B",
    "status": "Assigned to Contractor",
    "contractor": "IV Waste",
    "rowid": "1094328",
    "final_x": "3675249.32085",
    "final_y": "522933.719163",
    "longitude": "-90.0881023808918",
    "latitude": "29.93207454518384",
    "geocoded_column": {
      "latitude": "29.93207454518384",
      "longitude": "-90.0881023808918"
    }
  },
  {
    "service_request": "2024-1094327",
    "request_type": "Property Maintenance",
    "request_reason": "Property Maintenance",
    "date_created": "2024-05-17T18:43:38.000",
    "date_modified": "2024-05-17T18:43:38.000",
    "request_status": "Pending",
    "responsible_agency": "Department of Code Enforcement",
    "final_address": "1027 N Rocheblave St",
    "address_councildis": "D",
    "status": "Pending",
    "rowid": "1094327",
    "final_x": "3678301.94581",
    "final_y": "537412.715336",
    "longitude": "-90.07796477083768",
    "latitude": "29.97179536194093",
    "geocoded_column": {
      "latitude": "29.97179536194093",
      "longitude": "-90.07796477083768"
    }
  },
  {
    "service_request": "2024-1094326",
    "request_type": "Trash/Recycling",
    "request_reason": "Illegal Dumping",
    "date_created": "2024-05-17T18:41:25.000",
    "date_modified": "2024-05-17T18:41:25.000",
    "request_status": "Pending",
    "responsible_agency": "Department of Sanitation",
    "final_address": "2525 Lafitte Ave",
    "address_councildis": "D",
    "status": "Pending",
    "rowid": "1094326",
    "final_x": "3677271.818",
    "final_y": "536348.462279",
    "longitude": "-90.08125480383222",
    "latitude": "29.968900021604636",
    "geocoded_column": {
      "latitude": "29.968900021604636",
      "longitude": "-90.08125480383222"
    }
  },
  {
    "service_request": "2024-1094325",
    "request_type": "Trash/Recycling",
    "request_reason": "Missed Trash Pick-Up",
    "date_created": "2024-05-17T18:11:26.000",
    "date_modified": "2024-05-17T18:11:26.000",
    "request_status": "Pending",
    "responsible_agency": "Department of Sanitation",
    "final_address": "2822 Jefferson Ave",
    "address_councildis": "A",
    "status": "Assigned to Contractor",
    "contractor": "IV Waste",
    "rowid": "1094325",
    "final_x": "3668212.37338",
    "final_y": "525843.847869",
    "longitude": "-90.11021932065239",
    "latitude": "29.940284866176665",
    "geocoded_column": {
      "latitude": "29.940284866176665",
      "longitude": "-90.11021932065239"
    }
  },
  {
    "service_request": "2024-1094324",
    "request_type": "Trash/Recycling",
    "request_reason": "Request a Large Item Pick Up",
    "date_created": "2024-05-17T18:11:02.000",
    "date_modified": "2024-05-17T18:11:03.000",
    "request_status": "Pending",
    "responsible_agency": "Department of Sanitation",
    "final_address": "7600 Hansbrough Ave",
    "address_councildis": "E",
    "status": "Assigned to Contractor",
    "contractor": "Waste Pro",
    "rowid": "1094324",
    "final_x": "3707645.44203",
    "final_y": "564377.540257",
    "longitude": "-89.9842916576798",
    "latitude": "30.045021703279385",
    "geocoded_column": {
      "latitude": "30.045021703279385",
      "longitude": "-89.9842916576798"
    }
  },
  {
    "service_request": "2024-1094323",
    "request_type": "Trash/Recycling",
    "request_reason": "Request a Large Item Pick Up",
    "date_created": "2024-05-17T17:56:33.000",
    "date_modified": "2024-05-17T17:56:33.000",
    "request_status": "Pending",
    "responsible_agency": "Department of Sanitation",
    "final_address": "2427 St Bernard Ave",
    "address_councildis": "D",
    "status": "Assigned to Contractor",
    "contractor": "IV Waste",
    "rowid": "1094323",
    "final_x": "3680626.33391",
    "final_y": "541003.588939",
    "longitude": "-90.07049901009209",
    "latitude": "29.981598792884803",
    "geocoded_column": {
      "latitude": "29.981598792884803",
      "longitude": "-90.07049901009209"
    }
  },
  {
    "service_request": "2024-1094322",
    "request_type": "Trash/Recycling",
    "request_reason": "Request a Large Item Pick Up",
    "date_created": "2024-05-17T17:53:55.000",
    "date_modified": "2024-05-17T17:53:55.000",
    "request_status": "Pending",
    "responsible_agency": "Department of Sanitation",
    "final_address": "4504 S Johnson St",
    "address_councildis": "B",
    "status": "Assigned to Contractor",
    "contractor": "IV Waste",
    "rowid": "1094322",
    "final_x": "3669772.09025",
    "final_y": "527124.423231",
    "longitude": "-90.10525170148854",
    "latitude": "29.943760161632966",
    "geocoded_column": {
      "latitude": "29.943760161632966",
      "longitude": "-90.10525170148854"
    }
  },
  {
    "service_request": "2024-1094320",
    "request_type": "Trash/Recycling",
    "request_reason": "Repair Trash Cart",
    "date_created": "2024-05-17T17:40:27.000",
    "date_modified": "2024-05-17T17:40:28.000",
    "request_status": "Pending",
    "responsible_agency": "Department of Sanitation",
    "final_address": "1135 Philip St",
    "address_councildis": "B",
    "status": "Assigned to Contractor",
    "contractor": "IV Waste",
    "rowid": "1094320",
    "final_x": "3678404.33051",
    "final_y": "522111.522682",
    "longitude": "-90.0781707638938",
    "latitude": "29.92971911958499",
    "geocoded_column": {
      "latitude": "29.92971911958499",
      "longitude": "-90.0781707638938"
    }
  },
  {
    "service_request": "2024-1094319",
    "request_type": "Abandoned Vehicles",
    "request_reason": "Abandoned/Junk Vehicles",
    "date_created": "2024-05-17T17:32:16.000",
    "date_modified": "2024-05-17T17:32:16.000",
    "request_status": "Pending",
    "responsible_agency": "Department of Public Works",
    "final_address": "327 Delaronde St",
    "address_councildis": "C",
    "status": "Pending",
    "rowid": "1094319",
    "final_x": "3686476.87382",
    "final_y": "530891.825794",
    "longitude": "-90.05237735542117",
    "latitude": "29.95361637093395",
    "geocoded_column": {
      "latitude": "29.95361637093395",
      "longitude": "-90.05237735542117"
    }
  },
  {
    "service_request": "2024-1094318",
    "request_type": "Trash/Recycling",
    "request_reason": "Missed Trash Pick-Up",
    "date_created": "2024-05-17T17:31:54.000",
    "date_modified": "2024-05-17T17:31:55.000",
    "request_status": "Pending",
    "responsible_agency": "Department of Sanitation",
    "final_address": "6318 S Rocheblave St",
    "address_councildis": "A",
    "status": "Assigned to Contractor",
    "contractor": "IV Waste",
    "rowid": "1094318",
    "final_x": "3667244.31181",
    "final_y": "528735.12736",
    "longitude": "-90.11317845293115",
    "latitude": "29.94826332864773",
    "geocoded_column": {
      "latitude": "29.94826332864773",
      "longitude": "-90.11317845293115"
    }
  },
  {
    "service_request": "2024-1094316",
    "request_type": "Property Maintenance",
    "request_reason": "Property Maintenance",
    "date_created": "2024-05-17T17:22:13.000",
    "date_modified": "2024-05-17T17:22:13.000",
    "request_status": "Pending",
    "responsible_agency": "Department of Code Enforcement",
    "final_address": "3705 Chestnut St",
    "address_councildis": "B",
    "status": "Pending",
    "rowid": "1094316",
    "final_x": "3673405.40961",
    "final_y": "519895.002744",
    "longitude": "-90.09402718681486",
    "latitude": "29.923774024544958",
    "geocoded_column": {
      "latitude": "29.923774024544958",
      "longitude": "-90.09402718681486"
    }
  },
  {
    "service_request": "2024-1094315",
    "request_type": "Trash/Recycling",
    "request_reason": "Request a Large Item Pick Up",
    "date_created": "2024-05-17T17:13:37.000",
    "date_modified": "2024-05-17T17:13:37.000",
    "request_status": "Pending",
    "responsible_agency": "Department of Sanitation",
    "final_address": "5852 Oxford Pl",
    "address_councildis": "C",
    "status": "Assigned to Contractor",
    "contractor": "Richards Disposal",
    "rowid": "1094315",
    "final_x": "3705244.73899",
    "final_y": "519824.396728",
    "longitude": "-89.99352540736913",
    "latitude": "29.922594598020726",
    "geocoded_column": {
      "latitude": "29.922594598020726",
      "longitude": "-89.99352540736913"
    }
  },
  {
    "service_request": "2024-1094314",
    "request_type": "Trash/Recycling",
    "request_reason": "Request a Large Item Pick Up",
    "date_created": "2024-05-17T17:12:59.000",
    "date_modified": "2024-05-17T17:13:00.000",
    "request_status": "Pending",
    "responsible_agency": "Department of Sanitation",
    "final_address": "131 N Rendon St",
    "address_councildis": "B",
    "status": "Assigned to Contractor",
    "contractor": "IV Waste",
    "rowid": "1094314",
    "final_x": "3673699.21851",
    "final_y": "536747.590408",
    "longitude": "-90.0925236712219",
    "latitude": "29.970104347596102",
    "geocoded_column": {
      "latitude": "29.970104347596102",
      "longitude": "-90.0925236712219"
    }
  },
  {
    "service_request": "2024-1094312",
    "request_type": "Trash/Recycling",
    "request_reason": "Order Recycling Cart",
    "date_created": "2024-05-17T17:10:07.000",
    "date_modified": "2024-05-17T17:10:07.000",
    "request_status": "Pending",
    "responsible_agency": "Department of Sanitation",
    "final_address": "2852 Allen St",
    "address_councildis": "D",
    "status": "Pending",
    "rowid": "1094312",
    "final_x": "3682190.56264",
    "final_y": "542865.023629",
    "longitude": "-90.06549339873854",
    "latitude": "29.986669589858664",
    "geocoded_column": {
      "latitude": "29.986669589858664",
      "longitude": "-90.06549339873854"
    }
  },
  {
    "service_request": "2024-1094310",
    "request_type": "Trash/Recycling",
    "request_reason": "Missed Trash Pick-Up",
    "date_created": "2024-05-17T17:07:59.000",
    "date_modified": "2024-05-17T19:41:17.000",
    "case_close_date": "2024-05-17T14:41:17.000",
    "request_status": "Closed",
    "responsible_agency": "Department of Sanitation",
    "final_address": "2705 Chippewa St, New Orleans, Louisiana, 70130",
    "address_councildis": "B",
    "status": "Invalid Request",
    "contractor": "IV Waste",
    "contractor_action": "Invalid",
    "rowid": "1094310",
    "final_x": "3678061.35995",
    "final_y": "519742.623224",
    "longitude": "-90.07933530293677",
    "latitude": "29.92321574289792",
    "geocoded_column": {
      "latitude": "29.92321574289792",
      "longitude": "-90.07933530293677"
    }
  },
  {
    "service_request": "2024-1094309",
    "request_type": "Trash/Recycling",
    "request_reason": "Dead Animal Pick Up",
    "date_created": "2024-05-17T17:02:48.000",
    "date_modified": "2024-05-17T17:02:49.000",
    "request_status": "Pending",
    "responsible_agency": "Department of Sanitation",
    "final_address": "7556 Michigan St",
    "address_councildis": "E",
    "status": "Assigned to Contractor",
    "contractor": "Waste Pro",
    "rowid": "1094309",
    "final_x": "3711927.33278",
    "final_y": "566235.051619",
    "longitude": "-89.97068917439678",
    "latitude": "30.049989798609325",
    "geocoded_column": {
      "latitude": "30.049989798609325",
      "longitude": "-89.97068917439678"
    }
  },
  {
    "service_request": "2024-1094308",
    "request_type": "Traffic Signals/Signs/Striping/Streetlights",
    "request_reason": "Street Light Outage/Malfunction",
    "date_created": "2024-05-17T17:00:16.000",
    "date_modified": "2024-05-17T17:00:17.000",
    "request_status": "Pending",
    "responsible_agency": "Department of Public Works",
    "final_address": "8542 Hayne Blvd",
    "address_councildis": "E",
    "status": "Assigned to Contractor",
    "contractor": "Legacy Professional Services",
    "rowid": "1094308",
    "final_x": "3703476.05079",
    "final_y": "563572.543584",
    "longitude": "-89.99749847551777",
    "latitude": "30.04294259418439",
    "geocoded_column": {
      "latitude": "30.04294259418439",
      "longitude": "-89.99749847551777"
    }
  },
  {
    "service_request": "2024-1094307",
    "request_type": "Trash/Recycling",
    "request_reason": "Missed Trash Pick-Up",
    "date_created": "2024-05-17T16:58:55.000",
    "date_modified": "2024-05-17T16:58:56.000",
    "request_status": "Pending",
    "responsible_agency": "Department of Sanitation",
    "final_address": "2531 Marengo St",
    "address_councildis": "B",
    "status": "Assigned to Contractor",
    "contractor": "IV Waste",
    "rowid": "1094307",
    "final_x": "3671667.29774",
    "final_y": "524403.978812",
    "longitude": "-90.09936050695394",
    "latitude": "29.93622383564364",
    "geocoded_column": {
      "latitude": "29.93622383564364",
      "longitude": "-90.09936050695394"
    }
  },
  {
    "service_request": "2024-1094306",
    "request_type": "Traffic Signals/Signs/Striping/Streetlights",
    "request_reason": "Traffic Signal Malfunctioning/Damaged",
    "date_created": "2024-05-17T16:55:35.000",
    "date_modified": "2024-05-17T16:55:35.000",
    "request_status": "Pending",
    "responsible_agency": "Department of Public Works",
    "final_address": "READ BLVD & I 10 W SERVICE RD",
    "address_councildis": "E",
    "status": "Pending",
    "rowid": "1094306",
    "final_x": "3709952.5",
    "final_y": "561922.68",
    "longitude": "-89.97709216002539",
    "latitude": "30.03819693266245",
    "geocoded_column": {
      "latitude": "30.03819693266245",
      "longitude": "-89.97709216002539"
    }
  },
  {
    "service_request": "2024-1094305",
    "request_type": "Roads/Drainage",
    "request_reason": "Damaged Sidewalk",
    "date_created": "2024-05-17T16:54:52.000",
    "date_modified": "2024-05-17T16:54:52.000",
    "request_status": "Pending",
    "responsible_agency": "Department of Public Works",
    "final_address": "5200 BLK Danneel St",
    "address_councildis": "B",
    "status": "Pending",
    "rowid": "1094305",
    "final_x": "3668060.05328",
    "final_y": "522163.577836",
    "longitude": "-90.11082418753892",
    "latitude": "29.93016977275902",
    "geocoded_column": {
      "latitude": "29.93016977275902",
      "longitude": "-90.11082418753892"
    }
  },
  {
    "service_request": "2024-1094304",
    "request_type": "Trash/Recycling",
    "request_reason": "Replace Trash Cart",
    "date_created": "2024-05-17T16:53:39.000",
    "date_modified": "2024-05-17T16:53:40.000",
    "request_status": "Pending",
    "responsible_agency": "Department of Sanitation",
    "final_address": "7640 Symmes Ave",
    "address_councildis": "E",
    "status": "Assigned to Contractor",
    "contractor": "Waste Pro",
    "rowid": "1094304",
    "final_x": "3707737.24414",
    "final_y": "564725.901666",
    "longitude": "-89.98398855676929",
    "latitude": "30.045976585750804",
    "geocoded_column": {
      "latitude": "30.045976585750804",
      "longitude": "-89.98398855676929"
    }
  },
  {
    "service_request": "2024-1094303",
    "request_type": "Traffic Signals/Signs/Striping/Streetlights",
    "request_reason": "Traffic Signal Malfunctioning/Damaged",
    "date_created": "2024-05-17T16:49:58.000",
    "date_modified": "2024-05-17T16:49:59.000",
    "request_status": "Pending",
    "responsible_agency": "Department of Public Works",
    "final_address": "I 10 E SERVICE RD & READ BLVD",
    "address_councildis": "E",
    "status": "Pending",
    "rowid": "1094303",
    "final_x": "3710488.9",
    "final_y": "561072.98",
    "longitude": "-89.97542883620564",
    "latitude": "30.035843128001222",
    "geocoded_column": {
      "latitude": "30.035843128001222",
      "longitude": "-89.97542883620564"
    }
  },
  {
    "service_request": "2024-1094302",
    "request_type": "Trash/Recycling",
    "request_reason": "Order Trash Cart",
    "date_created": "2024-05-17T16:49:19.000",
    "date_modified": "2024-05-17T16:49:20.000",
    "request_status": "Pending",
    "responsible_agency": "Department of Sanitation",
    "final_address": "7508 Edward St",
    "address_councildis": "E",
    "status": "Assigned to Contractor",
    "contractor": "Waste Pro",
    "rowid": "1094302",
    "final_x": "3701114.06609",
    "final_y": "560549.391134",
    "longitude": "-90.0050740174336",
    "latitude": "30.034705609217788",
    "geocoded_column": {
      "latitude": "30.034705609217788",
      "longitude": "-90.0050740174336"
    }
  },
  {
    "service_request": "2024-1094301",
    "request_type": "Trash/Recycling",
    "request_reason": "Order Recycling Cart",
    "date_created": "2024-05-17T16:43:58.000",
    "date_modified": "2024-05-17T16:43:58.000",
    "request_status": "Pending",
    "responsible_agency": "Department of Sanitation",
    "final_address": "9420 Stroelitz St",
    "address_councildis": "A",
    "status": "Pending",
    "rowid": "1094301",
    "final_x": "3664381.23783",
    "final_y": "538143.704009",
    "longitude": "-90.12190432176475",
    "latitude": "29.97421735514799",
    "geocoded_column": {
      "latitude": "29.97421735514799",
      "longitude": "-90.12190432176475"
    }
  },
  {
    "service_request": "2024-1094300",
    "request_type": "Parks & Parkways",
    "request_reason": "Request Tree Service (Right of Way/Public Property)",
    "date_created": "2024-05-17T16:43:44.000",
    "date_modified": "2024-05-17T16:43:45.000",
    "request_status": "Pending",
    "responsible_agency": "Department of Parks & Parkway",
    "final_address": "4748 Flake Ave",
    "address_councildis": "E",
    "status": "Pending",
    "rowid": "1094300",
    "final_x": "3706046.80932",
    "final_y": "555506.561945",
    "longitude": "-89.98967282126061",
    "latitude": "30.020681649104773",
    "geocoded_column": {
      "latitude": "30.020681649104773",
      "longitude": "-89.98967282126061"
    }
  },
  {
    "service_request": "2024-1094299",
    "request_type": "Trash/Recycling",
    "request_reason": "Request a Large Item Pick Up",
    "date_created": "2024-05-17T16:39:41.000",
    "date_modified": "2024-05-17T16:39:41.000",
    "request_status": "Pending",
    "responsible_agency": "Department of Sanitation",
    "final_address": "4814 Nottingham Dr",
    "address_councildis": "E",
    "status": "Assigned to Contractor",
    "contractor": "Waste Pro",
    "rowid": "1094299",
    "final_x": "3716286.26751",
    "final_y": "557214.636891",
    "longitude": "-89.95725473203404",
    "latitude": "30.025044048348413",
    "geocoded_column": {
      "latitude": "30.025044048348413",
      "longitude": "-89.95725473203404"
    }
  },
  {
    "service_request": "2024-1094297",
    "request_type": "Trash/Recycling",
    "request_reason": "Request a Large Item Pick Up",
    "date_created": "2024-05-17T16:36:12.000",
    "date_modified": "2024-05-17T16:36:13.000",
    "request_status": "Pending",
    "responsible_agency": "Department of Sanitation",
    "final_address": "10220 Deerfield Dr",
    "address_councildis": "E",
    "status": "Assigned to Contractor",
    "contractor": "Waste Pro",
    "rowid": "1094297",
    "final_x": "3709990.47512",
    "final_y": "563389.776288",
    "longitude": "-89.97691726561213",
    "latitude": "30.042229625686183",
    "geocoded_column": {
      "latitude": "30.042229625686183",
      "longitude": "-89.97691726561213"
    }
  },
  {
    "service_request": "2024-1094296",
    "request_type": "Traffic Signals/Signs/Striping/Streetlights",
    "request_reason": "Striping/Road Surface Markings",
    "date_created": "2024-05-17T16:34:59.000",
    "date_modified": "2024-05-17T16:35:00.000",
    "request_status": "Pending",
    "responsible_agency": "Department of Public Works",
    "final_address": "CLEVELAND AVE & I 10 W & CANAL ST EXIT",
    "address_councildis": "B",
    "status": "Pending",
    "rowid": "1094296",
    "final_x": "3678127.9",
    "final_y": "532471.28",
    "longitude": "-90.07868531213175",
    "latitude": "29.958213336624706",
    "geocoded_column": {
      "latitude": "29.958213336624706",
      "longitude": "-90.07868531213175"
    }
  },
  {
    "service_request": "2024-1094295",
    "request_type": "Trash/Recycling",
    "request_reason": "Request a Large Item Pick Up",
    "date_created": "2024-05-17T16:32:26.000",
    "date_modified": "2024-05-17T16:32:27.000",
    "request_status": "Pending",
    "responsible_agency": "Department of Sanitation",
    "final_address": "3235 Lancaster St",
    "address_councildis": "C",
    "status": "Assigned to Contractor",
    "contractor": "Richards Disposal",
    "rowid": "1094295",
    "final_x": "3709893.41329",
    "final_y": "518670.519863",
    "longitude": "-89.97889460092617",
    "latitude": "29.919271562174963",
    "geocoded_column": {
      "latitude": "29.919271562174963",
      "longitude": "-89.97889460092617"
    }
  },
  {
    "service_request": "2024-1094294",
    "request_type": "Traffic Signals/Signs/Striping/Streetlights",
    "request_reason": "Traffic Signal Malfunctioning/Damaged",
    "date_created": "2024-05-17T16:32:22.000",
    "date_modified": "2024-05-17T16:32:23.000",
    "request_status": "Pending",
    "responsible_agency": "Department of Public Works",
    "final_address": "ELYSIAN FIELDS AVE & GENTILLY BLVD",
    "address_councildis": "D",
    "status": "Pending",
    "rowid": "1094294",
    "final_x": "3684156.09",
    "final_y": "547683.17",
    "longitude": "-90.0591158033759",
    "latitude": "29.999857829487908",
    "geocoded_column": {
      "latitude": "29.999857829487908",
      "longitude": "-90.0591158033759"
    }
  },
  {
    "service_request": "2024-1094293",
    "request_type": "Trash/Recycling",
    "request_reason": "Request a Large Item Pick Up",
    "date_created": "2024-05-17T16:28:14.000",
    "date_modified": "2024-05-17T16:28:14.000",
    "request_status": "Pending",
    "responsible_agency": "Department of Sanitation",
    "final_address": "7813 Shamrock Dr",
    "address_councildis": "E",
    "status": "Assigned to Contractor",
    "contractor": "Waste Pro",
    "rowid": "1094293",
    "final_x": "3718789.30316",
    "final_y": "572621.253929",
    "longitude": "-89.94875738273981",
    "latitude": "30.067323036971608",
    "geocoded_column": {
      "latitude": "30.067323036971608",
      "longitude": "-89.94875738273981"
    }
  },
  {
    "service_request": "2024-1094292",
    "request_type": "Abandoned Vehicles",
    "request_reason": "Abandoned/Junk Vehicles",
    "date_created": "2024-05-17T16:26:52.000",
    "date_modified": "2024-05-17T16:26:53.000",
    "request_status": "Pending",
    "responsible_agency": "Department of Public Works",
    "final_address": "2121 Sere St",
    "address_councildis": "D",
    "status": "Pending",
    "rowid": "1094292",
    "final_x": "3683643.22671",
    "final_y": "545915.875856",
    "longitude": "-90.06079796162015",
    "latitude": "29.995014074637055",
    "geocoded_column": {
      "latitude": "29.995014074637055",
      "longitude": "-90.06079796162015"
    }
  },
  {
    "service_request": "2024-1094291",
    "request_type": "Trash/Recycling",
    "request_reason": "Illegal Dumping",
    "date_created": "2024-05-17T16:24:52.000",
    "date_modified": "2024-05-17T16:24:52.000",
    "request_status": "Pending",
    "responsible_agency": "Department of Sanitation",
    "final_address": "AMELIA ST & FRERET ST",
    "address_councildis": "B",
    "status": "Pending",
    "rowid": "1094291",
    "final_x": "3672364.5",
    "final_y": "524284.18",
    "longitude": "-90.09716349406",
    "latitude": "29.935873764043876",
    "geocoded_column": {
      "latitude": "29.935873764043876",
      "longitude": "-90.09716349406"
    }
  },
  {
    "service_request": "2024-1094290",
    "request_type": "Mosquito, Termite & Rodent Control",
    "request_reason": "Non-Rodent Complaint (Mice, Possums, Snakes)",
    "date_created": "2024-05-17T16:23:56.000",
    "date_modified": "2024-05-17T16:23:56.000",
    "request_status": "Pending",
    "responsible_agency": "Mosquito, Termite & Rodent Control Board",
    "final_address": "5126 Prytania St",
    "address_councildis": "B",
    "status": "Pending",
    "rowid": "1094290",
    "final_x": "3668145.76301",
    "final_y": "520081.683768",
    "longitude": "-90.11062374594772",
    "latitude": "29.924442710637937",
    "geocoded_column": {
      "latitude": "29.924442710637937",
      "longitude": "-90.11062374594772"
    }
  },
  {
    "service_request": "2024-1094289",
    "request_type": "Traffic Signals/Signs/Striping/Streetlights",
    "request_reason": "Street Light Outage/Malfunction",
    "date_created": "2024-05-17T16:21:44.000",
    "date_modified": "2024-05-17T16:21:44.000",
    "request_status": "Pending",
    "responsible_agency": "Department of Public Works",
    "final_address": "1820 Bartholomew St",
    "address_councildis": "D",
    "status": "Assigned to Contractor",
    "contractor": "Legacy Professional Services",
    "rowid": "1094289",
    "final_x": "3692455.99286",
    "final_y": "538127.920649",
    "longitude": "-90.03323863932496",
    "latitude": "29.97332794244066",
    "geocoded_column": {
      "latitude": "29.97332794244066",
      "longitude": "-90.03323863932496"
    }
  },
  {
    "service_request": "2024-1094288",
    "request_type": "Traffic Signals/Signs/Striping/Streetlights",
    "request_reason": "Street Light Outage/Malfunction",
    "date_created": "2024-05-17T16:20:34.000",
    "date_modified": "2024-05-17T16:20:34.000",
    "request_status": "Pending",
    "responsible_agency": "Department of Public Works",
    "final_address": "1804 Bartholomew St",
    "address_councildis": "D",
    "status": "Assigned to Contractor",
    "contractor": "Legacy Professional Services",
    "rowid": "1094288",
    "final_x": "3692414.90531",
    "final_y": "538010.783049",
    "longitude": "-90.03337259870156",
    "latitude": "29.973007137444224",
    "geocoded_column": {
      "latitude": "29.973007137444224",
      "longitude": "-90.03337259870156"
    }
  },
  {
    "service_request": "2024-1094287",
    "request_type": "Roads/Drainage",
    "request_reason": "Accessibility Ramps, Curbs and Sidewalk Repair",
    "date_created": "2024-05-17T16:18:18.000",
    "date_modified": "2024-05-17T16:18:18.000",
    "request_status": "Pending",
    "responsible_agency": "Department of Public Works",
    "final_address": "1109 Leontine St",
    "address_councildis": "B",
    "status": "Pending",
    "rowid": "1094287",
    "final_x": "3667322.77658",
    "final_y": "519527.668471",
    "longitude": "-90.1132402632311",
    "latitude": "29.922943465385956",
    "geocoded_column": {
      "latitude": "29.922943465385956",
      "longitude": "-90.1132402632311"
    }
  },
  {
    "service_request": "2024-1094286",
    "request_type": "Trash/Recycling",
    "request_reason": "Request a Large Item Pick Up",
    "date_created": "2024-05-17T16:17:31.000",
    "date_modified": "2024-05-17T16:17:31.000",
    "request_status": "Pending",
    "responsible_agency": "Department of Sanitation",
    "final_address": "3221 Toulouse St",
    "address_councildis": "A",
    "status": "Assigned to Contractor",
    "contractor": "IV Waste",
    "rowid": "1094286",
    "final_x": "3674550.02632",
    "final_y": "538027.448329",
    "longitude": "-90.08979286386528",
    "latitude": "29.973598161424277",
    "geocoded_column": {
      "latitude": "29.973598161424277",
      "longitude": "-90.08979286386528"
    }
  },
  {
    "service_request": "2024-1094285",
    "request_type": "Trash/Recycling",
    "request_reason": "Request a Large Item Pick Up",
    "date_created": "2024-05-17T16:17:13.000",
    "date_modified": "2024-05-17T16:17:14.000",
    "request_status": "Pending",
    "responsible_agency": "Department of Sanitation",
    "final_address": "623 N Rendon St",
    "address_councildis": "A",
    "status": "Assigned to Contractor",
    "contractor": "IV Waste",
    "rowid": "1094285",
    "final_x": "3674761.42555",
    "final_y": "538065.846985",
    "longitude": "-90.08912390239907",
    "latitude": "29.97369743457909",
    "geocoded_column": {
      "latitude": "29.97369743457909",
      "longitude": "-90.08912390239907"
    }
  },
  {
    "service_request": "2024-1094284",
    "request_type": "Trash/Recycling",
    "request_reason": "Repair Trash Cart",
    "date_created": "2024-05-17T16:17:11.000",
    "date_modified": "2024-05-17T16:17:12.000",
    "request_status": "Pending",
    "responsible_agency": "Department of Sanitation",
    "final_address": "8126 Freret St",
    "address_councildis": "A",
    "status": "Assigned to Contractor",
    "contractor": "IV Waste",
    "rowid": "1094284",
    "final_x": "3661289.35405",
    "final_y": "527987.716607",
    "longitude": "-90.13200554392225",
    "latitude": "29.94638120572007",
    "geocoded_column": {
      "latitude": "29.94638120572007",
      "longitude": "-90.13200554392225"
    }
  },
  {
    "service_request": "2024-1094283",
    "request_type": "Traffic Signals/Signs/Striping/Streetlights",
    "request_reason": "Traffic Signal Malfunctioning/Damaged",
    "date_created": "2024-05-17T16:14:30.000",
    "date_modified": "2024-05-17T16:14:30.000",
    "request_status": "Pending",
    "responsible_agency": "Department of Public Works",
    "final_address": "Pontchartrain Expressway & South Carrollton Avenue",
    "address_councildis": "A",
    "status": "Pending",
    "rowid": "1094283",
    "final_x": "3668882.68372",
    "final_y": "535895.838087",
    "longitude": "-90.10776359827379",
    "latitude": "29.96790484911379",
    "geocoded_column": {
      "latitude": "29.96790484911379",
      "longitude": "-90.10776359827379"
    }
  },
  {
    "service_request": "2024-1094282",
    "request_type": "Property Maintenance",
    "request_reason": "Property Maintenance",
    "date_created": "2024-05-17T16:12:48.000",
    "date_modified": "2024-05-17T16:12:48.000",
    "request_status": "Pending",
    "responsible_agency": "Department of Code Enforcement",
    "final_address": "3221 Toulouse St",
    "address_councildis": "A",
    "status": "Pending",
    "rowid": "1094282",
    "final_x": "3674550.02632",
    "final_y": "538027.448329",
    "longitude": "-90.08979286386528",
    "latitude": "29.973598161424277",
    "geocoded_column": {
      "latitude": "29.973598161424277",
      "longitude": "-90.08979286386528"
    }
  },
  {
    "service_request": "2024-1094281",
    "request_type": "Roads/Drainage",
    "request_reason": "Catch Basin - Clogged",
    "date_created": "2024-05-17T16:12:23.000",
    "date_modified": "2024-05-17T16:12:23.000",
    "request_status": "Pending",
    "responsible_agency": "Department of Public Works",
    "final_address": "3200 Milan St",
    "address_councildis": "B",
    "status": "Pending",
    "rowid": "1094281",
    "final_x": "3670970.65403",
    "final_y": "526686.012798",
    "longitude": "-90.10148238515832",
    "latitude": "29.942519299360402",
    "geocoded_column": {
      "latitude": "29.942519299360402",
      "longitude": "-90.10148238515832"
    }
  },
  {
    "service_request": "2024-1094280",
    "request_type": "Parks & Parkways",
    "request_reason": "Request Tree Service (Right of Way/Public Property)",
    "date_created": "2024-05-17T16:10:34.000",
    "date_modified": "2024-05-17T16:10:34.000",
    "request_status": "Pending",
    "responsible_agency": "Department of Parks & Parkway",
    "final_address": "4866 Camelia St",
    "address_councildis": "E",
    "status": "Pending",
    "rowid": "1094280",
    "final_x": "3701403.01565",
    "final_y": "554948.692056",
    "longitude": "-90.00436617659649",
    "latitude": "30.019296634096033",
    "geocoded_column": {
      "latitude": "30.019296634096033",
      "longitude": "-90.00436617659649"
    }
  },
  {
    "service_request": "2024-1094279",
    "request_type": "Roads/Drainage",
    "request_reason": "Street Flooding / Drainage",
    "date_created": "2024-05-17T16:06:12.000",
    "date_modified": "2024-05-17T16:06:12.000",
    "request_status": "Pending",
    "responsible_agency": "Department of Public Works",
    "final_address": "7960 Edgelake Ct",
    "address_councildis": "E",
    "status": "Pending",
    "rowid": "1094279",
    "final_x": "3702783.18302",
    "final_y": "562222.058015",
    "longitude": "-89.99973787948463",
    "latitude": "30.039251481952636",
    "geocoded_column": {
      "latitude": "30.039251481952636",
      "longitude": "-89.99973787948463"
    }
  },
  {
    "service_request": "2024-1094278",
    "request_type": "Trash/Recycling",
    "request_reason": "Illegal Dumping",
    "date_created": "2024-05-17T16:05:46.000",
    "date_modified": "2024-05-17T16:05:46.000",
    "request_status": "Pending",
    "responsible_agency": "Department of Sanitation",
    "final_address": "4900 BLK Lonely Oak Dr",
    "address_councildis": "E",
    "status": "Pending",
    "rowid": "1094278",
    "final_x": "3702222.17787",
    "final_y": "555424.533624",
    "longitude": "-90.00176044912928",
    "latitude": "30.02057886688636",
    "geocoded_column": {
      "latitude": "30.02057886688636",
      "longitude": "-90.00176044912928"
    }
  },
  {
    "service_request": "2024-1094277",
    "request_type": "Property Maintenance",
    "request_reason": "Property Maintenance",
    "date_created": "2024-05-17T16:05:19.000",
    "date_modified": "2024-05-17T16:05:20.000",
    "request_status": "Pending",
    "responsible_agency": "Department of Code Enforcement",
    "final_address": "4910 Lonely Oak Dr",
    "address_councildis": "E",
    "status": "Pending",
    "rowid": "1094277",
    "final_x": "3702177.9825",
    "final_y": "555219.580185",
    "longitude": "-90.00190761702913",
    "latitude": "30.020016735631234",
    "geocoded_column": {
      "latitude": "30.020016735631234",
      "longitude": "-90.00190761702913"
    }
  },
  {
    "service_request": "2024-1094276",
    "request_type": "Trash/Recycling",
    "request_reason": "Request a Large Item Pick Up",
    "date_created": "2024-05-17T16:05:04.000",
    "date_modified": "2024-05-17T16:05:05.000",
    "request_status": "Pending",
    "responsible_agency": "Department of Sanitation",
    "final_address": "1523 Harrison Ave",
    "address_councildis": "D",
    "status": "Assigned to Contractor",
    "contractor": "IV Waste",
    "rowid": "1094276",
    "final_x": "3678901.07477",
    "final_y": "547717.537234",
    "longitude": "-90.07571543874458",
    "latitude": "30.00011196347857",
    "geocoded_column": {
      "latitude": "30.00011196347857",
      "longitude": "-90.07571543874458"
    }
  },
  {
    "service_request": "2024-1094275",
    "request_type": "Trash/Recycling",
    "request_reason": "Request a Large Item Pick Up",
    "date_created": "2024-05-17T16:02:07.000",
    "date_modified": "2024-05-17T16:02:08.000",
    "request_status": "Pending",
    "responsible_agency": "Department of Sanitation",
    "final_address": "2143 Stephen Girard St",
    "address_councildis": "D",
    "status": "Assigned to Contractor",
    "contractor": "IV Waste",
    "rowid": "1094275",
    "final_x": "3683487.0214",
    "final_y": "548827.372435",
    "longitude": "-90.06118928776456",
    "latitude": "30.003024416317857",
    "geocoded_column": {
      "latitude": "30.003024416317857",
      "longitude": "-90.06118928776456"
    }
  },
  {
    "service_request": "2024-1094274",
    "request_type": "Trash/Recycling",
    "request_reason": "Replace Trash Cart",
    "date_created": "2024-05-17T15:54:37.000",
    "date_modified": "2024-05-17T15:54:38.000",
    "request_status": "Pending",
    "responsible_agency": "Department of Sanitation",
    "final_address": "4434 Werner Dr",
    "address_councildis": "E",
    "status": "Assigned to Contractor",
    "contractor": "Waste Pro",
    "rowid": "1094274",
    "final_x": "3704901.54673",
    "final_y": "553553.408727",
    "longitude": "-89.99336365206071",
    "latitude": "30.015348106790473",
    "geocoded_column": {
      "latitude": "30.015348106790473",
      "longitude": "-89.99336365206071"
    }
  },
  {
    "service_request": "2024-1094273",
    "request_type": "Trash/Recycling",
    "request_reason": "Request a Large Item Pick Up",
    "date_created": "2024-05-17T15:53:32.000",
    "date_modified": "2024-05-17T15:53:33.000",
    "request_status": "Pending",
    "responsible_agency": "Department of Sanitation",
    "final_address": "7809 Dorsett Dr",
    "address_councildis": "E",
    "status": "Assigned to Contractor",
    "contractor": "Waste Pro",
    "rowid": "1094273",
    "final_x": "3712493.1308",
    "final_y": "567946.468645",
    "longitude": "-89.96883650003146",
    "latitude": "30.054676985690882",
    "geocoded_column": {
      "latitude": "30.054676985690882",
      "longitude": "-89.96883650003146"
    }
  },
  {
    "service_request": "2024-1094272",
    "request_type": "Parks & Parkways",
    "request_reason": "Request Tree Service (Right of Way/Public Property)",
    "date_created": "2024-05-17T15:51:56.000",
    "date_modified": "2024-05-17T15:51:56.000",
    "request_status": "Pending",
    "responsible_agency": "Department of Parks & Parkway",
    "final_address": "501 Pacific Ave",
    "address_councildis": "C",
    "status": "Pending",
    "rowid": "1094272",
    "final_x": "3688452.36771",
    "final_y": "529851.325889",
    "longitude": "-90.04617649872898",
    "latitude": "29.95069448128543",
    "geocoded_column": {
      "latitude": "29.95069448128543",
      "longitude": "-90.04617649872898"
    }
  },
  {
    "service_request": "2024-1094271",
    "request_type": "Trash/Recycling",
    "request_reason": "Replace Recycling Cart",
    "date_created": "2024-05-17T15:51:45.000",
    "date_modified": "2024-05-17T15:51:45.000",
    "request_status": "Pending",
    "responsible_agency": "Department of Sanitation",
    "final_address": "2241 Chartres St",
    "address_councildis": "C",
    "status": "Pending",
    "rowid": "1094271",
    "final_x": "3685517.27388",
    "final_y": "534570.823045",
    "longitude": "-90.05527779214309",
    "latitude": "29.963761811139157",
    "geocoded_column": {
      "latitude": "29.963761811139157",
      "longitude": "-90.05527779214309"
    }
  },
  {
    "service_request": "2024-1094270",
    "request_type": "Roads/Drainage",
    "request_reason": "Damaged Sidewalk",
    "date_created": "2024-05-17T15:50:34.000",
    "date_modified": "2024-05-17T15:50:34.000",
    "request_status": "Pending",
    "responsible_agency": "Department of Public Works",
    "final_address": "7500 Jonlee Dr",
    "address_councildis": "E",
    "status": "Pending",
    "rowid": "1094270",
    "final_x": "3717487.51224",
    "final_y": "569870.57783",
    "longitude": "-89.95297728110366",
    "latitude": "30.059803012119666",
    "geocoded_column": {
      "latitude": "30.059803012119666",
      "longitude": "-89.95297728110366"
    }
  },
  {
    "service_request": "2024-1094269",
    "request_type": "Roads/Drainage",
    "request_reason": "Pothole",
    "date_created": "2024-05-17T15:42:53.000",
    "date_modified": "2024-05-17T15:42:53.000",
    "request_status": "Pending",
    "responsible_agency": "Department of Public Works",
    "final_address": "1417 Valence St",
    "address_councildis": "B",
    "status": "Pending",
    "rowid": "1094269",
    "final_x": "3669877.5915",
    "final_y": "520372.81548",
    "longitude": "-90.1051470905641",
    "latitude": "29.925192302356088",
    "geocoded_column": {
      "latitude": "29.925192302356088",
      "longitude": "-90.1051470905641"
    }
  },
  {
    "service_request": "2024-1094268",
    "request_type": "Parks & Parkways",
    "request_reason": "Request Tree Service (Right of Way/Public Property)",
    "date_created": "2024-05-17T15:42:42.000",
    "date_modified": "2024-05-17T15:42:42.000",
    "request_status": "Pending",
    "responsible_agency": "Department of Parks & Parkway",
    "final_address": "3643 Franklin Ave",
    "address_councildis": "D",
    "status": "Pending",
    "rowid": "1094268",
    "final_x": "3687200.34562",
    "final_y": "546460.220113",
    "longitude": "-90.04954217347279",
    "latitude": "29.996401723085338",
    "geocoded_column": {
      "latitude": "29.996401723085338",
      "longitude": "-90.04954217347279"
    }
  },
  {
    "service_request": "2024-1094267",
    "request_type": "Trash/Recycling",
    "request_reason": "Repair Trash Cart",
    "date_created": "2024-05-17T15:42:32.000",
    "date_modified": "2024-05-17T15:42:33.000",
    "request_status": "Pending",
    "responsible_agency": "Department of Sanitation",
    "final_address": "9319 Stroelitz St",
    "address_councildis": "A",
    "status": "Assigned to Contractor",
    "contractor": "IV Waste",
    "rowid": "1094267",
    "final_x": "3664741.75604",
    "final_y": "537938.486537",
    "longitude": "-90.12077257522867",
    "latitude": "29.973642589970037",
    "geocoded_column": {
      "latitude": "29.973642589970037",
      "longitude": "-90.12077257522867"
    }
  },
  {
    "service_request": "2024-1094266",
    "request_type": "Roads/Drainage",
    "request_reason": "Catch Basin - Clogged",
    "date_created": "2024-05-17T15:39:52.000",
    "date_modified": "2024-05-17T15:39:52.000",
    "request_status": "Pending",
    "responsible_agency": "Department of Public Works",
    "final_address": "6908 Milne Blvd",
    "address_councildis": "A",
    "status": "Pending",
    "rowid": "1094266",
    "final_x": "3667542.62977",
    "final_y": "553670.177111",
    "longitude": "-90.11139694915644",
    "latitude": "30.016817538447206",
    "geocoded_column": {
      "latitude": "30.016817538447206",
      "longitude": "-90.11139694915644"
    }
  },
  {
    "service_request": "2024-1094265",
    "request_type": "Trash/Recycling",
    "request_reason": "Replace Trash Cart",
    "date_created": "2024-05-17T15:39:23.000",
    "date_modified": "2024-05-17T15:39:24.000",
    "request_status": "Pending",
    "responsible_agency": "Department of Sanitation",
    "final_address": "7433 Dogwood Dr",
    "address_councildis": "E",
    "status": "Assigned to Contractor",
    "contractor": "Waste Pro",
    "rowid": "1094265",
    "final_x": "3701531.79652",
    "final_y": "560601.984158",
    "longitude": "-90.00375200802554",
    "latitude": "30.034836898343386",
    "geocoded_column": {
      "latitude": "30.034836898343386",
      "longitude": "-90.00375200802554"
    }
  },
  {
    "service_request": "2024-1094264",
    "request_type": "Trash/Recycling",
    "request_reason": "Request a Large Item Pick Up",
    "date_created": "2024-05-17T15:39:13.000",
    "date_modified": "2024-05-17T15:39:13.000",
    "request_status": "Pending",
    "responsible_agency": "Department of Sanitation",
    "final_address": "6621 Morrison Rd",
    "address_councildis": "E",
    "status": "Assigned to Contractor",
    "contractor": "Waste Pro",
    "rowid": "1094264",
    "final_x": "3698057.75005",
    "final_y": "558563.135708",
    "longitude": "-90.01480460091214",
    "latitude": "30.029341233452197",
    "geocoded_column": {
      "latitude": "30.029341233452197",
      "longitude": "-90.01480460091214"
    }
  },
  {
    "service_request": "2024-1094263",
    "request_type": "Roads/Drainage",
    "request_reason": "Catch Basin - Clogged",
    "date_created": "2024-05-17T15:38:52.000",
    "date_modified": "2024-05-17T15:38:52.000",
    "request_status": "Pending",
    "responsible_agency": "Department of Public Works",
    "final_address": "6898 Milne Blvd",
    "address_councildis": "A",
    "status": "Pending",
    "rowid": "1094263",
    "final_x": "3667531.32589",
    "final_y": "553538.173911",
    "longitude": "-90.11143711239937",
    "latitude": "30.01645490764264",
    "geocoded_column": {
      "latitude": "30.01645490764264",
      "longitude": "-90.11143711239937"
    }
  },
  {
    "service_request": "2024-1094262",
    "request_type": "Trash/Recycling",
    "request_reason": "Missed Trash Pick-Up",
    "date_created": "2024-05-17T15:38:43.000",
    "date_modified": "2024-05-17T15:38:44.000",
    "request_status": "Pending",
    "responsible_agency": "Department of Sanitation",
    "final_address": "4501 Lonely Oak Dr",
    "address_councildis": "E",
    "status": "Assigned to Contractor",
    "contractor": "Waste Pro",
    "rowid": "1094262",
    "final_x": "3702500.10826",
    "final_y": "553199.513687",
    "longitude": "-90.00096402709364",
    "latitude": "30.01445202947477",
    "geocoded_column": {
      "latitude": "30.01445202947477",
      "longitude": "-90.00096402709364"
    }
  },
  {
    "service_request": "2024-1094261",
    "request_type": "Trash/Recycling",
    "request_reason": "Request a Large Item Pick Up",
    "date_created": "2024-05-17T15:37:54.000",
    "date_modified": "2024-05-17T15:37:55.000",
    "request_status": "Pending",
    "responsible_agency": "Department of Sanitation",
    "final_address": "7636 Shorewood Blvd",
    "address_councildis": "E",
    "status": "Assigned to Contractor",
    "contractor": "Waste Pro",
    "rowid": "1094261",
    "final_x": "3719693.38713",
    "final_y": "572702.317545",
    "longitude": "-89.9458963425588",
    "latitude": "30.067515858773984",
    "geocoded_column": {
      "latitude": "30.067515858773984",
      "longitude": "-89.9458963425588"
    }
  },
  {
    "service_request": "2024-1094260",
    "request_type": "Property Maintenance",
    "request_reason": "Property Maintenance",
    "date_created": "2024-05-17T15:37:16.000",
    "date_modified": "2024-05-17T15:37:16.000",
    "request_status": "Pending",
    "responsible_agency": "Department of Code Enforcement",
    "final_address": "1900 BLK N dOrgenois St",
    "address_councildis": "D",
    "status": "Pending",
    "rowid": "1094260",
    "final_x": "3682179.57688",
    "final_y": "541266.70728",
    "longitude": "-90.06558395466308",
    "latitude": "29.982275115310813",
    "geocoded_column": {
      "latitude": "29.982275115310813",
      "longitude": "-90.06558395466308"
    }
  },
  {
    "service_request": "2024-1094259",
    "request_type": "Property Maintenance",
    "request_reason": "Property Maintenance",
    "date_created": "2024-05-17T15:36:51.000",
    "date_modified": "2024-05-17T15:36:51.000",
    "request_status": "Pending",
    "responsible_agency": "Department of Code Enforcement",
    "final_address": "13110 Bishop Cl Morton, Sr. Dr",
    "address_councildis": "E",
    "status": "Pending",
    "rowid": "1094259",
    "final_x": "3716899.21368",
    "final_y": "569914.752102",
    "longitude": "-89.95483515768385",
    "latitude": "30.059943946496347",
    "geocoded_column": {
      "latitude": "30.059943946496347",
      "longitude": "-89.95483515768385"
    }
  },
  {
    "service_request": "2024-1094258",
    "request_type": "Property Maintenance",
    "request_reason": "Property Maintenance",
    "date_created": "2024-05-17T15:36:14.000",
    "date_modified": "2024-05-17T15:36:14.000",
    "request_status": "Pending",
    "responsible_agency": "Department of Code Enforcement",
    "final_address": "1900 BLK N dOrgenois St",
    "address_councildis": "D",
    "status": "Pending",
    "rowid": "1094258",
    "final_x": "3682179.57688",
    "final_y": "541266.70728",
    "longitude": "-90.06558395466308",
    "latitude": "29.982275115310813",
    "geocoded_column": {
      "latitude": "29.982275115310813",
      "longitude": "-90.06558395466308"
    }
  },
  {
    "service_request": "2024-1094257",
    "request_type": "Property Maintenance",
    "request_reason": "Property Maintenance",
    "date_created": "2024-05-17T15:35:44.000",
    "date_modified": "2024-05-17T15:35:44.000",
    "request_status": "Pending",
    "responsible_agency": "Department of Code Enforcement",
    "final_address": "1900 BLK N dOrgenois St",
    "address_councildis": "D",
    "status": "Pending",
    "rowid": "1094257",
    "final_x": "3682179.57688",
    "final_y": "541266.70728",
    "longitude": "-90.06558395466308",
    "latitude": "29.982275115310813",
    "geocoded_column": {
      "latitude": "29.982275115310813",
      "longitude": "-90.06558395466308"
    }
  },
  {
    "service_request": "2024-1094256",
    "request_type": "Trash/Recycling",
    "request_reason": "Request a Large Item Pick Up",
    "date_created": "2024-05-17T15:34:23.000",
    "date_modified": "2024-05-17T15:34:24.000",
    "request_status": "Pending",
    "responsible_agency": "Department of Sanitation",
    "final_address": "8250 Colony Ct",
    "address_councildis": "E",
    "status": "Assigned to Contractor",
    "contractor": "Waste Pro",
    "rowid": "1094256",
    "final_x": "3703305.26615",
    "final_y": "560344.246365",
    "longitude": "-89.9981571066835",
    "latitude": "30.034071517636935",
    "geocoded_column": {
      "latitude": "30.034071517636935",
      "longitude": "-89.9981571066835"
    }
  },
  {
    "service_request": "2024-1094255",
    "request_type": "Trash/Recycling",
    "request_reason": "Repair Recycling Cart",
    "date_created": "2024-05-17T15:34:07.000",
    "date_modified": "2024-05-17T15:34:08.000",
    "request_status": "Pending",
    "responsible_agency": "Department of Sanitation",
    "final_address": "954 Felicity St",
    "address_councildis": "B",
    "status": "Pending",
    "rowid": "1094255",
    "final_x": "3680186.53947",
    "final_y": "522794.030715",
    "longitude": "-90.07252093721202",
    "latitude": "29.931541991666755",
    "geocoded_column": {
      "latitude": "29.931541991666755",
      "longitude": "-90.07252093721202"
    }
  },
  {
    "service_request": "2024-1094254",
    "request_type": "Property Maintenance",
    "request_reason": "Property Maintenance",
    "date_created": "2024-05-17T15:33:29.000",
    "date_modified": "2024-05-17T15:33:29.000",
    "request_status": "Pending",
    "responsible_agency": "Department of Code Enforcement",
    "final_address": "1900 BLK N dOrgenois St",
    "address_councildis": "D",
    "status": "Pending",
    "rowid": "1094254",
    "final_x": "3682179.57688",
    "final_y": "541266.70728",
    "longitude": "-90.06558395466308",
    "latitude": "29.982275115310813",
    "geocoded_column": {
      "latitude": "29.982275115310813",
      "longitude": "-90.06558395466308"
    }
  },
  {
    "service_request": "2024-1094252",
    "request_type": "Abandoned Vehicles",
    "request_reason": "Abandoned/Junk Vehicles",
    "date_created": "2024-05-17T15:29:49.000",
    "date_modified": "2024-05-17T15:29:49.000",
    "request_status": "Pending",
    "responsible_agency": "Department of Public Works",
    "final_address": "2517 S Rocheblave St",
    "address_councildis": "B",
    "status": "Pending",
    "rowid": "1094252",
    "final_x": "3672303.71073",
    "final_y": "529425.043969",
    "longitude": "-90.0971803172018",
    "latitude": "29.950011263372026",
    "geocoded_column": {
      "latitude": "29.950011263372026",
      "longitude": "-90.0971803172018"
    }
  },
  {
    "service_request": "2024-1094251",
    "request_type": "Abandoned Vehicles",
    "request_reason": "Abandoned/Junk Vehicles",
    "date_created": "2024-05-17T15:27:36.000",
    "date_modified": "2024-05-17T15:27:36.000",
    "request_status": "Pending",
    "responsible_agency": "Department of Public Works",
    "final_address": "1900 BLK N dOrgenois St",
    "address_councildis": "D",
    "status": "Pending",
    "rowid": "1094251",
    "final_x": "3682179.57688",
    "final_y": "541266.70728",
    "longitude": "-90.06558395466308",
    "latitude": "29.982275115310813",
    "geocoded_column": {
      "latitude": "29.982275115310813",
      "longitude": "-90.06558395466308"
    }
  },
  {
    "service_request": "2024-1094249",
    "request_type": "Trash/Recycling",
    "request_reason": "MIssed Recycling Pick-Up",
    "date_created": "2024-05-17T15:25:05.000",
    "date_modified": "2024-05-17T19:41:59.000",
    "case_close_date": "2024-05-17T14:41:59.000",
    "request_status": "Closed",
    "responsible_agency": "Department of Sanitation",
    "final_address": "1221 Magazine St Apt B",
    "address_councildis": "B",
    "status": "Invalid Request",
    "contractor": "IV Waste",
    "contractor_action": "Invalid",
    "rowid": "1094249",
    "final_x": "3680528.55279",
    "final_y": "525456.150077",
    "longitude": "-90.0713486835255",
    "latitude": "29.938851587365175",
    "geocoded_column": {
      "latitude": "29.938851587365175",
      "longitude": "-90.0713486835255"
    }
  },
  {
    "service_request": "2024-1094248",
    "request_type": "Trash/Recycling",
    "request_reason": "Illegal Dumping",
    "date_created": "2024-05-17T15:24:41.000",
    "date_modified": "2024-05-17T15:24:41.000",
    "request_status": "Pending",
    "responsible_agency": "Department of Sanitation",
    "final_address": "3801 Tchoupitoulas St",
    "address_councildis": "B",
    "status": "Pending",
    "rowid": "1094248",
    "final_x": "3673671.26804",
    "final_y": "517749.470262",
    "longitude": "-90.09326126339094",
    "latitude": "29.917866587178136",
    "geocoded_column": {
      "latitude": "29.917866587178136",
      "longitude": "-90.09326126339094"
    }
  },
  {
    "service_request": "2024-1094247",
    "request_type": "Trash/Recycling",
    "request_reason": "Request a Large Item Pick Up",
    "date_created": "2024-05-17T15:23:36.000",
    "date_modified": "2024-05-17T15:23:36.000",
    "request_status": "Pending",
    "responsible_agency": "Department of Sanitation",
    "final_address": "4747 Plauche Cir",
    "address_councildis": "D",
    "status": "Assigned to Contractor",
    "contractor": "IV Waste",
    "rowid": "1094247",
    "final_x": "3692610.82441",
    "final_y": "551917.818006",
    "longitude": "-90.03225513623187",
    "latitude": "30.01124031987379",
    "geocoded_column": {
      "latitude": "30.01124031987379",
      "longitude": "-90.03225513623187"
    }
  },
  {
    "service_request": "2024-1094246",
    "request_type": "Utility Poles",
    "request_reason": "Utility Pole Leaning",
    "date_created": "2024-05-17T15:21:51.000",
    "date_modified": "2024-05-17T15:21:55.000",
    "request_status": "Pending",
    "responsible_agency": "Utility Company Collective",
    "final_address": "3730 Annunciation St",
    "address_councildis": "B",
    "status": "Pending",
    "rowid": "1094246",
    "final_x": "3673677.07329",
    "final_y": "518013.580214",
    "longitude": "-90.09323391710254",
    "latitude": "29.91859263256555",
    "geocoded_column": {
      "latitude": "29.91859263256555",
      "longitude": "-90.09323391710254"
    }
  },
  {
    "service_request": "2024-1094245",
    "request_type": "Trash/Recycling",
    "request_reason": "Missed Trash Pick-Up",
    "date_created": "2024-05-17T15:20:50.000",
    "date_modified": "2024-05-17T15:20:50.000",
    "request_status": "Pending",
    "responsible_agency": "Department of Sanitation",
    "final_address": "7242 Hayne Blvd",
    "address_councildis": "E",
    "status": "Assigned to Contractor",
    "contractor": "Waste Pro",
    "rowid": "1094245",
    "final_x": "3699277.4552",
    "final_y": "561623.100895",
    "longitude": "-90.01083878195931",
    "latitude": "30.037716306087553",
    "geocoded_column": {
      "latitude": "30.037716306087553",
      "longitude": "-90.01083878195931"
    }
  },
  {
    "service_request": "2024-1094244",
    "request_type": "Parks & Parkways",
    "request_reason": "Request Tree Service (Right of Way/Public Property)",
    "date_created": "2024-05-17T15:18:44.000",
    "date_modified": "2024-05-17T15:18:44.000",
    "request_status": "Pending",
    "responsible_agency": "Department of Parks & Parkway",
    "final_address": "ROUSSEAU ST & SORAPARU ST",
    "address_councildis": "B",
    "status": "Pending",
    "rowid": "1094244",
    "final_x": "3679593.6",
    "final_y": "519806.28",
    "longitude": "-90.07449639810608",
    "latitude": "29.923344580902487",
    "geocoded_column": {
      "latitude": "29.923344580902487",
      "longitude": "-90.07449639810608"
    }
  },
  {
    "service_request": "2024-1094243",
    "request_type": "Parks & Parkways",
    "request_reason": "Request Tree Service (Right of Way/Public Property)",
    "date_created": "2024-05-17T15:17:46.000",
    "date_modified": "2024-05-17T15:17:47.000",
    "request_status": "Pending",
    "responsible_agency": "Department of Parks & Parkway",
    "final_address": "8730 Lomond Rd",
    "address_councildis": "E",
    "status": "Pending",
    "rowid": "1094243",
    "final_x": "3704724.98737",
    "final_y": "562501.073632",
    "longitude": "-89.9935909493586",
    "latitude": "30.039956380906744",
    "geocoded_column": {
      "latitude": "30.039956380906744",
      "longitude": "-89.9935909493586"
    }
  },
  {
    "service_request": "2024-1094242",
    "request_type": "Trash/Recycling",
    "request_reason": "Repair Recycling Cart",
    "date_created": "2024-05-17T15:08:11.000",
    "date_modified": "2024-05-17T15:08:12.000",
    "request_status": "Pending",
    "responsible_agency": "Department of Sanitation",
    "final_address": "2834 Laurel St",
    "address_councildis": "B",
    "status": "Pending",
    "rowid": "1094242",
    "final_x": "3677248.75739",
    "final_y": "520025.161528",
    "longitude": "-90.08189064040052",
    "latitude": "29.924017059756583",
    "geocoded_column": {
      "latitude": "29.924017059756583",
      "longitude": "-90.08189064040052"
    }
  },
  {
    "service_request": "2024-1094241",
    "request_type": "Trash/Recycling",
    "request_reason": "Return Trash Cart",
    "date_created": "2024-05-17T15:07:22.000",
    "date_modified": "2024-05-17T15:07:23.000",
    "request_status": "Pending",
    "responsible_agency": "Department of Sanitation",
    "final_address": "2834 Laurel St",
    "address_councildis": "B",
    "status": "Assigned to Contractor",
    "contractor": "IV Waste",
    "rowid": "1094241",
    "final_x": "3677248.75739",
    "final_y": "520025.161528",
    "longitude": "-90.08189064040052",
    "latitude": "29.924017059756583",
    "geocoded_column": {
      "latitude": "29.924017059756583",
      "longitude": "-90.08189064040052"
    }
  },
  {
    "service_request": "2024-1094240",
    "request_type": "Property Maintenance",
    "request_reason": "Property Maintenance",
    "date_created": "2024-05-17T15:02:32.000",
    "date_modified": "2024-05-17T15:02:32.000",
    "request_status": "Pending",
    "responsible_agency": "Department of Code Enforcement",
    "final_address": "7600 Gannon Rd",
    "address_councildis": "E",
    "status": "Pending",
    "rowid": "1094240",
    "final_x": "3716469.08671",
    "final_y": "569659.73431",
    "longitude": "-89.95620443875303",
    "latitude": "30.059256974348585",
    "geocoded_column": {
      "latitude": "30.059256974348585",
      "longitude": "-89.95620443875303"
    }
  },
  {
    "service_request": "2024-1094239",
    "request_type": "Trash/Recycling",
    "request_reason": "Request a Large Item Pick Up",
    "date_created": "2024-05-17T15:01:54.000",
    "date_modified": "2024-05-17T15:01:55.000",
    "request_status": "Pending",
    "responsible_agency": "Department of Sanitation",
    "final_address": "4761 Sherwood Dr",
    "address_councildis": "E",
    "status": "Assigned to Contractor",
    "contractor": "Waste Pro",
    "rowid": "1094239",
    "final_x": "3718066.68351",
    "final_y": "556995.856154",
    "longitude": "-89.95163730424949",
    "latitude": "30.024383577185148",
    "geocoded_column": {
      "latitude": "30.024383577185148",
      "longitude": "-89.95163730424949"
    }
  },
  {
    "service_request": "2024-1094238",
    "request_type": "Parks & Parkways",
    "request_reason": "Request Grass Cutting Service (City Owned Property)",
    "date_created": "2024-05-17T14:59:01.000",
    "date_modified": "2024-05-17T14:59:02.000",
    "request_status": "Pending",
    "responsible_agency": "Department of Parks & Parkway",
    "final_address": "INDUSTRY ST & EADS ST",
    "address_councildis": "D",
    "status": "Pending",
    "rowid": "1094238",
    "final_x": "3687739.3",
    "final_y": "543190.28",
    "longitude": "-90.0479555303766",
    "latitude": "29.98739394673275",
    "geocoded_column": {
      "latitude": "29.98739394673275",
      "longitude": "-90.0479555303766"
    }
  },
  {
    "service_request": "2024-1094237",
    "request_type": "Parks & Parkways",
    "request_reason": "Request Grass Cutting Service (City Owned Property)",
    "date_created": "2024-05-17T14:55:11.000",
    "date_modified": "2024-05-17T14:55:11.000",
    "request_status": "Pending",
    "responsible_agency": "Department of Parks & Parkway",
    "final_address": "2900 BLK Higgins Blvd",
    "address_councildis": "D",
    "status": "Pending",
    "rowid": "1094237",
    "final_x": "3690170.867",
    "final_y": "545144.914747",
    "longitude": "-90.04020541221661",
    "latitude": "29.99269326275994",
    "geocoded_column": {
      "latitude": "29.99269326275994",
      "longitude": "-90.04020541221661"
    }
  },
  {
    "service_request": "2024-1094236",
    "request_type": "Parks & Parkways",
    "request_reason": "Request Tree Service (Right of Way/Public Property)",
    "date_created": "2024-05-17T14:54:02.000",
    "date_modified": "2024-05-17T14:54:03.000",
    "request_status": "Pending",
    "responsible_agency": "Department of Parks & Parkway",
    "final_address": "5551 Holley Ln",
    "address_councildis": "E",
    "status": "Pending",
    "rowid": "1094236",
    "final_x": "3703454.2515",
    "final_y": "556487.660634",
    "longitude": "-89.99782834311065",
    "latitude": "30.02346263021041",
    "geocoded_column": {
      "latitude": "30.02346263021041",
      "longitude": "-89.99782834311065"
    }
  },
  {
    "service_request": "2024-1094235",
    "request_type": "Trash/Recycling",
    "request_reason": "Illegal Dumping",
    "date_created": "2024-05-17T14:52:07.000",
    "date_modified": "2024-05-17T14:52:07.000",
    "request_status": "Pending",
    "responsible_agency": "Department of Sanitation",
    "final_address": "3300 BLK Feliciana St",
    "address_councildis": "D",
    "status": "Pending",
    "rowid": "1094235",
    "final_x": "3690961.00157",
    "final_y": "544933.140892",
    "longitude": "-90.03771709441688",
    "latitude": "29.992086419055173",
    "geocoded_column": {
      "latitude": "29.992086419055173",
      "longitude": "-90.03771709441688"
    }
  },
  {
    "service_request": "2024-1094234",
    "request_type": "Abandoned Vehicles",
    "request_reason": "Abandoned/Junk Vehicles",
    "date_created": "2024-05-17T14:48:59.000",
    "date_modified": "2024-05-17T14:48:59.000",
    "request_status": "Pending",
    "responsible_agency": "Department of Public Works",
    "final_address": "7600 BLK Gannon Rd",
    "address_councildis": "E",
    "status": "Pending",
    "rowid": "1094234",
    "final_x": "3716287.6563",
    "final_y": "570008.704258",
    "longitude": "-89.95676466840091",
    "latitude": "30.06022249154965",
    "geocoded_column": {
      "latitude": "30.06022249154965",
      "longitude": "-89.95676466840091"
    }
  },
  {
    "service_request": "2024-1094233",
    "request_type": "Abandoned Vehicles",
    "request_reason": "Abandoned/Junk Vehicles",
    "date_created": "2024-05-17T14:48:19.000",
    "date_modified": "2024-05-17T14:48:19.000",
    "request_status": "Pending",
    "responsible_agency": "Department of Public Works",
    "final_address": "4111 Fairmont Dr",
    "address_councildis": "D",
    "status": "Pending",
    "rowid": "1094233",
    "final_x": "3684503.79138",
    "final_y": "547604.58613",
    "longitude": "-90.05802016412724",
    "latitude": "29.999631115816356",
    "geocoded_column": {
      "latitude": "29.999631115816356",
      "longitude": "-90.05802016412724"
    }
  },
  {
    "service_request": "2024-1094232",
    "request_type": "Trash/Recycling",
    "request_reason": "Request a Large Item Pick Up",
    "date_created": "2024-05-17T14:47:44.000",
    "date_modified": "2024-05-17T14:47:44.000",
    "request_status": "Pending",
    "responsible_agency": "Department of Sanitation",
    "final_address": "13026 Lemans St",
    "address_councildis": "E",
    "status": "Assigned to Contractor",
    "contractor": "Waste Pro",
    "rowid": "1094232",
    "final_x": "3723790.03327",
    "final_y": "562648.385056",
    "longitude": "-89.9333345750658",
    "latitude": "30.039734719541165",
    "geocoded_column": {
      "latitude": "30.039734719541165",
      "longitude": "-89.9333345750658"
    }
  },
  {
    "service_request": "2024-1094231",
    "request_type": "Roads/Drainage",
    "request_reason": "Street Subsidence (Sinking)",
    "date_created": "2024-05-17T14:41:24.000",
    "date_modified": "2024-05-17T14:41:25.000",
    "request_status": "Pending",
    "responsible_agency": "Department of Public Works",
    "final_address": "3420 Trafalgar St",
    "address_councildis": "A",
    "status": "Pending",
    "rowid": "1094231",
    "final_x": "3677546.65998",
    "final_y": "543107.964429",
    "longitude": "-90.08015336809545",
    "latitude": "29.987478061679806",
    "geocoded_column": {
      "latitude": "29.987478061679806",
      "longitude": "-90.08015336809545"
    }
  },
  {
    "service_request": "2024-1094230",
    "request_type": "Abandoned Vehicles",
    "request_reason": "Abandoned/Junk Vehicles",
    "date_created": "2024-05-17T14:41:17.000",
    "date_modified": "2024-05-17T14:41:17.000",
    "request_status": "Pending",
    "responsible_agency": "Department of Public Works",
    "final_address": "4111 Fairmont Dr",
    "address_councildis": "D",
    "status": "Pending",
    "rowid": "1094230",
    "final_x": "3684503.79138",
    "final_y": "547604.58613",
    "longitude": "-90.05802016412724",
    "latitude": "29.999631115816356",
    "geocoded_column": {
      "latitude": "29.999631115816356",
      "longitude": "-90.05802016412724"
    }
  },
  {
    "service_request": "2024-1094229",
    "request_type": "Parks & Parkways",
    "request_reason": "Request Tree Service (Right of Way/Public Property)",
    "date_created": "2024-05-17T14:38:44.000",
    "date_modified": "2024-05-17T14:38:44.000",
    "request_status": "Pending",
    "responsible_agency": "Department of Parks & Parkway",
    "final_address": "5810 Kensington Blvd",
    "address_councildis": "E",
    "status": "Pending",
    "rowid": "1094229",
    "final_x": "3713269.46622",
    "final_y": "560682.82755",
    "longitude": "-89.9666565349487",
    "latitude": "30.034679466911413",
    "geocoded_column": {
      "latitude": "30.034679466911413",
      "longitude": "-89.9666565349487"
    }
  },
  {
    "service_request": "2024-1094228",
    "request_type": "Trash/Recycling",
    "request_reason": "Request a Large Item Pick Up",
    "date_created": "2024-05-17T14:38:34.000",
    "date_modified": "2024-05-17T14:38:35.000",
    "request_status": "Pending",
    "responsible_agency": "Department of Sanitation",
    "final_address": "338 Verret St",
    "address_councildis": "C",
    "status": "Assigned to Contractor",
    "contractor": "Richards Disposal",
    "rowid": "1094228",
    "final_x": "3686949.71164",
    "final_y": "530451.66509",
    "longitude": "-90.05089989071537",
    "latitude": "29.95239153683198",
    "geocoded_column": {
      "latitude": "29.95239153683198",
      "longitude": "-90.05089989071537"
    }
  },
  {
    "service_request": "2024-1094227",
    "request_type": "Property Maintenance",
    "request_reason": "Property Maintenance",
    "date_created": "2024-05-17T14:23:23.000",
    "date_modified": "2024-05-17T14:40:54.000",
    "case_close_date": "2024-05-17T09:40:54.000",
    "request_status": "Closed",
    "responsible_agency": "Department of Code Enforcement",
    "final_address": "4518 Annunciation St",
    "address_councildis": "B",
    "status": "Referred to Code Enforcement",
    "rowid": "1094227",
    "final_x": "3670574.12923",
    "final_y": "517658.972278",
    "longitude": "-90.10304031865101",
    "latitude": "29.91770954791214",
    "geocoded_column": {
      "latitude": "29.91770954791214",
      "longitude": "-90.10304031865101"
    }
  },
  {
    "service_request": "2024-1094226",
    "request_type": "Trash/Recycling",
    "request_reason": "Missed Trash Pick-Up",
    "date_created": "2024-05-17T14:22:37.000",
    "date_modified": "2024-05-17T15:42:35.000",
    "case_close_date": "2024-05-17T10:42:35.000",
    "request_status": "Closed",
    "responsible_agency": "Department of Sanitation",
    "final_address": "710 Webster St",
    "address_councildis": "A",
    "status": "Invalid Request",
    "contractor": "IV Waste",
    "contractor_action": "Invalid",
    "rowid": "1094226",
    "final_x": "3664001.82093",
    "final_y": "519216.008119",
    "longitude": "-90.12373365851342",
    "latitude": "29.922183312161255",
    "geocoded_column": {
      "latitude": "29.922183312161255",
      "longitude": "-90.12373365851342"
    }
  },
  {
    "service_request": "2024-1094225",
    "request_type": "Trash/Recycling",
    "request_reason": "Request a Large Item Pick Up",
    "date_created": "2024-05-17T14:19:10.000",
    "date_modified": "2024-05-17T14:19:10.000",
    "request_status": "Pending",
    "responsible_agency": "Department of Sanitation",
    "final_address": "2644 Jasmine St",
    "address_councildis": "D",
    "status": "Assigned to Contractor",
    "contractor": "IV Waste",
    "rowid": "1094225",
    "final_x": "3687389.30927",
    "final_y": "548081.311954",
    "longitude": "-90.04888784748874",
    "latitude": "30.000853317126257",
    "geocoded_column": {
      "latitude": "30.000853317126257",
      "longitude": "-90.04888784748874"
    }
  },
  {
    "service_request": "2024-1094224",
    "request_type": "Trash/Recycling",
    "request_reason": "MIssed Recycling Pick-Up",
    "date_created": "2024-05-17T14:17:53.000",
    "date_modified": "2024-05-17T14:17:54.000",
    "request_status": "Pending",
    "responsible_agency": "Department of Sanitation",
    "final_address": "7210 Northgate Dr",
    "address_councildis": "E",
    "status": "Assigned to Contractor",
    "contractor": "Waste Pro",
    "rowid": "1094224",
    "final_x": "3713463.57426",
    "final_y": "565253.340898",
    "longitude": "-89.96587076143781",
    "latitude": "30.04724017043579",
    "geocoded_column": {
      "latitude": "30.04724017043579",
      "longitude": "-89.96587076143781"
    }
  },
  {
    "service_request": "2024-1094222",
    "request_type": "Trash/Recycling",
    "request_reason": "Repair Recycling Cart",
    "date_created": "2024-05-17T14:14:51.000",
    "date_modified": "2024-05-17T14:14:51.000",
    "request_status": "Pending",
    "responsible_agency": "Department of Sanitation",
    "final_address": "1318 Nashville Ave",
    "address_councildis": "A",
    "status": "Pending",
    "rowid": "1094222",
    "final_x": "3665867.84429",
    "final_y": "520841.413625",
    "longitude": "-90.11778894303781",
    "latitude": "29.926598369111478",
    "geocoded_column": {
      "latitude": "29.926598369111478",
      "longitude": "-90.11778894303781"
    }
  },
  {
    "service_request": "2024-1094221",
    "request_type": "Trash/Recycling",
    "request_reason": "Request a Large Item Pick Up",
    "date_created": "2024-05-17T14:14:22.000",
    "date_modified": "2024-05-17T14:14:23.000",
    "request_status": "Pending",
    "responsible_agency": "Department of Sanitation",
    "final_address": "7350 Crestmont Rd",
    "address_councildis": "E",
    "status": "Assigned to Contractor",
    "contractor": "Waste Pro",
    "rowid": "1094221",
    "final_x": "3699853.97348",
    "final_y": "559562.498013",
    "longitude": "-90.00909211416426",
    "latitude": "30.032032138847264",
    "geocoded_column": {
      "latitude": "30.032032138847264",
      "longitude": "-90.00909211416426"
    }
  },