[
  {
    "service_request": "2023-1022303",
    "request_type": "Parks & Parkways",
    "request_reason": "Request Tree Service (Right of Way/Public Property)",
    "date_created": "2023-07-31T23:38:34.000",
    "date_modified": "2023-07-31T23:38:34.000",
    "request_status": "Pending",
    "responsible_agency": "Department of Parks & Parkway",
    "final_address": "436 S Hennessey St",
    "address_councildis": "A",
    "status": "Pending",
    "rowid": "1022303",
    "final_x": "3669375.48378",
    "final_y": "537693.124232",
    "longitude": "-90.10614652664991",
    "latitude": "29.972832281758134",
    "geocoded_column": {
      "latitude": "29.972832281758134",
      "longitude": "-90.10614652664991"
    }
  },
  {
    "service_request": "2023-1022302",
    "request_type": "Property Maintenance",
    "request_reason": "Property Maintenance",
    "date_created": "2023-07-31T22:45:38.000",
    "date_modified": "2023-07-31T22:45:38.000",
    "request_status": "Pending",
    "responsible_agency": "Department of Code Enforcement",
    "final_address": "5300 Peoples Ave",
    "address_councildis": "D",
    "status": "Pending",
    "rowid": "1022302",
    "final_x": "3687959.80393",
    "final_y": "552814.121622",
    "longitude": "-90.04691776091848",
    "latitude": "30.01384921726586",
    "geocoded_column": {
      "latitude": "30.01384921726586",
      "longitude": "-90.04691776091848"
    }
  },
  {
    "service_request": "2023-1022301",
    "request_type": "Trash/Recycling",
    "request_reason": "Request a Large Item Pick Up",
    "date_created": "2023-07-31T22:05:47.000",
    "date_modified": "2023-07-31T22:05:48.000",
    "request_status": "Pending",
    "responsible_agency": "Department of Sanitation",
    "final_address": "4743 Charlmark Dr",
    "address_councildis": "E",
    "status": "Assigned to Contractor",
    "contractor": "Waste Pro",
    "rowid": "1022301",
    "final_x": "3711512.81662",
    "final_y": "556041.107417",
    "longitude": "-89.97238197222306",
    "latitude": "30.021974064808084",
    "geocoded_column": {
      "latitude": "30.021974064808084",
      "longitude": "-89.97238197222306"
    }
  },
  {
    "service_request": "2023-1022300",
    "request_type": "Traffic Signals/Signs/Striping/Streetlights",
    "request_reason": "Street Light Outage/Malfunction",
    "date_created": "2023-07-31T22:00:35.000",
    "date_modified": "2023-07-31T22:00:36.000",
    "request_status": "Pending",
    "responsible_agency": "Department of Public Works",
    "final_address": "600 S Murat St",
    "address_councildis": "A",
    "status": "Assigned to Contractor",
    "contractor": "Legacy Professional Services",
    "rowid": "1022300",
    "final_x": "3668517.76602",
    "final_y": "537774.187784",
    "longitude": "-90.10885263385266",
    "latitude": "29.97308041010232",
    "geocoded_column": {
      "latitude": "29.97308041010232",
      "longitude": "-90.10885263385266"
    }
  },
  {
    "service_request": "2023-1022299",
    "request_type": "Roads/Drainage",
    "request_reason": "Service Cut",
    "date_created": "2023-07-31T21:14:06.000",
    "date_modified": "2023-07-31T21:14:06.000",
    "request_status": "Pending",
    "responsible_agency": "Department of Public Works",
    "final_address": "1724 Cadiz St",
    "address_councildis": "B",
    "status": "Pending",
    "rowid": "1022299",
    "final_x": "3670003.84378",
    "final_y": "521387.046137",
    "longitude": "-90.10471422226414",
    "latitude": "29.92797739163415",
    "geocoded_column": {
      "latitude": "29.92797739163415",
      "longitude": "-90.10471422226414"
    }
  },
  {
    "service_request": "2023-1022298",
    "request_type": "Roads/Drainage",
    "request_reason": "Service Cut",
    "date_created": "2023-07-31T21:07:12.000",
    "date_modified": "2023-07-31T21:07:12.000",
    "request_status": "Pending",
    "responsible_agency": "Department of Public Works",
    "final_address": "1724 Cadiz St",
    "address_councildis": "B",
    "status": "Pending",
    "rowid": "1022298",
    "final_x": "3670003.84378",
    "final_y": "521387.046137",
    "longitude": "-90.10471422226414",
    "latitude": "29.92797739163415",
    "geocoded_column": {
      "latitude": "29.92797739163415",
      "longitude": "-90.10471422226414"
    }
  },
  {
    "service_request": "2023-1022297",
    "request_type": "Traffic Signals/Signs/Striping/Streetlights",
    "request_reason": "Street Light Outage/Malfunction",
    "date_created": "2023-07-31T21:04:49.000",
    "date_modified": "2023-07-31T21:04:50.000",
    "request_status": "Pending",
    "responsible_agency": "Department of Public Works",
    "final_address": "5700 BLK Lafaye St",
    "address_councildis": "D",
    "status": "Assigned to Contractor",
    "contractor": "Legacy Professional Services",
    "rowid": "1022297",
    "final_x": "3687208.82272",
    "final_y": "554323.282545",
    "longitude": "-90.04923703580268",
    "latitude": "30.01802201470936",
    "geocoded_column": {
      "latitude": "30.01802201470936",
      "longitude": "-90.04923703580268"
    }
  },
  {
    "service_request": "2023-1022296",
    "request_type": "Trash/Recycling",
    "request_reason": "Request a Large Item Pick Up",
    "date_created": "2023-07-31T20:49:57.000",
    "date_modified": "2023-07-31T20:49:58.000",
    "request_status": "Pending",
    "responsible_agency": "Department of Sanitation",
    "final_address": "3300 River Oaks Dr",
    "address_councildis": "C",
    "status": "Assigned to Contractor",
    "contractor": "Richards Disposal",
    "rowid": "1022296",
    "final_x": "3701491.70474",
    "final_y": "519042.768119",
    "longitude": "-90.00540074406511",
    "latitude": "29.920565519502517",
    "geocoded_column": {
      "latitude": "29.920565519502517",
      "longitude": "-90.00540074406511"
    }
  },
  {
    "service_request": "2023-1022295",
    "request_type": "Traffic Signals/Signs/Striping/Streetlights",
    "request_reason": "Street Light Outage/Malfunction",
    "date_created": "2023-07-31T20:48:00.000",
    "date_modified": "2023-07-31T20:48:01.000",
    "request_status": "Pending",
    "responsible_agency": "Department of Public Works",
    "final_address": "13 Yosemite Dr",
    "address_councildis": "C",
    "status": "Assigned to Contractor",
    "contractor": "Legacy Professional Services",
    "rowid": "1022295",
    "final_x": "3699623.42397",
    "final_y": "517648.582134",
    "longitude": "-90.01134877348751",
    "latitude": "29.91679138663052",
    "geocoded_column": {
      "latitude": "29.91679138663052",
      "longitude": "-90.01134877348751"
    }
  },
  {
    "service_request": "2023-1022294",
    "request_type": "Traffic Signals/Signs/Striping/Streetlights",
    "request_reason": "Street Light Outage/Malfunction",
    "date_created": "2023-07-31T20:40:41.000",
    "date_modified": "2023-07-31T20:40:42.000",
    "request_status": "Pending",
    "responsible_agency": "Department of Public Works",
    "final_address": "2163 Timoleon St",
    "address_councildis": "D",
    "status": "Assigned to Contractor",
    "contractor": "Legacy Professional Services",
    "rowid": "1022294",
    "final_x": "3683594.40354",
    "final_y": "551145.417109",
    "longitude": "-90.06076872326982",
    "latitude": "30.00939492300142",
    "geocoded_column": {
      "latitude": "30.00939492300142",
      "longitude": "-90.06076872326982"
    }
  },
  {
    "service_request": "2023-1022293",
    "request_type": "Trash/Recycling",
    "request_reason": "Request a Large Item Pick Up",
    "date_created": "2023-07-31T20:39:37.000",
    "date_modified": "2023-07-31T20:39:38.000",
    "request_status": "Pending",
    "responsible_agency": "Department of Sanitation",
    "final_address": "3100 BLK Saint Ann St",
    "address_councildis": "A",
    "status": "Assigned to Contractor",
    "contractor": "Richards Disposal",
    "rowid": "1022293",
    "final_x": "3675323.65621",
    "final_y": "538435.745095",
    "longitude": "-90.08733555117837",
    "latitude": "29.97469772958561",
    "geocoded_column": {
      "latitude": "29.97469772958561",
      "longitude": "-90.08733555117837"
    }
  },
  {
    "service_request": "2023-1022291",
    "request_type": "Trash/Recycling",
    "request_reason": "Order Recycling Cart",
    "date_created": "2023-07-31T20:20:23.000",
    "date_modified": "2023-07-31T20:20:23.000",
    "request_status": "Pending",
    "responsible_agency": "Department of Sanitation",
    "final_address": "11211 Whiteside Rd",
    "address_councildis": "E",
    "status": "Pending",
    "rowid": "1022291",
    "final_x": "3711991.59026",
    "final_y": "565218.65757",
    "longitude": "-89.97052428943529",
    "latitude": "30.04719302526477",
    "geocoded_column": {
      "latitude": "30.04719302526477",
      "longitude": "-89.97052428943529"
    }
  },
  {
    "service_request": "2023-1022289",
    "request_type": "Trash/Recycling",
    "request_reason": "Replace Recycling Cart",
    "date_created": "2023-07-31T20:03:11.000",
    "date_modified": "2023-07-31T20:03:11.000",
    "request_status": "Pending",
    "responsible_agency": "Department of Sanitation",
    "final_address": "3428 Iberville St",
    "address_councildis": "B",
    "status": "Pending",
    "rowid": "1022289",
    "final_x": "3673142.72443",
    "final_y": "537287.986376",
    "longitude": "-90.09426268475211",
    "latitude": "29.97160681195749",
    "geocoded_column": {
      "latitude": "29.97160681195749",
      "longitude": "-90.09426268475211"
    }
  },
  {
    "service_request": "2023-1022288",
    "request_type": "Trash/Recycling",
    "request_reason": "Missed Trash Pick-Up",
    "date_created": "2023-07-31T20:00:57.000",
    "date_modified": "2023-07-31T20:00:58.000",
    "request_status": "Pending",
    "responsible_agency": "Department of Sanitation",
    "final_address": "4321 Trieste St",
    "address_councildis": "E",
    "status": "Assigned to Contractor",
    "contractor": "Waste Pro",
    "rowid": "1022288",
    "final_x": "3760220.06697",
    "final_y": "573504.147946",
    "longitude": "-89.81775378901686",
    "latitude": "30.06830896010249",
    "geocoded_column": {
      "latitude": "30.06830896010249",
      "longitude": "-89.81775378901686"
    }
  },
  {
    "service_request": "2023-1022287",
    "request_type": "Abandoned Vehicles",
    "request_reason": "Abandoned/Junk Vehicles",
    "date_created": "2023-07-31T20:00:14.000",
    "date_modified": "2023-07-31T20:00:14.000",
    "request_status": "Pending",
    "responsible_agency": "Department of Public Works",
    "final_address": "1516 Tennessee St",
    "address_councildis": "E",
    "status": "Pending",
    "rowid": "1022287",
    "final_x": "3696107.90256",
    "final_y": "536027.658439",
    "longitude": "-90.02178114597574",
    "latitude": "29.967438533705145",
    "geocoded_column": {
      "latitude": "29.967438533705145",
      "longitude": "-90.02178114597574"
    }
  },
  {
    "service_request": "2023-1022286",
    "request_type": "Trash/Recycling",
    "request_reason": "MIssed Recycling Pick-Up",
    "date_created": "2023-07-31T19:32:41.000",
    "date_modified": "2023-07-31T19:32:42.000",
    "request_status": "Pending",
    "responsible_agency": "Department of Sanitation",
    "final_address": "811 Behrman Ave",
    "address_councildis": "C",
    "status": "Assigned to Contractor",
    "contractor": "Richards Disposal",
    "rowid": "1022286",
    "final_x": "3691411.00809",
    "final_y": "528461.308992",
    "longitude": "-90.03688432059984",
    "latitude": "29.946780696786504",
    "geocoded_column": {
      "latitude": "29.946780696786504",
      "longitude": "-90.03688432059984"
    }
  },
  {
    "service_request": "2023-1022285",
    "request_type": "Trash/Recycling",
    "request_reason": "Request a Large Item Pick Up",
    "date_created": "2023-07-31T19:24:22.000",
    "date_modified": "2023-07-31T19:24:23.000",
    "request_status": "Pending",
    "responsible_agency": "Department of Sanitation",
    "final_address": "1433 Toledano St",
    "address_councildis": "B",
    "status": "Assigned to Contractor",
    "contractor": "Richards Disposal",
    "rowid": "1022285",
    "final_x": "3674899.49089",
    "final_y": "521012.759673",
    "longitude": "-90.08927260119415",
    "latitude": "29.92680297771542",
    "geocoded_column": {
      "latitude": "29.92680297771542",
      "longitude": "-90.08927260119415"
    }
  },
  {
    "service_request": "2023-1022284",
    "request_type": "Roads/Drainage",
    "request_reason": "Street Subsidence (Sinking)",
    "date_created": "2023-07-31T19:23:33.000",
    "date_modified": "2023-07-31T19:23:33.000",
    "request_status": "Pending",
    "responsible_agency": "Department of Public Works",
    "status": "Pending",
    "rowid": "1022284",
    "longitude": "0.0",
    "latitude": "0.0",
    "geocoded_column": {
      "latitude": "0.0",
      "longitude": "0.0"
    }
  },
  {
    "service_request": "2023-1022283",
    "request_type": "Trash/Recycling",
    "request_reason": "Order Recycling Cart",
    "date_created": "2023-07-31T19:13:01.000",
    "date_modified": "2023-07-31T19:13:01.000",
    "request_status": "Pending",
    "responsible_agency": "Department of Sanitation",
    "final_address": "6464 Bellaire Dr",
    "address_councildis": "A",
    "status": "Pending",
    "rowid": "1022283",
    "final_x": "3664391.4649",
    "final_y": "550981.677461",
    "longitude": "-90.12144319697147",
    "latitude": "30.009517125051932",
    "geocoded_column": {
      "latitude": "30.009517125051932",
      "longitude": "-90.12144319697147"
    }
  },
  {
    "service_request": "2023-1022282",
    "request_type": "Trash/Recycling",
    "request_reason": "Order Recycling Cart",
    "date_created": "2023-07-31T18:51:01.000",
    "date_modified": "2023-07-31T18:51:01.000",
    "request_status": "Pending",
    "responsible_agency": "Department of Sanitation",
    "final_address": "1415 Frankfort St",
    "address_councildis": "D",
    "status": "Pending",
    "rowid": "1022282",
    "final_x": "3677850.78094",
    "final_y": "555947.405209",
    "longitude": "-90.07874871368298",
    "latitude": "30.022772802097936",
    "geocoded_column": {
      "latitude": "30.022772802097936",
      "longitude": "-90.07874871368298"
    }
  },
  {
    "service_request": "2023-1022281",
    "request_type": "Trash/Recycling",
    "request_reason": "Illegal Dumping",
    "date_created": "2023-07-31T18:45:19.000",
    "date_modified": "2023-07-31T18:45:19.000",
    "request_status": "Pending",
    "responsible_agency": "Department of Sanitation",
    "final_address": "2300 Ursulines Ave",
    "address_councildis": "D",
    "status": "Pending",
    "rowid": "1022281",
    "final_x": "3678918.49032",
    "final_y": "537068.750664",
    "longitude": "-90.07602954674066",
    "latitude": "29.970830989360454",
    "geocoded_column": {
      "latitude": "29.970830989360454",
      "longitude": "-90.07602954674066"
    }
  },
  {
    "service_request": "2023-1022280",
    "request_type": "Trash/Recycling",
    "request_reason": "Illegal Dumping",
    "date_created": "2023-07-31T18:41:10.000",
    "date_modified": "2023-07-31T18:41:10.000",
    "request_status": "Pending",
    "responsible_agency": "Department of Sanitation",
    "final_address": "2300 Ursulines Ave",
    "address_councildis": "D",
    "status": "Pending",
    "rowid": "1022280",
    "final_x": "3678918.49032",
    "final_y": "537068.750664",
    "longitude": "-90.07602954674066",
    "latitude": "29.970830989360454",
    "geocoded_column": {
      "latitude": "29.970830989360454",
      "longitude": "-90.07602954674066"
    }
  },
  {
    "service_request": "2023-1022279",
    "request_type": "Trash/Recycling",
    "request_reason": "Request a Large Item Pick Up",
    "date_created": "2023-07-31T18:36:27.000",
    "date_modified": "2023-07-31T18:36:27.000",
    "request_status": "Pending",
    "responsible_agency": "Department of Sanitation",
    "final_address": "3615 Cadiz St",
    "address_councildis": "B",
    "status": "Assigned to Contractor",
    "contractor": "Richards Disposal",
    "rowid": "1022279",
    "final_x": "3669432.71342",
    "final_y": "527912.500735",
    "longitude": "-90.10629656351773",
    "latitude": "29.945937115711835",
    "geocoded_column": {
      "latitude": "29.945937115711835",
      "longitude": "-90.10629656351773"
    }
  },
  {
    "service_request": "2023-1022278",
    "request_type": "Trash/Recycling",
    "request_reason": "Request a Large Item Pick Up",
    "date_created": "2023-07-31T18:27:34.000",
    "date_modified": "2023-07-31T18:27:35.000",
    "request_status": "Pending",
    "responsible_agency": "Department of Sanitation",
    "final_address": "3008 Bienville Ave",
    "address_councildis": "B",
    "status": "Assigned to Contractor",
    "contractor": "Richards Disposal",
    "rowid": "1022278",
    "final_x": "3674704.06638",
    "final_y": "536511.760007",
    "longitude": "-90.08935834027355",
    "latitude": "29.969425935779768",
    "geocoded_column": {
      "latitude": "29.969425935779768",
      "longitude": "-90.08935834027355"
    }
  },
  {
    "service_request": "2023-1022277",
    "request_type": "Traffic Signals/Signs/Striping/Streetlights",
    "request_reason": "Street Light Knocked Down/Leaning",
    "date_created": "2023-07-31T18:06:15.000",
    "date_modified": "2023-07-31T18:06:15.000",
    "request_status": "Pending",
    "responsible_agency": "Department of Public Works",
    "final_address": "1 Dove St",
    "address_councildis": "D",
    "status": "Pending",
    "contractor": "Legacy Professional Services",
    "rowid": "1022277",
    "final_x": "3673514.96692",
    "final_y": "554528.518168",
    "longitude": "-90.09249746310674",
    "latitude": "30.01900119330056",
    "geocoded_column": {
      "latitude": "30.01900119330056",
      "longitude": "-90.09249746310674"
    }
  },
  {
    "service_request": "2023-1022276",
    "request_type": "Roads/Drainage",
    "request_reason": "Damaged Sidewalk",
    "date_created": "2023-07-31T18:05:15.000",
    "date_modified": "2023-07-31T18:05:15.000",
    "request_status": "Pending",
    "responsible_agency": "Department of Public Works",
    "final_address": "220 Roselyn Park Pl",
    "address_councildis": "C",
    "status": "Pending",
    "rowid": "1022276",
    "final_x": "3702692.69975",
    "final_y": "523397.584699",
    "longitude": "-90.0014500093454",
    "latitude": "29.93250143009067",
    "geocoded_column": {
      "latitude": "29.93250143009067",
      "longitude": "-90.0014500093454"
    }
  },
  {
    "service_request": "2023-1022275",
    "request_type": "Property Maintenance",
    "request_reason": "Property Maintenance",
    "date_created": "2023-07-31T17:58:36.000",
    "date_modified": "2023-07-31T17:58:36.000",
    "request_status": "Pending",
    "responsible_agency": "Department of Code Enforcement",
    "final_address": "7501 Anne Marie Ct",
    "address_councildis": "E",
    "status": "Pending",
    "rowid": "1022275",
    "final_x": "3718466.75692",
    "final_y": "570726.404071",
    "longitude": "-89.94984931981011",
    "latitude": "30.062123705258955",
    "geocoded_column": {
      "latitude": "30.062123705258955",
      "longitude": "-89.94984931981011"
    }
  },
  {
    "service_request": "2023-1022274",
    "request_type": "Property Maintenance",
    "request_reason": "Property Maintenance",
    "date_created": "2023-07-31T17:58:32.000",
    "date_modified": "2023-07-31T17:58:32.000",
    "request_status": "Pending",
    "responsible_agency": "Department of Code Enforcement",
    "final_address": "7501 Anne Marie Ct",
    "address_councildis": "E",
    "status": "Pending",
    "rowid": "1022274",
    "final_x": "3718466.75692",
    "final_y": "570726.404071",
    "longitude": "-89.94984931981011",
    "latitude": "30.062123705258955",
    "geocoded_column": {
      "latitude": "30.062123705258955",
      "longitude": "-89.94984931981011"
    }
  },
  {
    "service_request": "2023-1022273",
    "request_type": "Property Maintenance",
    "request_reason": "Property Maintenance",
    "date_created": "2023-07-31T17:58:28.000",
    "date_modified": "2023-07-31T17:58:28.000",
    "request_status": "Pending",
    "responsible_agency": "Department of Code Enforcement",
    "status": "Pending",
    "rowid": "1022273",
    "longitude": "0.0",
    "latitude": "0.0",
    "geocoded_column": {
      "latitude": "0.0",
      "longitude": "0.0"
    }
  },
  {
    "service_request": "2023-1022272",
    "request_type": "Traffic Signals/Signs/Striping/Streetlights",
    "request_reason": "Street Light Outage/Malfunction",
    "date_created": "2023-07-31T17:57:02.000",
    "date_modified": "2023-07-31T17:57:03.000",
    "request_status": "Pending",
    "responsible_agency": "Department of Public Works",
    "final_address": "7001 Lawrence Rd Apt 100",
    "address_councildis": "E",
    "status": "Assigned to Contractor",
    "contractor": "Legacy Professional Services",
    "rowid": "1022272",
    "final_x": "3703475.27556",
    "final_y": "558606.702172",
    "longitude": "-89.99768386334111",
    "latitude": "30.02928849998994",
    "geocoded_column": {
      "latitude": "30.02928849998994",
      "longitude": "-89.99768386334111"
    }
  },
  {
    "service_request": "2023-1022271",
    "request_type": "Trash/Recycling",
    "request_reason": "Illegal Dumping",
    "date_created": "2023-07-31T17:55:39.000",
    "date_modified": "2023-07-31T17:58:02.000",
    "request_status": "Pending",
    "responsible_agency": "Department of Sanitation",
    "final_address": "1100 Thayer St, New Orleans, Louisiana, 70114",
    "address_councildis": "C",
    "rowid": "1022271",
    "final_x": "3689475.24873",
    "final_y": "527450.142655",
    "longitude": "-90.04303214987249",
    "latitude": "29.944060416198806",
    "geocoded_column": {
      "latitude": "29.944060416198806",
      "longitude": "-90.04303214987249"
    }
  },
  {
    "service_request": "2023-1022270",
    "request_type": "Trash/Recycling",
    "request_reason": "Request a Large Item Pick Up",
    "date_created": "2023-07-31T17:43:31.000",
    "date_modified": "2023-07-31T17:56:14.000",
    "request_status": "Pending",
    "responsible_agency": "Department of Sanitation",
    "final_address": "New Orleans,LA",
    "address_councildis": "B",
    "status": "Assigned to Contractor",
    "contractor": "Richards Disposal",
    "rowid": "1022270",
    "final_x": "3673519.22542",
    "final_y": "535241.672774",
    "longitude": "-90.09314358321045",
    "latitude": "29.96596894027778",
    "geocoded_column": {
      "latitude": "29.96596894027778",
      "longitude": "-90.09314358321045"
    }
  },
  {
    "service_request": "2023-1022269",
    "request_type": "Trash/Recycling",
    "request_reason": "Order Trash Cart",
    "date_created": "2023-07-31T17:43:12.000",
    "date_modified": "2023-07-31T17:43:13.000",
    "request_status": "Pending",
    "responsible_agency": "Department of Sanitation",
    "final_address": "1437 St Andrew St Apt 2B",
    "address_councildis": "B",
    "status": "Assigned to Contractor",
    "contractor": "Richards Disposal",
    "rowid": "1022269",
    "final_x": "3678703.3389",
    "final_y": "523660.962171",
    "longitude": "-90.07717322438133",
    "latitude": "29.933970560529172",
    "geocoded_column": {
      "latitude": "29.933970560529172",
      "longitude": "-90.07717322438133"
    }
  },
  {
    "service_request": "2023-1022268",
    "request_type": "Trash/Recycling",
    "request_reason": "Request a Large Item Pick Up",
    "date_created": "2023-07-31T17:42:17.000",
    "date_modified": "2023-07-31T17:42:18.000",
    "request_status": "Pending",
    "responsible_agency": "Department of Sanitation",
    "final_address": "7707 Jeannette St",
    "address_councildis": "A",
    "status": "Assigned to Contractor",
    "contractor": "Richards Disposal",
    "rowid": "1022268",
    "final_x": "3663696.75245",
    "final_y": "528274.35936",
    "longitude": "-90.12439495721364",
    "latitude": "29.947099760619817",
    "geocoded_column": {
      "latitude": "29.947099760619817",
      "longitude": "-90.12439495721364"
    }
  },
  {
    "service_request": "2023-1022267",
    "request_type": "Trash/Recycling",
    "request_reason": "Request a Large Item Pick Up",
    "date_created": "2023-07-31T17:38:32.000",
    "date_modified": "2023-07-31T17:38:32.000",
    "request_status": "Pending",
    "responsible_agency": "Department of Sanitation",
    "final_address": "23 Grand Canyon Dr",
    "address_councildis": "C",
    "status": "Assigned to Contractor",
    "contractor": "Richards Disposal",
    "rowid": "1022267",
    "final_x": "3699642.3905",
    "final_y": "517191.741621",
    "longitude": "-90.01130554458591",
    "latitude": "29.9155346289227",
    "geocoded_column": {
      "latitude": "29.9155346289227",
      "longitude": "-90.01130554458591"
    }
  },
  {
    "service_request": "2023-1022266",
    "request_type": "Trash/Recycling",
    "request_reason": "Replace Trash Cart",
    "date_created": "2023-07-31T17:35:19.000",
    "date_modified": "2023-07-31T17:35:20.000",
    "request_status": "Pending",
    "responsible_agency": "Department of Sanitation",
    "final_address": "5252 Annunciation St",
    "address_councildis": "B",
    "status": "Assigned to Contractor",
    "contractor": "Richards Disposal",
    "rowid": "1022266",
    "final_x": "3667535.18861",
    "final_y": "517534.757814",
    "longitude": "-90.11263677711774",
    "latitude": "29.91745736721848",
    "geocoded_column": {
      "latitude": "29.91745736721848",
      "longitude": "-90.11263677711774"
    }
  },
  {
    "service_request": "2023-1022265",
    "request_type": "Property Maintenance",
    "request_reason": "Property Maintenance",
    "date_created": "2023-07-31T17:26:51.000",
    "date_modified": "2023-07-31T17:26:51.000",
    "request_status": "Pending",
    "responsible_agency": "Department of Code Enforcement",
    "final_address": "2317 S Prieur St",
    "address_councildis": "B",
    "status": "Pending",
    "rowid": "1022265",
    "final_x": "3673788.061",
    "final_y": "528430.481472",
    "longitude": "-90.09252752910655",
    "latitude": "29.947232429703107",
    "geocoded_column": {
      "latitude": "29.947232429703107",
      "longitude": "-90.09252752910655"
    }
  },
  {
    "service_request": "2023-1022264",
    "request_type": "Traffic Signals/Signs/Striping/Streetlights",
    "request_reason": "Street Light Outage/Malfunction",
    "date_created": "2023-07-31T17:20:30.000",
    "date_modified": "2023-07-31T17:20:30.000",
    "request_status": "Pending",
    "responsible_agency": "Department of Public Works",
    "final_address": "1600 Andry St",
    "address_councildis": "E",
    "status": "Assigned to Contractor",
    "contractor": "Legacy Professional Services",
    "rowid": "1022264",
    "final_x": "3697658.40752",
    "final_y": "535865.195463",
    "longitude": "-90.01689054612523",
    "latitude": "29.96694292831665",
    "geocoded_column": {
      "latitude": "29.96694292831665",
      "longitude": "-90.01689054612523"
    }
  },
  {
    "service_request": "2023-1022263",
    "request_type": "Property Maintenance",
    "request_reason": "Property Maintenance",
    "date_created": "2023-07-31T17:19:07.000",
    "date_modified": "2023-07-31T17:19:07.000",
    "request_status": "Pending",
    "responsible_agency": "Department of Code Enforcement",
    "final_address": "2322 S Prieur St",
    "address_councildis": "B",
    "status": "Pending",
    "rowid": "1022263",
    "final_x": "3673770.25268",
    "final_y": "528318.596032",
    "longitude": "-90.09258758204798",
    "latitude": "29.946925311847775",
    "geocoded_column": {
      "latitude": "29.946925311847775",
      "longitude": "-90.09258758204798"
    }
  },
  {
    "service_request": "2023-1022262",
    "request_type": "Trash/Recycling",
    "request_reason": "Request a Large Item Pick Up",
    "date_created": "2023-07-31T17:18:32.000",
    "date_modified": "2023-07-31T17:18:32.000",
    "request_status": "Pending",
    "responsible_agency": "Department of Sanitation",
    "final_address": "1333 Reynes St",
    "address_councildis": "E",
    "status": "Assigned to Contractor",
    "contractor": "Waste Pro",
    "rowid": "1022262",
    "final_x": "3696336.40547",
    "final_y": "535312.610502",
    "longitude": "-90.02108539425744",
    "latitude": "29.96546521274799",
    "geocoded_column": {
      "latitude": "29.96546521274799",
      "longitude": "-90.02108539425744"
    }
  },
  {
    "service_request": "2023-1022260",
    "request_type": "Trash/Recycling",
    "request_reason": "Illegal Dumping",
    "date_created": "2023-07-31T17:10:45.000",
    "date_modified": "2023-07-31T17:10:46.000",
    "request_status": "Pending",
    "responsible_agency": "Department of Sanitation",
    "final_address": "1214 N Johnson St",
    "address_councildis": "D",
    "status": "Pending",
    "rowid": "1022260",
    "final_x": "3679863.38639",
    "final_y": "537016.900872",
    "longitude": "-90.07304724827367",
    "latitude": "29.970659877640863",
    "geocoded_column": {
      "latitude": "29.970659877640863",
      "longitude": "-90.07304724827367"
    }
  },
  {
    "service_request": "2023-1022259",
    "request_type": "Trash/Recycling",
    "request_reason": "Request a Large Item Pick Up",
    "date_created": "2023-07-31T17:05:26.000",
    "date_modified": "2023-07-31T17:05:26.000",
    "request_status": "Pending",
    "responsible_agency": "Department of Sanitation",
    "final_address": "7631 Crestmont Rd",
    "address_councildis": "E",
    "status": "Assigned to Contractor",
    "contractor": "Waste Pro",
    "rowid": "1022259",
    "final_x": "3699657.76964",
    "final_y": "560389.539614",
    "longitude": "-90.00968193620962",
    "latitude": "30.03431241658454",
    "geocoded_column": {
      "latitude": "30.03431241658454",
      "longitude": "-90.00968193620962"
    }
  },
  {
    "service_request": "2023-1022258",
    "request_type": "Trash/Recycling",
    "request_reason": "Replace Trash Cart",
    "date_created": "2023-07-31T16:59:15.000",
    "date_modified": "2023-07-31T16:59:16.000",
    "request_status": "Pending",
    "responsible_agency": "Department of Sanitation",
    "final_address": "808 N Carrollton Ave",
    "address_councildis": "A",
    "status": "Assigned to Contractor",
    "contractor": "Richards Disposal",
    "rowid": "1022258",
    "final_x": "3672901.92264",
    "final_y": "540154.589899",
    "longitude": "-90.09492532894245",
    "latitude": "29.979496155274983",
    "geocoded_column": {
      "latitude": "29.979496155274983",
      "longitude": "-90.09492532894245"
    }
  },
  {
    "service_request": "2023-1022257",
    "request_type": "Trash/Recycling",
    "request_reason": "Request a Large Item Pick Up",
    "date_created": "2023-07-31T16:57:38.000",
    "date_modified": "2023-07-31T16:57:38.000",
    "request_status": "Pending",
    "responsible_agency": "Department of Sanitation",
    "final_address": "1214 Soniat St",
    "address_councildis": "B",
    "status": "Assigned to Contractor",
    "contractor": "Richards Disposal",
    "rowid": "1022257",
    "final_x": "3668340.59578",
    "final_y": "519796.55404",
    "longitude": "-90.11001833274011",
    "latitude": "29.923652976059227",
    "geocoded_column": {
      "latitude": "29.923652976059227",
      "longitude": "-90.11001833274011"
    }
  },
  {
    "service_request": "2023-1022256",
    "request_type": "Trash/Recycling",
    "request_reason": "MIssed Recycling Pick-Up",
    "date_created": "2023-07-31T16:57:03.000",
    "date_modified": "2023-07-31T16:57:04.000",
    "request_status": "Pending",
    "responsible_agency": "Department of Sanitation",
    "final_address": "104 Constitution St, New Orleans, Louisiana, 70114",
    "address_councildis": "C",
    "status": "Assigned to Contractor",
    "contractor": "Richards Disposal",
    "rowid": "1022256",
    "final_x": "3693206.05846",
    "final_y": "528247.77728",
    "longitude": "-90.03122437871811",
    "latitude": "29.946137590915686",
    "geocoded_column": {
      "latitude": "29.946137590915686",
      "longitude": "-90.03122437871811"
    }
  },
  {
    "service_request": "2023-1022255",
    "request_type": "Trash/Recycling",
    "request_reason": "Request a Large Item Pick Up",
    "date_created": "2023-07-31T16:50:55.000",
    "date_modified": "2023-07-31T16:50:55.000",
    "request_status": "Pending",
    "responsible_agency": "Department of Sanitation",
    "final_address": "7322 Maple St",
    "address_councildis": "A",
    "status": "Assigned to Contractor",
    "contractor": "Richards Disposal",
    "rowid": "1022255",
    "final_x": "3662954.40115",
    "final_y": "525565.287869",
    "longitude": "-90.12682891356991",
    "latitude": "29.93967219454169",
    "geocoded_column": {
      "latitude": "29.93967219454169",
      "longitude": "-90.12682891356991"
    }
  },
  {
    "service_request": "2023-1022254",
    "request_type": "Roads/Drainage",
    "request_reason": "Street Subsidence (Sinking)",
    "date_created": "2023-07-31T16:38:44.000",
    "date_modified": "2023-07-31T16:38:44.000",
    "request_status": "Pending",
    "responsible_agency": "Department of Public Works",
    "final_address": "2620 Constance St",
    "address_councildis": "B",
    "status": "Pending",
    "rowid": "1022254",
    "final_x": "3677635.74114",
    "final_y": "520718.010873",
    "longitude": "-90.08064515960905",
    "latitude": "29.92591054345066",
    "geocoded_column": {
      "latitude": "29.92591054345066",
      "longitude": "-90.08064515960905"
    }
  },
  {
    "service_request": "2023-1022252",
    "request_type": "Traffic Signals/Signs/Striping/Streetlights",
    "request_reason": "Street Name Sign Damaged or Missing",
    "date_created": "2023-07-31T16:34:41.000",
    "date_modified": "2023-07-31T16:34:41.000",
    "request_status": "Pending",
    "responsible_agency": "Department of Public Works",
    "final_address": "837 Gravier St",
    "address_councildis": "B",
    "status": "Pending",
    "rowid": "1022252",
    "final_x": "3680198.11157",
    "final_y": "530387.572482",
    "longitude": "-90.07222057043303",
    "latitude": "29.952421353456415",
    "geocoded_column": {
      "latitude": "29.952421353456415",
      "longitude": "-90.07222057043303"
    }
  },
  {
    "service_request": "2023-1022251",
    "request_type": "Trash/Recycling",
    "request_reason": "Request a Large Item Pick Up",
    "date_created": "2023-07-31T16:28:45.000",
    "date_modified": "2023-07-31T16:28:46.000",
    "request_status": "Pending",
    "responsible_agency": "Department of Sanitation",
    "final_address": "6923 Yorktown Dr",
    "address_councildis": "E",
    "status": "Assigned to Contractor",
    "contractor": "Waste Pro",
    "rowid": "1022251",
    "final_x": "3706399.51627",
    "final_y": "560182.333341",
    "longitude": "-89.98838496898541",
    "latitude": "30.033526818810014",
    "geocoded_column": {
      "latitude": "30.033526818810014",
      "longitude": "-89.98838496898541"
    }
  },
  {
    "service_request": "2023-1022250",
    "request_type": "Property Maintenance",
    "request_reason": "Property Maintenance",
    "date_created": "2023-07-31T16:23:37.000",
    "date_modified": "2023-07-31T16:23:37.000",
    "request_status": "Pending",
    "responsible_agency": "Department of Code Enforcement",
    "final_address": "3507 Danneel St",
    "address_councildis": "B",
    "status": "Pending",
    "rowid": "1022250",
    "final_x": "3673178.49019",
    "final_y": "522722.380474",
    "longitude": "-90.09464700833146",
    "latitude": "29.93155514984597",
    "geocoded_column": {
      "latitude": "29.93155514984597",
      "longitude": "-90.09464700833146"
    }
  },
  {
    "service_request": "2023-1022249",
    "request_type": "Trash/Recycling",
    "request_reason": "Request a Large Item Pick Up",
    "date_created": "2023-07-31T16:20:37.000",
    "date_modified": "2023-07-31T16:20:38.000",
    "request_status": "Pending",
    "responsible_agency": "Department of Sanitation",
    "final_address": "2166 Esplanade Ave",
    "address_councildis": "D",
    "status": "Assigned to Contractor",
    "contractor": "Richards Disposal",
    "rowid": "1022249",
    "final_x": "3679611.78261",
    "final_y": "537763.160456",
    "longitude": "-90.07381593715972",
    "latitude": "29.97271944174581",
    "geocoded_column": {
      "latitude": "29.97271944174581",
      "longitude": "-90.07381593715972"
    }
  },
  {
    "service_request": "2023-1022248",
    "request_type": "Trash/Recycling",
    "request_reason": "Request a Large Item Pick Up",
    "date_created": "2023-07-31T16:16:37.000",
    "date_modified": "2023-07-31T16:16:38.000",
    "request_status": "Pending",
    "responsible_agency": "Department of Sanitation",
    "final_address": "5845 Lafaye St",
    "address_councildis": "D",
    "status": "Assigned to Contractor",
    "contractor": "IV Waste",
    "rowid": "1022248",
    "final_x": "3687202.94198",
    "final_y": "554840.8694",
    "longitude": "-90.04923728967222",
    "latitude": "30.0194453683588",
    "geocoded_column": {
      "latitude": "30.0194453683588",
      "longitude": "-90.04923728967222"
    }
  },
  {
    "service_request": "2023-1022247",
    "request_type": "Trash/Recycling",
    "request_reason": "Replace Trash Cart",
    "date_created": "2023-07-31T16:16:31.000",
    "date_modified": "2023-07-31T16:16:31.000",
    "request_status": "Pending",
    "responsible_agency": "Department of Sanitation",
    "final_address": "4211 Downman Rd",
    "address_councildis": "D",
    "status": "Assigned to Contractor",
    "contractor": "Waste Pro",
    "rowid": "1022247",
    "final_x": "3696194.1489",
    "final_y": "552711.42127",
    "longitude": "-90.02090530511437",
    "latitude": "30.01331006779777",
    "geocoded_column": {
      "latitude": "30.01331006779777",
      "longitude": "-90.02090530511437"
    }
  },
  {
    "service_request": "2023-1022246",
    "request_type": "Traffic Signals/Signs/Striping/Streetlights",
    "request_reason": "Traffic Signal Malfunctioning/Damaged",
    "date_created": "2023-07-31T16:14:38.000",
    "date_modified": "2023-07-31T16:14:38.000",
    "request_status": "Pending",
    "responsible_agency": "Department of Public Works",
    "final_address": "CROWDER BLVD & I 10 W SERVICE RD",
    "address_councildis": "E",
    "status": "Pending",
    "rowid": "1022246",
    "final_x": "3704485.5",
    "final_y": "559297.68",
    "longitude": "-89.99446609013799",
    "latitude": "30.031156002202795",
    "geocoded_column": {
      "latitude": "30.031156002202795",
      "longitude": "-89.99446609013799"
    }
  },
  {
    "service_request": "2023-1022245",
    "request_type": "Traffic Signals/Signs/Striping/Streetlights",
    "request_reason": "Traffic Signal Malfunctioning/Damaged",
    "date_created": "2023-07-31T16:13:49.000",
    "date_modified": "2023-07-31T16:13:49.000",
    "request_status": "Pending",
    "responsible_agency": "Department of Public Works",
    "final_address": "CROWDER BLVD & I 10 E SERVICE RD",
    "address_councildis": "E",
    "status": "Pending",
    "rowid": "1022245",
    "final_x": "3704930.5",
    "final_y": "558375.78",
    "longitude": "-89.9930939603255",
    "latitude": "30.02860683229059",
    "geocoded_column": {
      "latitude": "30.02860683229059",
      "longitude": "-89.9930939603255"
    }
  },
  {
    "service_request": "2023-1022244",
    "request_type": "Traffic Signals/Signs/Striping/Streetlights",
    "request_reason": "Street Light Outage/Malfunction",
    "date_created": "2023-07-31T16:13:28.000",
    "date_modified": "2023-07-31T16:13:29.000",
    "request_status": "Pending",
    "responsible_agency": "Department of Public Works",
    "final_address": "1601 S Gayoso St",
    "address_councildis": "B",
    "status": "Assigned to Contractor",
    "contractor": "Legacy Professional Services",
    "rowid": "1022244",
    "final_x": "3670536.67771",
    "final_y": "530549.162882",
    "longitude": "-90.10272155941153",
    "latitude": "29.95315451984352",
    "geocoded_column": {
      "latitude": "29.95315451984352",
      "longitude": "-90.10272155941153"
    }
  },
  {
    "service_request": "2023-1022243",
    "request_type": "Trash/Recycling",
    "request_reason": "Repair Trash Cart",
    "date_created": "2023-07-31T16:11:44.000",
    "date_modified": "2023-07-31T16:11:44.000",
    "request_status": "Pending",
    "responsible_agency": "Department of Sanitation",
    "final_address": "4123 Dreux Ave",
    "address_councildis": "D",
    "status": "Assigned to Contractor",
    "contractor": "IV Waste",
    "rowid": "1022243",
    "final_x": "3689210.17219",
    "final_y": "552735.276182",
    "longitude": "-90.04297005563537",
    "latitude": "30.013593763665096",
    "geocoded_column": {
      "latitude": "30.013593763665096",
      "longitude": "-90.04297005563537"
    }
  },
  {
    "service_request": "2023-1022242",
    "request_type": "Trash/Recycling",
    "request_reason": "Order Recycling Cart",
    "date_created": "2023-07-31T16:08:14.000",
    "date_modified": "2023-07-31T16:08:14.000",
    "request_status": "Pending",
    "responsible_agency": "Department of Sanitation",
    "final_address": "5731 Tchoupitoulas St",
    "address_councildis": "A",
    "status": "Pending",
    "rowid": "1022242",
    "final_x": "3665229.09274",
    "final_y": "517299.916469",
    "longitude": "-90.1199237029319",
    "latitude": "29.916878978069498",
    "geocoded_column": {
      "latitude": "29.916878978069498",
      "longitude": "-90.1199237029319"
    }
  },
  {
    "service_request": "2023-1022241",
    "request_type": "Roads/Drainage",
    "request_reason": "Damaged Sidewalk",
    "date_created": "2023-07-31T16:07:47.000",
    "date_modified": "2023-07-31T16:07:47.000",
    "request_status": "Pending",
    "responsible_agency": "Department of Public Works",
    "final_address": "9781 W Rockton Cir",
    "address_councildis": "E",
    "status": "Pending",
    "rowid": "1022241",
    "final_x": "3708225.08574",
    "final_y": "562794.716768",
    "longitude": "-89.98251869808557",
    "latitude": "30.040650792953492",
    "geocoded_column": {
      "latitude": "30.040650792953492",
      "longitude": "-89.98251869808557"
    }
  },
  {
    "service_request": "2023-1022240",
    "request_type": "Trash/Recycling",
    "request_reason": "Request a Large Item Pick Up",
    "date_created": "2023-07-31T16:06:25.000",
    "date_modified": "2023-07-31T16:06:26.000",
    "request_status": "Pending",
    "responsible_agency": "Department of Sanitation",
    "final_address": "511 Turquoise St",
    "address_councildis": "D",
    "status": "Assigned to Contractor",
    "contractor": "IV Waste",
    "rowid": "1022240",
    "final_x": "3668247.57959",
    "final_y": "555420.853593",
    "longitude": "-90.10911049761216",
    "latitude": "30.02161058882869",
    "geocoded_column": {
      "latitude": "30.02161058882869",
      "longitude": "-90.10911049761216"
    }
  },
  {
    "service_request": "2023-1022239",
    "request_type": "Trash/Recycling",
    "request_reason": "MIssed Recycling Pick-Up",
    "date_created": "2023-07-31T16:04:43.000",
    "date_modified": "2023-07-31T16:04:44.000",
    "request_status": "Pending",
    "responsible_agency": "Department of Sanitation",
    "final_address": "56 Yosemite Dr",
    "address_councildis": "C",
    "status": "Assigned to Contractor",
    "contractor": "Richards Disposal",
    "rowid": "1022239",
    "final_x": "3699829.66903",
    "final_y": "516590.687221",
    "longitude": "-90.01073632493409",
    "latitude": "29.91387599089563",
    "geocoded_column": {
      "latitude": "29.91387599089563",
      "longitude": "-90.01073632493409"
    }
  },
  {
    "service_request": "2023-1022238",
    "request_type": "Safety & Permits",
    "request_reason": "Licenses & Permits",
    "date_created": "2023-07-31T15:51:55.000",
    "date_modified": "2023-07-31T15:51:56.000",
    "request_status": "Pending",
    "responsible_agency": "Safety and Permits",
    "final_address": "600 N Claiborne Ave",
    "address_councildis": "C",
    "status": "Pending",
    "rowid": "1022238",
    "final_x": "3679685.40226",
    "final_y": "534417.705349",
    "longitude": "-90.07369958102653",
    "latitude": "29.963518360611847",
    "geocoded_column": {
      "latitude": "29.963518360611847",
      "longitude": "-90.07369958102653"
    }
  },
  {
    "service_request": "2023-1022237",
    "request_type": "Abandoned Vehicles",
    "request_reason": "Abandoned/Junk Vehicles",
    "date_created": "2023-07-31T15:42:54.000",
    "date_modified": "2023-07-31T15:42:54.000",
    "request_status": "Pending",
    "responsible_agency": "Department of Public Works",
    "final_address": "1200 BLK Saint Philip St",
    "address_councildis": "C",
    "status": "Pending",
    "rowid": "1022237",
    "final_x": "3681608.30013",
    "final_y": "534588.225231",
    "longitude": "-90.06762133008787",
    "latitude": "29.963928967845668",
    "geocoded_column": {
      "latitude": "29.963928967845668",
      "longitude": "-90.06762133008787"
    }
  },
  {
    "service_request": "2023-1022236",
    "request_type": "Traffic Signals/Signs/Striping/Streetlights",
    "request_reason": "Street Light Outage/Malfunction",
    "date_created": "2023-07-31T15:42:42.000",
    "date_modified": "2023-07-31T15:42:51.000",
    "request_status": "Pending",
    "responsible_agency": "Department of Public Works",
    "final_address": "2604 Coliseum St",
    "address_councildis": "B",
    "status": "Assigned to Contractor",
    "contractor": "Legacy Professional Services",
    "rowid": "1022236",
    "final_x": "3676986.6701",
    "final_y": "521959.754618",
    "longitude": "-90.08265130144797",
    "latitude": "29.929344430826447",
    "geocoded_column": {
      "latitude": "29.929344430826447",
      "longitude": "-90.08265130144797"
    }
  },
  {
    "service_request": "2023-1022234",
    "request_type": "Traffic Signals/Signs/Striping/Streetlights",
    "request_reason": "Additional signage",
    "date_created": "2023-07-31T15:42:05.000",
    "date_modified": "2023-07-31T15:42:05.000",
    "request_status": "Pending",
    "responsible_agency": "Department of Public Works",
    "final_address": "0 BLK Claiborne Dr",
    "address_councildis": "A",
    "status": "Pending",
    "rowid": "1022234",
    "final_x": "3674085.17443",
    "final_y": "541752.972384",
    "longitude": "-90.09113341263269",
    "latitude": "29.983855941679376",
    "geocoded_column": {
      "latitude": "29.983855941679376",
      "longitude": "-90.09113341263269"
    }
  },
  {
    "service_request": "2023-1022233",
    "request_type": "Safety & Permits",
    "request_reason": "Construction permit",
    "date_created": "2023-07-31T15:38:51.000",
    "date_modified": "2023-07-31T15:38:51.000",
    "request_status": "Pending",
    "responsible_agency": "Department of Code Enforcement",
    "final_address": "1800 St Philip St",
    "address_councildis": "D",
    "status": "Pending",
    "rowid": "1022233",
    "final_x": "3680091.38875",
    "final_y": "535694.293255",
    "longitude": "-90.07237315570845",
    "latitude": "29.967016263046936",
    "geocoded_column": {
      "latitude": "29.967016263046936",
      "longitude": "-90.07237315570845"
    }
  },
  {
    "service_request": "2023-1022232",
    "request_type": "Trash/Recycling",
    "request_reason": "Repair Trash Cart",
    "date_created": "2023-07-31T15:38:18.000",
    "date_modified": "2023-07-31T15:38:18.000",
    "request_status": "Pending",
    "responsible_agency": "Department of Sanitation",
    "final_address": "3530 Mansfield Ave",
    "address_councildis": "C",
    "status": "Assigned to Contractor",
    "contractor": "Richards Disposal",
    "rowid": "1022232",
    "final_x": "3709077.12555",
    "final_y": "517730.204342",
    "longitude": "-89.98150620088597",
    "latitude": "29.916712528881447",
    "geocoded_column": {
      "latitude": "29.916712528881447",
      "longitude": "-89.98150620088597"
    }
  },
  {
    "service_request": "2023-1022231",
    "request_type": "Abandoned Vehicles",
    "request_reason": "Abandoned/Junk Vehicles",
    "date_created": "2023-07-31T15:38:15.000",
    "date_modified": "2023-07-31T15:38:15.000",
    "request_status": "Pending",
    "responsible_agency": "Department of Public Works",
    "final_address": "2607 Coliseum St",
    "address_councildis": "B",
    "status": "Pending",
    "rowid": "1022231",
    "final_x": "3676910.50472",
    "final_y": "522022.929082",
    "longitude": "-90.08288956509179",
    "latitude": "29.929520425737618",
    "geocoded_column": {
      "latitude": "29.929520425737618",
      "longitude": "-90.08288956509179"
    }
  },
  {
    "service_request": "2023-1022230",
    "request_type": "Safety & Permits",
    "request_reason": "Construction permit",
    "date_created": "2023-07-31T15:36:28.000",
    "date_modified": "2023-07-31T15:36:28.000",
    "request_status": "Pending",
    "responsible_agency": "Department of Code Enforcement",
    "final_address": "1900 St Philip St",
    "address_councildis": "D",
    "status": "Pending",
    "rowid": "1022230",
    "final_x": "3679824.37992",
    "final_y": "535929.993671",
    "longitude": "-90.07320818480022",
    "latitude": "29.9676724352585",
    "geocoded_column": {
      "latitude": "29.9676724352585",
      "longitude": "-90.07320818480022"
    }
  },
  {
    "service_request": "2023-1022229",
    "request_type": "Trash/Recycling",
    "request_reason": "Repair Trash Cart",
    "date_created": "2023-07-31T15:35:25.000",
    "date_modified": "2023-07-31T15:35:26.000",
    "request_status": "Pending",
    "responsible_agency": "Department of Sanitation",
    "final_address": "5610 Norland Ave",
    "address_councildis": "C",
    "status": "Assigned to Contractor",
    "contractor": "Richards Disposal",
    "rowid": "1022229",
    "final_x": "3704333.84433",
    "final_y": "520767.566201",
    "longitude": "-89.99636597620565",
    "latitude": "29.92521724177988",
    "geocoded_column": {
      "latitude": "29.92521724177988",
      "longitude": "-89.99636597620565"
    }
  },
  {
    "service_request": "2023-1022228",
    "request_type": "Trash/Recycling",
    "request_reason": "Repair Trash Cart",
    "date_created": "2023-07-31T15:34:39.000",
    "date_modified": "2023-07-31T15:34:40.000",
    "request_status": "Pending",
    "responsible_agency": "Department of Sanitation",
    "final_address": "4512 Virgilian St",
    "address_councildis": "D",
    "status": "Assigned to Contractor",
    "contractor": "Waste Pro",
    "rowid": "1022228",
    "final_x": "3697515.51191",
    "final_y": "552527.696214",
    "longitude": "-90.01673719139977",
    "latitude": "30.01276321196407",
    "geocoded_column": {
      "latitude": "30.01276321196407",
      "longitude": "-90.01673719139977"
    }
  },
  {
    "service_request": "2023-1022227",
    "request_type": "Roads/Drainage",
    "request_reason": "Debris in Roadway",
    "date_created": "2023-07-31T15:34:20.000",
    "date_modified": "2023-07-31T15:34:20.000",
    "request_status": "Pending",
    "responsible_agency": "Department of Public Works",
    "final_address": "1835 St Philip St",
    "address_councildis": "D",
    "status": "Pending",
    "rowid": "1022227",
    "final_x": "3679948.03567",
    "final_y": "535923.029575",
    "longitude": "-90.0728179188473",
    "latitude": "29.967649546567568",
    "geocoded_column": {
      "latitude": "29.967649546567568",
      "longitude": "-90.0728179188473"
    }
  },
  {
    "service_request": "2023-1022226",
    "request_type": "Property Maintenance",
    "request_reason": "Property Maintenance",
    "date_created": "2023-07-31T15:32:36.000",
    "date_modified": "2023-07-31T17:00:30.000",
    "request_status": "Pending",
    "responsible_agency": "Department of Code Enforcement",
    "final_address": "9009 Green St",
    "address_councildis": "A",
    "status": "Pending",
    "rowid": "1022226",
    "final_x": "3660767.0343",
    "final_y": "531895.759171",
    "longitude": "-90.13352549756449",
    "latitude": "29.957142116434067",
    "geocoded_column": {
      "latitude": "29.957142116434067",
      "longitude": "-90.13352549756449"
    }
  },
  {
    "service_request": "2023-1022225",
    "request_type": "Trash/Recycling",
    "request_reason": "Return Trash Cart",
    "date_created": "2023-07-31T15:30:50.000",
    "date_modified": "2023-07-31T15:30:50.000",
    "request_status": "Pending",
    "responsible_agency": "Department of Sanitation",
    "final_address": "1646 Elizardi Blvd",
    "address_councildis": "C",
    "status": "Assigned to Contractor",
    "contractor": "Richards Disposal",
    "rowid": "1022225",
    "final_x": "3694737.95107",
    "final_y": "524911.70406",
    "longitude": "-90.02650781979878",
    "latitude": "29.936916585402756",
    "geocoded_column": {
      "latitude": "29.936916585402756",
      "longitude": "-90.02650781979878"
    }
  },
  {
    "service_request": "2023-1022224",
    "request_type": "Trash/Recycling",
    "request_reason": "Order Recycling Cart",
    "date_created": "2023-07-31T15:28:40.000",
    "date_modified": "2023-07-31T15:28:41.000",
    "request_status": "Pending",
    "responsible_agency": "Department of Sanitation",
    "final_address": "1621 N Galvez St Apt 2B",
    "address_councildis": "D",
    "status": "Pending",
    "rowid": "1022224",
    "final_x": "3680840.44571",
    "final_y": "539061.516042",
    "longitude": "-90.06989038083104",
    "latitude": "29.976252277572016",
    "geocoded_column": {
      "latitude": "29.976252277572016",
      "longitude": "-90.06989038083104"
    }
  },
  {
    "service_request": "2023-1022223",
    "request_type": "Trash/Recycling",
    "request_reason": "Request a Large Item Pick Up",
    "date_created": "2023-07-31T15:28:39.000",
    "date_modified": "2023-07-31T15:28:40.000",
    "request_status": "Pending",
    "responsible_agency": "Department of Sanitation",
    "final_address": "5808 Orleans Ave",
    "address_councildis": "A",
    "status": "Assigned to Contractor",
    "contractor": "IV Waste",
    "rowid": "1022223",
    "final_x": "3670724.15515",
    "final_y": "545846.088464",
    "longitude": "-90.10161037228227",
    "latitude": "29.995210363979112",
    "geocoded_column": {
      "latitude": "29.995210363979112",
      "longitude": "-90.10161037228227"
    }
  },
  {
    "service_request": "2023-1022222",
    "request_type": "Trash/Recycling",
    "request_reason": "Request a Large Item Pick Up",
    "date_created": "2023-07-31T15:23:14.000",
    "date_modified": "2023-07-31T15:23:15.000",
    "request_status": "Pending",
    "responsible_agency": "Department of Sanitation",
    "final_address": "7162 Parkside Ct",
    "address_councildis": "E",
    "status": "Assigned to Contractor",
    "contractor": "Waste Pro",
    "rowid": "1022222",
    "final_x": "3704286.02455",
    "final_y": "560376.611806",
    "longitude": "-89.99505661424459",
    "latitude": "30.034129050313837",
    "geocoded_column": {
      "latitude": "30.034129050313837",
      "longitude": "-89.99505661424459"
    }
  },
  {
    "service_request": "2023-1022221",
    "request_type": "Abandoned Vehicles",
    "request_reason": "Abandoned/Junk Vehicles",
    "date_created": "2023-07-31T15:12:53.000",
    "date_modified": "2023-07-31T15:12:53.000",
    "request_status": "Pending",
    "responsible_agency": "Department of Public Works",
    "final_address": "4823 Nottingham Dr",
    "address_councildis": "E",
    "status": "Pending",
    "rowid": "1022221",
    "final_x": "3716435.07832",
    "final_y": "557281.828763",
    "longitude": "-89.9567819682965",
    "latitude": "30.025223884484923",
    "geocoded_column": {
      "latitude": "30.025223884484923",
      "longitude": "-89.9567819682965"
    }
  },
  {
    "service_request": "2023-1022220",
    "request_type": "Trash/Recycling",
    "request_reason": "Missed Trash Pick-Up",
    "date_created": "2023-07-31T15:12:26.000",
    "date_modified": "2023-07-31T15:12:27.000",
    "request_status": "Pending",
    "responsible_agency": "Department of Sanitation",
    "final_address": "7716 Michigan St",
    "address_councildis": "E",
    "status": "Assigned to Contractor",
    "contractor": "Waste Pro",
    "rowid": "1022220",
    "final_x": "3711434.58264",
    "final_y": "566966.48298",
    "longitude": "-89.97221909972906",
    "latitude": "30.052017041274986",
    "geocoded_column": {
      "latitude": "30.052017041274986",
      "longitude": "-89.97221909972906"
    }
  },
  {
    "service_request": "2023-1022219",
    "request_type": "Abandoned Vehicles",
    "request_reason": "Abandoned/Junk Vehicles",
    "date_created": "2023-07-31T15:10:54.000",
    "date_modified": "2023-07-31T15:10:54.000",
    "request_status": "Pending",
    "responsible_agency": "Department of Public Works",
    "final_address": "1438 Burdette St",
    "address_councildis": "A",
    "status": "Pending",
    "rowid": "1022219",
    "final_x": "3663418.00711",
    "final_y": "528355.176512",
    "longitude": "-90.12527237443275",
    "latitude": "29.94733006553212",
    "geocoded_column": {
      "latitude": "29.94733006553212",
      "longitude": "-90.12527237443275"
    }
  },
  {
    "service_request": "2023-1022218",
    "request_type": "Trash/Recycling",
    "request_reason": "Request a Large Item Pick Up",
    "date_created": "2023-07-31T15:02:23.000",
    "date_modified": "2023-07-31T15:02:24.000",
    "request_status": "Pending",
    "responsible_agency": "Department of Sanitation",
    "final_address": "2200 Kraft Pl",
    "address_councildis": "C",
    "status": "Assigned to Contractor",
    "contractor": "Richards Disposal",
    "rowid": "1022218",
    "final_x": "3692504.80342",
    "final_y": "523380.836859",
    "longitude": "-90.03361277528383",
    "latitude": "29.932777064323076",
    "geocoded_column": {
      "latitude": "29.932777064323076",
      "longitude": "-90.03361277528383"
    }
  },
  {
    "service_request": "2023-1022217",
    "request_type": "Trash/Recycling",
    "request_reason": "Illegal Dumping",
    "date_created": "2023-07-31T15:00:57.000",
    "date_modified": "2023-07-31T15:00:57.000",
    "request_status": "Pending",
    "responsible_agency": "Department of Sanitation",
    "final_address": "7801 Read Blvd",
    "address_councildis": "E",
    "status": "Pending",
    "rowid": "1022217",
    "final_x": "3708432.05259",
    "final_y": "564928.013474",
    "longitude": "-89.98178509655871",
    "latitude": "30.04650979634862",
    "geocoded_column": {
      "latitude": "30.04650979634862",
      "longitude": "-89.98178509655871"
    }
  },
  {
    "service_request": "2023-1022216",
    "request_type": "Trash/Recycling",
    "request_reason": "Missed Trash Pick-Up",
    "date_created": "2023-07-31T14:45:36.000",
    "date_modified": "2023-07-31T14:45:37.000",
    "request_status": "Pending",
    "responsible_agency": "Department of Sanitation",
    "final_address": "2349 Magazine St",
    "address_councildis": "B",
    "status": "Assigned to Contractor",
    "contractor": "Richards Disposal",
    "rowid": "1022216",
    "final_x": "3678204.50888",
    "final_y": "521638.406009",
    "longitude": "-90.07881791789399",
    "latitude": "29.92842422034972",
    "geocoded_column": {
      "latitude": "29.92842422034972",
      "longitude": "-90.07881791789399"
    }
  },
  {
    "service_request": "2023-1022215",
    "request_type": "Abandoned Vehicles",
    "request_reason": "Abandoned/Junk Vehicles",
    "date_created": "2023-07-31T14:45:00.000",
    "date_modified": "2023-07-31T14:45:00.000",
    "request_status": "Pending",
    "responsible_agency": "Department of Public Works",
    "final_address": "719 S Dupre St",
    "address_councildis": "B",
    "status": "Pending",
    "rowid": "1022215",
    "final_x": "3673011.51131",
    "final_y": "533619.045125",
    "longitude": "-90.09480232008228",
    "latitude": "29.96152235837982",
    "geocoded_column": {
      "latitude": "29.96152235837982",
      "longitude": "-90.09480232008228"
    }
  },
  {
    "service_request": "2023-1022213",
    "request_type": "Trash/Recycling",
    "request_reason": "Replace Trash Cart",
    "date_created": "2023-07-31T14:44:43.000",
    "date_modified": "2023-07-31T14:44:44.000",
    "request_status": "Pending",
    "responsible_agency": "Department of Sanitation",
    "final_address": "4211 S Broad St",
    "address_councildis": "B",
    "status": "Assigned to Contractor",
    "contractor": "Richards Disposal",
    "rowid": "1022213",
    "final_x": "3670501.98574",
    "final_y": "529393.949441",
    "longitude": "-90.10287027240601",
    "latitude": "29.949979086816178",
    "geocoded_column": {
      "latitude": "29.949979086816178",
      "longitude": "-90.10287027240601"
    }
  },
  {
    "service_request": "2023-1022212",
    "request_type": "Trash/Recycling",
    "request_reason": "Request a Large Item Pick Up",
    "date_created": "2023-07-31T14:43:25.000",
    "date_modified": "2023-07-31T14:43:25.000",
    "request_status": "Pending",
    "responsible_agency": "Department of Sanitation",
    "final_address": "4224 Dumaine St",
    "address_councildis": "A",
    "status": "Assigned to Contractor",
    "contractor": "Richards Disposal",
    "rowid": "1022212",
    "final_x": "3672200.63515",
    "final_y": "541214.35886",
    "longitude": "-90.09710416748482",
    "latitude": "29.98243098022812",
    "geocoded_column": {
      "latitude": "29.98243098022812",
      "longitude": "-90.09710416748482"
    }
  },
  {
    "service_request": "2023-1022211",
    "request_type": "Trash/Recycling",
    "request_reason": "Return Recycling Cart",
    "date_created": "2023-07-31T14:40:52.000",
    "date_modified": "2023-07-31T14:40:52.000",
    "request_status": "Pending",
    "responsible_agency": "Department of Sanitation",
    "final_address": "3131 Dickens Dr",
    "address_councildis": "C",
    "status": "Pending",
    "rowid": "1022211",
    "final_x": "3708272.32113",
    "final_y": "518685.824119",
    "longitude": "-89.98401095336939",
    "latitude": "29.919366233392076",
    "geocoded_column": {
      "latitude": "29.919366233392076",
      "longitude": "-89.98401095336939"
    }
  },
  {
    "service_request": "2023-1022210",
    "request_type": "Trash/Recycling",
    "request_reason": "Request a Large Item Pick Up",
    "date_created": "2023-07-31T14:40:06.000",
    "date_modified": "2023-07-31T14:40:07.000",
    "request_status": "Pending",
    "responsible_agency": "Department of Sanitation",
    "final_address": "2447 Odin St",
    "address_councildis": "D",
    "status": "Assigned to Contractor",
    "contractor": "IV Waste",
    "rowid": "1022210",
    "final_x": "3685649.96758",
    "final_y": "553243.563799",
    "longitude": "-90.05420049879214",
    "latitude": "30.01510112750866",
    "geocoded_column": {
      "latitude": "30.01510112750866",
      "longitude": "-90.05420049879214"
    }
  },
  {
    "service_request": "2023-1022209",
    "request_type": "Roads/Drainage",
    "request_reason": "Street Subsidence (Sinking)",
    "date_created": "2023-07-31T14:34:23.000",
    "date_modified": "2023-07-31T16:54:54.000",
    "request_status": "Pending",
    "responsible_agency": "Department of Public Works",
    "final_address": "1901 Wildair Dr",
    "address_councildis": "D",
    "status": "Inspected",
    "rowid": "1022209",
    "final_x": "3681131.11554",
    "final_y": "551242.197653",
    "longitude": "-90.06854772342301",
    "latitude": "30.00973602689645",
    "geocoded_column": {
      "latitude": "30.00973602689645",
      "longitude": "-90.06854772342301"
    }
  },
  {
    "service_request": "2023-1022208",
    "request_type": "Property Maintenance",
    "request_reason": "Property Maintenance",
    "date_created": "2023-07-31T14:32:01.000",
    "date_modified": "2023-07-31T14:32:01.000",
    "request_status": "Pending",
    "responsible_agency": "Department of Code Enforcement",
    "final_address": "8900 BLK Palm St",
    "address_councildis": "A",
    "status": "Pending",
    "rowid": "1022208",
    "final_x": "3665498.76739",
    "final_y": "536714.564482",
    "longitude": "-90.11842274564562",
    "latitude": "29.970255162128414",
    "geocoded_column": {
      "latitude": "29.970255162128414",
      "longitude": "-90.11842274564562"
    }
  },
  {
    "service_request": "2023-1022207",
    "request_type": "Trash/Recycling",
    "request_reason": "Request a Large Item Pick Up",
    "date_created": "2023-07-31T14:31:41.000",
    "date_modified": "2023-07-31T14:31:41.000",
    "request_status": "Pending",
    "responsible_agency": "Department of Sanitation",
    "final_address": "6084 Warrington Dr",
    "address_councildis": "D",
    "status": "Assigned to Contractor",
    "contractor": "IV Waste",
    "rowid": "1022207",
    "final_x": "3680621.97211",
    "final_y": "555419.519897",
    "longitude": "-90.07001078064727",
    "latitude": "30.021237590315067",
    "geocoded_column": {
      "latitude": "30.021237590315067",
      "longitude": "-90.07001078064727"
    }
  },
  {
    "service_request": "2023-1022206",
    "request_type": "Trash/Recycling",
    "request_reason": "Order Trash Cart",
    "date_created": "2023-07-31T14:30:31.000",
    "date_modified": "2023-07-31T14:30:32.000",
    "request_status": "Pending",
    "responsible_agency": "Department of Sanitation",
    "final_address": "14606 Curran Rd",
    "address_councildis": "E",
    "status": "Assigned to Contractor",
    "contractor": "Waste Pro",
    "rowid": "1022206",
    "final_x": "3719872.9623",
    "final_y": "573386.751082",
    "longitude": "-89.94530246972059",
    "latitude": "30.069391782632394",
    "geocoded_column": {
      "latitude": "30.069391782632394",
      "longitude": "-89.94530246972059"
    }
  },
  {
    "service_request": "2023-1022205",
    "request_type": "Trash/Recycling",
    "request_reason": "Request a Large Item Pick Up",
    "date_created": "2023-07-31T14:28:19.000",
    "date_modified": "2023-07-31T14:28:20.000",
    "request_status": "Pending",
    "responsible_agency": "Department of Sanitation",
    "final_address": "2615 Roffignac St",
    "address_councildis": "E",
    "status": "Assigned to Contractor",
    "contractor": "Waste Pro",
    "rowid": "1022205",
    "final_x": "3700732.23204",
    "final_y": "539194.774282",
    "longitude": "-90.00706176157132",
    "latitude": "29.976000604017297",
    "geocoded_column": {
      "latitude": "29.976000604017297",
      "longitude": "-90.00706176157132"
    }
  },
  {
    "service_request": "2023-1022204",
    "request_type": "Trash/Recycling",
    "request_reason": "Request a Large Item Pick Up",
    "date_created": "2023-07-31T14:27:58.000",
    "date_modified": "2023-07-31T14:27:58.000",
    "request_status": "Pending",
    "responsible_agency": "Department of Sanitation",
    "final_address": "5520 Wingate Dr",
    "address_councildis": "D",
    "status": "Assigned to Contractor",
    "contractor": "IV Waste",
    "rowid": "1022204",
    "final_x": "3681271.35439",
    "final_y": "553379.970647",
    "longitude": "-90.06803007767462",
    "latitude": "30.01560987128206",
    "geocoded_column": {
      "latitude": "30.01560987128206",
      "longitude": "-90.06803007767462"
    }
  },
  {
    "service_request": "2023-1022203",
    "request_type": "Abandoned Vehicles",
    "request_reason": "Abandoned/Junk Vehicles",
    "date_created": "2023-07-31T14:27:13.000",
    "date_modified": "2023-07-31T14:27:13.000",
    "request_status": "Pending",
    "responsible_agency": "Department of Public Works",
    "final_address": "8700 BLK Curran Rd",
    "address_councildis": "E",
    "status": "Inspected",
    "rowid": "1022203",
    "final_x": "3704543.22145",
    "final_y": "562768.959223",
    "longitude": "-89.9941554878265",
    "latitude": "30.040698802975264",
    "geocoded_column": {
      "latitude": "30.040698802975264",
      "longitude": "-89.9941554878265"
    }
  },
  {
    "service_request": "2023-1022202",
    "request_type": "Abandoned Vehicles",
    "request_reason": "Abandoned/Junk Vehicles",
    "date_created": "2023-07-31T14:24:16.000",
    "date_modified": "2023-07-31T14:29:12.000",
    "request_status": "Pending",
    "responsible_agency": "Department of Public Works",
    "final_address": "UPPERLINE ST & CONSTANCE ST",
    "address_councildis": "B",
    "status": "Pending",
    "rowid": "1022202",
    "final_x": "3668984.2",
    "final_y": "518206.18",
    "longitude": "-90.1080403877543",
    "latitude": "29.919261041063876",
    "geocoded_column": {
      "latitude": "29.919261041063876",
      "longitude": "-90.1080403877543"
    }
  },
  {
    "service_request": "2023-1022201",
    "request_type": "Trash/Recycling",
    "request_reason": "Return Recycling Cart",
    "date_created": "2023-07-31T14:22:15.000",
    "date_modified": "2023-07-31T14:22:15.000",
    "request_status": "Pending",
    "responsible_agency": "Department of Sanitation",
    "final_address": "1535 Port St",
    "address_councildis": "C",
    "status": "Pending",
    "rowid": "1022201",
    "final_x": "3687917.45225",
    "final_y": "538185.675337",
    "longitude": "-90.04757019257639",
    "latitude": "29.97362756100885",
    "geocoded_column": {
      "latitude": "29.97362756100885",
      "longitude": "-90.04757019257639"
    }
  },
  {
    "service_request": "2023-1022200",
    "request_type": "Roads/Drainage",
    "request_reason": "Pothole",
    "date_created": "2023-07-31T14:21:35.000",
    "date_modified": "2023-07-31T14:21:35.000",
    "request_status": "Pending",
    "responsible_agency": "Department of Public Works",
    "final_address": "3011 Eagle St",
    "address_councildis": "A",
    "status": "Pending",
    "rowid": "1022200",
    "final_x": "3664562.34906",
    "final_y": "534859.33223",
    "longitude": "-90.12144203547444",
    "latitude": "29.965181152769507",
    "geocoded_column": {
      "latitude": "29.965181152769507",
      "longitude": "-90.12144203547444"
    }
  },
  {
    "service_request": "2023-1022199",
    "request_type": "Trash/Recycling",
    "request_reason": "Order Recycling Cart",
    "date_created": "2023-07-31T14:20:44.000",
    "date_modified": "2023-07-31T14:20:44.000",
    "request_status": "Pending",
    "responsible_agency": "Department of Sanitation",
    "final_address": "2420 Marengo St",
    "address_councildis": "B",
    "status": "Pending",
    "rowid": "1022199",
    "final_x": "3671604.79943",
    "final_y": "523977.643004",
    "longitude": "-90.09957230877285",
    "latitude": "29.935053400604488",
    "geocoded_column": {
      "latitude": "29.935053400604488",
      "longitude": "-90.09957230877285"
    }
  },
  {
    "service_request": "2023-1022198",
    "request_type": "Trash/Recycling",
    "request_reason": "Order Trash Cart",
    "date_created": "2023-07-31T14:19:59.000",
    "date_modified": "2023-07-31T14:20:00.000",
    "request_status": "Pending",
    "responsible_agency": "Department of Sanitation",
    "final_address": "2420 Marengo St",
    "address_councildis": "B",
    "status": "Assigned to Contractor",
    "contractor": "Richards Disposal",
    "rowid": "1022198",
    "final_x": "3671604.79943",
    "final_y": "523977.643004",
    "longitude": "-90.09957230877285",
    "latitude": "29.935053400604488",
    "geocoded_column": {
      "latitude": "29.935053400604488",
      "longitude": "-90.09957230877285"
    }
  },
  {
    "service_request": "2023-1022197",
    "request_type": "Trash/Recycling",
    "request_reason": "Return Recycling Cart",
    "date_created": "2023-07-31T14:19:21.000",
    "date_modified": "2023-07-31T14:19:22.000",
    "request_status": "Pending",
    "responsible_agency": "Department of Sanitation",
    "final_address": "1535 Port St",
    "address_councildis": "C",
    "status": "Pending",
    "rowid": "1022197",
    "final_x": "3687917.45225",
    "final_y": "538185.675337",
    "longitude": "-90.04757019257639",
    "latitude": "29.97362756100885",
    "geocoded_column": {
      "latitude": "29.97362756100885",
      "longitude": "-90.04757019257639"
    }
  },
  {
    "service_request": "2023-1022196",
    "request_type": "Roads/Drainage",
    "request_reason": "Street Subsidence (Sinking)",
    "date_created": "2023-07-31T14:17:45.000",
    "date_modified": "2023-07-31T14:17:45.000",
    "request_status": "Pending",
    "responsible_agency": "Department of Public Works",
    "final_address": "COLISEUM ST & JOSEPHINE ST",
    "address_councildis": "B",
    "status": "Pending",
    "rowid": "1022196",
    "final_x": "3678536.2",
    "final_y": "523135.38",
    "longitude": "-90.0777190571393",
    "latitude": "29.932530419290057",
    "geocoded_column": {
      "latitude": "29.932530419290057",
      "longitude": "-90.0777190571393"
    }
  },
  {
    "service_request": "2023-1022195",
    "request_type": "Trash/Recycling",
    "request_reason": "Request a Large Item Pick Up",
    "date_created": "2023-07-31T14:15:56.000",
    "date_modified": "2023-07-31T14:15:56.000",
    "request_status": "Pending",
    "responsible_agency": "Department of Sanitation",
    "final_address": "2636 Somerset Dr",
    "address_councildis": "C",
    "status": "Assigned to Contractor",
    "contractor": "Richards Disposal",
    "rowid": "1022195",
    "final_x": "3702913.53508",
    "final_y": "521208.993273",
    "longitude": "-90.00083320359826",
    "latitude": "29.926476504844373",
    "geocoded_column": {
      "latitude": "29.926476504844373",
      "longitude": "-90.00083320359826"
    }
  },
  {
    "service_request": "2023-1022194",
    "request_type": "Trash/Recycling",
    "request_reason": "Order Recycling Cart",
    "date_created": "2023-07-31T14:15:30.000",
    "date_modified": "2023-07-31T14:15:30.000",
    "request_status": "Pending",
    "responsible_agency": "Department of Sanitation",
    "final_address": "2636 Somerset Dr",
    "address_councildis": "C",
    "status": "Pending",
    "rowid": "1022194",
    "final_x": "3702913.53508",
    "final_y": "521208.993273",
    "longitude": "-90.00083320359826",
    "latitude": "29.926476504844373",
    "geocoded_column": {
      "latitude": "29.926476504844373",
      "longitude": "-90.00083320359826"
    }
  },
  {
    "service_request": "2023-1022193",
    "request_type": "Trash/Recycling",
    "request_reason": "Illegal Dumping",
    "date_created": "2023-07-31T14:13:54.000",
    "date_modified": "2023-07-31T14:17:15.000",
    "request_status": "Pending",
    "responsible_agency": "Department of Sanitation",
    "final_address": "N ROCHEBLAVE ST & LIZARDI ST",
    "address_councildis": "E",
    "status": "Pending",
    "rowid": "1022193",
    "final_x": "3697896.6",
    "final_y": "538992.78",
    "longitude": "-90.01602478894782",
    "latitude": "29.97553513552852",
    "geocoded_column": {
      "latitude": "29.97553513552852",
      "longitude": "-90.01602478894782"
    }
  },
  {
    "service_request": "2023-1022192",
    "request_type": "Roads/Drainage",
    "request_reason": "Pothole",
    "date_created": "2023-07-31T14:13:20.000",
    "date_modified": "2023-07-31T14:13:20.000",
    "request_status": "Pending",
    "responsible_agency": "Department of Public Works",
    "final_address": "1825 Bordeaux St",
    "address_councildis": "B",
    "status": "Pending",
    "rowid": "1022192",
    "final_x": "3669330.97505",
    "final_y": "521651.715897",
    "longitude": "-90.1068293767773",
    "latitude": "29.928724970225012",
    "geocoded_column": {
      "latitude": "29.928724970225012",
      "longitude": "-90.1068293767773"
    }
  },
  {
    "service_request": "2023-1022191",
    "request_type": "Property Maintenance",
    "request_reason": "Property Maintenance",
    "date_created": "2023-07-31T14:13:04.000",
    "date_modified": "2023-07-31T14:13:04.000",
    "request_status": "Pending",
    "responsible_agency": "Department of Code Enforcement",
    "final_address": "5728 Baccich St",
    "address_councildis": "D",
    "status": "Pending",
    "rowid": "1022191",
    "final_x": "3687516.35414",
    "final_y": "554405.541656",
    "longitude": "-90.04826244110237",
    "latitude": "30.018238716976445",
    "geocoded_column": {
      "latitude": "30.018238716976445",
      "longitude": "-90.04826244110237"
    }
  },
  {
    "service_request": "2023-1022190",
    "request_type": "Trash/Recycling",
    "request_reason": "Repair Trash Cart",
    "date_created": "2023-07-31T14:12:50.000",
    "date_modified": "2023-07-31T14:12:50.000",
    "request_status": "Pending",
    "responsible_agency": "Department of Sanitation",
    "final_address": "14736 Curran Rd",
    "address_councildis": "E",
    "status": "Assigned to Contractor",
    "contractor": "Waste Pro",
    "rowid": "1022190",
    "final_x": "3720288.39455",
    "final_y": "573771.325034",
    "longitude": "-89.9439744616258",
    "latitude": "30.07043535485711",
    "geocoded_column": {
      "latitude": "30.07043535485711",
      "longitude": "-89.9439744616258"
    }
  },
  {
    "service_request": "2023-1022189",
    "request_type": "Trash/Recycling",
    "request_reason": "Missed Trash Pick-Up",
    "date_created": "2023-07-31T14:11:54.000",
    "date_modified": "2023-07-31T14:11:55.000",
    "request_status": "Pending",
    "responsible_agency": "Department of Sanitation",
    "final_address": "7000 W Tamaron Blvd",
    "address_councildis": "E",
    "status": "Assigned to Contractor",
    "contractor": "Waste Pro",
    "rowid": "1022189",
    "final_x": "3718890.10335",
    "final_y": "568098.545189",
    "longitude": "-89.94861151551804",
    "latitude": "30.054884124767398",
    "geocoded_column": {
      "latitude": "30.054884124767398",
      "longitude": "-89.94861151551804"
    }
  },
  {
    "service_request": "2023-1022188",
    "request_type": "Parks & Parkways",
    "request_reason": "Request Tree Service (Right of Way/Public Property)",
    "date_created": "2023-07-31T14:08:15.000",
    "date_modified": "2023-07-31T14:28:36.000",
    "request_status": "Pending",
    "responsible_agency": "Department of Parks & Parkway",
    "final_address": "7936 Zimple St",
    "address_councildis": "A",
    "status": "Pending",
    "rowid": "1022188",
    "final_x": "3662075.71693",
    "final_y": "527746.787007",
    "longitude": "-90.12953069909054",
    "latitude": "29.945696033446776",
    "geocoded_column": {
      "latitude": "29.945696033446776",
      "longitude": "-90.12953069909054"
    }
  },
  {
    "service_request": "2023-1022187",
    "request_type": "Trash/Recycling",
    "request_reason": "Order Recycling Cart",
    "date_created": "2023-07-31T14:07:03.000",
    "date_modified": "2023-07-31T14:07:03.000",
    "request_status": "Pending",
    "responsible_agency": "Department of Sanitation",
    "final_address": "3230 Bienville Ave",
    "address_councildis": "B",
    "status": "Pending",
    "rowid": "1022187",
    "final_x": "3674099.01691",
    "final_y": "536966.575944",
    "longitude": "-90.09125356842695",
    "latitude": "29.970694573365616",
    "geocoded_column": {
      "latitude": "29.970694573365616",
      "longitude": "-90.09125356842695"
    }
  },
  {
    "service_request": "2023-1022186",
    "request_type": "Traffic Signals/Signs/Striping/Streetlights",
    "request_reason": "Street Light Outage/Malfunction",
    "date_created": "2023-07-31T14:04:58.000",
    "date_modified": "2023-07-31T14:04:58.000",
    "request_status": "Pending",
    "responsible_agency": "Department of Public Works",
    "final_address": "1713 N Villere St",
    "address_councildis": "C",
    "status": "Assigned to Contractor",
    "contractor": "Legacy Professional Services",
    "rowid": "1022186",
    "final_x": "3683171.53839",
    "final_y": "537297.458888",
    "longitude": "-90.06258989440086",
    "latitude": "29.971330852177744",
    "geocoded_column": {
      "latitude": "29.971330852177744",
      "longitude": "-90.06258989440086"
    }
  },
  {
    "service_request": "2023-1022185",
    "request_type": "Abandoned Vehicles",
    "request_reason": "Abandoned/Junk Vehicles",
    "date_created": "2023-07-31T14:03:59.000",
    "date_modified": "2023-07-31T14:05:10.000",
    "request_status": "Pending",
    "responsible_agency": "Department of Public Works",
    "final_address": "5200 BLK Revel St",
    "address_councildis": "E",
    "status": "Pending",
    "rowid": "1022185",
    "final_x": "3725072.52062",
    "final_y": "562765.091121",
    "longitude": "-89.92927706075099",
    "latitude": "30.040012465437115",
    "geocoded_column": {
      "latitude": "30.040012465437115",
      "longitude": "-89.92927706075099"
    }
  },
  {
    "service_request": "2023-1022184",
    "request_type": "Trash/Recycling",
    "request_reason": "Replace Recycling Cart",
    "date_created": "2023-07-31T14:02:33.000",
    "date_modified": "2023-07-31T14:02:33.000",
    "request_status": "Pending",
    "responsible_agency": "Department of Sanitation",
    "status": "Pending",
    "rowid": "1022184",
    "longitude": "0.0",
    "latitude": "0.0",
    "geocoded_column": {
      "latitude": "0.0",
      "longitude": "0.0"
    }
  },
  {
    "service_request": "2023-1022183",
    "request_type": "Trash/Recycling",
    "request_reason": "Order Recycling Cart",
    "date_created": "2023-07-31T14:00:04.000",
    "date_modified": "2023-07-31T14:00:04.000",
    "request_status": "Pending",
    "responsible_agency": "Department of Sanitation",
    "final_address": "2418 S Tonti St",
    "address_councildis": "B",
    "status": "Pending",
    "rowid": "1022183",
    "final_x": "3672772.15016",
    "final_y": "529242.728897",
    "longitude": "-90.09570745025292",
    "latitude": "29.94949605297756",
    "geocoded_column": {
      "latitude": "29.94949605297756",
      "longitude": "-90.09570745025292"
    }
  },
  {
    "service_request": "2023-1022182",
    "request_type": "Trash/Recycling",
    "request_reason": "Missed Trash Pick-Up",
    "date_created": "2023-07-31T13:55:52.000",
    "date_modified": "2023-07-31T13:55:52.000",
    "request_status": "Pending",
    "responsible_agency": "Department of Sanitation",
    "final_address": "524 S Cortez St, New Orleans, Louisiana, 70119",
    "address_councildis": "B",
    "status": "Assigned to Contractor",
    "contractor": "Richards Disposal",
    "rowid": "1022182",
    "final_x": "3671003.79355",
    "final_y": "536123.419783",
    "longitude": "-90.10105731858384",
    "latitude": "29.96846807044097",
    "geocoded_column": {
      "latitude": "29.96846807044097",
      "longitude": "-90.10105731858384"
    }
  },
  {
    "service_request": "2023-1022181",
    "request_type": "Trash/Recycling",
    "request_reason": "Return Trash Cart",
    "date_created": "2023-07-31T13:55:02.000",
    "date_modified": "2023-07-31T13:55:03.000",
    "request_status": "Pending",
    "responsible_agency": "Department of Sanitation",
    "final_address": "2817 Jefferson Ave",
    "address_councildis": "B",
    "status": "Assigned to Contractor",
    "contractor": "Richards Disposal",
    "rowid": "1022181",
    "final_x": "3668427.39182",
    "final_y": "525791.490301",
    "longitude": "-90.10954223659964",
    "latitude": "29.94013458698558",
    "geocoded_column": {
      "latitude": "29.94013458698558",
      "longitude": "-90.10954223659964"
    }
  },
  {
    "service_request": "2023-1022180",
    "request_type": "Trash/Recycling",
    "request_reason": "Request a Large Item Pick Up",
    "date_created": "2023-07-31T13:54:53.000",
    "date_modified": "2023-07-31T13:58:42.000",
    "request_status": "Pending",
    "responsible_agency": "Department of Sanitation",
    "final_address": "2418 S Tonti St",
    "address_councildis": "B",
    "status": "Assigned to Contractor",
    "contractor": "Richards Disposal",
    "rowid": "1022180",
    "final_x": "3672772.15016",
    "final_y": "529242.728897",
    "longitude": "-90.09570745025292",
    "latitude": "29.94949605297756",
    "geocoded_column": {
      "latitude": "29.94949605297756",
      "longitude": "-90.09570745025292"
    }
  },
  {
    "service_request": "2023-1022179",
    "request_type": "Roads/Drainage",
    "request_reason": "Pothole",
    "date_created": "2023-07-31T13:53:35.000",
    "date_modified": "2023-07-31T13:53:35.000",
    "request_status": "Pending",
    "responsible_agency": "Department of Public Works",
    "final_address": "2148 Westbend Prkwy",
    "address_councildis": "C",
    "status": "Pending",
    "rowid": "1022179",
    "final_x": "3696913.85757",
    "final_y": "522756.919994",
    "longitude": "-90.01971639533457",
    "latitude": "29.930923255433598",
    "geocoded_column": {
      "latitude": "29.930923255433598",
      "longitude": "-90.01971639533457"
    }
  },
  {
    "service_request": "2023-1022178",
    "request_type": "Trash/Recycling",
    "request_reason": "Request a Large Item Pick Up",
    "date_created": "2023-07-31T13:52:50.000",
    "date_modified": "2023-07-31T13:52:51.000",
    "request_status": "Pending",
    "responsible_agency": "Department of Sanitation",
    "final_address": "3420 Sullen Pl",
    "address_councildis": "C",
    "status": "Assigned to Contractor",
    "contractor": "Richards Disposal",
    "rowid": "1022178",
    "final_x": "3707751.83499",
    "final_y": "518213.234038",
    "longitude": "-89.98567139637895",
    "latitude": "29.91808361812504",
    "geocoded_column": {
      "latitude": "29.91808361812504",
      "longitude": "-89.98567139637895"
    }
  },
  {
    "service_request": "2023-1022176",
    "request_type": "Trash/Recycling",
    "request_reason": "Repair Trash Cart",
    "date_created": "2023-07-31T13:50:49.000",
    "date_modified": "2023-07-31T13:51:54.000",
    "request_status": "Pending",
    "responsible_agency": "Department of Sanitation",
    "final_address": "600 BLK Lowerline St",
    "address_councildis": "A",
    "status": "Assigned to Contractor",
    "contractor": "Richards Disposal",
    "rowid": "1022176",
    "final_x": "3662613.42178",
    "final_y": "525235.273136",
    "longitude": "-90.1279163989997",
    "latitude": "29.938774626611913",
    "geocoded_column": {
      "latitude": "29.938774626611913",
      "longitude": "-90.1279163989997"
    }
  },
  {
    "service_request": "2023-1022175",
    "request_type": "Trash/Recycling",
    "request_reason": "Repair Trash Cart",
    "date_created": "2023-07-31T13:50:28.000",
    "date_modified": "2023-07-31T13:50:28.000",
    "request_status": "Pending",
    "responsible_agency": "Department of Sanitation",
    "final_address": "631 Lowerline St",
    "address_councildis": "A",
    "status": "Assigned to Contractor",
    "contractor": "Richards Disposal",
    "rowid": "1022175",
    "final_x": "3662728.34439",
    "final_y": "525250.602237",
    "longitude": "-90.12755306452846",
    "latitude": "29.93881345197646",
    "geocoded_column": {
      "latitude": "29.93881345197646",
      "longitude": "-90.12755306452846"
    }
  },
  {
    "service_request": "2023-1022174",
    "request_type": "Traffic Signals/Signs/Striping/Streetlights",
    "request_reason": "Traffic Signal Malfunctioning/Damaged",
    "date_created": "2023-07-31T13:49:42.000",
    "date_modified": "2023-07-31T13:49:42.000",
    "request_status": "Pending",
    "responsible_agency": "Department of Public Works",
    "final_address": "1200 BLK Pace Blvd",
    "address_councildis": "C",
    "status": "Pending",
    "rowid": "1022174",
    "final_x": "3694421.84636",
    "final_y": "526717.128112",
    "longitude": "-90.0274408145312",
    "latitude": "29.94189078965869",
    "geocoded_column": {
      "latitude": "29.94189078965869",
      "longitude": "-90.0274408145312"
    }
  },
  {
    "service_request": "2023-1022173",
    "request_type": "Property Maintenance",
    "request_reason": "Property Maintenance",
    "date_created": "2023-07-31T13:48:52.000",
    "date_modified": "2023-07-31T13:48:52.000",
    "request_status": "Pending",
    "responsible_agency": "Department of Code Enforcement",
    "final_address": "3032 Constance St",
    "address_councildis": "B",
    "status": "Pending",
    "rowid": "1022173",
    "final_x": "3676365.55957",
    "final_y": "519889.98348",
    "longitude": "-90.08468323401462",
    "latitude": "29.923671857473618",
    "geocoded_column": {
      "latitude": "29.923671857473618",
      "longitude": "-90.08468323401462"
    }
  },
  {
    "service_request": "2023-1022172",
    "request_type": "Trash/Recycling",
    "request_reason": "Missed Trash Pick-Up",
    "date_created": "2023-07-31T13:45:39.000",
    "date_modified": "2023-07-31T13:45:39.000",
    "request_status": "Pending",
    "responsible_agency": "Department of Sanitation",
    "final_address": "1330 Ursulines Ave",
    "address_councildis": "C",
    "status": "Assigned to Contractor",
    "contractor": "Richards Disposal",
    "rowid": "1022172",
    "final_x": "3681471.51106",
    "final_y": "535115.922502",
    "longitude": "-90.06803489543432",
    "latitude": "29.965384108552914",
    "geocoded_column": {
      "latitude": "29.965384108552914",
      "longitude": "-90.06803489543432"
    }
  },
  {
    "service_request": "2023-1022171",
    "request_type": "Trash/Recycling",
    "request_reason": "Order Recycling Cart",
    "date_created": "2023-07-31T13:45:11.000",
    "date_modified": "2023-07-31T13:45:12.000",
    "request_status": "Pending",
    "responsible_agency": "Department of Sanitation",
    "final_address": "6323 Magnolia St",
    "address_councildis": "A",
    "status": "Pending",
    "rowid": "1022171",
    "final_x": "3665724.47028",
    "final_y": "525511.196797",
    "longitude": "-90.11808519554044",
    "latitude": "29.939442970364627",
    "geocoded_column": {
      "latitude": "29.939442970364627",
      "longitude": "-90.11808519554044"
    }
  },
  {
    "service_request": "2023-1022170",
    "request_type": "Trash/Recycling",
    "request_reason": "Request a Large Item Pick Up",
    "date_created": "2023-07-31T13:43:04.000",
    "date_modified": "2023-07-31T13:43:05.000",
    "request_status": "Pending",
    "responsible_agency": "Department of Sanitation",
    "final_address": "2011 General Pershing St",
    "address_councildis": "B",
    "status": "Assigned to Contractor",
    "contractor": "Richards Disposal",
    "rowid": "1022170",
    "final_x": "3671136.25396",
    "final_y": "522447.210298",
    "longitude": "-90.10110346562882",
    "latitude": "29.930859067322874",
    "geocoded_column": {
      "latitude": "29.930859067322874",
      "longitude": "-90.10110346562882"
    }
  },
  {
    "service_request": "2023-1022169",
    "request_type": "Trash/Recycling",
    "request_reason": "Request a Large Item Pick Up",
    "date_created": "2023-07-31T13:41:55.000",
    "date_modified": "2023-07-31T13:41:55.000",
    "request_status": "Pending",
    "responsible_agency": "Department of Sanitation",
    "final_address": "2011 General Pershing St",
    "address_councildis": "B",
    "status": "Assigned to Contractor",
    "contractor": "Richards Disposal",
    "rowid": "1022169",
    "final_x": "3671136.25396",
    "final_y": "522447.210298",
    "longitude": "-90.10110346562882",
    "latitude": "29.930859067322874",
    "geocoded_column": {
      "latitude": "29.930859067322874",
      "longitude": "-90.10110346562882"
    }
  },
  {
    "service_request": "2023-1022168",
    "request_type": "Parks & Parkways",
    "request_reason": "Request Tree Service (Right of Way/Public Property)",
    "date_created": "2023-07-31T13:41:39.000",
    "date_modified": "2023-07-31T13:43:22.000",
    "request_status": "Pending",
    "responsible_agency": "Department of Parks & Parkway",
    "final_address": "1328 Lawrence St",
    "address_councildis": "C",
    "status": "Pending",
    "rowid": "1022168",
    "final_x": "3689617.58639",
    "final_y": "525715.924797",
    "longitude": "-90.04264442733373",
    "latitude": "29.939287499974508",
    "geocoded_column": {
      "latitude": "29.939287499974508",
      "longitude": "-90.04264442733373"
    }
  },
  {
    "service_request": "2023-1022167",
    "request_type": "Traffic Signals/Signs/Striping/Streetlights",
    "request_reason": "Street Light Outage/Malfunction",
    "date_created": "2023-07-31T13:40:50.000",
    "date_modified": "2023-07-31T13:40:51.000",
    "request_status": "Pending",
    "responsible_agency": "Department of Public Works",
    "final_address": "2071 Cypress Acres Dr",
    "address_councildis": "C",
    "status": "Assigned to Contractor",
    "contractor": "Legacy Professional Services",
    "rowid": "1022167",
    "final_x": "3696169.33558",
    "final_y": "523171.897403",
    "longitude": "-90.02205174492741",
    "latitude": "29.932087749542255",
    "geocoded_column": {
      "latitude": "29.932087749542255",
      "longitude": "-90.02205174492741"
    }
  },
  {
    "service_request": "2023-1022166",
    "request_type": "Trash/Recycling",
    "request_reason": "Repair Recycling Cart",
    "date_created": "2023-07-31T13:40:12.000",
    "date_modified": "2023-07-31T13:40:12.000",
    "request_status": "Pending",
    "responsible_agency": "Department of Sanitation",
    "final_address": "2819 Sullen Pl",
    "address_councildis": "C",
    "status": "Pending",
    "rowid": "1022166",
    "final_x": "3707799.77611",
    "final_y": "520176.524088",
    "longitude": "-89.98544717627249",
    "latitude": "29.92348043008368",
    "geocoded_column": {
      "latitude": "29.92348043008368",
      "longitude": "-89.98544717627249"
    }
  },
  {
    "service_request": "2023-1022165",
    "request_type": "Trash/Recycling",
    "request_reason": "MIssed Recycling Pick-Up",
    "date_created": "2023-07-31T13:39:00.000",
    "date_modified": "2023-07-31T13:39:01.000",
    "request_status": "Pending",
    "responsible_agency": "Department of Sanitation",
    "final_address": "600 BLK Lowerline St",
    "address_councildis": "A",
    "status": "Assigned to Contractor",
    "contractor": "Richards Disposal",
    "rowid": "1022165",
    "final_x": "3662613.42178",
    "final_y": "525235.273136",
    "longitude": "-90.1279163989997",
    "latitude": "29.938774626611913",
    "geocoded_column": {
      "latitude": "29.938774626611913",
      "longitude": "-90.1279163989997"
    }
  },
  {
    "service_request": "2023-1022164",
    "request_type": "Trash/Recycling",
    "request_reason": "Illegal Dumping",
    "date_created": "2023-07-31T13:36:58.000",
    "date_modified": "2023-07-31T13:36:58.000",
    "request_status": "Pending",
    "responsible_agency": "Department of Sanitation",
    "final_address": "4500 BLK Banks St",
    "address_councildis": "A",
    "status": "Pending",
    "rowid": "1022164",
    "final_x": "3668817.23221",
    "final_y": "538534.009662",
    "longitude": "-90.10788119392188",
    "latitude": "29.97516086220573",
    "geocoded_column": {
      "latitude": "29.97516086220573",
      "longitude": "-90.10788119392188"
    }
  },
  {
    "service_request": "2023-1022163",
    "request_type": "Abandoned Vehicles",
    "request_reason": "Abandoned/Junk Vehicles",
    "date_created": "2023-07-31T13:31:01.000",
    "date_modified": "2023-07-31T13:31:01.000",
    "request_status": "Pending",
    "responsible_agency": "Department of Public Works",
    "final_address": "832 N Dupre St",
    "address_councildis": "A",
    "status": "Pending",
    "rowid": "1022163",
    "final_x": "3676393.30721",
    "final_y": "537953.568585",
    "longitude": "-90.08397392972023",
    "latitude": "29.97333988317546",
    "geocoded_column": {
      "latitude": "29.97333988317546",
      "longitude": "-90.08397392972023"
    }
  },
  {
    "service_request": "2023-1022162",
    "request_type": "Trash/Recycling",
    "request_reason": "Request a Large Item Pick Up",
    "date_created": "2023-07-31T13:28:30.000",
    "date_modified": "2023-07-31T13:28:30.000",
    "request_status": "Pending",
    "responsible_agency": "Department of Sanitation",
    "final_address": "7042 Barrington Ct",
    "address_councildis": "E",
    "status": "Assigned to Contractor",
    "contractor": "Waste Pro",
    "rowid": "1022162",
    "final_x": "3714026.87595",
    "final_y": "565091.454946",
    "longitude": "-89.96409655441519",
    "latitude": "30.04677655342102",
    "geocoded_column": {
      "latitude": "30.04677655342102",
      "longitude": "-89.96409655441519"
    }
  },
  {
    "service_request": "2023-1022161",
    "request_type": "Trash/Recycling",
    "request_reason": "Order Recycling Cart",
    "date_created": "2023-07-31T13:28:28.000",
    "date_modified": "2023-07-31T13:28:29.000",
    "request_status": "Pending",
    "responsible_agency": "Department of Sanitation",
    "final_address": "4911 Michoud Blvd",
    "address_councildis": "E",
    "status": "Pending",
    "rowid": "1022161",
    "final_x": "3725075.59417",
    "final_y": "561212.111262",
    "longitude": "-89.929327484128",
    "latitude": "30.03574230712727",
    "geocoded_column": {
      "latitude": "30.03574230712727",
      "longitude": "-89.929327484128"
    }
  },
  {
    "service_request": "2023-1022160",
    "request_type": "Trash/Recycling",
    "request_reason": "Request a Large Item Pick Up",
    "date_created": "2023-07-31T13:27:20.000",
    "date_modified": "2023-07-31T13:27:20.000",
    "request_status": "Pending",
    "responsible_agency": "Department of Sanitation",
    "final_address": "3300 River Oaks Dr",
    "address_councildis": "C",
    "status": "Assigned to Contractor",
    "contractor": "Richards Disposal",
    "rowid": "1022160",
    "final_x": "3701491.70474",
    "final_y": "519042.768119",
    "longitude": "-90.00540074406511",
    "latitude": "29.920565519502517",
    "geocoded_column": {
      "latitude": "29.920565519502517",
      "longitude": "-90.00540074406511"
    }
  },
  {
    "service_request": "2023-1022159",
    "request_type": "Trash/Recycling",
    "request_reason": "Repair Trash Cart",
    "date_created": "2023-07-31T13:26:14.000",
    "date_modified": "2023-07-31T13:26:15.000",
    "request_status": "Pending",
    "responsible_agency": "Department of Sanitation",
    "final_address": "4919 Michoud Blvd",
    "address_councildis": "E",
    "status": "Assigned to Contractor",
    "contractor": "Waste Pro",
    "rowid": "1022159",
    "final_x": "3725062.00787",
    "final_y": "561267.442526",
    "longitude": "-89.92936827620538",
    "latitude": "30.035894903090092",
    "geocoded_column": {
      "latitude": "30.035894903090092",
      "longitude": "-89.92936827620538"
    }
  },
  {
    "service_request": "2023-1022158",
    "request_type": "Abandoned Vehicles",
    "request_reason": "Abandoned/Junk Vehicles",
    "date_created": "2023-07-31T13:25:35.000",
    "date_modified": "2023-07-31T13:25:36.000",
    "request_status": "Pending",
    "responsible_agency": "Department of Public Works",
    "final_address": "2829 First St",
    "address_councildis": "B",
    "status": "Pending",
    "rowid": "1022158",
    "final_x": "3674524.65448",
    "final_y": "526985.881726",
    "longitude": "-90.09025130374567",
    "latitude": "29.943238303228306",
    "geocoded_column": {
      "latitude": "29.943238303228306",
      "longitude": "-90.09025130374567"
    }
  },