[
  {
    "service_request": "2023-1014828",
    "request_type": "Roads/Drainage",
    "request_reason": "Pothole",
    "date_created": "2023-07-07T01:14:54.000",
    "date_modified": "2023-07-07T01:14:54.000",
    "request_status": "Pending",
    "responsible_agency": "Department of Public Works",
    "final_address": "1302 Constantinople St",
    "address_councildis": "B",
    "status": "Pending",
    "rowid": "1014828",
    "final_x": "3672316.43828",
    "final_y": "520252.107512",
    "longitude": "-90.09745252227002",
    "latitude": "29.924788289127164",
    "geocoded_column": {
      "latitude": "29.924788289127164",
      "longitude": "-90.09745252227002"
    }
  },
  {
    "service_request": "2023-1014827",
    "request_type": "Roads/Drainage",
    "request_reason": "Pothole",
    "date_created": "2023-07-07T00:46:10.000",
    "date_modified": "2023-07-07T00:46:10.000",
    "request_status": "Pending",
    "responsible_agency": "Department of Public Works",
    "final_address": "1312 Milan St",
    "address_councildis": "B",
    "status": "Pending",
    "rowid": "1014827",
    "final_x": "3671625.82823",
    "final_y": "520286.919608",
    "longitude": "-90.09963137110304",
    "latitude": "29.92490447494246",
    "geocoded_column": {
      "latitude": "29.92490447494246",
      "longitude": "-90.09963137110304"
    }
  },
  {
    "service_request": "2023-1014826",
    "request_type": "Roads/Drainage",
    "request_reason": "Pothole",
    "date_created": "2023-07-07T00:23:38.000",
    "date_modified": "2023-07-07T00:23:38.000",
    "request_status": "Pending",
    "responsible_agency": "Department of Public Works",
    "final_address": "3531 Chestnut St",
    "address_councildis": "B",
    "status": "Pending",
    "rowid": "1014826",
    "final_x": "3673960.2859",
    "final_y": "520086.479544",
    "longitude": "-90.0922690947702",
    "latitude": "29.92428401075212",
    "geocoded_column": {
      "latitude": "29.92428401075212",
      "longitude": "-90.0922690947702"
    }
  },
  {
    "service_request": "2023-1014825",
    "request_type": "Trash/Recycling",
    "request_reason": "Request a Large Item Pick Up",
    "date_created": "2023-07-06T23:21:11.000",
    "date_modified": "2023-07-06T23:21:12.000",
    "request_status": "Pending",
    "responsible_agency": "Department of Sanitation",
    "final_address": "2019 Easter Ln",
    "address_councildis": "C",
    "status": "Assigned to Contractor",
    "contractor": "Richards Disposal",
    "rowid": "1014825",
    "final_x": "3699453.84183",
    "final_y": "524027.80902",
    "longitude": "-90.01165178742752",
    "latitude": "29.93433744893314",
    "geocoded_column": {
      "latitude": "29.93433744893314",
      "longitude": "-90.01165178742752"
    }
  },
  {
    "service_request": "2023-1014824",
    "request_type": "Trash/Recycling",
    "request_reason": "Return Recycling Cart",
    "date_created": "2023-07-06T21:45:56.000",
    "date_modified": "2023-07-06T21:45:56.000",
    "request_status": "Pending",
    "responsible_agency": "Department of Sanitation",
    "final_address": "6540 Center St",
    "address_councildis": "A",
    "status": "Pending",
    "rowid": "1014824",
    "final_x": "3664855.9648",
    "final_y": "551588.276373",
    "longitude": "-90.11995537868862",
    "latitude": "30.011171544639268",
    "geocoded_column": {
      "latitude": "30.011171544639268",
      "longitude": "-90.11995537868862"
    }
  },
  {
    "service_request": "2023-1014823",
    "request_type": "Abandoned Vehicles",
    "request_reason": "Abandoned/Junk Vehicles",
    "date_created": "2023-07-06T21:34:03.000",
    "date_modified": "2023-07-06T21:34:03.000",
    "request_status": "Pending",
    "responsible_agency": "Department of Public Works",
    "final_address": "8600 Willow St",
    "address_councildis": "A",
    "status": "Pending",
    "rowid": "1014823",
    "final_x": "3661066.75898",
    "final_y": "530087.694785",
    "longitude": "-90.13263888064763",
    "latitude": "29.952161888748655",
    "geocoded_column": {
      "latitude": "29.952161888748655",
      "longitude": "-90.13263888064763"
    }
  },
  {
    "service_request": "2023-1014822",
    "request_type": "Abandoned Vehicles",
    "request_reason": "Abandoned/Junk Vehicles",
    "date_created": "2023-07-06T21:27:32.000",
    "date_modified": "2023-07-06T21:27:32.000",
    "request_status": "Pending",
    "responsible_agency": "Department of Public Works",
    "final_address": "8600 Willow St",
    "address_councildis": "A",
    "status": "Pending",
    "rowid": "1014822",
    "final_x": "3661066.75898",
    "final_y": "530087.694785",
    "longitude": "-90.13263888064763",
    "latitude": "29.952161888748655",
    "geocoded_column": {
      "latitude": "29.952161888748655",
      "longitude": "-90.13263888064763"
    }
  },
  {
    "service_request": "2023-1014821",
    "request_type": "Trash/Recycling",
    "request_reason": "Request a Large Item Pick Up",
    "date_created": "2023-07-06T21:25:56.000",
    "date_modified": "2023-07-06T21:25:57.000",
    "request_status": "Pending",
    "responsible_agency": "Department of Sanitation",
    "final_address": "4915 Music St",
    "address_councildis": "D",
    "status": "Assigned to Contractor",
    "contractor": "IV Waste",
    "rowid": "1014821",
    "final_x": "3685642.01686",
    "final_y": "551004.630421",
    "longitude": "-90.05430458143798",
    "latitude": "30.008945123270326",
    "geocoded_column": {
      "latitude": "30.008945123270326",
      "longitude": "-90.05430458143798"
    }
  },
  {
    "service_request": "2023-1014820",
    "request_type": "Traffic Signals/Signs/Striping/Streetlights",
    "request_reason": "Street Light Outage/Malfunction",
    "date_created": "2023-07-06T21:21:05.000",
    "date_modified": "2023-07-06T21:21:06.000",
    "request_status": "Pending",
    "responsible_agency": "Department of Public Works",
    "final_address": "401 Warrington Dr",
    "address_councildis": "D",
    "status": "Assigned to Contractor",
    "contractor": "Legacy Professional Services",
    "rowid": "1014820",
    "final_x": "3681780.15503",
    "final_y": "548093.49045",
    "longitude": "-90.06660715137113",
    "latitude": "30.001058499238567",
    "geocoded_column": {
      "latitude": "30.001058499238567",
      "longitude": "-90.06660715137113"
    }
  },
  {
    "service_request": "2023-1014819",
    "request_type": "Trash/Recycling",
    "request_reason": "Replace Trash Cart",
    "date_created": "2023-07-06T21:11:20.000",
    "date_modified": "2023-07-06T21:11:21.000",
    "request_status": "Pending",
    "responsible_agency": "Department of Sanitation",
    "final_address": "3321 St Claude Ave",
    "address_councildis": "C",
    "status": "Assigned to Contractor",
    "contractor": "IV Waste",
    "rowid": "1014819",
    "final_x": "3690050.412",
    "final_y": "535847.649543",
    "longitude": "-90.04091715752725",
    "latitude": "29.967132830067957",
    "geocoded_column": {
      "latitude": "29.967132830067957",
      "longitude": "-90.04091715752725"
    }
  },
  {
    "service_request": "2023-1014818",
    "request_type": "Trash/Recycling",
    "request_reason": "Order Recycling Cart",
    "date_created": "2023-07-06T20:45:44.000",
    "date_modified": "2023-07-06T20:45:44.000",
    "request_status": "Pending",
    "responsible_agency": "Department of Sanitation",
    "final_address": "8802 Morrison Rd",
    "address_councildis": "E",
    "status": "Pending",
    "rowid": "1014818",
    "final_x": "3705458.09572",
    "final_y": "561634.240479",
    "longitude": "-89.99130620034543",
    "latitude": "30.037549342564333",
    "geocoded_column": {
      "latitude": "30.037549342564333",
      "longitude": "-89.99130620034543"
    }
  },
  {
    "service_request": "2023-1014817",
    "request_type": "Abandoned Vehicles",
    "request_reason": "Abandoned/Junk Vehicles",
    "date_created": "2023-07-06T20:42:25.000",
    "date_modified": "2023-07-06T20:42:25.000",
    "request_status": "Pending",
    "responsible_agency": "Department of Public Works",
    "final_address": "3841 Delachaise St",
    "address_councildis": "B",
    "status": "Pending",
    "rowid": "1014817",
    "final_x": "3671051.61019",
    "final_y": "528942.871744",
    "longitude": "-90.1011501638655",
    "latitude": "29.948722530751734",
    "geocoded_column": {
      "latitude": "29.948722530751734",
      "longitude": "-90.1011501638655"
    }
  },
  {
    "service_request": "2023-1014816",
    "request_type": "Trash/Recycling",
    "request_reason": "MIssed Recycling Pick-Up",
    "date_created": "2023-07-06T20:39:49.000",
    "date_modified": "2023-07-06T20:39:49.000",
    "request_status": "Pending",
    "responsible_agency": "Department of Sanitation",
    "final_address": "18 Richmond Pl",
    "address_councildis": "A",
    "status": "Assigned to Contractor",
    "contractor": "Richards Disposal",
    "rowid": "1014816",
    "final_x": "3666565.54554",
    "final_y": "524105.339644",
    "longitude": "-90.11547697427197",
    "latitude": "29.935552758662038",
    "geocoded_column": {
      "latitude": "29.935552758662038",
      "longitude": "-90.11547697427197"
    }
  },
  {
    "service_request": "2023-1014815",
    "request_type": "Traffic Signals/Signs/Striping/Streetlights",
    "request_reason": "Street Light Outage/Malfunction",
    "date_created": "2023-07-06T20:39:11.000",
    "date_modified": "2023-07-06T20:39:12.000",
    "request_status": "Pending",
    "responsible_agency": "Department of Public Works",
    "final_address": "1922 Laurel St",
    "address_councildis": "B",
    "status": "Assigned to Contractor",
    "contractor": "Legacy Professional Services",
    "rowid": "1014815",
    "final_x": "3680151.04085",
    "final_y": "522126.322938",
    "longitude": "-90.07265619340751",
    "latitude": "29.92970708873247",
    "geocoded_column": {
      "latitude": "29.92970708873247",
      "longitude": "-90.07265619340751"
    }
  },
  {
    "service_request": "2023-1014814",
    "request_type": "Trash/Recycling",
    "request_reason": "MIssed Recycling Pick-Up",
    "date_created": "2023-07-06T20:29:00.000",
    "date_modified": "2023-07-06T20:29:01.000",
    "request_status": "Pending",
    "responsible_agency": "Department of Sanitation",
    "final_address": "6021 Stratford Pl",
    "address_councildis": "C",
    "status": "Assigned to Contractor",
    "contractor": "Richards Disposal",
    "rowid": "1014814",
    "final_x": "3706099.74673",
    "final_y": "516118.433012",
    "longitude": "-89.99096355957872",
    "latitude": "29.912376963958497",
    "geocoded_column": {
      "latitude": "29.912376963958497",
      "longitude": "-89.99096355957872"
    }
  },
  {
    "service_request": "2023-1014813",
    "request_type": "Traffic Signals/Signs/Striping/Streetlights",
    "request_reason": "Street Light Outage/Malfunction",
    "date_created": "2023-07-06T20:21:47.000",
    "date_modified": "2023-07-06T20:21:48.000",
    "request_status": "Pending",
    "responsible_agency": "Department of Public Works",
    "final_address": "2115 N Dorgenois St",
    "address_councildis": "D",
    "status": "Assigned to Contractor",
    "contractor": "Legacy Professional Services",
    "rowid": "1014813",
    "final_x": "3683623.02044",
    "final_y": "541412.5275",
    "longitude": "-90.06101974833892",
    "latitude": "29.982632078352232",
    "geocoded_column": {
      "latitude": "29.982632078352232",
      "longitude": "-90.06101974833892"
    }
  },
  {
    "service_request": "2023-1014812",
    "request_type": "Abandoned Vehicles",
    "request_reason": "Abandoned/Junk Vehicles",
    "date_created": "2023-07-06T19:56:04.000",
    "date_modified": "2023-07-06T19:56:04.000",
    "request_status": "Pending",
    "responsible_agency": "Department of Public Works",
    "final_address": "1629 Coliseum St Unit 6",
    "address_councildis": "B",
    "status": "Pending",
    "rowid": "1014812",
    "final_x": "3679651.84712",
    "final_y": "524610.348028",
    "longitude": "-90.0741458867275",
    "latitude": "29.93655243243035",
    "geocoded_column": {
      "latitude": "29.93655243243035",
      "longitude": "-90.0741458867275"
    }
  },
  {
    "service_request": "2023-1014811",
    "request_type": "Trash/Recycling",
    "request_reason": "Missed Trash Pick-Up",
    "date_created": "2023-07-06T19:50:57.000",
    "date_modified": "2023-07-06T19:50:58.000",
    "request_status": "Pending",
    "responsible_agency": "Department of Sanitation",
    "final_address": "12031 E Barrington Dr",
    "address_councildis": "E",
    "status": "Assigned to Contractor",
    "contractor": "Waste Pro",
    "rowid": "1014811",
    "final_x": "3714739.15768",
    "final_y": "566169.421539",
    "longitude": "-89.96180461167081",
    "latitude": "30.04971709994794",
    "geocoded_column": {
      "latitude": "30.04971709994794",
      "longitude": "-89.96180461167081"
    }
  },
  {
    "service_request": "2023-1014810",
    "request_type": "Trash/Recycling",
    "request_reason": "Request a Large Item Pick Up",
    "date_created": "2023-07-06T19:46:27.000",
    "date_modified": "2023-07-06T19:46:28.000",
    "request_status": "Pending",
    "responsible_agency": "Department of Sanitation",
    "final_address": "4876 Annunciation St",
    "address_councildis": "B",
    "status": "Assigned to Contractor",
    "contractor": "Richards Disposal",
    "rowid": "1014810",
    "final_x": "3669051.01748",
    "final_y": "517500.92991",
    "longitude": "-90.10785328657387",
    "latitude": "29.917319860750034",
    "geocoded_column": {
      "latitude": "29.917319860750034",
      "longitude": "-90.10785328657387"
    }
  },
  {
    "service_request": "2023-1014809",
    "request_type": "Traffic Signals/Signs/Striping/Streetlights",
    "request_reason": "Street Light Outage/Malfunction",
    "date_created": "2023-07-06T19:45:26.000",
    "date_modified": "2023-07-06T19:45:27.000",
    "request_status": "Pending",
    "responsible_agency": "Department of Public Works",
    "final_address": "7240 Bullard Ave",
    "address_councildis": "E",
    "status": "Assigned to Contractor",
    "contractor": "Legacy Professional Services",
    "rowid": "1014809",
    "final_x": "3714097.4373",
    "final_y": "565921.975587",
    "longitude": "-89.96384217343142",
    "latitude": "30.04905782893448",
    "geocoded_column": {
      "latitude": "30.04905782893448",
      "longitude": "-89.96384217343142"
    }
  },
  {
    "service_request": "2023-1014808",
    "request_type": "Abandoned Vehicles",
    "request_reason": "Abandoned/Junk Vehicles",
    "date_created": "2023-07-06T19:41:47.000",
    "date_modified": "2023-07-06T19:41:47.000",
    "request_status": "Pending",
    "responsible_agency": "Department of Public Works",
    "final_address": "1629 Coliseum St Unit 6",
    "address_councildis": "B",
    "status": "Pending",
    "rowid": "1014808",
    "final_x": "3679651.84712",
    "final_y": "524610.348028",
    "longitude": "-90.0741458867275",
    "latitude": "29.93655243243035",
    "geocoded_column": {
      "latitude": "29.93655243243035",
      "longitude": "-90.0741458867275"
    }
  },
  {
    "service_request": "2023-1014807",
    "request_type": "Roads/Drainage",
    "request_reason": "Catch Basin - Broken/Damage",
    "date_created": "2023-07-06T19:32:42.000",
    "date_modified": "2023-07-06T19:32:42.000",
    "request_status": "Pending",
    "responsible_agency": "Department of Public Works",
    "final_address": "7100 BLK Coliseum St",
    "address_councildis": "A",
    "status": "Pending",
    "rowid": "1014807",
    "final_x": "3661412.7877",
    "final_y": "522107.193762",
    "longitude": "-90.13181051017193",
    "latitude": "29.930208068604735",
    "geocoded_column": {
      "latitude": "29.930208068604735",
      "longitude": "-90.13181051017193"
    }
  },
  {
    "service_request": "2023-1014806",
    "request_type": "Trash/Recycling",
    "request_reason": "Missed Trash Pick-Up",
    "date_created": "2023-07-06T19:27:23.000",
    "date_modified": "2023-07-06T19:27:24.000",
    "request_status": "Pending",
    "responsible_agency": "Department of Sanitation",
    "final_address": "8624 Jeannette St",
    "address_councildis": "A",
    "status": "Assigned to Contractor",
    "contractor": "Richards Disposal",
    "rowid": "1014806",
    "final_x": "3661171.83834",
    "final_y": "530463.42445",
    "longitude": "-90.13229465185634",
    "latitude": "29.953191996486144",
    "geocoded_column": {
      "latitude": "29.953191996486144",
      "longitude": "-90.13229465185634"
    }
  },
  {
    "service_request": "2023-1014805",
    "request_type": "Trash/Recycling",
    "request_reason": "Request a Large Item Pick Up",
    "date_created": "2023-07-06T19:21:35.000",
    "date_modified": "2023-07-06T19:21:36.000",
    "request_status": "Pending",
    "responsible_agency": "Department of Sanitation",
    "final_address": "524 S Hennessey St",
    "address_councildis": "A",
    "status": "Assigned to Contractor",
    "contractor": "Richards Disposal",
    "rowid": "1014805",
    "final_x": "3669232.24129",
    "final_y": "537498.29428",
    "longitude": "-90.10660550225433",
    "latitude": "29.97230078230179",
    "geocoded_column": {
      "latitude": "29.97230078230179",
      "longitude": "-90.10660550225433"
    }
  },
  {
    "service_request": "2023-1014804",
    "request_type": "Trash/Recycling",
    "request_reason": "Missed Trash Pick-Up",
    "date_created": "2023-07-06T19:19:51.000",
    "date_modified": "2023-07-06T19:22:26.000",
    "request_status": "Pending",
    "responsible_agency": "Department of Sanitation",
    "final_address": "7812 Lucerne St",
    "address_councildis": "E",
    "status": "Assigned to Contractor",
    "contractor": "Waste Pro",
    "rowid": "1014804",
    "final_x": "3710314.41592",
    "final_y": "566551.473955",
    "longitude": "-89.9757751133436",
    "latitude": "30.05091247367522",
    "geocoded_column": {
      "latitude": "30.05091247367522",
      "longitude": "-89.9757751133436"
    }
  },
  {
    "service_request": "2023-1014803",
    "request_type": "Trash/Recycling",
    "request_reason": "Request a Large Item Pick Up",
    "date_created": "2023-07-06T19:19:14.000",
    "date_modified": "2023-07-06T19:19:15.000",
    "request_status": "Pending",
    "responsible_agency": "Department of Sanitation",
    "final_address": "524 S Hennessey St",
    "address_councildis": "A",
    "status": "Assigned to Contractor",
    "contractor": "Richards Disposal",
    "rowid": "1014803",
    "final_x": "3669232.24129",
    "final_y": "537498.29428",
    "longitude": "-90.10660550225433",
    "latitude": "29.97230078230179",
    "geocoded_column": {
      "latitude": "29.97230078230179",
      "longitude": "-90.10660550225433"
    }
  },
  {
    "service_request": "2023-1014802",
    "request_type": "Trash/Recycling",
    "request_reason": "Request a Large Item Pick Up",
    "date_created": "2023-07-06T19:06:42.000",
    "date_modified": "2023-07-06T19:06:42.000",
    "request_status": "Pending",
    "responsible_agency": "Department of Sanitation",
    "final_address": "1504 Prytania St",
    "address_councildis": "B",
    "status": "Assigned to Contractor",
    "contractor": "Richards Disposal",
    "rowid": "1014802",
    "final_x": "3679639.51215",
    "final_y": "525166.466109",
    "longitude": "-90.0741655354196",
    "latitude": "29.93808194596031",
    "geocoded_column": {
      "latitude": "29.93808194596031",
      "longitude": "-90.0741655354196"
    }
  },
  {
    "service_request": "2023-1014801",
    "request_type": "Trash/Recycling",
    "request_reason": "Request a Large Item Pick Up",
    "date_created": "2023-07-06T18:54:19.000",
    "date_modified": "2023-07-06T18:54:20.000",
    "request_status": "Pending",
    "responsible_agency": "Department of Sanitation",
    "final_address": "3320 Cherry St",
    "address_councildis": "A",
    "status": "Assigned to Contractor",
    "contractor": "Richards Disposal",
    "rowid": "1014801",
    "final_x": "3663961.34637",
    "final_y": "536903.721992",
    "longitude": "-90.12327179904695",
    "latitude": "29.970820015275294",
    "geocoded_column": {
      "latitude": "29.970820015275294",
      "longitude": "-90.12327179904695"
    }
  },
  {
    "service_request": "2023-1014800",
    "request_type": "Roads/Drainage",
    "request_reason": "Pothole",
    "date_created": "2023-07-06T18:52:39.000",
    "date_modified": "2023-07-06T18:52:39.000",
    "request_status": "Pending",
    "responsible_agency": "Department of Public Works",
    "final_address": "113 S Salcedo St",
    "address_councildis": "B",
    "status": "Pending",
    "rowid": "1014800",
    "final_x": "3673937.68628",
    "final_y": "535958.575047",
    "longitude": "-90.0917975633921",
    "latitude": "29.967927719430836",
    "geocoded_column": {
      "latitude": "29.967927719430836",
      "longitude": "-90.0917975633921"
    }
  },
  {
    "service_request": "2023-1014799",
    "request_type": "Trash/Recycling",
    "request_reason": "Request a Large Item Pick Up",
    "date_created": "2023-07-06T18:51:23.000",
    "date_modified": "2023-07-06T18:51:42.000",
    "request_status": "Pending",
    "responsible_agency": "Department of Sanitation",
    "final_address": "2110 Jackson Ave",
    "address_councildis": "B",
    "status": "Assigned to Contractor",
    "contractor": "Richards Disposal",
    "rowid": "1014799",
    "final_x": "3676134.92437",
    "final_y": "525570.034045",
    "longitude": "-90.0852159629586",
    "latitude": "29.939297055390494",
    "geocoded_column": {
      "latitude": "29.939297055390494",
      "longitude": "-90.0852159629586"
    }
  },
  {
    "service_request": "2023-1014798",
    "request_type": "Trash/Recycling",
    "request_reason": "Request a Large Item Pick Up",
    "date_created": "2023-07-06T18:46:04.000",
    "date_modified": "2023-07-06T18:46:05.000",
    "request_status": "Pending",
    "responsible_agency": "Department of Sanitation",
    "final_address": "639 Clouet St",
    "address_councildis": "C",
    "status": "Assigned to Contractor",
    "contractor": "IV Waste",
    "rowid": "1014798",
    "final_x": "3688641.92214",
    "final_y": "534434.546949",
    "longitude": "-90.04541532636097",
    "latitude": "29.96329089855064",
    "geocoded_column": {
      "latitude": "29.96329089855064",
      "longitude": "-90.04541532636097"
    }
  },
  {
    "service_request": "2023-1014797",
    "request_type": "Trash/Recycling",
    "request_reason": "Order Trash Cart",
    "date_created": "2023-07-06T18:45:34.000",
    "date_modified": "2023-07-06T18:45:34.000",
    "request_status": "Pending",
    "responsible_agency": "Department of Sanitation",
    "final_address": "5638 Catina St Apt 201",
    "address_councildis": "A",
    "status": "Assigned to Contractor",
    "contractor": "IV Waste",
    "rowid": "1014797",
    "final_x": "3666573.87021",
    "final_y": "545052.077647",
    "longitude": "-90.11474741881746",
    "latitude": "29.993149124811428",
    "geocoded_column": {
      "latitude": "29.993149124811428",
      "longitude": "-90.11474741881746"
    }
  },
  {
    "service_request": "2023-1014796",
    "request_type": "Roads/Drainage",
    "request_reason": "Pothole",
    "date_created": "2023-07-06T18:44:43.000",
    "date_modified": "2023-07-06T18:44:43.000",
    "request_status": "Pending",
    "responsible_agency": "Department of Public Works",
    "final_address": "RIVER OAKS DR & HERSCHEL ST",
    "address_councildis": "C",
    "status": "Pending",
    "rowid": "1014796",
    "final_x": "3701503.1",
    "final_y": "520876.78",
    "longitude": "-90.0052976786698",
    "latitude": "29.925608057689036",
    "geocoded_column": {
      "latitude": "29.925608057689036",
      "longitude": "-90.0052976786698"
    }
  },
  {
    "service_request": "2023-1014795",
    "request_type": "Roads/Drainage",
    "request_reason": "Pothole",
    "date_created": "2023-07-06T18:42:01.000",
    "date_modified": "2023-07-06T18:42:01.000",
    "request_status": "Pending",
    "responsible_agency": "Department of Public Works",
    "final_address": "RIVER OAKS DR & HERSCHEL ST",
    "address_councildis": "C",
    "status": "Pending",
    "rowid": "1014795",
    "final_x": "3701503.1",
    "final_y": "520876.78",
    "longitude": "-90.0052976786698",
    "latitude": "29.925608057689036",
    "geocoded_column": {
      "latitude": "29.925608057689036",
      "longitude": "-90.0052976786698"
    }
  },
  {
    "service_request": "2023-1014794",
    "request_type": "Abandoned Vehicles",
    "request_reason": "Abandoned/Junk Vehicles",
    "date_created": "2023-07-06T18:33:13.000",
    "date_modified": "2023-07-06T18:34:32.000",
    "request_status": "Pending",
    "responsible_agency": "Department of Public Works",
    "final_address": "3414 Toledano St",
    "address_councildis": "B",
    "status": "Pending",
    "rowid": "1014794",
    "final_x": "3671821.98555",
    "final_y": "528013.669631",
    "longitude": "-90.0987493667238",
    "latitude": "29.946144728301146",
    "geocoded_column": {
      "latitude": "29.946144728301146",
      "longitude": "-90.0987493667238"
    }
  },
  {
    "service_request": "2023-1014793",
    "request_type": "Roads/Drainage",
    "request_reason": "Pothole",
    "date_created": "2023-07-06T18:32:33.000",
    "date_modified": "2023-07-06T18:32:33.000",
    "request_status": "Pending",
    "responsible_agency": "Department of Public Works",
    "final_address": "2800 BLK General Pershing St",
    "address_councildis": "B",
    "status": "Pending",
    "rowid": "1014793",
    "final_x": "3670809.82042",
    "final_y": "525300.708701",
    "longitude": "-90.10203717418077",
    "latitude": "29.9387149162059",
    "geocoded_column": {
      "latitude": "29.9387149162059",
      "longitude": "-90.10203717418077"
    }
  },
  {
    "service_request": "2023-1014792",
    "request_type": "Trash/Recycling",
    "request_reason": "Missed Trash Pick-Up",
    "date_created": "2023-07-06T18:30:20.000",
    "date_modified": "2023-07-06T18:30:21.000",
    "request_status": "Pending",
    "responsible_agency": "Department of Sanitation",
    "final_address": "5126 Prytania St",
    "address_councildis": "B",
    "status": "Assigned to Contractor",
    "contractor": "Richards Disposal",
    "rowid": "1014792",
    "final_x": "3668145.76301",
    "final_y": "520081.683768",
    "longitude": "-90.11062374594772",
    "latitude": "29.924442710637937",
    "geocoded_column": {
      "latitude": "29.924442710637937",
      "longitude": "-90.11062374594772"
    }
  },
  {
    "service_request": "2023-1014791",
    "request_type": "Trash/Recycling",
    "request_reason": "Request a Large Item Pick Up",
    "date_created": "2023-07-06T18:27:08.000",
    "date_modified": "2023-07-06T18:27:09.000",
    "request_status": "Pending",
    "responsible_agency": "Department of Sanitation",
    "final_address": "6635 Coventry St",
    "address_councildis": "E",
    "status": "Assigned to Contractor",
    "contractor": "Waste Pro",
    "rowid": "1014791",
    "final_x": "3697730.2929",
    "final_y": "559373.122973",
    "longitude": "-90.01580992205524",
    "latitude": "30.03157874409579",
    "geocoded_column": {
      "latitude": "30.03157874409579",
      "longitude": "-90.01580992205524"
    }
  },
  {
    "service_request": "2023-1014790",
    "request_type": "Trash/Recycling",
    "request_reason": "Replace Trash Cart",
    "date_created": "2023-07-06T18:23:46.000",
    "date_modified": "2023-07-06T18:23:46.000",
    "request_status": "Pending",
    "responsible_agency": "Department of Sanitation",
    "final_address": "6635 Coventry St",
    "address_councildis": "E",
    "status": "Assigned to Contractor",
    "contractor": "Waste Pro",
    "rowid": "1014790",
    "final_x": "3697730.2929",
    "final_y": "559373.122973",
    "longitude": "-90.01580992205524",
    "latitude": "30.03157874409579",
    "geocoded_column": {
      "latitude": "30.03157874409579",
      "longitude": "-90.01580992205524"
    }
  },
  {
    "service_request": "2023-1014789",
    "request_type": "Mosquito, Termite & Rodent Control",
    "request_reason": "Mosquito Complaint",
    "date_created": "2023-07-06T18:17:41.000",
    "date_modified": "2023-07-06T18:17:41.000",
    "request_status": "Pending",
    "responsible_agency": "Mosquito, Termite & Rodent Control Board",
    "final_address": "8443 Panola St",
    "address_councildis": "A",
    "status": "Pending",
    "rowid": "1014789",
    "final_x": "3663112.23347",
    "final_y": "531655.506179",
    "longitude": "-90.12612803832025",
    "latitude": "29.95641376797416",
    "geocoded_column": {
      "latitude": "29.95641376797416",
      "longitude": "-90.12612803832025"
    }
  },
  {
    "service_request": "2023-1014788",
    "request_type": "Property Maintenance",
    "request_reason": "Property Maintenance",
    "date_created": "2023-07-06T18:12:36.000",
    "date_modified": "2023-07-06T18:12:36.000",
    "request_status": "Pending",
    "responsible_agency": "Department of Code Enforcement",
    "final_address": "8443 Panola St",
    "address_councildis": "A",
    "status": "Pending",
    "rowid": "1014788",
    "final_x": "3663112.23347",
    "final_y": "531655.506179",
    "longitude": "-90.12612803832025",
    "latitude": "29.95641376797416",
    "geocoded_column": {
      "latitude": "29.95641376797416",
      "longitude": "-90.12612803832025"
    }
  },
  {
    "service_request": "2023-1014787",
    "request_type": "Roads/Drainage",
    "request_reason": "Road Shoulder Repair",
    "date_created": "2023-07-06T18:11:59.000",
    "date_modified": "2023-07-06T18:11:59.000",
    "request_status": "Pending",
    "responsible_agency": "Department of Public Works",
    "final_address": "5039 Paris Ave",
    "address_councildis": "D",
    "status": "Pending",
    "rowid": "1014787",
    "final_x": "3679363.90984",
    "final_y": "551036.968405",
    "longitude": "-90.07413808233754",
    "latitude": "30.009225237731187",
    "geocoded_column": {
      "latitude": "30.009225237731187",
      "longitude": "-90.07413808233754"
    }
  },
  {
    "service_request": "2023-1014786",
    "request_type": "Trash/Recycling",
    "request_reason": "Missed Trash Pick-Up",
    "date_created": "2023-07-06T18:02:53.000",
    "date_modified": "2023-07-06T18:02:54.000",
    "request_status": "Pending",
    "responsible_agency": "Department of Sanitation",
    "final_address": "2506 S Robertson St",
    "address_councildis": "B",
    "status": "Assigned to Contractor",
    "contractor": "Richards Disposal",
    "rowid": "1014786",
    "final_x": "3674653.00718",
    "final_y": "525992.587325",
    "longitude": "-90.08988009376951",
    "latitude": "29.940503240273465",
    "geocoded_column": {
      "latitude": "29.940503240273465",
      "longitude": "-90.08988009376951"
    }
  },
  {
    "service_request": "2023-1014785",
    "request_type": "Roads/Drainage",
    "request_reason": "Pothole",
    "date_created": "2023-07-06T17:57:26.000",
    "date_modified": "2023-07-06T17:57:26.000",
    "request_status": "Pending",
    "responsible_agency": "Department of Public Works",
    "final_address": "2509 Comet St",
    "address_councildis": "C",
    "status": "Pending",
    "rowid": "1014785",
    "final_x": "3699854.19453",
    "final_y": "521750.883194",
    "longitude": "-90.01047088062128",
    "latitude": "29.92806398631625",
    "geocoded_column": {
      "latitude": "29.92806398631625",
      "longitude": "-90.01047088062128"
    }
  },
  {
    "service_request": "2023-1014784",
    "request_type": "Roads/Drainage",
    "request_reason": "Pothole",
    "date_created": "2023-07-06T17:44:49.000",
    "date_modified": "2023-07-06T17:44:49.000",
    "request_status": "Pending",
    "responsible_agency": "Department of Public Works",
    "final_address": "1129 Eleonore St",
    "address_councildis": "A",
    "status": "Pending",
    "rowid": "1014784",
    "final_x": "3665554.88071",
    "final_y": "520305.639608",
    "longitude": "-90.11879481420523",
    "latitude": "29.925134284616966",
    "geocoded_column": {
      "latitude": "29.925134284616966",
      "longitude": "-90.11879481420523"
    }
  },
  {
    "service_request": "2023-1014783",
    "request_type": "Trash/Recycling",
    "request_reason": "Order Trash Cart",
    "date_created": "2023-07-06T17:42:25.000",
    "date_modified": "2023-07-06T17:42:26.000",
    "request_status": "Pending",
    "responsible_agency": "Department of Sanitation",
    "final_address": "2904 Milan St",
    "address_councildis": "B",
    "status": "Assigned to Contractor",
    "contractor": "Richards Disposal",
    "rowid": "1014783",
    "final_x": "3671091.77294",
    "final_y": "525573.168893",
    "longitude": "-90.10113776702913",
    "latitude": "29.93945575939905",
    "geocoded_column": {
      "latitude": "29.93945575939905",
      "longitude": "-90.10113776702913"
    }
  },
  {
    "service_request": "2023-1014782",
    "request_type": "Trash/Recycling",
    "request_reason": "Request a Large Item Pick Up",
    "date_created": "2023-07-06T17:41:23.000",
    "date_modified": "2023-07-06T17:41:24.000",
    "request_status": "Pending",
    "responsible_agency": "Department of Sanitation",
    "final_address": "118 Portage Pl",
    "address_councildis": "D",
    "status": "Assigned to Contractor",
    "contractor": "IV Waste",
    "rowid": "1014782",
    "final_x": "3677876.97346",
    "final_y": "544547.896335",
    "longitude": "-90.07906023576476",
    "latitude": "29.991427433655765",
    "geocoded_column": {
      "latitude": "29.991427433655765",
      "longitude": "-90.07906023576476"
    }
  },
  {
    "service_request": "2023-1014781",
    "request_type": "Abandoned Vehicles",
    "request_reason": "Abandoned/Junk Vehicles",
    "date_created": "2023-07-06T17:31:13.000",
    "date_modified": "2023-07-06T17:31:13.000",
    "request_status": "Pending",
    "responsible_agency": "Department of Public Works",
    "final_address": "3401 St Claude Ave",
    "address_councildis": "C",
    "status": "Pending",
    "rowid": "1014781",
    "final_x": "3690261.42416",
    "final_y": "535844.421703",
    "longitude": "-90.04025089669965",
    "latitude": "29.967117408642405",
    "geocoded_column": {
      "latitude": "29.967117408642405",
      "longitude": "-90.04025089669965"
    }
  },
  {
    "service_request": "2023-1014780",
    "request_type": "Roads/Drainage",
    "request_reason": "Catch Basin - Clogged",
    "date_created": "2023-07-06T17:30:42.000",
    "date_modified": "2023-07-06T17:30:42.000",
    "request_status": "Pending",
    "responsible_agency": "Department of Public Works",
    "final_address": "2644 Ap Tureaud Ave",
    "address_councildis": "D",
    "status": "Pending",
    "rowid": "1014780",
    "final_x": "3681435.7078",
    "final_y": "542105.365132",
    "longitude": "-90.06790420074643",
    "latitude": "29.984603739786156",
    "geocoded_column": {
      "latitude": "29.984603739786156",
      "longitude": "-90.06790420074643"
    }
  },
  {
    "service_request": "2023-1014779",
    "request_type": "Traffic Signals/Signs/Striping/Streetlights",
    "request_reason": "Traffic Sign Missing/Damaged",
    "date_created": "2023-07-06T17:28:02.000",
    "date_modified": "2023-07-06T17:28:02.000",
    "request_status": "Pending",
    "responsible_agency": "Department of Public Works",
    "final_address": "500 BLK Decatur St",
    "address_councildis": "C",
    "status": "Pending",
    "rowid": "1014779",
    "final_x": "3682829.24553",
    "final_y": "531547.147651",
    "longitude": "-90.06387209773503",
    "latitude": "29.95552990358907",
    "geocoded_column": {
      "latitude": "29.95552990358907",
      "longitude": "-90.06387209773503"
    }
  },
  {
    "service_request": "2023-1014778",
    "request_type": "Trash/Recycling",
    "request_reason": "Request a Large Item Pick Up",
    "date_created": "2023-07-06T17:27:57.000",
    "date_modified": "2023-07-06T17:27:57.000",
    "request_status": "Pending",
    "responsible_agency": "Department of Sanitation",
    "final_address": "3436 Seine St",
    "address_councildis": "C",
    "status": "Assigned to Contractor",
    "contractor": "Richards Disposal",
    "rowid": "1014778",
    "final_x": "3696705.53655",
    "final_y": "519519.115255",
    "longitude": "-90.02049114260225",
    "latitude": "29.92202696260067",
    "geocoded_column": {
      "latitude": "29.92202696260067",
      "longitude": "-90.02049114260225"
    }
  },
  {
    "service_request": "2023-1014777",
    "request_type": "Trash/Recycling",
    "request_reason": "Order Trash Cart",
    "date_created": "2023-07-06T17:26:04.000",
    "date_modified": "2023-07-06T17:26:04.000",
    "request_status": "Pending",
    "responsible_agency": "Department of Sanitation",
    "final_address": "2617 N Miro St",
    "address_councildis": "D",
    "status": "Assigned to Contractor",
    "contractor": "IV Waste",
    "rowid": "1014777",
    "final_x": "3687804.35753",
    "final_y": "540635.938507",
    "longitude": "-90.04784055301293",
    "latitude": "29.980368409146973",
    "geocoded_column": {
      "latitude": "29.980368409146973",
      "longitude": "-90.04784055301293"
    }
  },
  {
    "service_request": "2023-1014776",
    "request_type": "Trash/Recycling",
    "request_reason": "Order Recycling Cart",
    "date_created": "2023-07-06T17:20:48.000",
    "date_modified": "2023-07-06T17:20:48.000",
    "request_status": "Pending",
    "responsible_agency": "Department of Sanitation",
    "final_address": "8903 Dinkins St",
    "address_councildis": "E",
    "status": "Pending",
    "rowid": "1014776",
    "final_x": "3704731.50257",
    "final_y": "563487.453472",
    "longitude": "-89.99353391015671",
    "latitude": "30.042668326281266",
    "geocoded_column": {
      "latitude": "30.042668326281266",
      "longitude": "-89.99353391015671"
    }
  },
  {
    "service_request": "2023-1014775",
    "request_type": "Trash/Recycling",
    "request_reason": "Replace Trash Cart",
    "date_created": "2023-07-06T17:20:24.000",
    "date_modified": "2023-07-06T17:20:24.000",
    "request_status": "Pending",
    "responsible_agency": "Department of Sanitation",
    "final_address": "8903 Dinkins St",
    "address_councildis": "E",
    "status": "Assigned to Contractor",
    "contractor": "Waste Pro",
    "rowid": "1014775",
    "final_x": "3704731.50257",
    "final_y": "563487.453472",
    "longitude": "-89.99353391015671",
    "latitude": "30.042668326281266",
    "geocoded_column": {
      "latitude": "30.042668326281266",
      "longitude": "-89.99353391015671"
    }
  },
  {
    "service_request": "2023-1014774",
    "request_type": "Trash/Recycling",
    "request_reason": "Return Trash Cart",
    "date_created": "2023-07-06T17:17:11.000",
    "date_modified": "2023-07-06T17:17:12.000",
    "request_status": "Pending",
    "responsible_agency": "Department of Sanitation",
    "final_address": "2917 Annunciation St",
    "address_councildis": "B",
    "status": "Assigned to Contractor",
    "contractor": "Richards Disposal",
    "rowid": "1014774",
    "final_x": "3677076.60142",
    "final_y": "519560.866231",
    "longitude": "-90.08245007562299",
    "latitude": "29.922745566777387",
    "geocoded_column": {
      "latitude": "29.922745566777387",
      "longitude": "-90.08245007562299"
    }
  },
  {
    "service_request": "2023-1014773",
    "request_type": "Traffic Signals/Signs/Striping/Streetlights",
    "request_reason": "Street Light Outage/Malfunction",
    "date_created": "2023-07-06T17:15:43.000",
    "date_modified": "2023-07-06T17:15:44.000",
    "request_status": "Pending",
    "responsible_agency": "Department of Public Works",
    "final_address": "1467 Gardena Dr",
    "address_councildis": "D",
    "status": "Assigned to Contractor",
    "contractor": "Legacy Professional Services",
    "rowid": "1014773",
    "final_x": "3678081.84098",
    "final_y": "551557.094101",
    "longitude": "-90.0781705759347",
    "latitude": "30.01069407440049",
    "geocoded_column": {
      "latitude": "30.01069407440049",
      "longitude": "-90.0781705759347"
    }
  },
  {
    "service_request": "2023-1014772",
    "request_type": "Trash/Recycling",
    "request_reason": "Illegal Dumping",
    "date_created": "2023-07-06T17:14:59.000",
    "date_modified": "2023-07-06T17:15:00.000",
    "request_status": "Pending",
    "responsible_agency": "Department of Sanitation",
    "final_address": "5118 Timber Crest Dr",
    "address_councildis": "C",
    "status": "Pending",
    "rowid": "1014772",
    "final_x": "3703084.68919",
    "final_y": "511262.471216",
    "longitude": "-90.0006581013934",
    "latitude": "29.89912149740273",
    "geocoded_column": {
      "latitude": "29.89912149740273",
      "longitude": "-90.0006581013934"
    }
  },
  {
    "service_request": "2023-1014771",
    "request_type": "Utility Poles",
    "request_reason": "Utility Pole Leaning",
    "date_created": "2023-07-06T17:12:08.000",
    "date_modified": "2023-07-06T17:12:12.000",
    "request_status": "Pending",
    "responsible_agency": "Utility Company Collective",
    "final_address": "541 Audubon St",
    "address_councildis": "A",
    "status": "Pending",
    "rowid": "1014771",
    "final_x": "3662921.3417",
    "final_y": "524026.812348",
    "longitude": "-90.12698442419376",
    "latitude": "29.935442831917573",
    "geocoded_column": {
      "latitude": "29.935442831917573",
      "longitude": "-90.12698442419376"
    }
  },
  {
    "service_request": "2023-1014770",
    "request_type": "Safety & Permits",
    "request_reason": "Licenses & Permits",
    "date_created": "2023-07-06T17:10:44.000",
    "date_modified": "2023-07-06T17:10:44.000",
    "request_status": "Pending",
    "responsible_agency": "Safety and Permits",
    "final_address": "1290 St Denis St",
    "address_councildis": "D",
    "status": "Pending",
    "rowid": "1014770",
    "final_x": "3677364.91304",
    "final_y": "545655.152656",
    "longitude": "-90.08063948408241",
    "latitude": "29.994487402674125",
    "geocoded_column": {
      "latitude": "29.994487402674125",
      "longitude": "-90.08063948408241"
    }
  },
  {
    "service_request": "2023-1014769",
    "request_type": "Safety & Permits",
    "request_reason": "Licenses & Permits",
    "date_created": "2023-07-06T17:09:17.000",
    "date_modified": "2023-07-06T17:09:17.000",
    "request_status": "Pending",
    "responsible_agency": "Safety and Permits",
    "final_address": "1248 St Denis St",
    "address_councildis": "D",
    "status": "Pending",
    "rowid": "1014769",
    "final_x": "3677121.66683",
    "final_y": "545633.147792",
    "longitude": "-90.08140862818608",
    "latitude": "29.994434206910213",
    "geocoded_column": {
      "latitude": "29.994434206910213",
      "longitude": "-90.08140862818608"
    }
  },
  {
    "service_request": "2023-1014768",
    "request_type": "Trash/Recycling",
    "request_reason": "Replace Recycling Cart",
    "date_created": "2023-07-06T17:07:24.000",
    "date_modified": "2023-07-06T17:07:24.000",
    "request_status": "Pending",
    "responsible_agency": "Department of Sanitation",
    "final_address": "1517 Dufossat St",
    "address_councildis": "B",
    "status": "Pending",
    "rowid": "1014768",
    "final_x": "3668192.20609",
    "final_y": "520568.892024",
    "longitude": "-90.11046072712098",
    "latitude": "29.925781016168",
    "geocoded_column": {
      "latitude": "29.925781016168",
      "longitude": "-90.11046072712098"
    }
  },
  {
    "service_request": "2023-1014767",
    "request_type": "Trash/Recycling",
    "request_reason": "Replace Trash Cart",
    "date_created": "2023-07-06T17:06:09.000",
    "date_modified": "2023-07-06T17:06:10.000",
    "request_status": "Pending",
    "responsible_agency": "Department of Sanitation",
    "final_address": "2101 Jefferson Ave",
    "address_councildis": "B",
    "status": "Assigned to Contractor",
    "contractor": "Richards Disposal",
    "rowid": "1014767",
    "final_x": "3667829.14925",
    "final_y": "523355.916283",
    "longitude": "-90.11151298065892",
    "latitude": "29.933455095041342",
    "geocoded_column": {
      "latitude": "29.933455095041342",
      "longitude": "-90.11151298065892"
    }
  },
  {
    "service_request": "2023-1014766",
    "request_type": "Property Maintenance",
    "request_reason": "Property Maintenance",
    "date_created": "2023-07-06T17:04:10.000",
    "date_modified": "2023-07-06T17:04:10.000",
    "request_status": "Pending",
    "responsible_agency": "Department of Code Enforcement",
    "final_address": "2527 N Prieur St",
    "address_councildis": "D",
    "status": "Pending",
    "rowid": "1014766",
    "final_x": "3687217.3183",
    "final_y": "539487.04097",
    "longitude": "-90.04973531872928",
    "latitude": "29.977227442315623",
    "geocoded_column": {
      "latitude": "29.977227442315623",
      "longitude": "-90.04973531872928"
    }
  },
  {
    "service_request": "2023-1014765",
    "request_type": "Abandoned Vehicles",
    "request_reason": "Abandoned/Junk Vehicles",
    "date_created": "2023-07-06T16:58:13.000",
    "date_modified": "2023-07-06T16:58:13.000",
    "request_status": "Pending",
    "responsible_agency": "Department of Public Works",
    "final_address": "I 610 W & ST BERNARD AVE",
    "address_councildis": "D",
    "status": "Pending",
    "rowid": "1014765",
    "final_x": "3678448.4",
    "final_y": "545129.68",
    "longitude": "-90.07723508061775",
    "latitude": "29.9930099229569",
    "geocoded_column": {
      "latitude": "29.9930099229569",
      "longitude": "-90.07723508061775"
    }
  },
  {
    "service_request": "2023-1014764",
    "request_type": "Trash/Recycling",
    "request_reason": "MIssed Recycling Pick-Up",
    "date_created": "2023-07-06T16:56:51.000",
    "date_modified": "2023-07-06T16:56:52.000",
    "request_status": "Pending",
    "responsible_agency": "Department of Sanitation",
    "status": "Assigned to Contractor",
    "rowid": "1014764",
    "longitude": "0.0",
    "latitude": "0.0",
    "geocoded_column": {
      "latitude": "0.0",
      "longitude": "0.0"
    }
  },
  {
    "service_request": "2023-1014763",
    "request_type": "Property Maintenance",
    "request_reason": "Property Maintenance",
    "date_created": "2023-07-06T16:53:38.000",
    "date_modified": "2023-07-06T16:53:38.000",
    "request_status": "Pending",
    "responsible_agency": "Department of Code Enforcement",
    "final_address": "1264 Sere St",
    "address_councildis": "D",
    "status": "Pending",
    "rowid": "1014763",
    "final_x": "3677203.60782",
    "final_y": "545269.233935",
    "longitude": "-90.08116234922579",
    "latitude": "29.993431109545565",
    "geocoded_column": {
      "latitude": "29.993431109545565",
      "longitude": "-90.08116234922579"
    }
  },
  {
    "service_request": "2023-1014762",
    "request_type": "Trash/Recycling",
    "request_reason": "Illegal Dumping",
    "date_created": "2023-07-06T16:51:35.000",
    "date_modified": "2023-07-06T16:51:35.000",
    "request_status": "Pending",
    "responsible_agency": "Department of Sanitation",
    "final_address": "2718 St Thomas St",
    "address_councildis": "B",
    "status": "Pending",
    "rowid": "1014762",
    "final_x": "3678191.43803",
    "final_y": "519355.620599",
    "longitude": "-90.07893806942859",
    "latitude": "29.92214769616893",
    "geocoded_column": {
      "latitude": "29.92214769616893",
      "longitude": "-90.07893806942859"
    }
  },
  {
    "service_request": "2023-1014761",
    "request_type": "Trash/Recycling",
    "request_reason": "Replace Trash Cart",
    "date_created": "2023-07-06T16:47:44.000",
    "date_modified": "2023-07-06T16:47:44.000",
    "request_status": "Pending",
    "responsible_agency": "Department of Sanitation",
    "final_address": "201 S Villere St",
    "address_councildis": "B",
    "status": "Assigned to Contractor",
    "contractor": "Empire Services",
    "rowid": "1014761",
    "final_x": "3678630.72072",
    "final_y": "532030.345475",
    "longitude": "-90.07711280661715",
    "latitude": "29.9569857671572",
    "geocoded_column": {
      "latitude": "29.9569857671572",
      "longitude": "-90.07711280661715"
    }
  },
  {
    "service_request": "2023-1014760",
    "request_type": "Trash/Recycling",
    "request_reason": "Missed Trash Pick-Up",
    "date_created": "2023-07-06T16:45:15.000",
    "date_modified": "2023-07-06T16:45:15.000",
    "request_status": "Pending",
    "responsible_agency": "Department of Sanitation",
    "final_address": "1635 St Mary St",
    "address_councildis": "B",
    "status": "Assigned to Contractor",
    "contractor": "Richards Disposal",
    "rowid": "1014760",
    "final_x": "3678187.1787",
    "final_y": "524586.73094",
    "longitude": "-90.07877072220951",
    "latitude": "29.93653166937429",
    "geocoded_column": {
      "latitude": "29.93653166937429",
      "longitude": "-90.07877072220951"
    }
  },
  {
    "service_request": "2023-1014759",
    "request_type": "Trash/Recycling",
    "request_reason": "Request a Large Item Pick Up",
    "date_created": "2023-07-06T16:43:12.000",
    "date_modified": "2023-07-06T16:43:13.000",
    "request_status": "Pending",
    "responsible_agency": "Department of Sanitation",
    "final_address": "5255 Magazine St",
    "address_councildis": "B",
    "status": "Assigned to Contractor",
    "contractor": "Richards Disposal",
    "rowid": "1014759",
    "final_x": "3667558.60212",
    "final_y": "518667.244343",
    "longitude": "-90.1125247885909",
    "latitude": "29.92057066346392",
    "geocoded_column": {
      "latitude": "29.92057066346392",
      "longitude": "-90.1125247885909"
    }
  },
  {
    "service_request": "2023-1014758",
    "request_type": "Roads/Drainage",
    "request_reason": "Catch Basin - Clogged",
    "date_created": "2023-07-06T16:42:14.000",
    "date_modified": "2023-07-06T16:42:14.000",
    "request_status": "Pending",
    "responsible_agency": "Department of Public Works",
    "final_address": "100 BLK Royal St",
    "address_councildis": "C",
    "status": "Pending",
    "rowid": "1014758",
    "final_x": "3681331.2705",
    "final_y": "530858.701522",
    "longitude": "-90.06862615581144",
    "latitude": "29.953682457848835",
    "geocoded_column": {
      "latitude": "29.953682457848835",
      "longitude": "-90.06862615581144"
    }
  },
  {
    "service_request": "2023-1014757",
    "request_type": "Roads/Drainage",
    "request_reason": "Catch Basin - Clogged",
    "date_created": "2023-07-06T16:40:55.000",
    "date_modified": "2023-07-06T16:40:55.000",
    "request_status": "Pending",
    "responsible_agency": "Department of Public Works",
    "final_address": "100 BLK Royal St",
    "address_councildis": "C",
    "status": "Pending",
    "rowid": "1014757",
    "final_x": "3681331.2705",
    "final_y": "530858.701522",
    "longitude": "-90.06862615581144",
    "latitude": "29.953682457848835",
    "geocoded_column": {
      "latitude": "29.953682457848835",
      "longitude": "-90.06862615581144"
    }
  },
  {
    "service_request": "2023-1014756",
    "request_type": "Trash/Recycling",
    "request_reason": "Missed Trash Pick-Up",
    "date_created": "2023-07-06T16:34:55.000",
    "date_modified": "2023-07-06T16:34:55.000",
    "request_status": "Closed",
    "responsible_agency": "Department of Sanitation",
    "final_address": "2600 BLK Clara St",
    "address_councildis": "B",
    "status": "Resolved",
    "rowid": "1014756",
    "final_x": "3673968.01029",
    "final_y": "526332.96451",
    "longitude": "-90.09203110421879",
    "latitude": "29.94145958802487",
    "geocoded_column": {
      "latitude": "29.94145958802487",
      "longitude": "-90.09203110421879"
    }
  },
  {
    "service_request": "2023-1014755",
    "request_type": "Trash/Recycling",
    "request_reason": "Missed Trash Pick-Up",
    "date_created": "2023-07-06T16:31:45.000",
    "date_modified": "2023-07-06T16:31:45.000",
    "request_status": "Pending",
    "responsible_agency": "Department of Sanitation",
    "final_address": "2314 Delery St",
    "address_councildis": "E",
    "status": "Assigned to Contractor",
    "contractor": "Waste Pro",
    "rowid": "1014755",
    "final_x": "3702208.70065",
    "final_y": "537434.866696",
    "longitude": "-90.00246323893724",
    "latitude": "29.971114425544155",
    "geocoded_column": {
      "latitude": "29.971114425544155",
      "longitude": "-90.00246323893724"
    }
  },
  {
    "service_request": "2023-1014754",
    "request_type": "Roads/Drainage",
    "request_reason": "Alley Way",
    "date_created": "2023-07-06T16:28:32.000",
    "date_modified": "2023-07-06T16:28:32.000",
    "request_status": "Pending",
    "responsible_agency": "Department of Public Works",
    "final_address": "6406 Vicksburg St",
    "address_councildis": "A",
    "status": "Pending",
    "rowid": "1014754",
    "final_x": "3669088.43022",
    "final_y": "550125.222804",
    "longitude": "-90.10663276188474",
    "latitude": "30.00702474396962",
    "geocoded_column": {
      "latitude": "30.00702474396962",
      "longitude": "-90.10663276188474"
    }
  },
  {
    "service_request": "2023-1014753",
    "request_type": "Trash/Recycling",
    "request_reason": "Missed Trash Pick-Up",
    "date_created": "2023-07-06T16:27:08.000",
    "date_modified": "2023-07-06T16:27:08.000",
    "request_status": "Pending",
    "responsible_agency": "Department of Sanitation",
    "final_address": "7120 Lake Barrington Dr",
    "address_councildis": "E",
    "status": "Assigned to Contractor",
    "contractor": "Waste Pro",
    "rowid": "1014753",
    "final_x": "3712318.91902",
    "final_y": "564100.268641",
    "longitude": "-89.96953183404712",
    "latitude": "30.04410719882937",
    "geocoded_column": {
      "latitude": "30.04410719882937",
      "longitude": "-89.96953183404712"
    }
  },
  {
    "service_request": "2023-1014752",
    "request_type": "Trash/Recycling",
    "request_reason": "Request a Large Item Pick Up",
    "date_created": "2023-07-06T16:24:32.000",
    "date_modified": "2023-07-06T16:24:33.000",
    "request_status": "Pending",
    "responsible_agency": "Department of Sanitation",
    "final_address": "1323 Harrison Ave",
    "address_councildis": "D",
    "status": "Assigned to Contractor",
    "contractor": "IV Waste",
    "rowid": "1014752",
    "final_x": "3677423.76654",
    "final_y": "547600.623442",
    "longitude": "-90.08038637374494",
    "latitude": "29.999834992479006",
    "geocoded_column": {
      "latitude": "29.999834992479006",
      "longitude": "-90.08038637374494"
    }
  },
  {
    "service_request": "2023-1014751",
    "request_type": "Trash/Recycling",
    "request_reason": "Order Trash Cart",
    "date_created": "2023-07-06T16:24:31.000",
    "date_modified": "2023-07-06T16:24:31.000",
    "request_status": "Pending",
    "responsible_agency": "Department of Sanitation",
    "final_address": "2321 Fourth St",
    "address_councildis": "B",
    "status": "Assigned to Contractor",
    "contractor": "Richards Disposal",
    "rowid": "1014751",
    "final_x": "3674735.92085",
    "final_y": "524951.305597",
    "longitude": "-90.08965400330182",
    "latitude": "29.9376375819916",
    "geocoded_column": {
      "latitude": "29.9376375819916",
      "longitude": "-90.08965400330182"
    }
  },
  {
    "service_request": "2023-1014750",
    "request_type": "Trash/Recycling",
    "request_reason": "Order Trash Cart",
    "date_created": "2023-07-06T16:24:13.000",
    "date_modified": "2023-07-06T16:24:14.000",
    "request_status": "Pending",
    "responsible_agency": "Department of Sanitation",
    "final_address": "2323 Fourth St",
    "address_councildis": "B",
    "status": "Assigned to Contractor",
    "contractor": "Richards Disposal",
    "rowid": "1014750",
    "final_x": "3674730.32949",
    "final_y": "524962.590589",
    "longitude": "-90.08967126897674",
    "latitude": "29.93766877890251",
    "geocoded_column": {
      "latitude": "29.93766877890251",
      "longitude": "-90.08967126897674"
    }
  },
  {
    "service_request": "2023-1014749",
    "request_type": "Trash/Recycling",
    "request_reason": "Missed Trash Pick-Up",
    "date_created": "2023-07-06T16:16:58.000",
    "date_modified": "2023-07-06T16:16:59.000",
    "request_status": "Pending",
    "responsible_agency": "Department of Sanitation",
    "final_address": "1668 Dufossat St",
    "address_councildis": "B",
    "status": "Assigned to Contractor",
    "contractor": "Richards Disposal",
    "rowid": "1014749",
    "final_x": "3668069.78055",
    "final_y": "521760.651066",
    "longitude": "-90.11080705105114",
    "latitude": "29.929061567065368",
    "geocoded_column": {
      "latitude": "29.929061567065368",
      "longitude": "-90.11080705105114"
    }
  },
  {
    "service_request": "2023-1014748",
    "request_type": "Trash/Recycling",
    "request_reason": "MIssed Recycling Pick-Up",
    "date_created": "2023-07-06T16:12:58.000",
    "date_modified": "2023-07-06T16:12:59.000",
    "request_status": "Pending",
    "responsible_agency": "Department of Sanitation",
    "final_address": "4326 Clio St",
    "address_councildis": "B",
    "status": "Assigned to Contractor",
    "contractor": "Richards Disposal",
    "rowid": "1014748",
    "final_x": "3671099.43534",
    "final_y": "531694.157699",
    "longitude": "-90.10090572481897",
    "latitude": "29.95628624677812",
    "geocoded_column": {
      "latitude": "29.95628624677812",
      "longitude": "-90.10090572481897"
    }
  },
  {
    "service_request": "2023-1014747",
    "request_type": "Trash/Recycling",
    "request_reason": "Request a Large Item Pick Up",
    "date_created": "2023-07-06T16:06:52.000",
    "date_modified": "2023-07-06T16:06:53.000",
    "request_status": "Pending",
    "responsible_agency": "Department of Sanitation",
    "final_address": "5843 General Haig St",
    "address_councildis": "A",
    "status": "Assigned to Contractor",
    "contractor": "IV Waste",
    "rowid": "1014747",
    "final_x": "3670504.75188",
    "final_y": "546117.573008",
    "longitude": "-90.10229423283869",
    "latitude": "29.995963335695315",
    "geocoded_column": {
      "latitude": "29.995963335695315",
      "longitude": "-90.10229423283869"
    }
  },
  {
    "service_request": "2023-1014746",
    "request_type": "Abandoned Vehicles",
    "request_reason": "Abandoned/Junk Vehicles",
    "date_created": "2023-07-06T16:06:30.000",
    "date_modified": "2023-07-06T16:16:51.000",
    "request_status": "Pending",
    "responsible_agency": "Department of Public Works",
    "final_address": "4842 Tchoupitoulas St",
    "address_councildis": "B",
    "status": "Pending",
    "rowid": "1014746",
    "final_x": "3669330.17607",
    "final_y": "517225.128437",
    "longitude": "-90.10698145592427",
    "latitude": "29.916553281128902",
    "geocoded_column": {
      "latitude": "29.916553281128902",
      "longitude": "-90.10698145592427"
    }
  },
  {
    "service_request": "2023-1014744",
    "request_type": "Trash/Recycling",
    "request_reason": "Illegal Dumping",
    "date_created": "2023-07-06T15:56:59.000",
    "date_modified": "2023-07-06T15:56:59.000",
    "request_status": "Pending",
    "responsible_agency": "Department of Sanitation",
    "final_address": "2800 BLK S Johnson St",
    "address_councildis": "B",
    "status": "Pending",
    "rowid": "1014744",
    "final_x": "3672253.71385",
    "final_y": "527768.805471",
    "longitude": "-90.09739458821986",
    "latitude": "29.945458634562424",
    "geocoded_column": {
      "latitude": "29.945458634562424",
      "longitude": "-90.09739458821986"
    }
  },
  {
    "service_request": "2023-1014743",
    "request_type": "Trash/Recycling",
    "request_reason": "Start Trash Service",
    "date_created": "2023-07-06T15:46:56.000",
    "date_modified": "2023-07-06T15:46:57.000",
    "request_status": "Pending",
    "responsible_agency": "Department of Sanitation",
    "final_address": "2235 Second St",
    "address_councildis": "B",
    "status": "Assigned to Contractor",
    "contractor": "Richards Disposal",
    "rowid": "1014743",
    "final_x": "3675388.71643",
    "final_y": "525085.506237",
    "longitude": "-90.0875884701409",
    "latitude": "29.93798709129151",
    "geocoded_column": {
      "latitude": "29.93798709129151",
      "longitude": "-90.0875884701409"
    }
  },
  {
    "service_request": "2023-1014742",
    "request_type": "Traffic Signals/Signs/Striping/Streetlights",
    "request_reason": "Street Light Outage/Malfunction",
    "date_created": "2023-07-06T15:45:12.000",
    "date_modified": "2023-07-06T15:45:13.000",
    "request_status": "Pending",
    "responsible_agency": "Department of Public Works",
    "final_address": "2667 Halsey Ave",
    "address_councildis": "C",
    "status": "Assigned to Contractor",
    "contractor": "Legacy Professional Services",
    "rowid": "1014742",
    "final_x": "3697591.97136",
    "final_y": "521204.092985",
    "longitude": "-90.01763198282899",
    "latitude": "29.926632120116345",
    "geocoded_column": {
      "latitude": "29.926632120116345",
      "longitude": "-90.01763198282899"
    }
  },
  {
    "service_request": "2023-1014741",
    "request_type": "Traffic Signals/Signs/Striping/Streetlights",
    "request_reason": "Street Light Outage/Malfunction",
    "date_created": "2023-07-06T15:43:54.000",
    "date_modified": "2023-07-06T15:43:56.000",
    "request_status": "Pending",
    "responsible_agency": "Department of Public Works",
    "final_address": "2667 Halsey Ave",
    "address_councildis": "C",
    "status": "Assigned to Contractor",
    "contractor": "Legacy Professional Services",
    "rowid": "1014741",
    "final_x": "3697591.97136",
    "final_y": "521204.092985",
    "longitude": "-90.01763198282899",
    "latitude": "29.926632120116345",
    "geocoded_column": {
      "latitude": "29.926632120116345",
      "longitude": "-90.01763198282899"
    }
  },
  {
    "service_request": "2023-1014740",
    "request_type": "Trash/Recycling",
    "request_reason": "Order Trash Cart",
    "date_created": "2023-07-06T15:43:07.000",
    "date_modified": "2023-07-06T15:44:18.000",
    "request_status": "Pending",
    "responsible_agency": "Department of Sanitation",
    "final_address": "3022 Franklin Ave",
    "address_councildis": "D",
    "status": "Assigned to Contractor",
    "contractor": "IV Waste",
    "rowid": "1014740",
    "final_x": "3687245.42626",
    "final_y": "544096.11323",
    "longitude": "-90.04948344236696",
    "latitude": "29.989899888899476",
    "geocoded_column": {
      "latitude": "29.989899888899476",
      "longitude": "-90.04948344236696"
    }
  },
  {
    "service_request": "2023-1014737",
    "request_type": "Trash/Recycling",
    "request_reason": "Missed Trash Pick-Up",
    "date_created": "2023-07-06T15:38:04.000",
    "date_modified": "2023-07-06T15:38:05.000",
    "request_status": "Pending",
    "responsible_agency": "Department of Sanitation",
    "final_address": "719 Philip St",
    "address_councildis": "B",
    "status": "Assigned to Contractor",
    "contractor": "Richards Disposal",
    "rowid": "1014737",
    "final_x": "3679362.60776",
    "final_y": "520831.810233",
    "longitude": "-90.075190008586",
    "latitude": "29.92617143067206",
    "geocoded_column": {
      "latitude": "29.92617143067206",
      "longitude": "-90.075190008586"
    }
  },
  {
    "service_request": "2023-1014736",
    "request_type": "Trash/Recycling",
    "request_reason": "Request a Large Item Pick Up",
    "date_created": "2023-07-06T15:37:28.000",
    "date_modified": "2023-07-06T15:37:28.000",
    "request_status": "Pending",
    "responsible_agency": "Department of Sanitation",
    "final_address": "636 State St",
    "address_councildis": "A",
    "status": "Assigned to Contractor",
    "contractor": "Richards Disposal",
    "rowid": "1014736",
    "final_x": "3664529.68775",
    "final_y": "518875.585079",
    "longitude": "-90.1220787533461",
    "latitude": "29.92123192240745",
    "geocoded_column": {
      "latitude": "29.92123192240745",
      "longitude": "-90.1220787533461"
    }
  },
  {
    "service_request": "2023-1014735",
    "request_type": "Trash/Recycling",
    "request_reason": "MIssed Recycling Pick-Up",
    "date_created": "2023-07-06T15:35:27.000",
    "date_modified": "2023-07-06T15:35:27.000",
    "request_status": "Pending",
    "responsible_agency": "Department of Sanitation",
    "final_address": "5404 Chartres St",
    "address_councildis": "E",
    "status": "Assigned to Contractor",
    "contractor": "Waste Pro",
    "rowid": "1014735",
    "final_x": "3696765.89239",
    "final_y": "532061.096771",
    "longitude": "-90.01984680536167",
    "latitude": "29.956511170289392",
    "geocoded_column": {
      "latitude": "29.956511170289392",
      "longitude": "-90.01984680536167"
    }
  },
  {
    "service_request": "2023-1014733",
    "request_type": "Trash/Recycling",
    "request_reason": "Return Trash Cart",
    "date_created": "2023-07-06T15:34:57.000",
    "date_modified": "2023-07-06T15:34:57.000",
    "request_status": "Pending",
    "responsible_agency": "Department of Sanitation",
    "final_address": "7620 Plum St",
    "address_councildis": "A",
    "status": "Assigned to Contractor",
    "contractor": "Richards Disposal",
    "rowid": "1014733",
    "final_x": "3663439.1488",
    "final_y": "527461.600511",
    "longitude": "-90.1252353683316",
    "latitude": "29.94487240523232",
    "geocoded_column": {
      "latitude": "29.94487240523232",
      "longitude": "-90.1252353683316"
    }
  },
  {
    "service_request": "2023-1014732",
    "request_type": "Trash/Recycling",
    "request_reason": "Replace Trash Cart",
    "date_created": "2023-07-06T15:33:14.000",
    "date_modified": "2023-07-06T15:33:15.000",
    "request_status": "Pending",
    "responsible_agency": "Department of Sanitation",
    "final_address": "4115 St Claude Ave",
    "address_councildis": "C",
    "status": "Assigned to Contractor",
    "contractor": "IV Waste",
    "rowid": "1014732",
    "final_x": "3692278.4984",
    "final_y": "535301.655942",
    "longitude": "-90.03390042452395",
    "latitude": "29.965562250322147",
    "geocoded_column": {
      "latitude": "29.965562250322147",
      "longitude": "-90.03390042452395"
    }
  },
  {
    "service_request": "2023-1014731",
    "request_type": "Parks & Parkways",
    "request_reason": "Request Grass Cutting Service (City Owned Property)",
    "date_created": "2023-07-06T15:29:07.000",
    "date_modified": "2023-07-06T15:41:18.000",
    "request_status": "Pending",
    "responsible_agency": "Department of Parks & Parkway",
    "final_address": "2829 Gentilly Blvd",
    "address_councildis": "D",
    "status": "Pending",
    "rowid": "1014731",
    "final_x": "3681841.70408",
    "final_y": "547441.985233",
    "longitude": "-90.06643546902984",
    "latitude": "29.999265221622156",
    "geocoded_column": {
      "latitude": "29.999265221622156",
      "longitude": "-90.06643546902984"
    }
  },
  {
    "service_request": "2023-1014730",
    "request_type": "Trash/Recycling",
    "request_reason": "Illegal Dumping",
    "date_created": "2023-07-06T15:24:12.000",
    "date_modified": "2023-07-06T15:24:12.000",
    "request_status": "Pending",
    "responsible_agency": "Department of Sanitation",
    "final_address": "2922 Palmyra St",
    "address_councildis": "B",
    "status": "Pending",
    "rowid": "1014730",
    "final_x": "3673932.77204",
    "final_y": "535085.54119",
    "longitude": "-90.09184295495177",
    "latitude": "29.96552731708988",
    "geocoded_column": {
      "latitude": "29.96552731708988",
      "longitude": "-90.09184295495177"
    }
  },
  {
    "service_request": "2023-1014729",
    "request_type": "Roads/Drainage",
    "request_reason": "Alley Way",
    "date_created": "2023-07-06T15:22:53.000",
    "date_modified": "2023-07-06T15:22:53.000",
    "request_status": "Pending",
    "responsible_agency": "Department of Public Works",
    "final_address": "6243 Colbert St",
    "address_councildis": "A",
    "status": "Pending",
    "rowid": "1014729",
    "final_x": "3667644.54311",
    "final_y": "549030.021587",
    "longitude": "-90.11123131183875",
    "latitude": "30.004055746096547",
    "geocoded_column": {
      "latitude": "30.004055746096547",
      "longitude": "-90.11123131183875"
    }
  },
  {
    "service_request": "2023-1014728",
    "request_type": "Health Related Request",
    "request_reason": "Noise Ordinance Complaint",
    "date_created": "2023-07-06T15:22:33.000",
    "date_modified": "2023-07-06T15:22:33.000",
    "request_status": "Pending",
    "responsible_agency": "Health Department",
    "final_address": "4300 BLK Randolph Ave",
    "address_councildis": "D",
    "status": "Pending",
    "rowid": "1014728",
    "final_x": "3677729.13926",
    "final_y": "548461.963559",
    "longitude": "-90.07939191044682",
    "latitude": "30.002194187594984",
    "geocoded_column": {
      "latitude": "30.002194187594984",
      "longitude": "-90.07939191044682"
    }
  },
  {
    "service_request": "2023-1014726",
    "request_type": "Trash/Recycling",
    "request_reason": "Request a Large Item Pick Up",
    "date_created": "2023-07-06T15:20:17.000",
    "date_modified": "2023-07-06T15:20:18.000",
    "request_status": "Pending",
    "responsible_agency": "Department of Sanitation",
    "final_address": "4305 Touro St",
    "address_councildis": "D",
    "status": "Assigned to Contractor",
    "contractor": "IV Waste",
    "rowid": "1014726",
    "final_x": "3683291.20712",
    "final_y": "548488.494354",
    "longitude": "-90.06181977241268",
    "latitude": "30.00209859966844",
    "geocoded_column": {
      "latitude": "30.00209859966844",
      "longitude": "-90.06181977241268"
    }
  },
  {
    "service_request": "2023-1014727",
    "request_type": "Trash/Recycling",
    "request_reason": "Missed Trash Pick-Up",
    "date_created": "2023-07-06T15:20:17.000",
    "date_modified": "2023-07-06T15:20:18.000",
    "request_status": "Pending",
    "responsible_agency": "Department of Sanitation",
    "final_address": "7351 Symmes Ave",
    "address_councildis": "E",
    "status": "Assigned to Contractor",
    "contractor": "Waste Pro",
    "rowid": "1014727",
    "final_x": "3708332.00056",
    "final_y": "563832.237217",
    "longitude": "-89.98214214906004",
    "latitude": "30.04350009450724",
    "geocoded_column": {
      "latitude": "30.04350009450724",
      "longitude": "-89.98214214906004"
    }
  },
  {
    "service_request": "2023-1014725",
    "request_type": "Trash/Recycling",
    "request_reason": "Missed Trash Pick-Up",
    "date_created": "2023-07-06T15:19:23.000",
    "date_modified": "2023-07-06T16:20:54.000",
    "case_close_date": "2023-07-06T11:20:54.000",
    "request_status": "Closed",
    "responsible_agency": "Department of Sanitation",
    "final_address": "3426 Franklin Ave",
    "address_councildis": "D",
    "status": "Invalid Request",
    "contractor": "IV Waste",
    "contractor_action": "Invalid Pick-Up",
    "rowid": "1014725",
    "final_x": "3687108.28226",
    "final_y": "545694.923152",
    "longitude": "-90.04986007393968",
    "latitude": "29.994300267618648",
    "geocoded_column": {
      "latitude": "29.994300267618648",
      "longitude": "-90.04986007393968"
    }
  },
  {
    "service_request": "2023-1014724",
    "request_type": "Abandoned Vehicles",
    "request_reason": "Abandoned/Junk Vehicles",
    "date_created": "2023-07-06T15:15:37.000",
    "date_modified": "2023-07-06T15:15:37.000",
    "request_status": "Pending",
    "responsible_agency": "Department of Public Works",
    "final_address": "6951 Queensway Dr",
    "address_councildis": "E",
    "status": "Pending",
    "rowid": "1014724",
    "final_x": "3719581.4693",
    "final_y": "569046.070374",
    "longitude": "-89.94639003165511",
    "latitude": "30.057466434342164",
    "geocoded_column": {
      "latitude": "30.057466434342164",
      "longitude": "-89.94639003165511"
    }
  },
  {
    "service_request": "2023-1014723",
    "request_type": "Traffic Signals/Signs/Striping/Streetlights",
    "request_reason": "Additional signage",
    "date_created": "2023-07-06T15:15:28.000",
    "date_modified": "2023-07-06T15:15:28.000",
    "request_status": "Pending",
    "responsible_agency": "Department of Public Works",
    "final_address": "AMELIA ST & MAGAZINE ST",
    "address_councildis": "B",
    "status": "Pending",
    "rowid": "1014723",
    "final_x": "3673659.5",
    "final_y": "519129.98",
    "longitude": "-90.09325124965032",
    "latitude": "29.921662898165362",
    "geocoded_column": {
      "latitude": "29.921662898165362",
      "longitude": "-90.09325124965032"
    }
  },
  {
    "service_request": "2023-1014722",
    "request_type": "Abandoned Vehicles",
    "request_reason": "Abandoned/Junk Vehicles",
    "date_created": "2023-07-06T15:14:59.000",
    "date_modified": "2023-07-06T15:14:59.000",
    "request_status": "Pending",
    "responsible_agency": "Department of Public Works",
    "final_address": "DREUX AVE & MONTEGUT DR",
    "address_councildis": "D",
    "status": "Pending",
    "rowid": "1014722",
    "final_x": "3689652.9",
    "final_y": "552712.98",
    "longitude": "-90.04157206493534",
    "latitude": "30.013518741161178",
    "geocoded_column": {
      "latitude": "30.013518741161178",
      "longitude": "-90.04157206493534"
    }
  },
  {
    "service_request": "2023-1014721",
    "request_type": "Property Maintenance",
    "request_reason": "Property Maintenance",
    "date_created": "2023-07-06T15:14:36.000",
    "date_modified": "2023-07-06T15:14:36.000",
    "request_status": "Pending",
    "responsible_agency": "Department of Code Enforcement",
    "final_address": "1111 Poland Ave",
    "address_councildis": "D",
    "status": "Pending",
    "rowid": "1014721",
    "final_x": "3693198.2847",
    "final_y": "535193.421126",
    "longitude": "-90.03099967493971",
    "latitude": "29.965235929674588",
    "geocoded_column": {
      "latitude": "29.965235929674588",
      "longitude": "-90.03099967493971"
    }
  },
  {
    "service_request": "2023-1014720",
    "request_type": "Trash/Recycling",
    "request_reason": "Request a Large Item Pick Up",
    "date_created": "2023-07-06T15:13:43.000",
    "date_modified": "2023-07-06T15:13:43.000",
    "request_status": "Pending",
    "responsible_agency": "Department of Sanitation",
    "final_address": "2396 St Thomas St",
    "address_councildis": "B",
    "status": "Assigned to Contractor",
    "contractor": "Richards Disposal",
    "rowid": "1014720",
    "final_x": "3679137.83471",
    "final_y": "519970.731384",
    "longitude": "-90.07592938076506",
    "latitude": "29.923810528748575",
    "geocoded_column": {
      "latitude": "29.923810528748575",
      "longitude": "-90.07592938076506"
    }
  },
  {
    "service_request": "2023-1014719",
    "request_type": "Roads/Drainage",
    "request_reason": "Debris in Roadway",
    "date_created": "2023-07-06T15:13:28.000",
    "date_modified": "2023-07-06T15:13:28.000",
    "request_status": "Pending",
    "responsible_agency": "Department of Public Works",
    "final_address": "4425 St Claude Ave",
    "address_councildis": "D",
    "status": "Pending",
    "rowid": "1014719",
    "final_x": "3693317.20873",
    "final_y": "535081.630406",
    "longitude": "-90.03062813423618",
    "latitude": "29.96492482750057",
    "geocoded_column": {
      "latitude": "29.96492482750057",
      "longitude": "-90.03062813423618"
    }
  },
  {
    "service_request": "2023-1014718",
    "request_type": "Roads/Drainage",
    "request_reason": "Catch Basin - Broken/Damage",
    "date_created": "2023-07-06T15:12:21.000",
    "date_modified": "2023-07-06T15:12:21.000",
    "request_status": "Pending",
    "responsible_agency": "Department of Public Works",
    "final_address": "1109 Kentucky St",
    "address_councildis": "D",
    "status": "Pending",
    "rowid": "1014718",
    "final_x": "3693395.9631",
    "final_y": "535074.806662",
    "longitude": "-90.03037967892003",
    "latitude": "29.96490360245179",
    "geocoded_column": {
      "latitude": "29.96490360245179",
      "longitude": "-90.03037967892003"
    }
  },
  {
    "service_request": "2023-1014717",
    "request_type": "Parks & Parkways",
    "request_reason": "Request Grass Cutting Service (City Owned Property)",
    "date_created": "2023-07-06T15:12:06.000",
    "date_modified": "2023-07-06T15:12:06.000",
    "request_status": "Pending",
    "responsible_agency": "Department of Parks & Parkway",
    "final_address": "408 Warrington Dr",
    "address_councildis": "D",
    "status": "Pending",
    "rowid": "1014717",
    "final_x": "3681542.09205",
    "final_y": "548090.30805",
    "longitude": "-90.06735932244034",
    "latitude": "30.001056983100387",
    "geocoded_column": {
      "latitude": "30.001056983100387",
      "longitude": "-90.06735932244034"
    }
  },
  {
    "service_request": "2023-1014716",
    "request_type": "Trash/Recycling",
    "request_reason": "Replace Trash Cart",
    "date_created": "2023-07-06T15:11:22.000",
    "date_modified": "2023-07-06T15:11:23.000",
    "request_status": "Pending",
    "responsible_agency": "Department of Sanitation",
    "final_address": "6303 Selma St",
    "address_councildis": "D",
    "status": "Assigned to Contractor",
    "contractor": "Waste Pro",
    "rowid": "1014716",
    "final_x": "3697913.29987",
    "final_y": "553512.477335",
    "longitude": "-90.01544462098896",
    "latitude": "30.015458415089032",
    "geocoded_column": {
      "latitude": "30.015458415089032",
      "longitude": "-90.01544462098896"
    }
  },
  {
    "service_request": "2023-1014715",
    "request_type": "Trash/Recycling",
    "request_reason": "Replace Trash Cart",
    "date_created": "2023-07-06T15:10:46.000",
    "date_modified": "2023-07-06T15:10:47.000",
    "request_status": "Pending",
    "responsible_agency": "Department of Sanitation",
    "final_address": "6301 Selma St",
    "address_councildis": "D",
    "status": "Assigned to Contractor",
    "contractor": "Waste Pro",
    "rowid": "1014715",
    "final_x": "3697913.29987",
    "final_y": "553512.478551",
    "longitude": "-90.01544462094478",
    "latitude": "30.015458418432573",
    "geocoded_column": {
      "latitude": "30.015458418432573",
      "longitude": "-90.01544462094478"
    }
  },
  {
    "service_request": "2023-1014713",
    "request_type": "Trash/Recycling",
    "request_reason": "Replace Trash Cart",
    "date_created": "2023-07-06T15:08:35.000",
    "date_modified": "2023-07-06T15:08:36.000",
    "request_status": "Pending",
    "responsible_agency": "Department of Sanitation",
    "final_address": "10801 Dreux Ave",
    "address_councildis": "E",
    "status": "Assigned to Contractor",
    "contractor": "Waste Pro",
    "rowid": "1014713",
    "final_x": "3715437.52293",
    "final_y": "556179.282202",
    "longitude": "-89.95997581146362",
    "latitude": "30.022225232999492",
    "geocoded_column": {
      "latitude": "30.022225232999492",
      "longitude": "-89.95997581146362"
    }
  },
  {
    "service_request": "2023-1014712",
    "request_type": "Tax and Revenue",
    "request_reason": "Occupational License Tax",
    "date_created": "2023-07-06T15:07:18.000",
    "date_modified": "2023-07-06T15:07:19.000",
    "request_status": "Pending",
    "responsible_agency": "Bureau of Revenue",
    "status": "Pending",
    "rowid": "1014712",
    "longitude": "0.0",
    "latitude": "0.0",
    "geocoded_column": {
      "latitude": "0.0",
      "longitude": "0.0"
    }
  },
  {
    "service_request": "2023-1014711",
    "request_type": "Trash/Recycling",
    "request_reason": "Repair Trash Cart",
    "date_created": "2023-07-06T15:04:16.000",
    "date_modified": "2023-07-06T15:04:17.000",
    "request_status": "Pending",
    "responsible_agency": "Department of Sanitation",
    "final_address": "6035 Tchoupitoulas St",
    "address_councildis": "A",
    "status": "Assigned to Contractor",
    "contractor": "Richards Disposal",
    "rowid": "1014711",
    "final_x": "3663878.99783",
    "final_y": "517672.168822",
    "longitude": "-90.1241727876808",
    "latitude": "29.917941799780447",
    "geocoded_column": {
      "latitude": "29.917941799780447",
      "longitude": "-90.1241727876808"
    }
  },
  {
    "service_request": "2023-1014710",
    "request_type": "Trash/Recycling",
    "request_reason": "Repair Trash Cart",
    "date_created": "2023-07-06T15:03:26.000",
    "date_modified": "2023-07-06T15:03:27.000",
    "request_status": "Pending",
    "responsible_agency": "Department of Sanitation",
    "final_address": "6033 Tchoupitoulas St",
    "address_councildis": "A",
    "status": "Assigned to Contractor",
    "contractor": "Richards Disposal",
    "rowid": "1014710",
    "final_x": "3663900.99994",
    "final_y": "517664.834102",
    "longitude": "-90.12410358308429",
    "latitude": "29.917920993142477",
    "geocoded_column": {
      "latitude": "29.917920993142477",
      "longitude": "-90.12410358308429"
    }
  },
  {
    "service_request": "2023-1014709",
    "request_type": "Trash/Recycling",
    "request_reason": "Request a Large Item Pick Up",
    "date_created": "2023-07-06T14:57:30.000",
    "date_modified": "2023-07-06T14:57:31.000",
    "request_status": "Pending",
    "responsible_agency": "Department of Sanitation",
    "final_address": "5501 Paris Ave",
    "address_councildis": "D",
    "status": "Assigned to Contractor",
    "contractor": "IV Waste",
    "rowid": "1014709",
    "final_x": "3679237.37429",
    "final_y": "552579.297622",
    "longitude": "-90.074484318084",
    "latitude": "30.013469910839227",
    "geocoded_column": {
      "latitude": "30.013469910839227",
      "longitude": "-90.074484318084"
    }
  },
  {
    "service_request": "2023-1014708",
    "request_type": "Trash/Recycling",
    "request_reason": "Request a Large Item Pick Up",
    "date_created": "2023-07-06T14:54:59.000",
    "date_modified": "2023-07-06T14:55:00.000",
    "request_status": "Pending",
    "responsible_agency": "Department of Sanitation",
    "final_address": "5706 Annunciation St",
    "address_councildis": "A",
    "status": "Assigned to Contractor",
    "contractor": "Richards Disposal",
    "rowid": "1014708",
    "final_x": "3665441.08052",
    "final_y": "517539.510006",
    "longitude": "-90.11924656503248",
    "latitude": "29.917531611156587",
    "geocoded_column": {
      "latitude": "29.917531611156587",
      "longitude": "-90.11924656503248"
    }
  },
  {
    "service_request": "2023-1014707",
    "request_type": "Property Maintenance",
    "request_reason": "Property Maintenance",
    "date_created": "2023-07-06T14:54:39.000",
    "date_modified": "2023-07-06T14:54:40.000",
    "request_status": "Pending",
    "responsible_agency": "Department of Code Enforcement",
    "final_address": "7837 Chef Menteur Hwy",
    "address_councildis": "E",
    "status": "Pending",
    "rowid": "1014707",
    "final_x": "3704307.37706",
    "final_y": "552809.138838",
    "longitude": "-89.99526839743075",
    "latitude": "30.01332074145947",
    "geocoded_column": {
      "latitude": "30.01332074145947",
      "longitude": "-89.99526839743075"
    }
  },
  {
    "service_request": "2023-1014706",
    "request_type": "Trash/Recycling",
    "request_reason": "Missed Trash Pick-Up",
    "date_created": "2023-07-06T14:50:06.000",
    "date_modified": "2023-07-06T16:10:55.000",
    "case_close_date": "2023-07-06T11:10:55.000",
    "request_status": "Closed",
    "responsible_agency": "Department of Sanitation",
    "final_address": "1814 N Robertson St",
    "address_councildis": "C",
    "status": "Invalid Request",
    "contractor": "IV Waste",
    "contractor_action": "Invalid Pick-Up",
    "rowid": "1014706",
    "final_x": "3683538.45615",
    "final_y": "537611.177096",
    "longitude": "-90.06142012013629",
    "latitude": "29.97218227451769",
    "geocoded_column": {
      "latitude": "29.97218227451769",
      "longitude": "-90.06142012013629"
    }
  },
  {
    "service_request": "2023-1014705",
    "request_type": "Trash/Recycling",
    "request_reason": "Missed Trash Pick-Up",
    "date_created": "2023-07-06T14:45:17.000",
    "date_modified": "2023-07-06T14:45:18.000",
    "request_status": "Pending",
    "responsible_agency": "Department of Sanitation",
    "final_address": "1633 Constantinople St",
    "address_councildis": "B",
    "status": "Assigned to Contractor",
    "contractor": "Richards Disposal",
    "rowid": "1014705",
    "final_x": "3672326.07796",
    "final_y": "521292.084217",
    "longitude": "-90.09738668272621",
    "latitude": "29.927647605718374",
    "geocoded_column": {
      "latitude": "29.927647605718374",
      "longitude": "-90.09738668272621"
    }
  },
  {
    "service_request": "2023-1014704",
    "request_type": "Trash/Recycling",
    "request_reason": "Request a Large Item Pick Up",
    "date_created": "2023-07-06T14:45:06.000",
    "date_modified": "2023-07-06T14:45:06.000",
    "request_status": "Pending",
    "responsible_agency": "Department of Sanitation",
    "final_address": "8735 Apricot St",
    "address_councildis": "A",
    "status": "Assigned to Contractor",
    "contractor": "Richards Disposal",
    "rowid": "1014704",
    "final_x": "3664064.00032",
    "final_y": "534284.947717",
    "longitude": "-90.12303496031429",
    "latitude": "29.96361626729517",
    "geocoded_column": {
      "latitude": "29.96361626729517",
      "longitude": "-90.12303496031429"
    }
  },
  {
    "service_request": "2023-1014703",
    "request_type": "Trash/Recycling",
    "request_reason": "Return Trash Cart",
    "date_created": "2023-07-06T14:43:17.000",
    "date_modified": "2023-07-06T14:43:45.000",
    "request_status": "Pending",
    "responsible_agency": "Department of Sanitation",
    "final_address": "2583 Valentine Ct",
    "address_councildis": "C",
    "status": "Assigned to Contractor",
    "contractor": "Richards Disposal",
    "rowid": "1014703",
    "final_x": "3699054.20183",
    "final_y": "521632.081785",
    "longitude": "-90.01300058116621",
    "latitude": "29.927762694545066",
    "geocoded_column": {
      "latitude": "29.927762694545066",
      "longitude": "-90.01300058116621"
    }
  },
  {
    "service_request": "2023-1014701",
    "request_type": "Trash/Recycling",
    "request_reason": "Order Recycling Cart",
    "date_created": "2023-07-06T14:42:09.000",
    "date_modified": "2023-07-06T14:42:10.000",
    "request_status": "Pending",
    "responsible_agency": "Department of Sanitation",
    "final_address": "2101 Jena St",
    "address_councildis": "B",
    "status": "Pending",
    "rowid": "1014701",
    "final_x": "3670319.60628",
    "final_y": "522658.638522",
    "longitude": "-90.10367435259296",
    "latitude": "29.931464549986917",
    "geocoded_column": {
      "latitude": "29.931464549986917",
      "longitude": "-90.10367435259296"
    }
  },
  {
    "service_request": "2023-1014700",
    "request_type": "Trash/Recycling",
    "request_reason": "Request a Large Item Pick Up",
    "date_created": "2023-07-06T14:41:38.000",
    "date_modified": "2023-07-06T14:41:38.000",
    "request_status": "Pending",
    "responsible_agency": "Department of Sanitation",
    "final_address": "4323 Vixen St",
    "address_councildis": "C",
    "status": "Assigned to Contractor",
    "contractor": "Richards Disposal",
    "rowid": "1014700",
    "final_x": "3699517.86109",
    "final_y": "520650.359673",
    "longitude": "-90.01157267668405",
    "latitude": "29.925048597446466",
    "geocoded_column": {
      "latitude": "29.925048597446466",
      "longitude": "-90.01157267668405"
    }
  },
  {
    "service_request": "2023-1014699",
    "request_type": "Trash/Recycling",
    "request_reason": "Request a Large Item Pick Up",
    "date_created": "2023-07-06T14:40:34.000",
    "date_modified": "2023-07-06T14:40:35.000",
    "request_status": "Pending",
    "responsible_agency": "Department of Sanitation",
    "final_address": "2522 Jasmine St",
    "address_councildis": "D",
    "status": "Assigned to Contractor",
    "contractor": "IV Waste",
    "rowid": "1014699",
    "final_x": "3686458.14831",
    "final_y": "547997.09909",
    "longitude": "-90.05183242426892",
    "latitude": "30.00065043002765",
    "geocoded_column": {
      "latitude": "30.00065043002765",
      "longitude": "-90.05183242426892"
    }
  },
  {
    "service_request": "2023-1014698",
    "request_type": "Traffic Signals/Signs/Striping/Streetlights",
    "request_reason": "Traffic Sign Missing/Damaged",
    "date_created": "2023-07-06T14:40:22.000",
    "date_modified": "2023-07-06T14:40:22.000",
    "request_status": "Pending",
    "responsible_agency": "Department of Public Works",
    "final_address": "5535 Press Dr",
    "address_councildis": "D",
    "status": "Pending",
    "rowid": "1014698",
    "final_x": "3689452.67945",
    "final_y": "553689.724375",
    "longitude": "-90.04216988129849",
    "latitude": "30.01621063166319",
    "geocoded_column": {
      "latitude": "30.01621063166319",
      "longitude": "-90.04216988129849"
    }
  },
  {
    "service_request": "2023-1014697",
    "request_type": "Roads/Drainage",
    "request_reason": "Debris in Roadway",
    "date_created": "2023-07-06T14:38:26.000",
    "date_modified": "2023-07-06T14:38:26.000",
    "request_status": "Pending",
    "responsible_agency": "Department of Public Works",
    "final_address": "2532 Ap Tureaud Ave",
    "address_councildis": "D",
    "status": "Pending",
    "rowid": "1014697",
    "final_x": "3681494.74389",
    "final_y": "541489.203084",
    "longitude": "-90.06773922761406",
    "latitude": "29.98290771712376",
    "geocoded_column": {
      "latitude": "29.98290771712376",
      "longitude": "-90.06773922761406"
    }
  },
  {
    "service_request": "2023-1014696",
    "request_type": "Trash/Recycling",
    "request_reason": "Missed Trash Pick-Up",
    "date_created": "2023-07-06T14:37:43.000",
    "date_modified": "2023-07-06T14:37:43.000",
    "request_status": "Pending",
    "responsible_agency": "Department of Sanitation",
    "final_address": "1631 Constantinople St",
    "address_councildis": "B",
    "status": "Assigned to Contractor",
    "contractor": "Richards Disposal",
    "rowid": "1014696",
    "final_x": "3672332.53326",
    "final_y": "521270.297401",
    "longitude": "-90.09736704671099",
    "latitude": "29.92758750751159",
    "geocoded_column": {
      "latitude": "29.92758750751159",
      "longitude": "-90.09736704671099"
    }
  },
  {
    "service_request": "2023-1014695",
    "request_type": "Traffic Signals/Signs/Striping/Streetlights",
    "request_reason": "Street Name Sign Damaged or Missing",
    "date_created": "2023-07-06T14:32:11.000",
    "date_modified": "2023-07-06T14:32:11.000",
    "request_status": "Pending",
    "responsible_agency": "Department of Public Works",
    "final_address": "PARIS AVE & VIRGIL BLVD",
    "address_councildis": "D",
    "status": "Pending",
    "rowid": "1014695",
    "final_x": "3679556.9",
    "final_y": "547492.38",
    "longitude": "-90.07365147230578",
    "latitude": "29.99947305278849",
    "geocoded_column": {
      "latitude": "29.99947305278849",
      "longitude": "-90.07365147230578"
    }
  },
  {
    "service_request": "2023-1014694",
    "request_type": "Property Maintenance",
    "request_reason": "Property Maintenance",
    "date_created": "2023-07-06T14:31:37.000",
    "date_modified": "2023-07-06T14:35:08.000",
    "request_status": "Pending",
    "responsible_agency": "Department of Code Enforcement",
    "final_address": "20301 Old Spanish Trl",
    "address_councildis": "E",
    "status": "Pending",
    "rowid": "1014694",
    "final_x": "3760528.10435",
    "final_y": "572628.791337",
    "longitude": "-89.81681666689528",
    "latitude": "30.065890925628644",
    "geocoded_column": {
      "latitude": "30.065890925628644",
      "longitude": "-89.81681666689528"
    }
  },
  {
    "service_request": "2023-1014693",
    "request_type": "Abandoned Vehicles",
    "request_reason": "Abandoned/Junk Vehicles",
    "date_created": "2023-07-06T14:13:49.000",
    "date_modified": "2023-07-06T14:13:50.000",
    "request_status": "Pending",
    "responsible_agency": "Department of Public Works",
    "final_address": "KERLEREC ST & N ROBERTSON ST",
    "address_councildis": "C",
    "status": "Pending",
    "rowid": "1014693",
    "final_x": "3681807.2",
    "final_y": "536651.88",
    "longitude": "-90.06692119770116",
    "latitude": "29.969597266450805",
    "geocoded_column": {
      "latitude": "29.969597266450805",
      "longitude": "-90.06692119770116"
    }
  },
  {
    "service_request": "2023-1014692",
    "request_type": "Trash/Recycling",
    "request_reason": "Replace Trash Cart",
    "date_created": "2023-07-06T14:10:55.000",
    "date_modified": "2023-07-06T14:10:55.000",
    "request_status": "Pending",
    "responsible_agency": "Department of Sanitation",
    "final_address": "1712 Lizardi St",
    "address_councildis": "E",
    "status": "Assigned to Contractor",
    "contractor": "Waste Pro",
    "rowid": "1014692",
    "final_x": "3697149.01027",
    "final_y": "536495.108615",
    "longitude": "-90.01847638791308",
    "latitude": "29.968691046718742",
    "geocoded_column": {
      "latitude": "29.968691046718742",
      "longitude": "-90.01847638791308"
    }
  },
  {
    "service_request": "2023-1014691",
    "request_type": "Trash/Recycling",
    "request_reason": "Illegal Dumping",
    "date_created": "2023-07-06T14:10:50.000",
    "date_modified": "2023-07-06T14:12:56.000",
    "request_status": "Pending",
    "responsible_agency": "Department of Sanitation",
    "final_address": "2400 BLK Willow St",
    "address_councildis": "B",
    "status": "Pending",
    "rowid": "1014691",
    "final_x": "3674293.79803",
    "final_y": "526958.767721",
    "longitude": "-90.09098110499819",
    "latitude": "29.943170633093146",
    "geocoded_column": {
      "latitude": "29.943170633093146",
      "longitude": "-90.09098110499819"
    }
  },
  {
    "service_request": "2023-1014690",
    "request_type": "Trash/Recycling",
    "request_reason": "Missed Trash Pick-Up",
    "date_created": "2023-07-06T14:08:26.000",
    "date_modified": "2023-07-06T14:08:27.000",
    "request_status": "Pending",
    "responsible_agency": "Department of Sanitation",
    "final_address": "3132 Louisiana Avenue Prkwy",
    "address_councildis": "B",
    "status": "Assigned to Contractor",
    "contractor": "Richards Disposal",
    "rowid": "1014690",
    "final_x": "3671925.35316",
    "final_y": "526770.951102",
    "longitude": "-90.09846528439388",
    "latitude": "29.942724595889338",
    "geocoded_column": {
      "latitude": "29.942724595889338",
      "longitude": "-90.09846528439388"
    }
  },
  {
    "service_request": "2023-1014689",
    "request_type": "Trash/Recycling",
    "request_reason": "Request a Large Item Pick Up",
    "date_created": "2023-07-06T14:07:41.000",
    "date_modified": "2023-07-06T14:07:41.000",
    "request_status": "Pending",
    "responsible_agency": "Department of Sanitation",
    "final_address": "2724 Mexico St",
    "address_councildis": "D",
    "status": "Assigned to Contractor",
    "contractor": "IV Waste",
    "rowid": "1014689",
    "final_x": "3687247.52969",
    "final_y": "556402.943258",
    "longitude": "-90.0490410878403",
    "latitude": "30.023739117778604",
    "geocoded_column": {
      "latitude": "30.023739117778604",
      "longitude": "-90.0490410878403"
    }
  },
  {
    "service_request": "2023-1014688",
    "request_type": "Trash/Recycling",
    "request_reason": "Request a Large Item Pick Up",
    "date_created": "2023-07-06T14:07:33.000",
    "date_modified": "2023-07-06T14:07:35.000",
    "request_status": "Pending",
    "responsible_agency": "Department of Sanitation",
    "final_address": "514 Socrates St",
    "address_councildis": "C",
    "status": "Assigned to Contractor",
    "contractor": "Richards Disposal",
    "rowid": "1014688",
    "final_x": "3687268.44502",
    "final_y": "526485.963134",
    "longitude": "-90.05003371950974",
    "latitude": "29.941477394859422",
    "geocoded_column": {
      "latitude": "29.941477394859422",
      "longitude": "-90.05003371950974"
    }
  },
  {
    "service_request": "2023-1014687",
    "request_type": "Property Maintenance",
    "request_reason": "Property Maintenance",
    "date_created": "2023-07-06T14:03:07.000",
    "date_modified": "2023-07-06T14:03:07.000",
    "request_status": "Pending",
    "responsible_agency": "Department of Code Enforcement",
    "final_address": "20501 Old Spanish Trl",
    "address_councildis": "E",
    "status": "Pending",
    "rowid": "1014687",
    "final_x": "3761719.41309",
    "final_y": "572407.974057",
    "longitude": "-89.81306014220682",
    "latitude": "30.065240373314854",
    "geocoded_column": {
      "latitude": "30.065240373314854",
      "longitude": "-89.81306014220682"
    }
  },
  {
    "service_request": "2023-1014686",
    "request_type": "Property Maintenance",
    "request_reason": "Property Maintenance",
    "date_created": "2023-07-06T14:02:00.000",
    "date_modified": "2023-07-06T14:02:01.000",
    "request_status": "Pending",
    "responsible_agency": "Department of Code Enforcement",
    "final_address": "4351 Lucrino Rd",
    "address_councildis": "E",
    "status": "Pending",
    "rowid": "1014686",
    "final_x": "3761494.2232",
    "final_y": "572724.997417",
    "longitude": "-89.81375868399549",
    "latitude": "30.06612025486613",
    "geocoded_column": {
      "latitude": "30.06612025486613",
      "longitude": "-89.81375868399549"
    }
  },
  {
    "service_request": "2023-1014685",
    "request_type": "Trash/Recycling",
    "request_reason": "Missed Trash Pick-Up",
    "date_created": "2023-07-06T13:58:28.000",
    "date_modified": "2023-07-06T13:58:29.000",
    "request_status": "Pending",
    "responsible_agency": "Department of Sanitation",
    "final_address": "3033 Chippewa St",
    "address_councildis": "B",
    "status": "Assigned to Contractor",
    "contractor": "Richards Disposal",
    "rowid": "1014685",
    "final_x": "3676951.61973",
    "final_y": "519007.288375",
    "longitude": "-90.08286366347103",
    "latitude": "29.921227157482864",
    "geocoded_column": {
      "latitude": "29.921227157482864",
      "longitude": "-90.08286366347103"
    }
  },
  {
    "service_request": "2023-1014684",
    "request_type": "Trash/Recycling",
    "request_reason": "Order Trash Cart",
    "date_created": "2023-07-06T13:56:59.000",
    "date_modified": "2023-07-06T13:57:00.000",
    "request_status": "Pending",
    "responsible_agency": "Department of Sanitation",
    "final_address": "4101 St Charles Ave",
    "address_councildis": "B",
    "status": "Assigned to Contractor",
    "contractor": "Richards Disposal",
    "rowid": "1014684",
    "final_x": "3671883.30555",
    "final_y": "521031.656057",
    "longitude": "-90.09879326907681",
    "latitude": "29.926944636563185",
    "geocoded_column": {
      "latitude": "29.926944636563185",
      "longitude": "-90.09879326907681"
    }
  },