[
  {
    "service_request": "2021-827232",
    "request_type": "Property Maintenance",
    "request_reason": "Property Maintenance",
    "date_created": "2021-09-29T02:07:43.000",
    "date_modified": "2021-09-29T02:07:43.000",
    "request_status": "Pending",
    "responsible_agency": "Department of Code Enforcement",
    "final_address": "4609 Shalimar Dr",
    "address_councildis": "D",
    "status": "Pending",
    "rowid": "827232",
    "final_x": "3697310.17731",
    "final_y": "553513.208151",
    "longitude": "-90.01735017263164",
    "latitude": "30.015479484466784",
    "geocoded_column": {
      "latitude": "30.015479484466784",
      "longitude": "-90.01735017263164"
    }
  },
  {
    "service_request": "2021-827231",
    "request_type": "Property Maintenance",
    "request_reason": "Property Maintenance",
    "date_created": "2021-09-29T01:25:10.000",
    "date_modified": "2021-09-29T01:25:10.000",
    "request_status": "Pending",
    "responsible_agency": "Department of Code Enforcement",
    "final_address": "4724 Majestic Oaks Dr",
    "address_councildis": "D",
    "status": "Pending",
    "rowid": "827231",
    "final_x": "3697687.87011",
    "final_y": "554365.36028",
    "longitude": "-90.0161258936677",
    "latitude": "30.017810648133633",
    "geocoded_column": {
      "latitude": "30.017810648133633",
      "longitude": "-90.0161258936677"
    }
  },
  {
    "service_request": "2021-827230",
    "request_type": "Property Maintenance",
    "request_reason": "Property Maintenance",
    "date_created": "2021-09-29T01:21:22.000",
    "date_modified": "2021-09-29T01:21:22.000",
    "request_status": "Pending",
    "responsible_agency": "Department of Code Enforcement",
    "final_address": "4826 Majestic Oaks Dr",
    "address_councildis": "D",
    "status": "Pending",
    "rowid": "827230",
    "final_x": "3697584.18429",
    "final_y": "554872.813336",
    "longitude": "-90.01643507175021",
    "latitude": "30.019209228842236",
    "geocoded_column": {
      "latitude": "30.019209228842236",
      "longitude": "-90.01643507175021"
    }
  },
  {
    "service_request": "2021-827229",
    "request_type": "Property Maintenance",
    "request_reason": "Property Maintenance",
    "date_created": "2021-09-29T01:08:45.000",
    "date_modified": "2021-09-29T01:08:45.000",
    "request_status": "Pending",
    "responsible_agency": "Department of Code Enforcement",
    "final_address": "4722 Majestic Oaks Dr",
    "address_councildis": "D",
    "status": "Pending",
    "rowid": "827229",
    "final_x": "3697677.87914",
    "final_y": "554306.931928",
    "longitude": "-90.01615958323194",
    "latitude": "30.01765030807066",
    "geocoded_column": {
      "latitude": "30.01765030807066",
      "longitude": "-90.01615958323194"
    }
  },
  {
    "service_request": "2021-827228",
    "request_type": "Trash/Recycling",
    "request_reason": "Request a Large Item Pick Up",
    "date_created": "2021-09-29T00:26:13.000",
    "date_modified": "2021-09-29T00:26:13.000",
    "request_status": "Pending",
    "responsible_agency": "Department of Sanitation",
    "final_address": "208 Chartres St",
    "address_councildis": "C",
    "status": "Assigned to Contractor",
    "contractor": "Empire Services",
    "rowid": "827228",
    "final_x": "3681800.4758",
    "final_y": "530837.645698",
    "longitude": "-90.0671453372047",
    "latitude": "29.95361031318125",
    "geocoded_column": {
      "latitude": "29.95361031318125",
      "longitude": "-90.0671453372047"
    }
  },
  {
    "service_request": "2021-827227",
    "request_type": "Traffic Signals/Signs/Striping/Streetlights",
    "request_reason": "Street Light Outage/Malfunction",
    "date_created": "2021-09-28T23:58:11.000",
    "date_modified": "2021-09-28T23:58:11.000",
    "request_status": "Pending",
    "responsible_agency": "Department of Public Works",
    "final_address": "2917 St Claude Ave",
    "address_councildis": "C",
    "status": "Pending",
    "contractor": "Royal Engineering",
    "rowid": "827227",
    "final_x": "3688311.01756",
    "final_y": "536280.783111",
    "longitude": "-90.04639480131141",
    "latitude": "29.968377626738363",
    "geocoded_column": {
      "latitude": "29.968377626738363",
      "longitude": "-90.04639480131141"
    }
  },
  {
    "service_request": "2021-827226",
    "request_type": "Trash/Recycling",
    "request_reason": "Missed Trash Pick-Up",
    "date_created": "2021-09-28T23:43:39.000",
    "date_modified": "2021-09-28T23:43:40.000",
    "request_status": "Pending",
    "responsible_agency": "Department of Sanitation",
    "final_address": "6825 General Diaz St",
    "address_councildis": "A",
    "status": "Assigned to Contractor",
    "contractor": "Metro Disposal",
    "rowid": "827226",
    "final_x": "3670106.43617",
    "final_y": "552806.765974",
    "longitude": "-90.10332565611077",
    "latitude": "30.014368037352064",
    "geocoded_column": {
      "latitude": "30.014368037352064",
      "longitude": "-90.10332565611077"
    }
  },
  {
    "service_request": "2021-827225",
    "request_type": "Trash/Recycling",
    "request_reason": "Missed Trash Pick-Up",
    "date_created": "2021-09-28T23:19:49.000",
    "date_modified": "2021-09-28T23:19:50.000",
    "request_status": "Pending",
    "responsible_agency": "Department of Sanitation",
    "final_address": "2472 Jay St",
    "address_councildis": "D",
    "status": "Assigned to Contractor",
    "contractor": "Metro Disposal",
    "rowid": "827225",
    "final_x": "3685281.62069",
    "final_y": "557376.056795",
    "longitude": "-90.05521865892268",
    "latitude": "30.02647525923472",
    "geocoded_column": {
      "latitude": "30.02647525923472",
      "longitude": "-90.05521865892268"
    }
  },
  {
    "service_request": "2021-827224",
    "request_type": "Property Maintenance",
    "request_reason": "Property Maintenance",
    "date_created": "2021-09-28T23:19:33.000",
    "date_modified": "2021-09-28T23:19:33.000",
    "request_status": "Pending",
    "responsible_agency": "Department of Code Enforcement",
    "final_address": "1466 Mandolin St",
    "address_councildis": "D",
    "status": "Pending",
    "rowid": "827224",
    "final_x": "3678449.30818",
    "final_y": "547956.031314",
    "longitude": "-90.07713433354566",
    "latitude": "30.00078136363834",
    "geocoded_column": {
      "latitude": "30.00078136363834",
      "longitude": "-90.07713433354566"
    }
  },
  {
    "service_request": "2021-827223",
    "request_type": "Trash/Recycling",
    "request_reason": "Missed Trash Pick-Up",
    "date_created": "2021-09-28T23:14:21.000",
    "date_modified": "2021-09-28T23:14:21.000",
    "request_status": "Pending",
    "responsible_agency": "Department of Sanitation",
    "final_address": "4825 Carondelet St",
    "address_councildis": "B",
    "status": "Assigned to Contractor",
    "contractor": "Richards Disposal",
    "rowid": "827223",
    "final_x": "3669124.15962",
    "final_y": "521154.721721",
    "longitude": "-90.10749903664643",
    "latitude": "29.92736448008972",
    "geocoded_column": {
      "latitude": "29.92736448008972",
      "longitude": "-90.10749903664643"
    }
  },
  {
    "service_request": "2021-827222",
    "request_type": "COVID-19",
    "request_reason": "COVID-19 Business Non-Compliance",
    "date_created": "2021-09-28T23:06:59.000",
    "date_modified": "2021-09-28T23:07:00.000",
    "request_status": "Pending",
    "responsible_agency": "Safety and Permits",
    "final_address": "925 Common St Ste B",
    "address_councildis": "B",
    "status": "Pending",
    "rowid": "827222",
    "final_x": "3679958.2036",
    "final_y": "530885.913922",
    "longitude": "-90.07296078173862",
    "latitude": "29.953798882643973",
    "geocoded_column": {
      "latitude": "29.953798882643973",
      "longitude": "-90.07296078173862"
    }
  },
  {
    "service_request": "2021-827221",
    "request_type": "Traffic Signals/Signs/Striping/Streetlights",
    "request_reason": "Street Light Outage/Malfunction",
    "date_created": "2021-09-28T22:59:41.000",
    "date_modified": "2021-09-28T22:59:41.000",
    "request_status": "Pending",
    "responsible_agency": "Department of Public Works",
    "final_address": "1309 Cambronne St",
    "address_councildis": "A",
    "status": "Pending",
    "contractor": "Royal Engineering",
    "rowid": "827221",
    "final_x": "3661501.92256",
    "final_y": "529408.364993",
    "longitude": "-90.13128733174221",
    "latitude": "29.950281404425873",
    "geocoded_column": {
      "latitude": "29.950281404425873",
      "longitude": "-90.13128733174221"
    }
  },
  {
    "service_request": "2021-827220",
    "request_type": "Trash/Recycling",
    "request_reason": "Missed Trash Pick-Up",
    "date_created": "2021-09-28T22:59:05.000",
    "date_modified": "2021-09-28T22:59:05.000",
    "request_status": "Pending",
    "responsible_agency": "Department of Sanitation",
    "final_address": "1824 Marais St",
    "address_councildis": "C",
    "status": "Assigned to Contractor",
    "contractor": "Metro Disposal",
    "rowid": "827220",
    "final_x": "3683714.57538",
    "final_y": "536537.442759",
    "longitude": "-90.06090156348291",
    "latitude": "29.969224500863017",
    "geocoded_column": {
      "latitude": "29.969224500863017",
      "longitude": "-90.06090156348291"
    }
  },
  {
    "service_request": "2021-827219",
    "request_type": "Traffic Signals/Signs/Striping/Streetlights",
    "request_reason": "Street Light Outage/Malfunction",
    "date_created": "2021-09-28T22:57:38.000",
    "date_modified": "2021-09-28T22:57:39.000",
    "request_status": "Pending",
    "responsible_agency": "Department of Public Works",
    "final_address": "1309 Cambronne St",
    "address_councildis": "A",
    "status": "Pending",
    "contractor": "Royal Engineering",
    "rowid": "827219",
    "final_x": "3661501.92256",
    "final_y": "529408.364993",
    "longitude": "-90.13128733174221",
    "latitude": "29.950281404425873",
    "geocoded_column": {
      "latitude": "29.950281404425873",
      "longitude": "-90.13128733174221"
    }
  },
  {
    "service_request": "2021-827218",
    "request_type": "Trash/Recycling",
    "request_reason": "Missed Trash Pick-Up",
    "date_created": "2021-09-28T22:56:44.000",
    "date_modified": "2021-09-28T22:56:45.000",
    "request_status": "Pending",
    "responsible_agency": "Department of Sanitation",
    "final_address": "5826 Clara St",
    "address_councildis": "A",
    "status": "Assigned to Contractor",
    "contractor": "Richards Disposal",
    "rowid": "827218",
    "final_x": "3666914.57978",
    "final_y": "525225.735933",
    "longitude": "-90.11433743670578",
    "latitude": "29.938623284611396",
    "geocoded_column": {
      "latitude": "29.938623284611396",
      "longitude": "-90.11433743670578"
    }
  },
  {
    "service_request": "2021-827217",
    "request_type": "Traffic Signals/Signs/Striping/Streetlights",
    "request_reason": "Street Light Outage/Malfunction",
    "date_created": "2021-09-28T22:34:59.000",
    "date_modified": "2021-09-28T22:35:00.000",
    "request_status": "Pending",
    "responsible_agency": "Department of Public Works",
    "final_address": "1615 Mirabeau Ave",
    "address_councildis": "D",
    "status": "Pending",
    "contractor": "Royal Engineering",
    "rowid": "827217",
    "final_x": "3679898.88463",
    "final_y": "550529.754452",
    "longitude": "-90.07246554824083",
    "latitude": "30.007814405630842",
    "geocoded_column": {
      "latitude": "30.007814405630842",
      "longitude": "-90.07246554824083"
    }
  },
  {
    "service_request": "2021-827216",
    "request_type": "Property Maintenance",
    "request_reason": "Property Maintenance",
    "date_created": "2021-09-28T22:22:06.000",
    "date_modified": "2021-09-28T22:22:06.000",
    "request_status": "Pending",
    "responsible_agency": "Department of Code Enforcement",
    "final_address": "2431 Philip St",
    "address_councildis": "B",
    "status": "Pending",
    "rowid": "827216",
    "final_x": "3675394.06747",
    "final_y": "526056.778046",
    "longitude": "-90.0875382376394",
    "latitude": "29.94065761029671",
    "geocoded_column": {
      "latitude": "29.94065761029671",
      "longitude": "-90.0875382376394"
    }
  },
  {
    "service_request": "2021-827215",
    "request_type": "Property Maintenance",
    "request_reason": "Property Maintenance",
    "date_created": "2021-09-28T22:20:05.000",
    "date_modified": "2021-09-28T22:20:05.000",
    "request_status": "Pending",
    "responsible_agency": "Department of Code Enforcement",
    "final_address": "2431 Philip St",
    "address_councildis": "B",
    "status": "Pending",
    "rowid": "827215",
    "final_x": "3675394.06747",
    "final_y": "526056.778046",
    "longitude": "-90.0875382376394",
    "latitude": "29.94065761029671",
    "geocoded_column": {
      "latitude": "29.94065761029671",
      "longitude": "-90.0875382376394"
    }
  },
  {
    "service_request": "2021-827214",
    "request_type": "Property Maintenance",
    "request_reason": "Property Maintenance",
    "date_created": "2021-09-28T22:15:52.000",
    "date_modified": "2021-09-28T22:15:52.000",
    "request_status": "Pending",
    "responsible_agency": "Department of Code Enforcement",
    "final_address": "2524 First St",
    "address_councildis": "B",
    "status": "Pending",
    "rowid": "827214",
    "final_x": "3674976.00405",
    "final_y": "526118.960126",
    "longitude": "-90.08885600461451",
    "latitude": "29.940841082125853",
    "geocoded_column": {
      "latitude": "29.940841082125853",
      "longitude": "-90.08885600461451"
    }
  },
  {
    "service_request": "2021-827213",
    "request_type": "Trash/Recycling",
    "request_reason": "Illegal Dumping",
    "date_created": "2021-09-28T21:46:33.000",
    "date_modified": "2021-09-28T21:46:33.000",
    "request_status": "Pending",
    "responsible_agency": "Department of Sanitation",
    "final_address": "5714 Lafaye St",
    "address_councildis": "D",
    "status": "Pending",
    "rowid": "827213",
    "final_x": "3687162.94031",
    "final_y": "554283.74748",
    "longitude": "-90.04938340612846",
    "latitude": "30.01791472162876",
    "geocoded_column": {
      "latitude": "30.01791472162876",
      "longitude": "-90.04938340612846"
    }
  },
  {
    "service_request": "2021-827212",
    "request_type": "Trash/Recycling",
    "request_reason": "Missed Trash Pick-Up",
    "date_created": "2021-09-28T21:37:15.000",
    "date_modified": "2021-09-28T21:37:15.000",
    "request_status": "Pending",
    "responsible_agency": "Department of Sanitation",
    "final_address": "7227 Beryl St",
    "address_councildis": "D",
    "status": "Assigned to Contractor",
    "contractor": "Metro Disposal",
    "rowid": "827212",
    "final_x": "3668688.18158",
    "final_y": "555562.592537",
    "longitude": "-90.10771351807925",
    "latitude": "30.02198736943842",
    "geocoded_column": {
      "latitude": "30.02198736943842",
      "longitude": "-90.10771351807925"
    }
  },
  {
    "service_request": "2021-827211",
    "request_type": "Trash/Recycling",
    "request_reason": "MIssed Recycling Pick-Up",
    "date_created": "2021-09-28T21:32:29.000",
    "date_modified": "2021-09-28T21:32:29.000",
    "request_status": "Pending",
    "responsible_agency": "Department of Sanitation",
    "final_address": "4322 DHemecourt St",
    "address_councildis": "A",
    "status": "Assigned to Contractor",
    "contractor": "Richards Disposal",
    "rowid": "827211",
    "final_x": "3668887.61082",
    "final_y": "537473.951112",
    "longitude": "-90.10769473015509",
    "latitude": "29.97224398735593",
    "geocoded_column": {
      "latitude": "29.97224398735593",
      "longitude": "-90.10769473015509"
    }
  },
  {
    "service_request": "2021-827210",
    "request_type": "Trash/Recycling",
    "request_reason": "Missed Trash Pick-Up",
    "date_created": "2021-09-28T21:31:11.000",
    "date_modified": "2021-09-28T21:31:11.000",
    "request_status": "Pending",
    "responsible_agency": "Department of Sanitation",
    "final_address": "109 Lark St",
    "address_councildis": "D",
    "status": "Assigned to Contractor",
    "contractor": "Metro Disposal",
    "rowid": "827210",
    "final_x": "3674864.29409",
    "final_y": "556196.748954",
    "longitude": "-90.08817677621316",
    "latitude": "30.023547979881883",
    "geocoded_column": {
      "latitude": "30.023547979881883",
      "longitude": "-90.08817677621316"
    }
  },
  {
    "service_request": "2021-827209",
    "request_type": "Roads/Drainage",
    "request_reason": "Street Flooding / Drainage",
    "date_created": "2021-09-28T21:24:29.000",
    "date_modified": "2021-09-28T21:24:29.000",
    "request_status": "Pending",
    "responsible_agency": "Department of Public Works",
    "final_address": "1708 Cambronne St",
    "address_councildis": "A",
    "status": "Pending",
    "rowid": "827209",
    "final_x": "3662379.42368",
    "final_y": "530493.801666",
    "longitude": "-90.12848059263904",
    "latitude": "29.95324066463548",
    "geocoded_column": {
      "latitude": "29.95324066463548",
      "longitude": "-90.12848059263904"
    }
  },
  {
    "service_request": "2021-827208",
    "request_type": "Trash/Recycling",
    "request_reason": "Missed Trash Pick-Up",
    "date_created": "2021-09-28T21:24:27.000",
    "date_modified": "2021-09-28T21:24:28.000",
    "request_status": "Pending",
    "responsible_agency": "Department of Sanitation",
    "final_address": "6421 St Bernard Ave",
    "address_councildis": "D",
    "status": "Assigned to Contractor",
    "contractor": "Metro Disposal",
    "rowid": "827208",
    "final_x": "3677037.3524",
    "final_y": "556668.555738",
    "longitude": "-90.08129406389371",
    "latitude": "30.024780167792514",
    "geocoded_column": {
      "latitude": "30.024780167792514",
      "longitude": "-90.08129406389371"
    }
  },
  {
    "service_request": "2021-827207",
    "request_type": "Roads/Drainage",
    "request_reason": "Street Flooding / Drainage",
    "date_created": "2021-09-28T21:22:51.000",
    "date_modified": "2021-09-28T21:22:51.000",
    "request_status": "Pending",
    "responsible_agency": "Department of Public Works",
    "final_address": "1708 Cambronne St",
    "address_councildis": "A",
    "status": "Pending",
    "rowid": "827207",
    "final_x": "3662379.42368",
    "final_y": "530493.801666",
    "longitude": "-90.12848059263904",
    "latitude": "29.95324066463548",
    "geocoded_column": {
      "latitude": "29.95324066463548",
      "longitude": "-90.12848059263904"
    }
  },
  {
    "service_request": "2021-827206",
    "request_type": "Roads/Drainage",
    "request_reason": "Street Flooding / Drainage",
    "date_created": "2021-09-28T21:21:23.000",
    "date_modified": "2021-09-28T21:21:23.000",
    "request_status": "Pending",
    "responsible_agency": "Department of Public Works",
    "final_address": "1708 Cambronne St",
    "address_councildis": "A",
    "status": "Pending",
    "rowid": "827206",
    "final_x": "3662379.42368",
    "final_y": "530493.801666",
    "longitude": "-90.12848059263904",
    "latitude": "29.95324066463548",
    "geocoded_column": {
      "latitude": "29.95324066463548",
      "longitude": "-90.12848059263904"
    }
  },
  {
    "service_request": "2021-827205",
    "request_type": "Roads/Drainage",
    "request_reason": "Street Flooding / Drainage",
    "date_created": "2021-09-28T21:18:58.000",
    "date_modified": "2021-09-28T21:18:58.000",
    "request_status": "Pending",
    "responsible_agency": "Department of Public Works",
    "final_address": "1708 Cambronne St",
    "address_councildis": "A",
    "status": "Pending",
    "rowid": "827205",
    "final_x": "3662379.42368",
    "final_y": "530493.801666",
    "longitude": "-90.12848059263904",
    "latitude": "29.95324066463548",
    "geocoded_column": {
      "latitude": "29.95324066463548",
      "longitude": "-90.12848059263904"
    }
  },
  {
    "service_request": "2021-827204",
    "request_type": "Traffic Signals/Signs/Striping/Streetlights",
    "request_reason": "Street Light Outage/Malfunction",
    "date_created": "2021-09-28T20:59:26.000",
    "date_modified": "2021-09-28T20:59:27.000",
    "request_status": "Pending",
    "responsible_agency": "Department of Public Works",
    "final_address": "6079 General Diaz St",
    "address_councildis": "A",
    "status": "Pending",
    "contractor": "Royal Engineering",
    "rowid": "827204",
    "final_x": "3669651.5753",
    "final_y": "547778.99509",
    "longitude": "-90.10493309327444",
    "latitude": "30.000556846876158",
    "geocoded_column": {
      "latitude": "30.000556846876158",
      "longitude": "-90.10493309327444"
    }
  },
  {
    "service_request": "2021-827203",
    "request_type": "Trash/Recycling",
    "request_reason": "Missed Trash Pick-Up",
    "date_created": "2021-09-28T20:59:02.000",
    "date_modified": "2021-09-28T20:59:02.000",
    "request_status": "Pending",
    "responsible_agency": "Department of Sanitation",
    "final_address": "122 Winthrop Pl",
    "address_councildis": "D",
    "status": "Assigned to Contractor",
    "contractor": "Metro Disposal",
    "rowid": "827203",
    "final_x": "3677538.14702",
    "final_y": "543948.869902",
    "longitude": "-90.08015120805909",
    "latitude": "29.989790514304307",
    "geocoded_column": {
      "latitude": "29.989790514304307",
      "longitude": "-90.08015120805909"
    }
  },
  {
    "service_request": "2021-827202",
    "request_type": "Trash/Recycling",
    "request_reason": "Request a Large Item Pick Up",
    "date_created": "2021-09-28T20:58:03.000",
    "date_modified": "2021-09-28T20:58:04.000",
    "request_status": "Pending",
    "responsible_agency": "Department of Sanitation",
    "final_address": "2963 Maurepas St",
    "address_councildis": "A",
    "status": "Assigned to Contractor",
    "contractor": "Metro Disposal",
    "rowid": "827202",
    "final_x": "3677261.22459",
    "final_y": "540753.054859",
    "longitude": "-90.08113624741941",
    "latitude": "29.98101145794182",
    "geocoded_column": {
      "latitude": "29.98101145794182",
      "longitude": "-90.08113624741941"
    }
  },
  {
    "service_request": "2021-827201",
    "request_type": "Traffic Signals/Signs/Striping/Streetlights",
    "request_reason": "Street Light Outage/Malfunction",
    "date_created": "2021-09-28T20:57:59.000",
    "date_modified": "2021-09-28T20:57:59.000",
    "request_status": "Pending",
    "responsible_agency": "Department of Public Works",
    "final_address": "115 Danny Dr",
    "address_councildis": "C",
    "status": "Pending",
    "contractor": "Royal Engineering",
    "rowid": "827201",
    "final_x": "3701887.83421",
    "final_y": "524431.022588",
    "longitude": "-90.00395303105388",
    "latitude": "29.935368723980325",
    "geocoded_column": {
      "latitude": "29.935368723980325",
      "longitude": "-90.00395303105388"
    }
  },
  {
    "service_request": "2021-827200",
    "request_type": "Trash/Recycling",
    "request_reason": "Missed Trash Pick-Up",
    "date_created": "2021-09-28T20:57:58.000",
    "date_modified": "2021-09-28T20:57:58.000",
    "request_status": "Pending",
    "responsible_agency": "Department of Sanitation",
    "final_address": "6466 Avenue B",
    "address_councildis": "A",
    "status": "Assigned to Contractor",
    "contractor": "Metro Disposal",
    "rowid": "827200",
    "final_x": "3665638.37268",
    "final_y": "551152.180181",
    "longitude": "-90.11749804695698",
    "latitude": "30.009949627390217",
    "geocoded_column": {
      "latitude": "30.009949627390217",
      "longitude": "-90.11749804695698"
    }
  },
  {
    "service_request": "2021-827199",
    "request_type": "Abandoned Vehicles",
    "request_reason": "Abandoned/Junk Vehicles",
    "date_created": "2021-09-28T20:56:32.000",
    "date_modified": "2021-09-28T20:56:32.000",
    "request_status": "Pending",
    "responsible_agency": "Department of Public Works",
    "final_address": "7711 Shaw Ave",
    "address_councildis": "E",
    "status": "Pending",
    "rowid": "827199",
    "final_x": "3707101.61528",
    "final_y": "564503.863201",
    "longitude": "-89.98600569914923",
    "latitude": "30.04538663467642",
    "geocoded_column": {
      "latitude": "30.04538663467642",
      "longitude": "-89.98600569914923"
    }
  },
  {
    "service_request": "2021-827198",
    "request_type": "Roads/Drainage",
    "request_reason": "Pothole",
    "date_created": "2021-09-28T20:55:19.000",
    "date_modified": "2021-09-28T20:55:19.000",
    "request_status": "Pending",
    "responsible_agency": "Department of Public Works",
    "final_address": "102 Woodland Dr",
    "address_councildis": "C",
    "status": "Pending",
    "rowid": "827198",
    "final_x": "3705852.32804",
    "final_y": "521831.920634",
    "longitude": "-89.99153330162277",
    "latitude": "29.928095039596247",
    "geocoded_column": {
      "latitude": "29.928095039596247",
      "longitude": "-89.99153330162277"
    }
  },
  {
    "service_request": "2021-827197",
    "request_type": "Abandoned Vehicles",
    "request_reason": "Abandoned/Junk Vehicles",
    "date_created": "2021-09-28T20:52:07.000",
    "date_modified": "2021-09-28T20:52:07.000",
    "request_status": "Pending",
    "responsible_agency": "Department of Public Works",
    "final_address": "7700 Shaw Ave",
    "address_councildis": "E",
    "status": "Pending",
    "rowid": "827197",
    "final_x": "3707055.43921",
    "final_y": "564413.772257",
    "longitude": "-89.98615498434053",
    "latitude": "30.045140413370085",
    "geocoded_column": {
      "latitude": "30.045140413370085",
      "longitude": "-89.98615498434053"
    }
  },
  {
    "service_request": "2021-827196",
    "request_type": "Traffic Signals/Signs/Striping/Streetlights",
    "request_reason": "Street Light Outage/Malfunction",
    "date_created": "2021-09-28T20:51:48.000",
    "date_modified": "2021-09-28T20:51:49.000",
    "request_status": "Pending",
    "responsible_agency": "Department of Public Works",
    "final_address": "4837 Patterson St",
    "address_councildis": "C",
    "status": "Pending",
    "contractor": "Royal Engineering",
    "rowid": "827196",
    "final_x": "3702218.42532",
    "final_y": "524444.123772",
    "longitude": "-90.00290888110756",
    "latitude": "29.9353941973237",
    "geocoded_column": {
      "latitude": "29.9353941973237",
      "longitude": "-90.00290888110756"
    }
  },
  {
    "service_request": "2021-827194",
    "request_type": "Roads/Drainage",
    "request_reason": "Pothole",
    "date_created": "2021-09-28T20:46:56.000",
    "date_modified": "2021-09-28T20:46:56.000",
    "request_status": "Pending",
    "responsible_agency": "Department of Public Works",
    "final_address": "7501 Brevard Ave",
    "address_councildis": "E",
    "status": "Pending",
    "rowid": "827194",
    "final_x": "3706631.57841",
    "final_y": "563105.23248",
    "longitude": "-89.98754314860626",
    "latitude": "30.041556145009054",
    "geocoded_column": {
      "latitude": "30.041556145009054",
      "longitude": "-89.98754314860626"
    }
  },
  {
    "service_request": "2021-827193",
    "request_type": "Roads/Drainage",
    "request_reason": "Pothole",
    "date_created": "2021-09-28T20:43:43.000",
    "date_modified": "2021-09-28T20:43:43.000",
    "request_status": "Pending",
    "responsible_agency": "Department of Public Works",
    "final_address": "7613 Poitevent Ave",
    "address_councildis": "E",
    "status": "Pending",
    "rowid": "827193",
    "final_x": "3707024.39403",
    "final_y": "564133.426721",
    "longitude": "-89.98626351736839",
    "latitude": "30.044370578504644",
    "geocoded_column": {
      "latitude": "30.044370578504644",
      "longitude": "-89.98626351736839"
    }
  },
  {
    "service_request": "2021-827192",
    "request_type": "Trash/Recycling",
    "request_reason": "Missed Trash Pick-Up",
    "date_created": "2021-09-28T20:41:57.000",
    "date_modified": "2021-09-28T20:41:58.000",
    "request_status": "Pending",
    "responsible_agency": "Department of Sanitation",
    "final_address": "1512 General Pershing St",
    "address_councildis": "B",
    "status": "Assigned to Contractor",
    "contractor": "Richards Disposal",
    "rowid": "827192",
    "final_x": "3671215.61991",
    "final_y": "520705.571577",
    "longitude": "-90.10091205336771",
    "latitude": "29.92606777202637",
    "geocoded_column": {
      "latitude": "29.92606777202637",
      "longitude": "-90.10091205336771"
    }
  },
  {
    "service_request": "2021-827191",
    "request_type": "Trash/Recycling",
    "request_reason": "Missed Trash Pick-Up",
    "date_created": "2021-09-28T20:40:12.000",
    "date_modified": "2021-09-28T20:40:13.000",
    "request_status": "Pending",
    "responsible_agency": "Department of Sanitation",
    "final_address": "1900 Burgundy St",
    "address_councildis": "C",
    "status": "Assigned to Contractor",
    "contractor": "Metro Disposal",
    "rowid": "827191",
    "final_x": "3683964.5702",
    "final_y": "535466.02951",
    "longitude": "-90.06014965877657",
    "latitude": "29.966270849239883",
    "geocoded_column": {
      "latitude": "29.966270849239883",
      "longitude": "-90.06014965877657"
    }
  },
  {
    "service_request": "2021-827190",
    "request_type": "Abandoned Vehicles",
    "request_reason": "Abandoned/Junk Vehicles",
    "date_created": "2021-09-28T20:35:36.000",
    "date_modified": "2021-09-28T20:35:36.000",
    "request_status": "Pending",
    "responsible_agency": "Department of Public Works",
    "final_address": "920 Cadiz St",
    "address_councildis": "B",
    "status": "Pending",
    "rowid": "827190",
    "final_x": "3670237.55028",
    "final_y": "518902.628535",
    "longitude": "-90.10406060069539",
    "latitude": "29.921139141639816",
    "geocoded_column": {
      "latitude": "29.921139141639816",
      "longitude": "-90.10406060069539"
    }
  },
  {
    "service_request": "2021-827189",
    "request_type": "Trash/Recycling",
    "request_reason": "Missed Trash Pick-Up",
    "date_created": "2021-09-28T20:19:50.000",
    "date_modified": "2021-09-28T20:19:51.000",
    "request_status": "Pending",
    "responsible_agency": "Department of Sanitation",
    "final_address": "4918 S Prieur St",
    "address_councildis": "B",
    "status": "Assigned to Contractor",
    "contractor": "Richards Disposal",
    "rowid": "827189",
    "final_x": "3669090.91943",
    "final_y": "526637.515006",
    "longitude": "-90.10741879456256",
    "latitude": "29.942441378548565",
    "geocoded_column": {
      "latitude": "29.942441378548565",
      "longitude": "-90.10741879456256"
    }
  },
  {
    "service_request": "2021-827188",
    "request_type": "Trash/Recycling",
    "request_reason": "Missed Trash Pick-Up",
    "date_created": "2021-09-28T20:17:02.000",
    "date_modified": "2021-09-28T20:17:02.000",
    "request_status": "Pending",
    "responsible_agency": "Department of Sanitation",
    "final_address": "1315 St Philip St",
    "address_councildis": "C",
    "status": "Assigned to Contractor",
    "contractor": "Richards Disposal",
    "rowid": "827188",
    "final_x": "3681397.48066",
    "final_y": "534793.39239",
    "longitude": "-90.06827992481632",
    "latitude": "29.96449950885333",
    "geocoded_column": {
      "latitude": "29.96449950885333",
      "longitude": "-90.06827992481632"
    }
  },
  {
    "service_request": "2021-827187",
    "request_type": "Trash/Recycling",
    "request_reason": "Missed Trash Pick-Up",
    "date_created": "2021-09-28T20:15:21.000",
    "date_modified": "2021-09-28T20:15:22.000",
    "request_status": "Pending",
    "responsible_agency": "Department of Sanitation",
    "final_address": "5946 Memphis St",
    "address_councildis": "A",
    "status": "Assigned to Contractor",
    "contractor": "Metro Disposal",
    "rowid": "827187",
    "final_x": "3669070.47572",
    "final_y": "546945.072465",
    "longitude": "-90.10679703044974",
    "latitude": "29.998280965243257",
    "geocoded_column": {
      "latitude": "29.998280965243257",
      "longitude": "-90.10679703044974"
    }
  },
  {
    "service_request": "2021-827186",
    "request_type": "Property Maintenance",
    "request_reason": "Property Maintenance",
    "date_created": "2021-09-28T20:04:29.000",
    "date_modified": "2021-09-28T20:04:29.000",
    "request_status": "Pending",
    "responsible_agency": "Department of Code Enforcement",
    "final_address": "1926 Dante St",
    "address_councildis": "A",
    "status": "Pending",
    "rowid": "827186",
    "final_x": "3663191.08666",
    "final_y": "530871.592514",
    "longitude": "-90.1259051287768",
    "latitude": "29.95425597486963",
    "geocoded_column": {
      "latitude": "29.95425597486963",
      "longitude": "-90.1259051287768"
    }
  },
  {
    "service_request": "2021-827185",
    "request_type": "Abandoned Vehicles",
    "request_reason": "Abandoned/Junk Vehicles",
    "date_created": "2021-09-28T20:02:28.000",
    "date_modified": "2021-09-28T20:02:28.000",
    "request_status": "Pending",
    "responsible_agency": "Department of Public Works",
    "final_address": "8302 Spruce St",
    "address_councildis": "A",
    "status": "Pending",
    "rowid": "827185",
    "final_x": "3663225.89466",
    "final_y": "530979.948546",
    "longitude": "-90.1257916127969",
    "latitude": "29.954552910286917",
    "geocoded_column": {
      "latitude": "29.954552910286917",
      "longitude": "-90.1257916127969"
    }
  },
  {
    "service_request": "2021-827184",
    "request_type": "Traffic Signals/Signs/Striping/Streetlights",
    "request_reason": "Street Light Outage/Malfunction",
    "date_created": "2021-09-28T19:59:30.000",
    "date_modified": "2021-09-28T19:59:30.000",
    "request_status": "Pending",
    "responsible_agency": "Department of Public Works",
    "final_address": "9878 E Rockton Cir",
    "address_councildis": "E",
    "status": "Pending",
    "contractor": "Royal Engineering",
    "rowid": "827184",
    "final_x": "3708760.90488",
    "final_y": "563247.434912",
    "longitude": "-89.98080845686042",
    "latitude": "30.04187820797671",
    "geocoded_column": {
      "latitude": "30.04187820797671",
      "longitude": "-89.98080845686042"
    }
  },
  {
    "service_request": "2021-827183",
    "request_type": "Traffic Signals/Signs/Striping/Streetlights",
    "request_reason": "Street Light Outage/Malfunction",
    "date_created": "2021-09-28T19:59:29.000",
    "date_modified": "2021-09-28T19:59:30.000",
    "request_status": "Pending",
    "responsible_agency": "Department of Public Works",
    "final_address": "9878 E Rockton Cir",
    "address_councildis": "E",
    "status": "Pending",
    "contractor": "Royal Engineering",
    "rowid": "827183",
    "final_x": "3708760.90488",
    "final_y": "563247.434912",
    "longitude": "-89.98080845686042",
    "latitude": "30.04187820797671",
    "geocoded_column": {
      "latitude": "30.04187820797671",
      "longitude": "-89.98080845686042"
    }
  },
  {
    "service_request": "2021-827182",
    "request_type": "Trash/Recycling",
    "request_reason": "Missed Trash Pick-Up",
    "date_created": "2021-09-28T19:56:40.000",
    "date_modified": "2021-09-28T19:56:41.000",
    "request_status": "Pending",
    "responsible_agency": "Department of Sanitation",
    "final_address": "4401 St Roch Ave",
    "address_councildis": "D",
    "status": "Assigned to Contractor",
    "contractor": "Metro Disposal",
    "rowid": "827182",
    "final_x": "3685536.98601",
    "final_y": "548927.187923",
    "longitude": "-90.0547096471598",
    "latitude": "30.00323613364496",
    "geocoded_column": {
      "latitude": "30.00323613364496",
      "longitude": "-90.0547096471598"
    }
  },
  {
    "service_request": "2021-827181",
    "request_type": "Tax and Revenue",
    "request_reason": "Personal Property Tax Question",
    "date_created": "2021-09-28T19:40:46.000",
    "date_modified": "2021-09-28T19:40:46.000",
    "request_status": "Pending",
    "responsible_agency": "Bureau of Treasury",
    "final_address": "3012 Delachaise St",
    "address_councildis": "B",
    "status": "Pending",
    "rowid": "827181",
    "final_x": "3671786.21729",
    "final_y": "526248.82483",
    "longitude": "-90.09892232913019",
    "latitude": "29.941293041127032",
    "geocoded_column": {
      "latitude": "29.941293041127032",
      "longitude": "-90.09892232913019"
    }
  },
  {
    "service_request": "2021-827180",
    "request_type": "Tax and Revenue",
    "request_reason": "General Tax Question",
    "date_created": "2021-09-28T19:39:23.000",
    "date_modified": "2021-09-28T19:39:23.000",
    "request_status": "Pending",
    "responsible_agency": "Bureau of Revenue",
    "final_address": "3012 Delachaise St",
    "address_councildis": "B",
    "status": "Pending",
    "rowid": "827180",
    "final_x": "3671786.21729",
    "final_y": "526248.82483",
    "longitude": "-90.09892232913019",
    "latitude": "29.941293041127032",
    "geocoded_column": {
      "latitude": "29.941293041127032",
      "longitude": "-90.09892232913019"
    }
  },
  {
    "service_request": "2021-827179",
    "request_type": "Trash/Recycling",
    "request_reason": "Missed Trash Pick-Up",
    "date_created": "2021-09-28T19:37:56.000",
    "date_modified": "2021-09-28T19:37:57.000",
    "request_status": "Pending",
    "responsible_agency": "Department of Sanitation",
    "final_address": "6119 Duplessis St",
    "address_councildis": "D",
    "status": "Assigned to Contractor",
    "contractor": "Metro Disposal",
    "rowid": "827179",
    "final_x": "3678064.48699",
    "final_y": "555040.014489",
    "longitude": "-90.07810486006241",
    "latitude": "30.020271371786173",
    "geocoded_column": {
      "latitude": "30.020271371786173",
      "longitude": "-90.07810486006241"
    }
  },
  {
    "service_request": "2021-827178",
    "request_type": "Tax and Revenue",
    "request_reason": "General Tax Question",
    "date_created": "2021-09-28T19:37:50.000",
    "date_modified": "2021-09-28T19:37:50.000",
    "request_status": "Pending",
    "responsible_agency": "Bureau of Revenue",
    "final_address": "3012 Delachaise St",
    "address_councildis": "B",
    "status": "Pending",
    "rowid": "827178",
    "final_x": "3671786.21729",
    "final_y": "526248.82483",
    "longitude": "-90.09892232913019",
    "latitude": "29.941293041127032",
    "geocoded_column": {
      "latitude": "29.941293041127032",
      "longitude": "-90.09892232913019"
    }
  },
  {
    "service_request": "2021-827177",
    "request_type": "Trash/Recycling",
    "request_reason": "Missed Trash Pick-Up",
    "date_created": "2021-09-28T19:37:39.000",
    "date_modified": "2021-09-28T19:37:39.000",
    "request_status": "Pending",
    "responsible_agency": "Department of Sanitation",
    "final_address": "1410 Madrid St",
    "address_councildis": "D",
    "status": "Assigned to Contractor",
    "contractor": "Metro Disposal",
    "rowid": "827177",
    "final_x": "3677578.97538",
    "final_y": "554471.530968",
    "longitude": "-90.07965858014333",
    "latitude": "30.018722863245213",
    "geocoded_column": {
      "latitude": "30.018722863245213",
      "longitude": "-90.07965858014333"
    }
  },
  {
    "service_request": "2021-827176",
    "request_type": "Trash/Recycling",
    "request_reason": "Missed Trash Pick-Up",
    "date_created": "2021-09-28T19:37:05.000",
    "date_modified": "2021-09-28T19:37:05.000",
    "request_status": "Pending",
    "responsible_agency": "Department of Sanitation",
    "final_address": "6119 Duplessis St",
    "address_councildis": "D",
    "status": "Assigned to Contractor",
    "contractor": "Metro Disposal",
    "rowid": "827176",
    "final_x": "3678064.48699",
    "final_y": "555040.014489",
    "longitude": "-90.07810486006241",
    "latitude": "30.020271371786173",
    "geocoded_column": {
      "latitude": "30.020271371786173",
      "longitude": "-90.07810486006241"
    }
  },
  {
    "service_request": "2021-827175",
    "request_type": "Tax and Revenue",
    "request_reason": "General Tax Question",
    "date_created": "2021-09-28T19:36:37.000",
    "date_modified": "2021-09-28T19:36:37.000",
    "request_status": "Pending",
    "responsible_agency": "Bureau of Revenue",
    "final_address": "3012 Delachaise St",
    "address_councildis": "B",
    "status": "Pending",
    "rowid": "827175",
    "final_x": "3671786.21729",
    "final_y": "526248.82483",
    "longitude": "-90.09892232913019",
    "latitude": "29.941293041127032",
    "geocoded_column": {
      "latitude": "29.941293041127032",
      "longitude": "-90.09892232913019"
    }
  },
  {
    "service_request": "2021-827174",
    "request_type": "Property Maintenance",
    "request_reason": "Property Maintenance",
    "date_created": "2021-09-28T19:36:16.000",
    "date_modified": "2021-09-28T19:36:16.000",
    "request_status": "Pending",
    "responsible_agency": "Department of Code Enforcement",
    "final_address": "4674 Arthur Dr",
    "address_councildis": "E",
    "status": "Pending",
    "rowid": "827174",
    "final_x": "3707664.09073",
    "final_y": "555023.880153",
    "longitude": "-89.98458068869662",
    "latitude": "30.01930221590529",
    "geocoded_column": {
      "latitude": "30.01930221590529",
      "longitude": "-89.98458068869662"
    }
  },
  {
    "service_request": "2021-827172",
    "request_type": "Abandoned Vehicles",
    "request_reason": "Abandoned/Junk Vehicles",
    "date_created": "2021-09-28T19:33:52.000",
    "date_modified": "2021-09-28T19:33:52.000",
    "request_status": "Pending",
    "responsible_agency": "Department of Public Works",
    "final_address": "4674 Arthur Dr",
    "address_councildis": "E",
    "status": "Pending",
    "rowid": "827172",
    "final_x": "3707664.09073",
    "final_y": "555023.880153",
    "longitude": "-89.98458068869662",
    "latitude": "30.01930221590529",
    "geocoded_column": {
      "latitude": "30.01930221590529",
      "longitude": "-89.98458068869662"
    }
  },
  {
    "service_request": "2021-827171",
    "request_type": "COVID-19",
    "request_reason": "COVID-19 Business Non-Compliance",
    "date_created": "2021-09-28T19:30:10.000",
    "date_modified": "2021-09-28T19:30:12.000",
    "request_status": "Pending",
    "responsible_agency": "Safety and Permits",
    "final_address": "216 S Genois St",
    "address_councildis": "B",
    "status": "Pending",
    "rowid": "827171",
    "final_x": "3672352.9618",
    "final_y": "536652.506951",
    "longitude": "-90.096778536813",
    "latitude": "29.96988291700896",
    "geocoded_column": {
      "latitude": "29.96988291700896",
      "longitude": "-90.096778536813"
    }
  },
  {
    "service_request": "2021-827170",
    "request_type": "Parks & Parkways",
    "request_reason": "Tree Stump (removal, grind)",
    "date_created": "2021-09-28T19:29:32.000",
    "date_modified": "2021-09-28T19:29:32.000",
    "request_status": "Pending",
    "responsible_agency": "Department of Parks & Parkway",
    "final_address": "4400 Arthur Dr",
    "address_councildis": "E",
    "status": "Pending",
    "rowid": "827170",
    "final_x": "3707806.66878",
    "final_y": "553598.591383",
    "longitude": "-89.98418321924241",
    "latitude": "30.015378608217034",
    "geocoded_column": {
      "latitude": "30.015378608217034",
      "longitude": "-89.98418321924241"
    }
  },
  {
    "service_request": "2021-827169",
    "request_type": "Trash/Recycling",
    "request_reason": "Missed Trash Pick-Up",
    "date_created": "2021-09-28T19:28:25.000",
    "date_modified": "2021-09-28T19:28:26.000",
    "request_status": "Pending",
    "responsible_agency": "Department of Sanitation",
    "final_address": "5204 Pasteur Blvd",
    "address_councildis": "D",
    "status": "Assigned to Contractor",
    "contractor": "Metro Disposal",
    "rowid": "827169",
    "final_x": "3682911.49698",
    "final_y": "551826.642966",
    "longitude": "-90.06290239666455",
    "latitude": "30.011288883612128",
    "geocoded_column": {
      "latitude": "30.011288883612128",
      "longitude": "-90.06290239666455"
    }
  },
  {
    "service_request": "2021-827168",
    "request_type": "Trash/Recycling",
    "request_reason": "MIssed Recycling Pick-Up",
    "date_created": "2021-09-28T19:20:36.000",
    "date_modified": "2021-09-28T19:20:37.000",
    "request_status": "Pending",
    "responsible_agency": "Department of Sanitation",
    "final_address": "1038 Louisa St",
    "address_councildis": "C",
    "status": "Assigned to Contractor",
    "contractor": "Metro Disposal",
    "rowid": "827168",
    "final_x": "3689502.87452",
    "final_y": "535729.698695",
    "longitude": "-90.042650475644",
    "latitude": "29.966825476472202",
    "geocoded_column": {
      "latitude": "29.966825476472202",
      "longitude": "-90.042650475644"
    }
  },
  {
    "service_request": "2021-827167",
    "request_type": "Trash/Recycling",
    "request_reason": "Missed Trash Pick-Up",
    "date_created": "2021-09-28T19:19:57.000",
    "date_modified": "2021-09-28T19:19:57.000",
    "request_status": "Pending",
    "responsible_agency": "Department of Sanitation",
    "final_address": "1038 Louisa St",
    "address_councildis": "C",
    "status": "Assigned to Contractor",
    "contractor": "Metro Disposal",
    "rowid": "827167",
    "final_x": "3689502.87452",
    "final_y": "535729.698695",
    "longitude": "-90.042650475644",
    "latitude": "29.966825476472202",
    "geocoded_column": {
      "latitude": "29.966825476472202",
      "longitude": "-90.042650475644"
    }
  },
  {
    "service_request": "2021-827165",
    "request_type": "Parks & Parkways",
    "request_reason": "Request Tree Service (Right of Way/Public Property)",
    "date_created": "2021-09-28T19:07:51.000",
    "date_modified": "2021-09-28T19:38:28.000",
    "request_status": "Pending",
    "responsible_agency": "Department of Parks & Parkway",
    "final_address": "S CARROLLTON AVE & ST CHARLES AVE",
    "address_councildis": "A",
    "status": "Pending",
    "rowid": "827165",
    "final_x": "3660671.9",
    "final_y": "526777.68",
    "longitude": "-90.13399506302743",
    "latitude": "29.943071775555143",
    "geocoded_column": {
      "latitude": "29.943071775555143",
      "longitude": "-90.13399506302743"
    }
  },
  {
    "service_request": "2021-827162",
    "request_type": "Property Maintenance",
    "request_reason": "Property Maintenance",
    "date_created": "2021-09-28T18:56:25.000",
    "date_modified": "2021-09-28T18:56:25.000",
    "request_status": "Pending",
    "responsible_agency": "Department of Code Enforcement",
    "final_address": "8515 Freret St",
    "address_councildis": "A",
    "status": "Pending",
    "rowid": "827162",
    "final_x": "3660365.61491",
    "final_y": "528939.054912",
    "longitude": "-90.13489071326899",
    "latitude": "29.94902368011597",
    "geocoded_column": {
      "latitude": "29.94902368011597",
      "longitude": "-90.13489071326899"
    }
  },
  {
    "service_request": "2021-827161",
    "request_type": "Trash/Recycling",
    "request_reason": "Missed Trash Pick-Up",
    "date_created": "2021-09-28T18:56:05.000",
    "date_modified": "2021-09-28T18:56:06.000",
    "request_status": "Pending",
    "responsible_agency": "Department of Sanitation",
    "final_address": "5101 Lafaye St",
    "address_councildis": "D",
    "status": "Assigned to Contractor",
    "contractor": "Metro Disposal",
    "rowid": "827161",
    "final_x": "3687433.70505",
    "final_y": "551690.862293",
    "longitude": "-90.04861974991573",
    "latitude": "30.010776896625405",
    "geocoded_column": {
      "latitude": "30.010776896625405",
      "longitude": "-90.04861974991573"
    }
  },
  {
    "service_request": "2021-827160",
    "request_type": "COVID-19",
    "request_reason": "COVID-19 Business Non-Compliance",
    "date_created": "2021-09-28T18:55:51.000",
    "date_modified": "2021-09-28T18:55:52.000",
    "request_status": "Pending",
    "responsible_agency": "Safety and Permits",
    "final_address": "1201 Burgundy St",
    "address_councildis": "C",
    "status": "Pending",
    "rowid": "827160",
    "final_x": "3682793.34037",
    "final_y": "534624.105222",
    "longitude": "-90.06387783228948",
    "latitude": "29.963991578908328",
    "geocoded_column": {
      "latitude": "29.963991578908328",
      "longitude": "-90.06387783228948"
    }
  },
  {
    "service_request": "2021-827159",
    "request_type": "Roads/Drainage",
    "request_reason": "Catch Basin - Clogged",
    "date_created": "2021-09-28T18:55:20.000",
    "date_modified": "2021-09-28T18:55:20.000",
    "request_status": "Pending",
    "responsible_agency": "Department of Public Works",
    "final_address": "11235 Lake Forest Blvd",
    "address_councildis": "E",
    "status": "Pending",
    "rowid": "827159",
    "final_x": "3716022.91871",
    "final_y": "561662.083743",
    "longitude": "-89.95791817494204",
    "latitude": "30.037281438664227",
    "geocoded_column": {
      "latitude": "30.037281438664227",
      "longitude": "-89.95791817494204"
    }
  },
  {
    "service_request": "2021-827158",
    "request_type": "Roads/Drainage",
    "request_reason": "Catch Basin - Clogged",
    "date_created": "2021-09-28T18:50:55.000",
    "date_modified": "2021-09-28T18:50:55.000",
    "request_status": "Pending",
    "responsible_agency": "Department of Public Works",
    "final_address": "5706 W Louis Prima Dr",
    "address_councildis": "E",
    "status": "Pending",
    "rowid": "827158",
    "final_x": "3715856.08504",
    "final_y": "561620.272351",
    "longitude": "-89.95844698701346",
    "latitude": "30.037171979515666",
    "geocoded_column": {
      "latitude": "30.037171979515666",
      "longitude": "-89.95844698701346"
    }
  },
  {
    "service_request": "2021-827157",
    "request_type": "Trash/Recycling",
    "request_reason": "MIssed Recycling Pick-Up",
    "date_created": "2021-09-28T18:49:00.000",
    "date_modified": "2021-09-28T18:49:01.000",
    "request_status": "Pending",
    "responsible_agency": "Department of Sanitation",
    "final_address": "902 Stewart Ct",
    "address_councildis": "A",
    "status": "Assigned to Contractor",
    "contractor": "Richards Disposal",
    "rowid": "827157",
    "final_x": "3673066.12801",
    "final_y": "540708.791883",
    "longitude": "-90.09438777562833",
    "latitude": "29.981015140424745",
    "geocoded_column": {
      "latitude": "29.981015140424745",
      "longitude": "-90.09438777562833"
    }
  },
  {
    "service_request": "2021-827156",
    "request_type": "Trash/Recycling",
    "request_reason": "Missed Trash Pick-Up",
    "date_created": "2021-09-28T18:44:20.000",
    "date_modified": "2021-09-28T18:44:21.000",
    "request_status": "Pending",
    "responsible_agency": "Department of Sanitation",
    "final_address": "2801 Bruxelles St",
    "address_councildis": "D",
    "status": "Assigned to Contractor",
    "contractor": "Metro Disposal",
    "rowid": "827156",
    "final_x": "3680400.23407",
    "final_y": "542644.907597",
    "longitude": "-90.07115603466214",
    "latitude": "29.986118695555767",
    "geocoded_column": {
      "latitude": "29.986118695555767",
      "longitude": "-90.07115603466214"
    }
  },
  {
    "service_request": "2021-827154",
    "request_type": "Trash/Recycling",
    "request_reason": "Missed Trash Pick-Up",
    "date_created": "2021-09-28T18:42:56.000",
    "date_modified": "2021-09-28T18:42:56.000",
    "request_status": "Pending",
    "responsible_agency": "Department of Sanitation",
    "final_address": "2801 Bruxelles St",
    "address_councildis": "D",
    "status": "Assigned to Contractor",
    "contractor": "Metro Disposal",
    "rowid": "827154",
    "final_x": "3680400.23407",
    "final_y": "542644.907597",
    "longitude": "-90.07115603466214",
    "latitude": "29.986118695555767",
    "geocoded_column": {
      "latitude": "29.986118695555767",
      "longitude": "-90.07115603466214"
    }
  },
  {
    "service_request": "2021-827153",
    "request_type": "Trash/Recycling",
    "request_reason": "MIssed Recycling Pick-Up",
    "date_created": "2021-09-28T18:41:06.000",
    "date_modified": "2021-09-28T18:41:06.000",
    "request_status": "Pending",
    "responsible_agency": "Department of Sanitation",
    "final_address": "4919 Dryades St",
    "address_councildis": "B",
    "status": "Assigned to Contractor",
    "contractor": "Richards Disposal",
    "rowid": "827153",
    "final_x": "3668941.05671",
    "final_y": "521869.208122",
    "longitude": "-90.10805293027919",
    "latitude": "29.92933447497501",
    "geocoded_column": {
      "latitude": "29.92933447497501",
      "longitude": "-90.10805293027919"
    }
  },
  {
    "service_request": "2021-827152",
    "request_type": "Trash/Recycling",
    "request_reason": "Illegal Dumping",
    "date_created": "2021-09-28T18:39:23.000",
    "date_modified": "2021-09-28T18:39:23.000",
    "request_status": "Pending",
    "responsible_agency": "Department of Sanitation",
    "final_address": "4734 Arthur Dr",
    "address_councildis": "E",
    "status": "Pending",
    "rowid": "827152",
    "final_x": "3707621.07486",
    "final_y": "555450.318361",
    "longitude": "-89.98470074441845",
    "latitude": "30.020476147634533",
    "geocoded_column": {
      "latitude": "30.020476147634533",
      "longitude": "-89.98470074441845"
    }
  },
  {
    "service_request": "2021-827151",
    "request_type": "Trash/Recycling",
    "request_reason": "Missed Trash Pick-Up",
    "date_created": "2021-09-28T18:38:55.000",
    "date_modified": "2021-09-28T18:38:55.000",
    "request_status": "Pending",
    "responsible_agency": "Department of Sanitation",
    "final_address": "1426 Touro St",
    "address_councildis": "C",
    "status": "Assigned to Contractor",
    "contractor": "Metro Disposal",
    "rowid": "827151",
    "final_x": "3684080.73289",
    "final_y": "537566.623368",
    "longitude": "-90.05970908564427",
    "latitude": "29.972043204799927",
    "geocoded_column": {
      "latitude": "29.972043204799927",
      "longitude": "-90.05970908564427"
    }
  },
  {
    "service_request": "2021-827150",
    "request_type": "Trash/Recycling",
    "request_reason": "Order Trash Cart",
    "date_created": "2021-09-28T18:38:28.000",
    "date_modified": "2021-09-28T18:38:29.000",
    "request_status": "Pending",
    "responsible_agency": "Department of Sanitation",
    "final_address": "11700 Hayne Blvd",
    "address_councildis": "E",
    "status": "Assigned to Contractor",
    "contractor": "Metro Disposal",
    "rowid": "827150",
    "final_x": "3711579.32632",
    "final_y": "568342.711845",
    "longitude": "-89.97170992369162",
    "latitude": "30.055796382072764",
    "geocoded_column": {
      "latitude": "30.055796382072764",
      "longitude": "-89.97170992369162"
    }
  },
  {
    "service_request": "2021-827149",
    "request_type": "Trash/Recycling",
    "request_reason": "Missed Trash Pick-Up",
    "date_created": "2021-09-28T18:36:13.000",
    "date_modified": "2021-09-28T18:36:14.000",
    "request_status": "Pending",
    "responsible_agency": "Department of Sanitation",
    "final_address": "2525 Pressburg St",
    "address_councildis": "D",
    "status": "Assigned to Contractor",
    "contractor": "Metro Disposal",
    "rowid": "827149",
    "final_x": "3685938.09468",
    "final_y": "554824.423448",
    "longitude": "-90.05323435527293",
    "latitude": "30.01943906243818",
    "geocoded_column": {
      "latitude": "30.01943906243818",
      "longitude": "-90.05323435527293"
    }
  },
  {
    "service_request": "2021-827148",
    "request_type": "Trash/Recycling",
    "request_reason": "Illegal Dumping",
    "date_created": "2021-09-28T18:33:08.000",
    "date_modified": "2021-09-28T18:33:08.000",
    "request_status": "Pending",
    "responsible_agency": "Department of Sanitation",
    "final_address": "4400 Arthur Dr",
    "address_councildis": "E",
    "status": "Pending",
    "rowid": "827148",
    "final_x": "3707806.66878",
    "final_y": "553598.591383",
    "longitude": "-89.98418321924241",
    "latitude": "30.015378608217034",
    "geocoded_column": {
      "latitude": "30.015378608217034",
      "longitude": "-89.98418321924241"
    }
  },
  {
    "service_request": "2021-827147",
    "request_type": "Traffic Signals/Signs/Striping/Streetlights",
    "request_reason": "Street Light Outage/Malfunction",
    "date_created": "2021-09-28T18:26:48.000",
    "date_modified": "2021-09-28T18:26:49.000",
    "request_status": "Pending",
    "responsible_agency": "Department of Public Works",
    "final_address": "7719 Pearl St",
    "address_councildis": "A",
    "status": "Pending",
    "contractor": "Royal Engineering",
    "rowid": "827147",
    "final_x": "3661322.75584",
    "final_y": "525685.491069",
    "longitude": "-90.1319762934953",
    "latitude": "29.940049854606897",
    "geocoded_column": {
      "latitude": "29.940049854606897",
      "longitude": "-90.1319762934953"
    }
  },
  {
    "service_request": "2021-827146",
    "request_type": "Property Maintenance",
    "request_reason": "Property Maintenance",
    "date_created": "2021-09-28T18:25:47.000",
    "date_modified": "2021-09-28T18:32:29.000",
    "request_status": "Pending",
    "responsible_agency": "Department of Code Enforcement",
    "final_address": "7001 Martin Dr",
    "address_councildis": "E",
    "status": "Pending",
    "rowid": "827146",
    "final_x": "3699289.35824",
    "final_y": "557953.520347",
    "longitude": "-90.01093500208854",
    "latitude": "30.02762599978341",
    "geocoded_column": {
      "latitude": "30.02762599978341",
      "longitude": "-90.01093500208854"
    }
  },
  {
    "service_request": "2021-827145",
    "request_type": "Traffic Signals/Signs/Striping/Streetlights",
    "request_reason": "Street Light Knocked Down/Leaning",
    "date_created": "2021-09-28T18:25:25.000",
    "date_modified": "2021-09-28T18:25:26.000",
    "request_status": "Pending",
    "responsible_agency": "Department of Public Works",
    "final_address": "7814 Mercier St",
    "address_councildis": "E",
    "status": "Pending",
    "contractor": "Royal Engineering",
    "rowid": "827145",
    "final_x": "3711050.462",
    "final_y": "567020.044772",
    "longitude": "-89.97343116727858",
    "latitude": "30.052176855001537",
    "geocoded_column": {
      "latitude": "30.052176855001537",
      "longitude": "-89.97343116727858"
    }
  },
  {
    "service_request": "2021-827144",
    "request_type": "Roads/Drainage",
    "request_reason": "WaterMain Break",
    "date_created": "2021-09-28T18:23:29.000",
    "date_modified": "2021-09-28T18:23:29.000",
    "request_status": "Closed",
    "responsible_agency": "Department of Public Works",
    "final_address": "6648 Louisville St",
    "address_councildis": "A",
    "status": "Invalid Case",
    "rowid": "827144",
    "final_x": "3668054.64564",
    "final_y": "551867.501142",
    "longitude": "-90.10984000496683",
    "latitude": "30.011845790586467",
    "geocoded_column": {
      "latitude": "30.011845790586467",
      "longitude": "-90.10984000496683"
    }
  },
  {
    "service_request": "2021-827142",
    "request_type": "Trash/Recycling",
    "request_reason": "Return Recycling Cart",
    "date_created": "2021-09-28T18:18:53.000",
    "date_modified": "2021-09-28T18:18:53.000",
    "request_status": "Pending",
    "responsible_agency": "Department of Sanitation",
    "final_address": "2046 Sumpter St",
    "address_councildis": "D",
    "status": "Pending",
    "rowid": "827142",
    "final_x": "3682903.2269",
    "final_y": "549437.979219",
    "longitude": "-90.06301219131504",
    "latitude": "30.004721174036295",
    "geocoded_column": {
      "latitude": "30.004721174036295",
      "longitude": "-90.06301219131504"
    }
  },
  {
    "service_request": "2021-827140",
    "request_type": "Parks & Parkways",
    "request_reason": "Request Grass Cutting Service (City Owned Property)",
    "date_created": "2021-09-28T18:04:26.000",
    "date_modified": "2021-09-28T18:04:26.000",
    "request_status": "Pending",
    "responsible_agency": "Department of Parks & Parkway",
    "final_address": "1139 Saint Andrew St, New Orleans, Louisiana, 70130",
    "status": "Pending",
    "rowid": "827140",
    "longitude": "0.0",
    "latitude": "0.0",
    "geocoded_column": {
      "latitude": "0.0",
      "longitude": "0.0"
    }
  },
  {
    "service_request": "2021-827139",
    "request_type": "Trash/Recycling",
    "request_reason": "MIssed Recycling Pick-Up",
    "date_created": "2021-09-28T18:02:30.000",
    "date_modified": "2021-09-28T18:02:31.000",
    "request_status": "Pending",
    "responsible_agency": "Department of Sanitation",
    "final_address": "1139 Saint Andrew St, New Orleans, Louisiana, 70130",
    "status": "Assigned to Contractor",
    "rowid": "827139",
    "longitude": "0.0",
    "latitude": "0.0",
    "geocoded_column": {
      "latitude": "0.0",
      "longitude": "0.0"
    }
  },
  {
    "service_request": "2021-827138",
    "request_type": "Traffic Signals/Signs/Striping/Streetlights",
    "request_reason": "Striping/Road Surface Markings",
    "date_created": "2021-09-28T17:57:27.000",
    "date_modified": "2021-09-28T17:57:27.000",
    "request_status": "Pending",
    "responsible_agency": "Department of Public Works",
    "final_address": "1519 Esplanade Ave",
    "address_councildis": "C",
    "status": "Pending",
    "rowid": "827138",
    "final_x": "3681479.96245",
    "final_y": "536498.884359",
    "longitude": "-90.06795997713856",
    "latitude": "29.969186521802264",
    "geocoded_column": {
      "latitude": "29.969186521802264",
      "longitude": "-90.06795997713856"
    }
  },
  {
    "service_request": "2021-827137",
    "request_type": "Traffic Signals/Signs/Striping/Streetlights",
    "request_reason": "Traffic Signal Malfunctioning/Damaged",
    "date_created": "2021-09-28T17:55:02.000",
    "date_modified": "2021-09-28T17:55:02.000",
    "request_status": "Pending",
    "responsible_agency": "Department of Public Works",
    "final_address": "Camp St & Felicity St, New Orleans, Louisiana, 70130",
    "address_councildis": "B",
    "status": "Pending",
    "rowid": "827137",
    "final_x": "3679670.0",
    "final_y": "523372.18",
    "longitude": "-90.0741315340554",
    "latitude": "29.933147330195464",
    "geocoded_column": {
      "latitude": "29.933147330195464",
      "longitude": "-90.0741315340554"
    }
  },
  {
    "service_request": "2021-827136",
    "request_type": "Trash/Recycling",
    "request_reason": "Missed Trash Pick-Up",
    "date_created": "2021-09-28T17:51:55.000",
    "date_modified": "2021-09-28T17:54:34.000",
    "request_status": "Pending",
    "responsible_agency": "Department of Sanitation",
    "final_address": "1811 Marais St",
    "address_councildis": "C",
    "status": "Assigned to Contractor",
    "contractor": "Metro Disposal",
    "rowid": "827136",
    "final_x": "3683591.6237",
    "final_y": "536587.708871",
    "longitude": "-90.06128809122839",
    "latitude": "29.96936646894604",
    "geocoded_column": {
      "latitude": "29.96936646894604",
      "longitude": "-90.06128809122839"
    }
  },
  {
    "service_request": "2021-827135",
    "request_type": "Traffic Signals/Signs/Striping/Streetlights",
    "request_reason": "Street Light Outage/Malfunction",
    "date_created": "2021-09-28T17:46:15.000",
    "date_modified": "2021-09-28T17:46:16.000",
    "request_status": "Pending",
    "responsible_agency": "Department of Public Works",
    "final_address": "1300 block of deslonde st",
    "status": "Pending",
    "contractor": "Royal Engineering",
    "rowid": "827135",
    "longitude": "0.0",
    "latitude": "0.0",
    "geocoded_column": {
      "latitude": "0.0",
      "longitude": "0.0"
    }
  },
  {
    "service_request": "2021-827134",
    "request_type": "Trash/Recycling",
    "request_reason": "Missed Trash Pick-Up",
    "date_created": "2021-09-28T17:43:49.000",
    "date_modified": "2021-09-28T17:43:50.000",
    "request_status": "Pending",
    "responsible_agency": "Department of Sanitation",
    "final_address": "6417 Paris Ave",
    "address_councildis": "D",
    "status": "Assigned to Contractor",
    "contractor": "Metro Disposal",
    "rowid": "827134",
    "final_x": "3678240.21749",
    "final_y": "557151.449307",
    "longitude": "-90.0774764854986",
    "latitude": "30.02607175409425",
    "geocoded_column": {
      "latitude": "30.02607175409425",
      "longitude": "-90.0774764854986"
    }
  },
  {
    "service_request": "2021-827133",
    "request_type": "Trash/Recycling",
    "request_reason": "Missed Trash Pick-Up",
    "date_created": "2021-09-28T17:42:46.000",
    "date_modified": "2021-09-28T17:42:47.000",
    "request_status": "Pending",
    "responsible_agency": "Department of Sanitation",
    "final_address": "5923 Alfred St",
    "address_councildis": "D",
    "status": "Assigned to Contractor",
    "contractor": "Metro Disposal",
    "rowid": "827133",
    "final_x": "3677254.4173",
    "final_y": "554121.514008",
    "longitude": "-90.08069615806365",
    "latitude": "30.017770203074463",
    "geocoded_column": {
      "latitude": "30.017770203074463",
      "longitude": "-90.08069615806365"
    }
  },
  {
    "service_request": "2021-827131",
    "request_type": "Trash/Recycling",
    "request_reason": "Missed Trash Pick-Up",
    "date_created": "2021-09-28T17:36:43.000",
    "date_modified": "2021-09-28T17:36:44.000",
    "request_status": "Pending",
    "responsible_agency": "Department of Sanitation",
    "final_address": "628 Nashville Ave",
    "address_councildis": "A",
    "status": "Assigned to Contractor",
    "contractor": "Richards Disposal",
    "rowid": "827131",
    "final_x": "3665346.56525",
    "final_y": "518597.104887",
    "longitude": "-90.11950953497882",
    "latitude": "29.920442419987424",
    "geocoded_column": {
      "latitude": "29.920442419987424",
      "longitude": "-90.11950953497882"
    }
  },
  {
    "service_request": "2021-827130",
    "request_type": "Traffic Signals/Signs/Striping/Streetlights",
    "request_reason": "Street Light Outage/Malfunction",
    "date_created": "2021-09-28T17:35:35.000",
    "date_modified": "2021-09-28T17:35:36.000",
    "request_status": "Pending",
    "responsible_agency": "Department of Public Works",
    "final_address": "45 Flamingo St",
    "address_councildis": "D",
    "status": "Pending",
    "contractor": "Royal Engineering",
    "rowid": "827130",
    "final_x": "3674462.81076",
    "final_y": "555325.207449",
    "longitude": "-90.08947527757411",
    "latitude": "30.02116354520433",
    "geocoded_column": {
      "latitude": "30.02116354520433",
      "longitude": "-90.08947527757411"
    }
  },
  {
    "service_request": "2021-827128",
    "request_type": "Traffic Signals/Signs/Striping/Streetlights",
    "request_reason": "Traffic Signal Malfunctioning/Damaged",
    "date_created": "2021-09-28T17:28:03.000",
    "date_modified": "2021-09-28T17:28:03.000",
    "request_status": "Pending",
    "responsible_agency": "Department of Public Works",
    "final_address": "1122 Oretha Castle Haley Blvd",
    "address_councildis": "B",
    "status": "Pending",
    "rowid": "827128",
    "final_x": "3678694.58914",
    "final_y": "527202.934335",
    "longitude": "-90.07707825342716",
    "latitude": "29.943710077179947",
    "geocoded_column": {
      "latitude": "29.943710077179947",
      "longitude": "-90.07707825342716"
    }
  },
  {
    "service_request": "2021-827127",
    "request_type": "Traffic Signals/Signs/Striping/Streetlights",
    "request_reason": "Traffic Signal Malfunctioning/Damaged",
    "date_created": "2021-09-28T17:26:37.000",
    "date_modified": "2021-09-28T17:26:37.000",
    "request_status": "Pending",
    "responsible_agency": "Department of Public Works",
    "final_address": "2139 Simon Bolivar Ave",
    "address_councildis": "B",
    "status": "Pending",
    "rowid": "827127",
    "final_x": "3676256.12411",
    "final_y": "525597.949821",
    "longitude": "-90.08483235929397",
    "latitude": "29.939370183986462",
    "geocoded_column": {
      "latitude": "29.939370183986462",
      "longitude": "-90.08483235929397"
    }
  },
  {
    "service_request": "2021-827125",
    "request_type": "Abandoned Vehicles",
    "request_reason": "Abandoned/Junk Vehicles",
    "date_created": "2021-09-28T17:22:07.000",
    "date_modified": "2021-09-28T17:22:07.000",
    "request_status": "Pending",
    "responsible_agency": "Department of Public Works",
    "final_address": "912 Amelia St",
    "address_councildis": "B",
    "status": "Pending",
    "rowid": "827125",
    "final_x": "3673780.64801",
    "final_y": "518504.310775",
    "longitude": "-90.09289021714787",
    "latitude": "29.91993890223393",
    "geocoded_column": {
      "latitude": "29.91993890223393",
      "longitude": "-90.09289021714787"
    }
  },
  {
    "service_request": "2021-827124",
    "request_type": "Trash/Recycling",
    "request_reason": "Missed Trash Pick-Up",
    "date_created": "2021-09-28T17:19:43.000",
    "date_modified": "2021-09-28T17:19:44.000",
    "request_status": "Pending",
    "responsible_agency": "Department of Sanitation",
    "final_address": "5824 Magnolia St",
    "address_councildis": "A",
    "status": "Assigned to Contractor",
    "contractor": "Richards Disposal",
    "rowid": "827124",
    "final_x": "3666837.57722",
    "final_y": "524892.224188",
    "longitude": "-90.11459174208953",
    "latitude": "29.937708486484265",
    "geocoded_column": {
      "latitude": "29.937708486484265",
      "longitude": "-90.11459174208953"
    }
  },
  {
    "service_request": "2021-827123",
    "request_type": "Trash/Recycling",
    "request_reason": "Order Recycling Cart",
    "date_created": "2021-09-28T17:16:57.000",
    "date_modified": "2021-09-28T17:16:58.000",
    "request_status": "Pending",
    "responsible_agency": "Department of Sanitation",
    "final_address": "4225 Palmyra St",
    "address_councildis": "A",
    "status": "Pending",
    "rowid": "827123",
    "final_x": "3669963.42222",
    "final_y": "538262.730697",
    "longitude": "-90.10427040524782",
    "latitude": "29.97438118069623",
    "geocoded_column": {
      "latitude": "29.97438118069623",
      "longitude": "-90.10427040524782"
    }
  },
  {
    "service_request": "2021-827122",
    "request_type": "Trash/Recycling",
    "request_reason": "Missed Trash Pick-Up",
    "date_created": "2021-09-28T17:10:31.000",
    "date_modified": "2021-09-28T17:14:08.000",
    "case_close_date": "2021-09-28T12:14:08.000",
    "request_status": "Closed",
    "responsible_agency": "Department of Sanitation",
    "final_address": "1521 Mandeville St",
    "address_councildis": "C",
    "status": "Resolved",
    "contractor": "Metro Disposal",
    "rowid": "827122",
    "final_x": "3685680.73724",
    "final_y": "538024.984905",
    "longitude": "-90.054639866008",
    "latitude": "29.97325454105964",
    "geocoded_column": {
      "latitude": "29.97325454105964",
      "longitude": "-90.054639866008"
    }
  },
  {
    "service_request": "2021-827121",
    "request_type": "Trash/Recycling",
    "request_reason": "Missed Trash Pick-Up",
    "date_created": "2021-09-28T17:10:24.000",
    "date_modified": "2021-09-28T17:14:20.000",
    "case_close_date": "2021-09-28T12:14:20.000",
    "request_status": "Closed",
    "responsible_agency": "Department of Sanitation",
    "final_address": "1426 Touro St",
    "address_councildis": "C",
    "status": "Resolved",
    "contractor": "Metro Disposal",
    "rowid": "827121",
    "final_x": "3684080.73289",
    "final_y": "537566.623368",
    "longitude": "-90.05970908564427",
    "latitude": "29.972043204799927",
    "geocoded_column": {
      "latitude": "29.972043204799927",
      "longitude": "-90.05970908564427"
    }
  },
  {
    "service_request": "2021-827120",
    "request_type": "Roads/Drainage",
    "request_reason": "Catch Basin - Clogged",
    "date_created": "2021-09-28T17:09:14.000",
    "date_modified": "2021-09-28T17:09:14.000",
    "request_status": "Pending",
    "responsible_agency": "Department of Public Works",
    "final_address": "4488 Wilson Ave",
    "address_councildis": "E",
    "status": "Pending",
    "rowid": "827120",
    "final_x": "3703068.01764",
    "final_y": "553477.276055",
    "longitude": "-89.9991595087736",
    "latitude": "30.015197600277986",
    "geocoded_column": {
      "latitude": "30.015197600277986",
      "longitude": "-89.9991595087736"
    }
  },
  {
    "service_request": "2021-827119",
    "request_type": "Roads/Drainage",
    "request_reason": "Catch Basin - Clogged",
    "date_created": "2021-09-28T17:08:55.000",
    "date_modified": "2021-09-28T17:08:55.000",
    "request_status": "Pending",
    "responsible_agency": "Department of Public Works",
    "final_address": "4488 Wilson Ave",
    "address_councildis": "E",
    "status": "Pending",
    "rowid": "827119",
    "final_x": "3703068.01764",
    "final_y": "553477.276055",
    "longitude": "-89.9991595087736",
    "latitude": "30.015197600277986",
    "geocoded_column": {
      "latitude": "30.015197600277986",
      "longitude": "-89.9991595087736"
    }
  },
  {
    "service_request": "2021-827118",
    "request_type": "Abandoned Vehicles",
    "request_reason": "Abandoned/Junk Vehicles",
    "date_created": "2021-09-28T17:08:47.000",
    "date_modified": "2021-09-28T17:08:47.000",
    "request_status": "Pending",
    "responsible_agency": "Department of Public Works",
    "final_address": "4022 Prentiss Ave",
    "address_councildis": "D",
    "status": "Pending",
    "rowid": "827118",
    "final_x": "3688822.52246",
    "final_y": "554220.228952",
    "longitude": "-90.0441420370358",
    "latitude": "30.017688832233258",
    "geocoded_column": {
      "latitude": "30.017688832233258",
      "longitude": "-90.0441420370358"
    }
  },
  {
    "service_request": "2021-827117",
    "request_type": "Roads/Drainage",
    "request_reason": "Catch Basin - Clogged",
    "date_created": "2021-09-28T17:08:05.000",
    "date_modified": "2021-09-28T17:08:05.000",
    "request_status": "Pending",
    "responsible_agency": "Department of Public Works",
    "final_address": "4488 Wilson Ave",
    "address_councildis": "E",
    "status": "Pending",
    "rowid": "827117",
    "final_x": "3703068.01764",
    "final_y": "553477.276055",
    "longitude": "-89.9991595087736",
    "latitude": "30.015197600277986",
    "geocoded_column": {
      "latitude": "30.015197600277986",
      "longitude": "-89.9991595087736"
    }
  },
  {
    "service_request": "2021-827116",
    "request_type": "Trash/Recycling",
    "request_reason": "Missed Trash Pick-Up",
    "date_created": "2021-09-28T17:06:56.000",
    "date_modified": "2021-09-28T17:16:40.000",
    "case_close_date": "2021-09-28T12:16:40.000",
    "request_status": "Closed",
    "responsible_agency": "Department of Sanitation",
    "final_address": "4488 Wilson Ave",
    "address_councildis": "E",
    "status": "Resolved",
    "contractor": "Metro Disposal",
    "rowid": "827116",
    "final_x": "3703068.01764",
    "final_y": "553477.276055",
    "longitude": "-89.9991595087736",
    "latitude": "30.015197600277986",
    "geocoded_column": {
      "latitude": "30.015197600277986",
      "longitude": "-89.9991595087736"
    }
  },
  {
    "service_request": "2021-827115",
    "request_type": "Parks & Parkways",
    "request_reason": "Request Grass Cutting Service (City Owned Property)",
    "date_created": "2021-09-28T17:05:36.000",
    "date_modified": "2021-09-28T17:05:36.000",
    "request_status": "Pending",
    "responsible_agency": "Department of Parks & Parkway",
    "final_address": "4488 Wilson Ave",
    "address_councildis": "E",
    "status": "Pending",
    "rowid": "827115",
    "final_x": "3703068.01764",
    "final_y": "553477.276055",
    "longitude": "-89.9991595087736",
    "latitude": "30.015197600277986",
    "geocoded_column": {
      "latitude": "30.015197600277986",
      "longitude": "-89.9991595087736"
    }
  },
  {
    "service_request": "2021-827114",
    "request_type": "Trash/Recycling",
    "request_reason": "Missed Trash Pick-Up",
    "date_created": "2021-09-28T17:04:11.000",
    "date_modified": "2021-09-28T17:16:52.000",
    "case_close_date": "2021-09-28T12:16:52.000",
    "request_status": "Closed",
    "responsible_agency": "Department of Sanitation",
    "final_address": "2629 Chartres St",
    "address_councildis": "C",
    "status": "Resolved",
    "contractor": "Metro Disposal",
    "rowid": "827114",
    "final_x": "3686897.48188",
    "final_y": "534590.109125",
    "longitude": "-90.05091855988391",
    "latitude": "29.96377243894498",
    "geocoded_column": {
      "latitude": "29.96377243894498",
      "longitude": "-90.05091855988391"
    }
  },
  {
    "service_request": "2021-827113",
    "request_type": "Trash/Recycling",
    "request_reason": "Missed Trash Pick-Up",
    "date_created": "2021-09-28T17:02:55.000",
    "date_modified": "2021-09-28T17:02:56.000",
    "request_status": "Pending",
    "responsible_agency": "Department of Sanitation",
    "final_address": "2627 Chartres St",
    "address_councildis": "C",
    "status": "Assigned to Contractor",
    "contractor": "Metro Disposal",
    "rowid": "827113",
    "final_x": "3686886.02351",
    "final_y": "534592.539717",
    "longitude": "-90.05095465830449",
    "latitude": "29.96377947484409",
    "geocoded_column": {
      "latitude": "29.96377947484409",
      "longitude": "-90.05095465830449"
    }
  },
  {
    "service_request": "2021-827112",
    "request_type": "Trash/Recycling",
    "request_reason": "Repair Recycling Cart",
    "date_created": "2021-09-28T17:01:44.000",
    "date_modified": "2021-09-28T17:01:44.000",
    "request_status": "Pending",
    "responsible_agency": "Department of Sanitation",
    "final_address": "5801 Marcia Ave",
    "address_councildis": "A",
    "status": "Pending",
    "rowid": "827112",
    "final_x": "3664856.64474",
    "final_y": "546396.05864",
    "longitude": "-90.12012691816523",
    "latitude": "29.99689471755044",
    "geocoded_column": {
      "latitude": "29.99689471755044",
      "longitude": "-90.12012691816523"
    }
  },
  {
    "service_request": "2021-827111",
    "request_type": "Trash/Recycling",
    "request_reason": "Missed Trash Pick-Up",
    "date_created": "2021-09-28T17:00:59.000",
    "date_modified": "2021-09-28T17:00:59.000",
    "request_status": "Pending",
    "responsible_agency": "Department of Sanitation",
    "final_address": "4780 De Montluzin St",
    "address_councildis": "D",
    "status": "Assigned to Contractor",
    "contractor": "Metro Disposal",
    "rowid": "827111",
    "final_x": "3687054.16354",
    "final_y": "550911.954709",
    "longitude": "-90.04984643158691",
    "latitude": "30.0086468810593",
    "geocoded_column": {
      "latitude": "30.0086468810593",
      "longitude": "-90.04984643158691"
    }
  },
  {
    "service_request": "2021-827110",
    "request_type": "Trash/Recycling",
    "request_reason": "Order Trash Cart",
    "date_created": "2021-09-28T17:00:53.000",
    "date_modified": "2021-09-28T17:00:54.000",
    "request_status": "Pending",
    "responsible_agency": "Department of Sanitation",
    "final_address": "1138 Joseph St, New Orleans, Louisiana, 70115",
    "address_councildis": "A",
    "status": "Assigned to Contractor",
    "contractor": "Richards Disposal",
    "rowid": "827110",
    "final_x": "3666351.69844",
    "final_y": "520163.107064",
    "longitude": "-90.11628428528175",
    "latitude": "29.924719117504925",
    "geocoded_column": {
      "latitude": "29.924719117504925",
      "longitude": "-90.11628428528175"
    }
  },
  {
    "service_request": "2021-827109",
    "request_type": "Trash/Recycling",
    "request_reason": "Replace Trash Cart",
    "date_created": "2021-09-28T16:57:02.000",
    "date_modified": "2021-09-28T16:57:03.000",
    "request_status": "Pending",
    "responsible_agency": "Department of Sanitation",
    "final_address": "429 Amethyst St",
    "address_councildis": "D",
    "status": "Assigned to Contractor",
    "contractor": "Metro Disposal",
    "rowid": "827109",
    "final_x": "3667631.67284",
    "final_y": "556678.378138",
    "longitude": "-90.11101421883531",
    "latitude": "30.025086413441702",
    "geocoded_column": {
      "latitude": "30.025086413441702",
      "longitude": "-90.11101421883531"
    }
  },
  {
    "service_request": "2021-827108",
    "request_type": "Traffic Signals/Signs/Striping/Streetlights",
    "request_reason": "Traffic Sign Missing/Damaged",
    "date_created": "2021-09-28T16:53:31.000",
    "date_modified": "2021-09-28T16:53:31.000",
    "request_status": "Pending",
    "responsible_agency": "Department of Public Works",
    "final_address": "ROBERT ST & CLARA ST",
    "address_councildis": "B",
    "status": "Pending",
    "rowid": "827108",
    "final_x": "3668850.3",
    "final_y": "524970.38",
    "longitude": "-90.10823476313902",
    "latitude": "29.937864371986542",
    "geocoded_column": {
      "latitude": "29.937864371986542",
      "longitude": "-90.10823476313902"
    }
  },
  {
    "service_request": "2021-827106",
    "request_type": "Trash/Recycling",
    "request_reason": "Missed Trash Pick-Up",
    "date_created": "2021-09-28T16:52:10.000",
    "date_modified": "2021-09-28T16:52:11.000",
    "request_status": "Pending",
    "responsible_agency": "Department of Sanitation",
    "final_address": "4236 Vincennes Pl",
    "address_councildis": "B",
    "status": "Assigned to Contractor",
    "contractor": "Richards Disposal",
    "rowid": "827106",
    "final_x": "3668789.89908",
    "final_y": "531569.072707",
    "longitude": "-90.1082027122148",
    "latitude": "29.95601040542316",
    "geocoded_column": {
      "latitude": "29.95601040542316",
      "longitude": "-90.1082027122148"
    }
  },
  {
    "service_request": "2021-827105",
    "request_type": "Roads/Drainage",
    "request_reason": "Street Flooding / Drainage",
    "date_created": "2021-09-28T16:51:21.000",
    "date_modified": "2021-09-28T16:51:21.000",
    "request_status": "Pending",
    "responsible_agency": "Department of Public Works",
    "final_address": "260 Oakmont Dr",
    "address_councildis": "E",
    "status": "Pending",
    "rowid": "827105",
    "final_x": "3719996.33516",
    "final_y": "562616.353056",
    "longitude": "-89.94532489844032",
    "latitude": "30.039773548415305",
    "geocoded_column": {
      "latitude": "30.039773548415305",
      "longitude": "-89.94532489844032"
    }
  },
  {
    "service_request": "2021-827104",
    "request_type": "Trash/Recycling",
    "request_reason": "Illegal Dumping",
    "date_created": "2021-09-28T16:50:53.000",
    "date_modified": "2021-09-28T16:50:53.000",
    "request_status": "Pending",
    "responsible_agency": "Department of Sanitation",
    "final_address": "2425 Palmer Ave",
    "address_councildis": "A",
    "status": "Pending",
    "rowid": "827104",
    "final_x": "3666452.93677",
    "final_y": "525718.645757",
    "longitude": "-90.11577836254911",
    "latitude": "29.939992124598245",
    "geocoded_column": {
      "latitude": "29.939992124598245",
      "longitude": "-90.11577836254911"
    }
  },
  {
    "service_request": "2021-827102",
    "request_type": "Roads/Drainage",
    "request_reason": "Catch Basin - Clogged",
    "date_created": "2021-09-28T16:45:42.000",
    "date_modified": "2021-09-28T16:45:42.000",
    "request_status": "Pending",
    "responsible_agency": "Department of Public Works",
    "final_address": "1423 New York St",
    "address_councildis": "D",
    "status": "Pending",
    "rowid": "827102",
    "final_x": "3678010.07483",
    "final_y": "555687.324121",
    "longitude": "-90.07825438285846",
    "latitude": "30.022052877056513",
    "geocoded_column": {
      "latitude": "30.022052877056513",
      "longitude": "-90.07825438285846"
    }
  },
  {
    "service_request": "2021-827101",
    "request_type": "Trash/Recycling",
    "request_reason": "Request a Large Item Pick Up",
    "date_created": "2021-09-28T16:43:58.000",
    "date_modified": "2021-09-28T16:43:59.000",
    "request_status": "Pending",
    "responsible_agency": "Department of Sanitation",
    "final_address": "927 Mazant St",
    "address_councildis": "C",
    "status": "Assigned to Contractor",
    "contractor": "Metro Disposal",
    "rowid": "827101",
    "final_x": "3691996.71728",
    "final_y": "534654.041606",
    "longitude": "-90.03481345053619",
    "latitude": "29.963790322129714",
    "geocoded_column": {
      "latitude": "29.963790322129714",
      "longitude": "-90.03481345053619"
    }
  },
  {
    "service_request": "2021-827099",
    "request_type": "Trash/Recycling",
    "request_reason": "MIssed Recycling Pick-Up",
    "date_created": "2021-09-28T16:37:57.000",
    "date_modified": "2021-09-28T16:37:57.000",
    "request_status": "Pending",
    "responsible_agency": "Department of Sanitation",
    "final_address": "2309 Iberville St, New Orleans, Louisiana, 70119",
    "address_councildis": "B",
    "status": "Assigned to Contractor",
    "contractor": "Richards Disposal",
    "rowid": "827099",
    "final_x": "3676907.40226",
    "final_y": "534519.047429",
    "longitude": "-90.08246872239917",
    "latitude": "29.963880696021",
    "geocoded_column": {
      "latitude": "29.963880696021",
      "longitude": "-90.08246872239917"
    }
  },
  {
    "service_request": "2021-827098",
    "request_type": "Trash/Recycling",
    "request_reason": "MIssed Recycling Pick-Up",
    "date_created": "2021-09-28T16:34:00.000",
    "date_modified": "2021-09-28T16:34:01.000",
    "request_status": "Pending",
    "responsible_agency": "Department of Sanitation",
    "final_address": "509 Olivier St, New Orleans, Louisiana, 70114",
    "address_councildis": "C",
    "status": "Assigned to Contractor",
    "contractor": "Richards Disposal",
    "rowid": "827098",
    "final_x": "3687226.60534",
    "final_y": "529834.844673",
    "longitude": "-90.05004740202222",
    "latitude": "29.950686967732675",
    "geocoded_column": {
      "latitude": "29.950686967732675",
      "longitude": "-90.05004740202222"
    }
  },
  {
    "service_request": "2021-827097",
    "request_type": "Traffic Signals/Signs/Striping/Streetlights",
    "request_reason": "Traffic Signal Malfunctioning/Damaged",
    "date_created": "2021-09-28T16:33:21.000",
    "date_modified": "2021-09-28T16:33:21.000",
    "request_status": "Pending",
    "responsible_agency": "Department of Public Works",
    "final_address": "ESPLANADE AVE & N BROAD ST",
    "address_councildis": "D",
    "status": "Pending",
    "rowid": "827097",
    "final_x": "3678205.46",
    "final_y": "538920.34",
    "longitude": "-90.07821733427264",
    "latitude": "29.975943718140513",
    "geocoded_column": {
      "latitude": "29.975943718140513",
      "longitude": "-90.07821733427264"
    }
  },
  {
    "service_request": "2021-827096",
    "request_type": "Property Maintenance",
    "request_reason": "Property Maintenance",
    "date_created": "2021-09-28T16:33:19.000",
    "date_modified": "2021-09-28T16:33:19.000",
    "request_status": "Pending",
    "responsible_agency": "Department of Code Enforcement",
    "final_address": "8821 Cohn St",
    "address_councildis": "A",
    "status": "Pending",
    "rowid": "827096",
    "final_x": "3661696.84339",
    "final_y": "531996.649731",
    "longitude": "-90.13058608759137",
    "latitude": "29.957392729265322",
    "geocoded_column": {
      "latitude": "29.957392729265322",
      "longitude": "-90.13058608759137"
    }
  },
  {
    "service_request": "2021-827094",
    "request_type": "Trash/Recycling",
    "request_reason": "MIssed Recycling Pick-Up",
    "date_created": "2021-09-28T16:25:37.000",
    "date_modified": "2021-09-28T16:25:38.000",
    "request_status": "Pending",
    "responsible_agency": "Department of Sanitation",
    "final_address": "100 St John Ct J",
    "address_councildis": "A",
    "status": "Assigned to Contractor",
    "contractor": "Richards Disposal",
    "rowid": "827094",
    "final_x": "3674541.18984",
    "final_y": "540065.870347",
    "longitude": "-90.08975090213244",
    "latitude": "29.979203389533037",
    "geocoded_column": {
      "latitude": "29.979203389533037",
      "longitude": "-90.08975090213244"
    }
  },
  {
    "service_request": "2021-827093",
    "request_type": "Traffic Signals/Signs/Striping/Streetlights",
    "request_reason": "Street Light Outage/Malfunction",
    "date_created": "2021-09-28T16:24:27.000",
    "date_modified": "2021-09-28T16:24:28.000",
    "request_status": "Pending",
    "responsible_agency": "Department of Public Works",
    "final_address": "3417 Hamburg St",
    "address_councildis": "D",
    "status": "Pending",
    "contractor": "Royal Engineering",
    "rowid": "827093",
    "final_x": "3679364.43599",
    "final_y": "544890.396879",
    "longitude": "-90.07434978611143",
    "latitude": "29.992324335384282",
    "geocoded_column": {
      "latitude": "29.992324335384282",
      "longitude": "-90.07434978611143"
    }
  },
  {
    "service_request": "2021-827089",
    "request_type": "Abandoned Vehicles",
    "request_reason": "Abandoned/Junk Vehicles",
    "date_created": "2021-09-28T16:19:39.000",
    "date_modified": "2021-09-28T16:19:39.000",
    "request_status": "Pending",
    "responsible_agency": "Department of Public Works",
    "final_address": "1009 Webster St",
    "address_councildis": "A",
    "status": "Pending",
    "rowid": "827089",
    "final_x": "3664431.62541",
    "final_y": "520120.444344",
    "longitude": "-90.12234676516532",
    "latitude": "29.92465774560929",
    "geocoded_column": {
      "latitude": "29.92465774560929",
      "longitude": "-90.12234676516532"
    }
  },
  {
    "service_request": "2021-827088",
    "request_type": "Abandoned Vehicles",
    "request_reason": "Abandoned/Junk Vehicles",
    "date_created": "2021-09-28T16:18:32.000",
    "date_modified": "2021-09-28T16:18:32.000",
    "request_status": "Pending",
    "responsible_agency": "Department of Public Works",
    "final_address": "2373 Rousseau St",
    "address_councildis": "B",
    "status": "Pending",
    "rowid": "827088",
    "final_x": "3679396.57711",
    "final_y": "519706.477432",
    "longitude": "-90.07512178438876",
    "latitude": "29.923076106576467",
    "geocoded_column": {
      "latitude": "29.923076106576467",
      "longitude": "-90.07512178438876"
    }
  },
  {
    "service_request": "2021-827087",
    "request_type": "Trash/Recycling",
    "request_reason": "Missed Trash Pick-Up",
    "date_created": "2021-09-28T16:18:24.000",
    "date_modified": "2021-09-28T16:18:24.000",
    "request_status": "Pending",
    "responsible_agency": "Department of Sanitation",
    "final_address": "2505 Chartres St",
    "address_councildis": "C",
    "status": "Assigned to Contractor",
    "contractor": "Metro Disposal",
    "rowid": "827087",
    "final_x": "3686350.04924",
    "final_y": "534637.14503",
    "longitude": "-90.05264563448803",
    "latitude": "29.963918606689663",
    "geocoded_column": {
      "latitude": "29.963918606689663",
      "longitude": "-90.05264563448803"
    }
  },
  {
    "service_request": "2021-827085",
    "request_type": "Trash/Recycling",
    "request_reason": "Missed Trash Pick-Up",
    "date_created": "2021-09-28T16:16:49.000",
    "date_modified": "2021-09-28T16:16:50.000",
    "request_status": "Pending",
    "responsible_agency": "Department of Sanitation",
    "final_address": "3426 Franklin Ave",
    "address_councildis": "D",
    "status": "Assigned to Contractor",
    "contractor": "Metro Disposal",
    "rowid": "827085",
    "final_x": "3687108.28226",
    "final_y": "545694.923152",
    "longitude": "-90.04986007393968",
    "latitude": "29.994300267618648",
    "geocoded_column": {
      "latitude": "29.994300267618648",
      "longitude": "-90.04986007393968"
    }
  },
  {
    "service_request": "2021-827084",
    "request_type": "Trash/Recycling",
    "request_reason": "Replace Trash Cart",
    "date_created": "2021-09-28T16:15:42.000",
    "date_modified": "2021-09-28T16:16:24.000",
    "request_status": "Pending",
    "responsible_agency": "Department of Sanitation",
    "final_address": "1304 Deslonde St",
    "address_councildis": "E",
    "status": "Assigned to Contractor",
    "contractor": "Metro Disposal",
    "rowid": "827084",
    "final_x": "3695569.15261",
    "final_y": "535210.129158",
    "longitude": "-90.02351203176667",
    "latitude": "29.965207563750464",
    "geocoded_column": {
      "latitude": "29.965207563750464",
      "longitude": "-90.02351203176667"
    }
  },
  {
    "service_request": "2021-827083",
    "request_type": "Property Maintenance",
    "request_reason": "Property Maintenance",
    "date_created": "2021-09-28T16:14:14.000",
    "date_modified": "2021-09-28T16:14:14.000",
    "request_status": "Pending",
    "responsible_agency": "Department of Code Enforcement",
    "final_address": "1517 Harcourt Dr",
    "address_councildis": "D",
    "status": "Pending",
    "rowid": "827083",
    "final_x": "3679001.31624",
    "final_y": "548620.081427",
    "longitude": "-90.07536746883486",
    "latitude": "30.00259061365429",
    "geocoded_column": {
      "latitude": "30.00259061365429",
      "longitude": "-90.07536746883486"
    }
  },
  {
    "service_request": "2021-827082",
    "request_type": "Parks & Parkways",
    "request_reason": "Request Tree Service (Right of Way/Public Property)",
    "date_created": "2021-09-28T16:11:13.000",
    "date_modified": "2021-09-28T16:11:13.000",
    "request_status": "Pending",
    "responsible_agency": "Department of Parks & Parkway",
    "final_address": "1221 Amelia St",
    "address_councildis": "B",
    "status": "Pending",
    "rowid": "827082",
    "final_x": "3673558.54977",
    "final_y": "519705.172216",
    "longitude": "-90.09355026171747",
    "latitude": "29.92324749624304",
    "geocoded_column": {
      "latitude": "29.92324749624304",
      "longitude": "-90.09355026171747"
    }
  },
  {
    "service_request": "2021-827081",
    "request_type": "Trash/Recycling",
    "request_reason": "Missed Trash Pick-Up",
    "date_created": "2021-09-28T16:09:37.000",
    "date_modified": "2021-09-28T16:09:38.000",
    "request_status": "Pending",
    "responsible_agency": "Department of Sanitation",
    "final_address": "1719 Toledano St",
    "address_councildis": "B",
    "status": "Assigned to Contractor",
    "contractor": "Richards Disposal",
    "rowid": "827081",
    "final_x": "3674403.64788",
    "final_y": "522246.697082",
    "longitude": "-90.09079560780958",
    "latitude": "29.930210700280217",
    "geocoded_column": {
      "latitude": "29.930210700280217",
      "longitude": "-90.09079560780958"
    }
  },
  {
    "service_request": "2021-827080",
    "request_type": "Trash/Recycling",
    "request_reason": "Missed Trash Pick-Up",
    "date_created": "2021-09-28T16:05:20.000",
    "date_modified": "2021-09-28T16:05:20.000",
    "request_status": "Pending",
    "responsible_agency": "Department of Sanitation",
    "final_address": "3615 N Miro St",
    "address_councildis": "D",
    "status": "Assigned to Contractor",
    "contractor": "Metro Disposal",
    "rowid": "827080",
    "final_x": "3691920.94569",
    "final_y": "539711.035722",
    "longitude": "-90.03487176348939",
    "latitude": "29.977697627303467",
    "geocoded_column": {
      "latitude": "29.977697627303467",
      "longitude": "-90.03487176348939"
    }
  },
  {
    "service_request": "2021-827079",
    "request_type": "Property Maintenance",
    "request_reason": "Property Maintenance",
    "date_created": "2021-09-28T16:03:19.000",
    "date_modified": "2021-09-28T16:03:19.000",
    "request_status": "Pending",
    "responsible_agency": "Department of Code Enforcement",
    "final_address": "3435 Havana St",
    "address_councildis": "D",
    "status": "Pending",
    "rowid": "827079",
    "final_x": "3680913.25346",
    "final_y": "545161.250191",
    "longitude": "-90.06944793815637",
    "latitude": "29.99302220317762",
    "geocoded_column": {
      "latitude": "29.99302220317762",
      "longitude": "-90.06944793815637"
    }
  },
  {
    "service_request": "2021-827078",
    "request_type": "Traffic Signals/Signs/Striping/Streetlights",
    "request_reason": "Street Light Outage/Malfunction",
    "date_created": "2021-09-28T16:00:28.000",
    "date_modified": "2021-09-28T16:00:29.000",
    "request_status": "Pending",
    "responsible_agency": "Department of Public Works",
    "final_address": "3417 Hamburg St",
    "address_councildis": "D",
    "status": "Pending",
    "contractor": "Royal Engineering",
    "rowid": "827078",
    "final_x": "3679364.43599",
    "final_y": "544890.396879",
    "longitude": "-90.07434978611143",
    "latitude": "29.992324335384282",
    "geocoded_column": {
      "latitude": "29.992324335384282",
      "longitude": "-90.07434978611143"
    }
  },
  {
    "service_request": "2021-827077",
    "request_type": "Trash/Recycling",
    "request_reason": "Damaged Caused By Contractor",
    "date_created": "2021-09-28T15:59:31.000",
    "date_modified": "2021-09-28T15:59:32.000",
    "request_status": "Pending",
    "responsible_agency": "Department of Sanitation",
    "final_address": "4602 Franklin Ave",
    "address_councildis": "D",
    "status": "Assigned to Contractor",
    "contractor": "Metro Disposal",
    "rowid": "827077",
    "final_x": "3686802.65065",
    "final_y": "549714.235284",
    "longitude": "-90.05068339782875",
    "latitude": "30.00536133316424",
    "geocoded_column": {
      "latitude": "30.00536133316424",
      "longitude": "-90.05068339782875"
    }
  },
  {
    "service_request": "2021-827076",
    "request_type": "Trash/Recycling",
    "request_reason": "Order Recycling Cart",
    "date_created": "2021-09-28T15:59:12.000",
    "date_modified": "2021-09-28T15:59:12.000",
    "request_status": "Pending",
    "responsible_agency": "Department of Sanitation",
    "final_address": "1123 Pine St",
    "address_councildis": "A",
    "status": "Pending",
    "rowid": "827076",
    "final_x": "3663865.91181",
    "final_y": "526511.985726",
    "longitude": "-90.12391958745907",
    "latitude": "29.942248889521977",
    "geocoded_column": {
      "latitude": "29.942248889521977",
      "longitude": "-90.12391958745907"
    }
  },
  {
    "service_request": "2021-827075",
    "request_type": "Trash/Recycling",
    "request_reason": "Missed Trash Pick-Up",
    "date_created": "2021-09-28T15:57:28.000",
    "date_modified": "2021-09-28T15:57:29.000",
    "request_status": "Pending",
    "responsible_agency": "Department of Sanitation",
    "final_address": "3252 Frey Pl",
    "address_councildis": "D",
    "status": "Assigned to Contractor",
    "contractor": "Metro Disposal",
    "rowid": "827075",
    "final_x": "3677719.40283",
    "final_y": "544157.037134",
    "longitude": "-90.07957147572897",
    "latitude": "29.99035744936569",
    "geocoded_column": {
      "latitude": "29.99035744936569",
      "longitude": "-90.07957147572897"
    }
  },