[
  {
    "service_request": "2024-1086462",
    "request_type": "Roads/Drainage",
    "request_reason": "Pothole",
    "date_created": "2024-04-19T23:29:11.000",
    "date_modified": "2024-04-19T23:29:11.000",
    "request_status": "Pending",
    "responsible_agency": "Department of Public Works",
    "final_address": "4216 Chestnut St",
    "address_councildis": "B",
    "status": "Pending",
    "rowid": "1086462",
    "final_x": "3671574.31393",
    "final_y": "519539.203703",
    "longitude": "-90.09981939416457",
    "latitude": "29.922850019854593",
    "geocoded_column": {
      "latitude": "29.922850019854593",
      "longitude": "-90.09981939416457"
    }
  },
  {
    "service_request": "2024-1086461",
    "request_type": "Traffic Signals/Signs/Striping/Streetlights",
    "request_reason": "Street Light Outage/Malfunction",
    "date_created": "2024-04-19T22:33:32.000",
    "date_modified": "2024-04-19T22:33:32.000",
    "request_status": "Pending",
    "responsible_agency": "Department of Public Works",
    "final_address": "761 Allen Toussaint Blvd",
    "address_councildis": "D",
    "status": "Assigned to Contractor",
    "contractor": "Legacy Professional Services",
    "rowid": "1086461",
    "final_x": "3669815.87367",
    "final_y": "554760.889368",
    "longitude": "-90.10417746210787",
    "latitude": "30.019749756787952",
    "geocoded_column": {
      "latitude": "30.019749756787952",
      "longitude": "-90.10417746210787"
    }
  },
  {
    "service_request": "2024-1086460",
    "request_type": "Property Maintenance",
    "request_reason": "Property Maintenance",
    "date_created": "2024-04-19T22:02:27.000",
    "date_modified": "2024-04-19T22:02:27.000",
    "request_status": "Pending",
    "responsible_agency": "Department of Code Enforcement",
    "final_address": "2727 Dreux Ave",
    "address_councildis": "D",
    "status": "Pending",
    "rowid": "1086460",
    "final_x": "3687548.82095",
    "final_y": "552342.40943",
    "longitude": "-90.04823296813034",
    "latitude": "30.012564862710217",
    "geocoded_column": {
      "latitude": "30.012564862710217",
      "longitude": "-90.04823296813034"
    }
  },
  {
    "service_request": "2024-1086459",
    "request_type": "Trash/Recycling",
    "request_reason": "Request a Large Item Pick Up",
    "date_created": "2024-04-19T22:01:56.000",
    "date_modified": "2024-04-19T22:01:57.000",
    "request_status": "Pending",
    "responsible_agency": "Department of Sanitation",
    "final_address": "1213 Farragut St",
    "address_councildis": "C",
    "status": "Assigned to Contractor",
    "contractor": "Richards Disposal",
    "rowid": "1086459",
    "final_x": "3692321.4463",
    "final_y": "526781.950462",
    "longitude": "-90.03406987018165",
    "latitude": "29.94213468282112",
    "geocoded_column": {
      "latitude": "29.94213468282112",
      "longitude": "-90.03406987018165"
    }
  },
  {
    "service_request": "2024-1086458",
    "request_type": "Abandoned Vehicles",
    "request_reason": "Abandoned/Junk Vehicles",
    "date_created": "2024-04-19T22:00:09.000",
    "date_modified": "2024-04-19T22:00:09.000",
    "request_status": "Pending",
    "responsible_agency": "Department of Public Works",
    "final_address": "2721 Dreux Ave",
    "address_councildis": "D",
    "status": "Pending",
    "rowid": "1086458",
    "final_x": "3687502.32982",
    "final_y": "552337.165078",
    "longitude": "-90.04838003981193",
    "latitude": "30.012551876287432",
    "geocoded_column": {
      "latitude": "30.012551876287432",
      "longitude": "-90.04838003981193"
    }
  },
  {
    "service_request": "2024-1086457",
    "request_type": "Traffic Signals/Signs/Striping/Streetlights",
    "request_reason": "Street Light Outage/Malfunction",
    "date_created": "2024-04-19T20:49:39.000",
    "date_modified": "2024-04-19T20:49:39.000",
    "request_status": "Pending",
    "responsible_agency": "Department of Public Works",
    "final_address": "2417 Spain St",
    "address_councildis": "D",
    "status": "Assigned to Contractor",
    "contractor": "Legacy Professional Services",
    "rowid": "1086457",
    "final_x": "3685780.24239",
    "final_y": "541335.49742",
    "longitude": "-90.05420889514582",
    "latitude": "29.982354233362766",
    "geocoded_column": {
      "latitude": "29.982354233362766",
      "longitude": "-90.05420889514582"
    }
  },
  {
    "service_request": "2024-1086456",
    "request_type": "Property Maintenance",
    "request_reason": "Property Maintenance",
    "date_created": "2024-04-19T20:45:24.000",
    "date_modified": "2024-04-19T20:45:24.000",
    "request_status": "Pending",
    "responsible_agency": "Department of Code Enforcement",
    "final_address": "15512 Dwyer Blvd",
    "address_councildis": "E",
    "status": "Pending",
    "rowid": "1086456",
    "final_x": "3730930.49024",
    "final_y": "563675.772577",
    "longitude": "-89.91072860062704",
    "latitude": "30.042317787673415",
    "geocoded_column": {
      "latitude": "30.042317787673415",
      "longitude": "-89.91072860062704"
    }
  },
  {
    "service_request": "2024-1086455",
    "request_type": "Traffic Signals/Signs/Striping/Streetlights",
    "request_reason": "Street Light Outage/Malfunction",
    "date_created": "2024-04-19T20:42:54.000",
    "date_modified": "2024-04-19T20:42:54.000",
    "request_status": "Pending",
    "responsible_agency": "Department of Public Works",
    "final_address": "2417 Spain St",
    "address_councildis": "D",
    "status": "Assigned to Contractor",
    "contractor": "Legacy Professional Services",
    "rowid": "1086455",
    "final_x": "3685780.24239",
    "final_y": "541335.49742",
    "longitude": "-90.05420889514582",
    "latitude": "29.982354233362766",
    "geocoded_column": {
      "latitude": "29.982354233362766",
      "longitude": "-90.05420889514582"
    }
  },
  {
    "service_request": "2024-1086454",
    "request_type": "Property Maintenance",
    "request_reason": "Property Maintenance",
    "date_created": "2024-04-19T19:48:32.000",
    "date_modified": "2024-04-19T19:48:32.000",
    "request_status": "Pending",
    "responsible_agency": "Department of Code Enforcement",
    "final_address": "1910 First St",
    "address_councildis": "B",
    "status": "Pending",
    "rowid": "1086454",
    "final_x": "3676271.81269",
    "final_y": "524178.616316",
    "longitude": "-90.08483165333699",
    "latitude": "29.93546701227049",
    "geocoded_column": {
      "latitude": "29.93546701227049",
      "longitude": "-90.08483165333699"
    }
  },
  {
    "service_request": "2024-1086453",
    "request_type": "Health Related Request",
    "request_reason": "Noise Ordinance Complaint",
    "date_created": "2024-04-19T19:41:28.000",
    "date_modified": "2024-04-19T19:41:28.000",
    "request_status": "Pending",
    "responsible_agency": "Health Department",
    "final_address": "3111 Grand-Route St John St",
    "address_councildis": "A",
    "status": "Pending",
    "rowid": "1086453",
    "final_x": "3676507.66805",
    "final_y": "540406.357323",
    "longitude": "-90.0835282619005",
    "latitude": "29.980080781175236",
    "geocoded_column": {
      "latitude": "29.980080781175236",
      "longitude": "-90.0835282619005"
    }
  },
  {
    "service_request": "2024-1086452",
    "request_type": "Trash/Recycling",
    "request_reason": "Illegal Dumping",
    "date_created": "2024-04-19T19:34:29.000",
    "date_modified": "2024-04-19T19:34:29.000",
    "request_status": "Pending",
    "responsible_agency": "Department of Sanitation",
    "final_address": "GREEN ST & GENERAL OGDEN ST",
    "address_councildis": "A",
    "status": "Pending",
    "rowid": "1086452",
    "final_x": "3661050.8",
    "final_y": "531574.98",
    "longitude": "-90.132640062209",
    "latitude": "29.956251904127978",
    "geocoded_column": {
      "latitude": "29.956251904127978",
      "longitude": "-90.132640062209"
    }
  },
  {
    "service_request": "2024-1086451",
    "request_type": "Roads/Drainage",
    "request_reason": "Service Cut",
    "date_created": "2024-04-19T19:02:27.000",
    "date_modified": "2024-04-19T19:02:27.000",
    "request_status": "Pending",
    "responsible_agency": "Department of Public Works",
    "final_address": "6700 Foch Rd",
    "address_councildis": "D",
    "status": "Pending",
    "rowid": "1086451",
    "final_x": "3696707.32131",
    "final_y": "555893.339545",
    "longitude": "-90.01916866124411",
    "latitude": "30.02204297003574",
    "geocoded_column": {
      "latitude": "30.02204297003574",
      "longitude": "-90.01916866124411"
    }
  },
  {
    "service_request": "2024-1086450",
    "request_type": "Roads/Drainage",
    "request_reason": "Accessibility Ramps, Curbs and Sidewalk Repair",
    "date_created": "2024-04-19T18:44:39.000",
    "date_modified": "2024-04-19T18:44:39.000",
    "request_status": "Pending",
    "responsible_agency": "Department of Public Works",
    "final_address": "6744 Foch Rd",
    "address_councildis": "D",
    "status": "Pending",
    "rowid": "1086450",
    "final_x": "3696611.27901",
    "final_y": "556192.58025",
    "longitude": "-90.01946128717911",
    "latitude": "30.022868796797415",
    "geocoded_column": {
      "latitude": "30.022868796797415",
      "longitude": "-90.01946128717911"
    }
  },
  {
    "service_request": "2024-1086448",
    "request_type": "Trash/Recycling",
    "request_reason": "Request a Large Item Pick Up",
    "date_created": "2024-04-19T18:24:14.000",
    "date_modified": "2024-04-19T18:24:14.000",
    "request_status": "Pending",
    "responsible_agency": "Department of Sanitation",
    "final_address": "433 Atlantic Ave",
    "address_councildis": "C",
    "status": "Assigned to Contractor",
    "contractor": "Richards Disposal",
    "rowid": "1086448",
    "final_x": "3688760.7583",
    "final_y": "530009.615425",
    "longitude": "-90.04519714335439",
    "latitude": "29.95112019404112",
    "geocoded_column": {
      "latitude": "29.95112019404112",
      "longitude": "-90.04519714335439"
    }
  },
  {
    "service_request": "2024-1086447",
    "request_type": "Abandoned Vehicles",
    "request_reason": "Abandoned/Junk Vehicles",
    "date_created": "2024-04-19T18:05:51.000",
    "date_modified": "2024-04-19T18:05:51.000",
    "request_status": "Pending",
    "responsible_agency": "Department of Public Works",
    "final_address": "206 S Solomon St, New Orleans, Louisiana, 70119",
    "address_councildis": "A",
    "status": "Pending",
    "rowid": "1086447",
    "final_x": "3670313.75041",
    "final_y": "538304.480329",
    "longitude": "-90.10316256705549",
    "latitude": "29.97448564099346",
    "geocoded_column": {
      "latitude": "29.97448564099346",
      "longitude": "-90.10316256705549"
    }
  },
  {
    "service_request": "2024-1086446",
    "request_type": "Abandoned Vehicles",
    "request_reason": "Abandoned/Junk Vehicles",
    "date_created": "2024-04-19T17:44:39.000",
    "date_modified": "2024-04-19T17:44:39.000",
    "request_status": "Pending",
    "responsible_agency": "Department of Public Works",
    "final_address": "2ND ST & LOYOLA AVE",
    "address_councildis": "B",
    "status": "Pending",
    "rowid": "1086446",
    "final_x": "3675514.2",
    "final_y": "524830.68",
    "longitude": "-90.08720105652469",
    "latitude": "29.93728265075417",
    "geocoded_column": {
      "latitude": "29.93728265075417",
      "longitude": "-90.08720105652469"
    }
  },
  {
    "service_request": "2024-1086445",
    "request_type": "Roads/Drainage",
    "request_reason": "Man hole cover issue",
    "date_created": "2024-04-19T17:42:37.000",
    "date_modified": "2024-04-19T17:42:37.000",
    "request_status": "Pending",
    "responsible_agency": "Department of Public Works",
    "final_address": "LEAKE AVE & BROADWAY ST",
    "address_councildis": "A",
    "status": "Pending",
    "rowid": "1086445",
    "final_x": "3660855.01",
    "final_y": "521586.33",
    "longitude": "-90.13358855105726",
    "latitude": "29.92879192668333",
    "geocoded_column": {
      "latitude": "29.92879192668333",
      "longitude": "-90.13358855105726"
    }
  },
  {
    "service_request": "2024-1086443",
    "request_type": "Roads/Drainage",
    "request_reason": "Pothole",
    "date_created": "2024-04-19T17:20:36.000",
    "date_modified": "2024-04-19T17:20:36.000",
    "request_status": "Pending",
    "responsible_agency": "Department of Public Works",
    "final_address": "800 BLK Sixth St",
    "address_councildis": "B",
    "status": "Pending",
    "rowid": "1086443",
    "final_x": "3677129.31106",
    "final_y": "519777.306034",
    "longitude": "-90.0822762325491",
    "latitude": "29.923339123912648",
    "geocoded_column": {
      "latitude": "29.923339123912648",
      "longitude": "-90.0822762325491"
    }
  },
  {
    "service_request": "2024-1086442",
    "request_type": "Property Maintenance",
    "request_reason": "Property Maintenance",
    "date_created": "2024-04-19T17:09:57.000",
    "date_modified": "2024-04-19T17:09:57.000",
    "request_status": "Pending",
    "responsible_agency": "Department of Code Enforcement",
    "final_address": "1745 Nie Prkwy",
    "address_councildis": "C",
    "status": "Pending",
    "rowid": "1086442",
    "final_x": "3701109.46225",
    "final_y": "524316.263996",
    "longitude": "-90.00641453254765",
    "latitude": "29.935077985739767",
    "geocoded_column": {
      "latitude": "29.935077985739767",
      "longitude": "-90.00641453254765"
    }
  },
  {
    "service_request": "2024-1086441",
    "request_type": "Trash/Recycling",
    "request_reason": "Replace Recycling Cart",
    "date_created": "2024-04-19T17:04:54.000",
    "date_modified": "2024-04-19T17:04:54.000",
    "request_status": "Pending",
    "responsible_agency": "Department of Sanitation",
    "final_address": "1240 Kentucky st",
    "address_councildis": "D",
    "status": "Pending",
    "rowid": "1086441",
    "final_x": "3693457.02115",
    "final_y": "535636.23079",
    "longitude": "-90.03016669857539",
    "latitude": "29.96644541128934",
    "geocoded_column": {
      "latitude": "29.96644541128934",
      "longitude": "-90.03016669857539"
    }
  },
  {
    "service_request": "2024-1086440",
    "request_type": "Trash/Recycling",
    "request_reason": "Return Trash Cart",
    "date_created": "2024-04-19T17:02:59.000",
    "date_modified": "2024-04-19T17:03:00.000",
    "request_status": "Pending",
    "responsible_agency": "Department of Sanitation",
    "final_address": "3217 Cadiz St",
    "address_councildis": "B",
    "status": "Assigned to Contractor",
    "contractor": "IV Waste",
    "rowid": "1086440",
    "final_x": "3669554.59156",
    "final_y": "526666.726654",
    "longitude": "-90.1059538843088",
    "latitude": "29.94250805254452",
    "geocoded_column": {
      "latitude": "29.94250805254452",
      "longitude": "-90.1059538843088"
    }
  },
  {
    "service_request": "2024-1086439",
    "request_type": "Trash/Recycling",
    "request_reason": "Request a Large Item Pick Up",
    "date_created": "2024-04-19T16:58:54.000",
    "date_modified": "2024-04-19T16:58:55.000",
    "request_status": "Pending",
    "responsible_agency": "Department of Sanitation",
    "final_address": "7724 Mayo Rd",
    "address_councildis": "E",
    "status": "Assigned to Contractor",
    "contractor": "Waste Pro",
    "rowid": "1086439",
    "final_x": "3700539.72874",
    "final_y": "561152.35747",
    "longitude": "-90.00686693823988",
    "latitude": "30.036381825939433",
    "geocoded_column": {
      "latitude": "30.036381825939433",
      "longitude": "-90.00686693823988"
    }
  },
  {
    "service_request": "2024-1086438",
    "request_type": "Trash/Recycling",
    "request_reason": "Dead Animal Pick Up",
    "date_created": "2024-04-19T16:56:55.000",
    "date_modified": "2024-04-19T16:56:56.000",
    "request_status": "Pending",
    "responsible_agency": "Department of Sanitation",
    "final_address": "3017 N Prieur St",
    "address_councildis": "D",
    "status": "Assigned to Contractor",
    "contractor": "IV Waste",
    "rowid": "1086438",
    "final_x": "3689360.79401",
    "final_y": "539186.908426",
    "longitude": "-90.04297621584928",
    "latitude": "29.976335986081608",
    "geocoded_column": {
      "latitude": "29.976335986081608",
      "longitude": "-90.04297621584928"
    }
  },
  {
    "service_request": "2024-1086437",
    "request_type": "Trash/Recycling",
    "request_reason": "Missed Trash Pick-Up",
    "date_created": "2024-04-19T16:53:45.000",
    "date_modified": "2024-04-19T16:53:46.000",
    "request_status": "Pending",
    "responsible_agency": "Department of Sanitation",
    "final_address": "4957 Chantilly Dr",
    "address_councildis": "E",
    "status": "Assigned to Contractor",
    "contractor": "Waste Pro",
    "rowid": "1086437",
    "final_x": "3700838.95633",
    "final_y": "555471.063897",
    "longitude": "-90.00612928265917",
    "latitude": "30.020750933229035",
    "geocoded_column": {
      "latitude": "30.020750933229035",
      "longitude": "-90.00612928265917"
    }
  },
  {
    "service_request": "2024-1086436",
    "request_type": "Parks & Parkways",
    "request_reason": "Request Tree Service (Right of Way/Public Property)",
    "date_created": "2024-04-19T16:51:35.000",
    "date_modified": "2024-04-19T16:51:36.000",
    "request_status": "Pending",
    "responsible_agency": "Department of Parks & Parkway",
    "final_address": "2322 Behrman Hwy",
    "address_councildis": "C",
    "status": "Pending",
    "rowid": "1086436",
    "final_x": "3691874.06243",
    "final_y": "521637.979449",
    "longitude": "-90.03566627808183",
    "latitude": "29.928004453753775",
    "geocoded_column": {
      "latitude": "29.928004453753775",
      "longitude": "-90.03566627808183"
    }
  },
  {
    "service_request": "2024-1086435",
    "request_type": "Trash/Recycling",
    "request_reason": "Illegal Dumping",
    "date_created": "2024-04-19T16:41:07.000",
    "date_modified": "2024-04-19T16:41:07.000",
    "request_status": "Pending",
    "responsible_agency": "Department of Sanitation",
    "final_address": "3300 BLK First St",
    "address_councildis": "B",
    "status": "Pending",
    "rowid": "1086435",
    "final_x": "3673517.53416",
    "final_y": "528408.872104",
    "longitude": "-90.09338242451246",
    "latitude": "29.9471810633713",
    "geocoded_column": {
      "latitude": "29.9471810633713",
      "longitude": "-90.09338242451246"
    }
  },
  {
    "service_request": "2024-1086434",
    "request_type": "Trash/Recycling",
    "request_reason": "Request a Large Item Pick Up",
    "date_created": "2024-04-19T16:38:48.000",
    "date_modified": "2024-04-19T16:38:49.000",
    "request_status": "Pending",
    "responsible_agency": "Department of Sanitation",
    "final_address": "14559 Tilbury Rd",
    "address_councildis": "E",
    "status": "Assigned to Contractor",
    "contractor": "Waste Pro",
    "rowid": "1086434",
    "final_x": "3720942.43686",
    "final_y": "573301.61713",
    "longitude": "-89.94192490866105",
    "latitude": "30.06912203512933",
    "geocoded_column": {
      "latitude": "30.06912203512933",
      "longitude": "-89.94192490866105"
    }
  },
  {
    "service_request": "2024-1086433",
    "request_type": "Trash/Recycling",
    "request_reason": "Repair Trash Cart",
    "date_created": "2024-04-19T16:34:46.000",
    "date_modified": "2024-04-19T16:34:46.000",
    "request_status": "Pending",
    "responsible_agency": "Department of Sanitation",
    "final_address": "2524 Milan St",
    "address_councildis": "B",
    "status": "Assigned to Contractor",
    "contractor": "IV Waste",
    "rowid": "1086433",
    "final_x": "3671216.05255",
    "final_y": "524332.710012",
    "longitude": "-90.10078752530576",
    "latitude": "29.936041223880583",
    "geocoded_column": {
      "latitude": "29.936041223880583",
      "longitude": "-90.10078752530576"
    }
  },
  {
    "service_request": "2024-1086432",
    "request_type": "Trash/Recycling",
    "request_reason": "Replace Trash Cart",
    "date_created": "2024-04-19T16:28:41.000",
    "date_modified": "2024-04-19T16:28:41.000",
    "request_status": "Pending",
    "responsible_agency": "Department of Sanitation",
    "final_address": "1717 Frenchmen St",
    "address_councildis": "D",
    "status": "Assigned to Contractor",
    "contractor": "IV Waste",
    "rowid": "1086432",
    "final_x": "3684434.24213",
    "final_y": "538618.513929",
    "longitude": "-90.05855568884678",
    "latitude": "29.97492472815723",
    "geocoded_column": {
      "latitude": "29.97492472815723",
      "longitude": "-90.05855568884678"
    }
  },
  {
    "service_request": "2024-1086431",
    "request_type": "Trash/Recycling",
    "request_reason": "Request a Large Item Pick Up",
    "date_created": "2024-04-19T16:26:28.000",
    "date_modified": "2024-04-19T16:26:29.000",
    "request_status": "Pending",
    "responsible_agency": "Department of Sanitation",
    "final_address": "7511 Eastmore Rd",
    "address_councildis": "E",
    "status": "Assigned to Contractor",
    "contractor": "Waste Pro",
    "rowid": "1086431",
    "final_x": "3700407.11415",
    "final_y": "560251.502173",
    "longitude": "-90.00731896953855",
    "latitude": "30.033909044392352",
    "geocoded_column": {
      "latitude": "30.033909044392352",
      "longitude": "-90.00731896953855"
    }
  },
  {
    "service_request": "2024-1086430",
    "request_type": "Trash/Recycling",
    "request_reason": "Replace Trash Cart",
    "date_created": "2024-04-19T16:26:12.000",
    "date_modified": "2024-04-19T16:26:12.000",
    "request_status": "Pending",
    "responsible_agency": "Department of Sanitation",
    "final_address": "3415 Louisiana Avenue Pkwy, New Orleans, Louisiana, 70125",
    "status": "Assigned to Contractor",
    "rowid": "1086430",
    "longitude": "0.0",
    "latitude": "0.0",
    "geocoded_column": {
      "latitude": "0.0",
      "longitude": "0.0"
    }
  },
  {
    "service_request": "2024-1086428",
    "request_type": "Trash/Recycling",
    "request_reason": "Request a Large Item Pick Up",
    "date_created": "2024-04-19T16:15:23.000",
    "date_modified": "2024-04-19T16:16:02.000",
    "request_status": "Pending",
    "responsible_agency": "Department of Sanitation",
    "final_address": "4965 Camelia St",
    "address_councildis": "E",
    "status": "Assigned to Contractor",
    "contractor": "Waste Pro",
    "rowid": "1086428",
    "final_x": "3701471.6474",
    "final_y": "555508.503129",
    "longitude": "-90.00412880647332",
    "latitude": "30.0208337113944",
    "geocoded_column": {
      "latitude": "30.0208337113944",
      "longitude": "-90.00412880647332"
    }
  },
  {
    "service_request": "2024-1086427",
    "request_type": "Trash/Recycling",
    "request_reason": "Replace Recycling Cart",
    "date_created": "2024-04-19T16:08:59.000",
    "date_modified": "2024-04-19T16:08:59.000",
    "request_status": "Pending",
    "responsible_agency": "Department of Sanitation",
    "final_address": "5415 Bellaire Dr",
    "address_councildis": "A",
    "status": "Pending",
    "rowid": "1086427",
    "final_x": "3664075.03303",
    "final_y": "543747.530894",
    "longitude": "-90.12268439979964",
    "latitude": "29.98963489841442",
    "geocoded_column": {
      "latitude": "29.98963489841442",
      "longitude": "-90.12268439979964"
    }
  },
  {
    "service_request": "2024-1086426",
    "request_type": "Trash/Recycling",
    "request_reason": "Request a Large Item Pick Up",
    "date_created": "2024-04-19T16:08:51.000",
    "date_modified": "2024-04-19T16:09:24.000",
    "request_status": "Pending",
    "responsible_agency": "Department of Sanitation",
    "final_address": "314 S Olympia St",
    "address_councildis": "A",
    "status": "Assigned to Contractor",
    "contractor": "IV Waste",
    "rowid": "1086426",
    "final_x": "3668879.35079",
    "final_y": "538847.749449",
    "longitude": "-90.10767440757911",
    "latitude": "29.976021714161657",
    "geocoded_column": {
      "latitude": "29.976021714161657",
      "longitude": "-90.10767440757911"
    }
  },
  {
    "service_request": "2024-1086424",
    "request_type": "Trash/Recycling",
    "request_reason": "Request a Large Item Pick Up",
    "date_created": "2024-04-19T16:07:05.000",
    "date_modified": "2024-04-19T16:07:05.000",
    "request_status": "Pending",
    "responsible_agency": "Department of Sanitation",
    "final_address": "4936 Mirabeau Ave",
    "address_councildis": "D",
    "status": "Assigned to Contractor",
    "contractor": "IV Waste",
    "rowid": "1086424",
    "final_x": "3692040.7103",
    "final_y": "551964.279574",
    "longitude": "-90.03405468585083",
    "latitude": "30.011385859489266",
    "geocoded_column": {
      "latitude": "30.011385859489266",
      "longitude": "-90.03405468585083"
    }
  },
  {
    "service_request": "2024-1086423",
    "request_type": "Roads/Drainage",
    "request_reason": "Pothole",
    "date_created": "2024-04-19T16:05:42.000",
    "date_modified": "2024-04-19T16:05:42.000",
    "request_status": "Pending",
    "responsible_agency": "Department of Public Works",
    "final_address": "5725 Canal Blvd",
    "address_councildis": "A",
    "status": "Pending",
    "rowid": "1086423",
    "final_x": "3668442.10318",
    "final_y": "545619.71528",
    "longitude": "-90.10882680448029",
    "latitude": "29.994655169761177",
    "geocoded_column": {
      "latitude": "29.994655169761177",
      "longitude": "-90.10882680448029"
    }
  },
  {
    "service_request": "2024-1086422",
    "request_type": "Trash/Recycling",
    "request_reason": "Order Recycling Cart",
    "date_created": "2024-04-19T16:04:59.000",
    "date_modified": "2024-04-19T16:04:59.000",
    "request_status": "Pending",
    "responsible_agency": "Department of Sanitation",
    "final_address": "2041 S Chippewa St",
    "address_councildis": "B",
    "status": "Pending",
    "rowid": "1086422",
    "final_x": "3680305.19963",
    "final_y": "521052.262841",
    "longitude": "-90.07220685898443",
    "latitude": "29.92674911111749",
    "geocoded_column": {
      "latitude": "29.92674911111749",
      "longitude": "-90.07220685898443"
    }
  },
  {
    "service_request": "2024-1086421",
    "request_type": "Trash/Recycling",
    "request_reason": "Order Recycling Cart",
    "date_created": "2024-04-19T16:04:42.000",
    "date_modified": "2024-04-19T16:04:43.000",
    "request_status": "Pending",
    "responsible_agency": "Department of Sanitation",
    "final_address": "2045 S Chippewa St",
    "address_councildis": "B",
    "status": "Pending",
    "rowid": "1086421",
    "final_x": "3680300.54267",
    "final_y": "521036.119609",
    "longitude": "-90.07222212061116",
    "latitude": "29.926704863448744",
    "geocoded_column": {
      "latitude": "29.926704863448744",
      "longitude": "-90.07222212061116"
    }
  },
  {
    "service_request": "2024-1086420",
    "request_type": "Trash/Recycling",
    "request_reason": "Order Trash Cart",
    "date_created": "2024-04-19T16:04:26.000",
    "date_modified": "2024-04-19T16:04:26.000",
    "request_status": "Pending",
    "responsible_agency": "Department of Sanitation",
    "final_address": "2045 S Chippewa St",
    "address_councildis": "B",
    "status": "Assigned to Contractor",
    "contractor": "IV Waste",
    "rowid": "1086420",
    "final_x": "3680300.54267",
    "final_y": "521036.119609",
    "longitude": "-90.07222212061116",
    "latitude": "29.926704863448744",
    "geocoded_column": {
      "latitude": "29.926704863448744",
      "longitude": "-90.07222212061116"
    }
  },
  {
    "service_request": "2024-1086419",
    "request_type": "Trash/Recycling",
    "request_reason": "Order Trash Cart",
    "date_created": "2024-04-19T16:03:57.000",
    "date_modified": "2024-04-19T16:03:58.000",
    "request_status": "Pending",
    "responsible_agency": "Department of Sanitation",
    "final_address": "2041 S Chippewa St",
    "address_councildis": "B",
    "status": "Assigned to Contractor",
    "contractor": "IV Waste",
    "rowid": "1086419",
    "final_x": "3680305.19963",
    "final_y": "521052.262841",
    "longitude": "-90.07220685898443",
    "latitude": "29.92674911111749",
    "geocoded_column": {
      "latitude": "29.92674911111749",
      "longitude": "-90.07220685898443"
    }
  },
  {
    "service_request": "2024-1086417",
    "request_type": "Trash/Recycling",
    "request_reason": "Replace Trash Cart",
    "date_created": "2024-04-19T15:57:44.000",
    "date_modified": "2024-04-19T15:57:45.000",
    "request_status": "Pending",
    "responsible_agency": "Department of Sanitation",
    "final_address": "5101 N Rampart St",
    "address_councildis": "E",
    "status": "Assigned to Contractor",
    "contractor": "Waste Pro",
    "rowid": "1086417",
    "final_x": "3696166.77526",
    "final_y": "533790.915717",
    "longitude": "-90.02167608448386",
    "latitude": "29.961286432255665",
    "geocoded_column": {
      "latitude": "29.961286432255665",
      "longitude": "-90.02167608448386"
    }
  },
  {
    "service_request": "2024-1086416",
    "request_type": "Trash/Recycling",
    "request_reason": "Request a Large Item Pick Up",
    "date_created": "2024-04-19T15:55:38.000",
    "date_modified": "2024-04-19T15:55:39.000",
    "request_status": "Pending",
    "responsible_agency": "Department of Sanitation",
    "final_address": "6619 West End Blvd",
    "address_councildis": "A",
    "status": "Assigned to Contractor",
    "contractor": "IV Waste",
    "rowid": "1086416",
    "final_x": "3666795.60781",
    "final_y": "551911.014806",
    "longitude": "-90.11381639071321",
    "latitude": "30.012002343002166",
    "geocoded_column": {
      "latitude": "30.012002343002166",
      "longitude": "-90.11381639071321"
    }
  },
  {
    "service_request": "2024-1086415",
    "request_type": "Trash/Recycling",
    "request_reason": "Order Trash Cart",
    "date_created": "2024-04-19T15:50:07.000",
    "date_modified": "2024-04-19T15:50:07.000",
    "request_status": "Pending",
    "responsible_agency": "Department of Sanitation",
    "final_address": "1932 Ap Tureaud Ave",
    "address_councildis": "D",
    "status": "Assigned to Contractor",
    "contractor": "IV Waste",
    "rowid": "1086415",
    "final_x": "3681657.0278",
    "final_y": "539365.763914",
    "longitude": "-90.0673007571682",
    "latitude": "29.97706407057423",
    "geocoded_column": {
      "latitude": "29.97706407057423",
      "longitude": "-90.0673007571682"
    }
  },
  {
    "service_request": "2024-1086414",
    "request_type": "Trash/Recycling",
    "request_reason": "Request a Large Item Pick Up",
    "date_created": "2024-04-19T15:46:56.000",
    "date_modified": "2024-04-19T15:46:57.000",
    "request_status": "Pending",
    "responsible_agency": "Department of Sanitation",
    "final_address": "322 Alix St",
    "address_councildis": "C",
    "status": "Assigned to Contractor",
    "contractor": "Richards Disposal",
    "rowid": "1086414",
    "final_x": "3686540.80905",
    "final_y": "530085.101249",
    "longitude": "-90.05220395578007",
    "latitude": "29.951396189025203",
    "geocoded_column": {
      "latitude": "29.951396189025203",
      "longitude": "-90.05220395578007"
    }
  },
  {
    "service_request": "2024-1086413",
    "request_type": "Trash/Recycling",
    "request_reason": "Request a Large Item Pick Up",
    "date_created": "2024-04-19T15:44:56.000",
    "date_modified": "2024-04-19T15:44:56.000",
    "request_status": "Pending",
    "responsible_agency": "Department of Sanitation",
    "final_address": "322 Alix St",
    "address_councildis": "C",
    "status": "Assigned to Contractor",
    "contractor": "Richards Disposal",
    "rowid": "1086413",
    "final_x": "3686540.80905",
    "final_y": "530085.101249",
    "longitude": "-90.05220395578007",
    "latitude": "29.951396189025203",
    "geocoded_column": {
      "latitude": "29.951396189025203",
      "longitude": "-90.05220395578007"
    }
  },
  {
    "service_request": "2024-1086412",
    "request_type": "Roads/Drainage",
    "request_reason": "Catch Basin - Broken/Damage",
    "date_created": "2024-04-19T15:44:10.000",
    "date_modified": "2024-04-19T15:44:10.000",
    "request_status": "Pending",
    "responsible_agency": "Department of Public Works",
    "final_address": "5500 S Claiborne Ave",
    "address_councildis": "A",
    "status": "Pending",
    "rowid": "1086412",
    "final_x": "3668041.35585",
    "final_y": "526365.863742",
    "longitude": "-90.11074166711217",
    "latitude": "29.941725259888106",
    "geocoded_column": {
      "latitude": "29.941725259888106",
      "longitude": "-90.11074166711217"
    }
  },
  {
    "service_request": "2024-1086411",
    "request_type": "Trash/Recycling",
    "request_reason": "Request a Large Item Pick Up",
    "date_created": "2024-04-19T15:42:01.000",
    "date_modified": "2024-04-19T15:42:02.000",
    "request_status": "Pending",
    "responsible_agency": "Department of Sanitation",
    "final_address": "320 Alix St",
    "address_councildis": "C",
    "status": "Assigned to Contractor",
    "contractor": "Richards Disposal",
    "rowid": "1086411",
    "final_x": "3686532.61436",
    "final_y": "530078.590081",
    "longitude": "-90.05223006039935",
    "latitude": "29.95137853746635",
    "geocoded_column": {
      "latitude": "29.95137853746635",
      "longitude": "-90.05223006039935"
    }
  },
  {
    "service_request": "2024-1086410",
    "request_type": "Trash/Recycling",
    "request_reason": "Request a Large Item Pick Up",
    "date_created": "2024-04-19T15:41:36.000",
    "date_modified": "2024-04-19T15:41:37.000",
    "request_status": "Pending",
    "responsible_agency": "Department of Sanitation",
    "final_address": "1518 Mystery St",
    "address_councildis": "A",
    "status": "Assigned to Contractor",
    "contractor": "IV Waste",
    "rowid": "1086410",
    "final_x": "3676145.24917",
    "final_y": "540930.413387",
    "longitude": "-90.0846548958662",
    "latitude": "29.981532619219248",
    "geocoded_column": {
      "latitude": "29.981532619219248",
      "longitude": "-90.0846548958662"
    }
  },
  {
    "service_request": "2024-1086409",
    "request_type": "Trash/Recycling",
    "request_reason": "Request a Large Item Pick Up",
    "date_created": "2024-04-19T15:39:36.000",
    "date_modified": "2024-04-19T15:39:36.000",
    "request_status": "Pending",
    "responsible_agency": "Department of Sanitation",
    "final_address": "320 Alix St",
    "address_councildis": "C",
    "status": "Assigned to Contractor",
    "contractor": "Richards Disposal",
    "rowid": "1086409",
    "final_x": "3686532.61436",
    "final_y": "530078.590081",
    "longitude": "-90.05223006039935",
    "latitude": "29.95137853746635",
    "geocoded_column": {
      "latitude": "29.95137853746635",
      "longitude": "-90.05223006039935"
    }
  },
  {
    "service_request": "2024-1086408",
    "request_type": "Trash/Recycling",
    "request_reason": "Request a Large Item Pick Up",
    "date_created": "2024-04-19T15:36:16.000",
    "date_modified": "2024-04-19T15:36:17.000",
    "request_status": "Pending",
    "responsible_agency": "Department of Sanitation",
    "final_address": "320 Alix St",
    "address_councildis": "C",
    "status": "Assigned to Contractor",
    "contractor": "Richards Disposal",
    "rowid": "1086408",
    "final_x": "3686532.61436",
    "final_y": "530078.590081",
    "longitude": "-90.05223006039935",
    "latitude": "29.95137853746635",
    "geocoded_column": {
      "latitude": "29.95137853746635",
      "longitude": "-90.05223006039935"
    }
  },
  {
    "service_request": "2024-1086407",
    "request_type": "Trash/Recycling",
    "request_reason": "Return Trash Cart",
    "date_created": "2024-04-19T15:33:32.000",
    "date_modified": "2024-04-19T15:33:33.000",
    "request_status": "Pending",
    "responsible_agency": "Department of Sanitation",
    "final_address": "6125 Camp St",
    "address_councildis": "A",
    "status": "Assigned to Contractor",
    "contractor": "IV Waste",
    "rowid": "1086407",
    "final_x": "3664070.79085",
    "final_y": "519883.983224",
    "longitude": "-90.12349368511263",
    "latitude": "29.924018032566316",
    "geocoded_column": {
      "latitude": "29.924018032566316",
      "longitude": "-90.12349368511263"
    }
  },
  {
    "service_request": "2024-1086406",
    "request_type": "Trash/Recycling",
    "request_reason": "Request a Large Item Pick Up",
    "date_created": "2024-04-19T15:33:26.000",
    "date_modified": "2024-04-19T15:33:27.000",
    "request_status": "Pending",
    "responsible_agency": "Department of Sanitation",
    "final_address": "320 Alix St",
    "address_councildis": "C",
    "status": "Assigned to Contractor",
    "contractor": "Richards Disposal",
    "rowid": "1086406",
    "final_x": "3686532.61436",
    "final_y": "530078.590081",
    "longitude": "-90.05223006039935",
    "latitude": "29.95137853746635",
    "geocoded_column": {
      "latitude": "29.95137853746635",
      "longitude": "-90.05223006039935"
    }
  },
  {
    "service_request": "2024-1086405",
    "request_type": "Graffiti Removal",
    "request_reason": "Graffiti Removal",
    "date_created": "2024-04-19T15:27:08.000",
    "date_modified": "2024-04-19T15:27:08.000",
    "request_status": "Pending",
    "responsible_agency": "Department of Code Enforcement",
    "final_address": "2511 St Peter St",
    "address_councildis": "D",
    "status": "Pending",
    "rowid": "1086405",
    "final_x": "3677392.8964",
    "final_y": "536351.997511",
    "longitude": "-90.08087230824275",
    "latitude": "29.968906103815026",
    "geocoded_column": {
      "latitude": "29.968906103815026",
      "longitude": "-90.08087230824275"
    }
  },
  {
    "service_request": "2024-1086404",
    "request_type": "Abandoned Vehicles",
    "request_reason": "Abandoned/Junk Vehicles",
    "date_created": "2024-04-19T15:25:43.000",
    "date_modified": "2024-04-19T15:25:43.000",
    "request_status": "Pending",
    "responsible_agency": "Department of Public Works",
    "final_address": "200 BLK Basin St",
    "address_councildis": "C",
    "status": "Inspected",
    "rowid": "1086404",
    "final_x": "3680211.67891",
    "final_y": "532176.011551",
    "longitude": "-90.07211557410643",
    "latitude": "29.957338546222253",
    "geocoded_column": {
      "latitude": "29.957338546222253",
      "longitude": "-90.07211557410643"
    }
  },
  {
    "service_request": "2024-1086403",
    "request_type": "Trash/Recycling",
    "request_reason": "Request a Large Item Pick Up",
    "date_created": "2024-04-19T15:25:40.000",
    "date_modified": "2024-04-19T15:25:40.000",
    "request_status": "Pending",
    "responsible_agency": "Department of Sanitation",
    "final_address": "5300 Cameron Blvd",
    "address_councildis": "D",
    "status": "Assigned to Contractor",
    "contractor": "IV Waste",
    "rowid": "1086403",
    "final_x": "3682539.1373",
    "final_y": "552243.699094",
    "longitude": "-90.06406423512159",
    "latitude": "30.012446983174012",
    "geocoded_column": {
      "latitude": "30.012446983174012",
      "longitude": "-90.06406423512159"
    }
  },
  {
    "service_request": "2024-1086402",
    "request_type": "Parks & Parkways",
    "request_reason": "Request Tree Service (Right of Way/Public Property)",
    "date_created": "2024-04-19T15:24:36.000",
    "date_modified": "2024-04-19T15:24:37.000",
    "request_status": "Pending",
    "responsible_agency": "Department of Parks & Parkway",
    "final_address": "5812 Franklin Ave",
    "address_councildis": "D",
    "status": "Pending",
    "rowid": "1086402",
    "final_x": "3686378.76809",
    "final_y": "554587.941144",
    "longitude": "-90.05185033478755",
    "latitude": "30.018775279414825",
    "geocoded_column": {
      "latitude": "30.018775279414825",
      "longitude": "-90.05185033478755"
    }
  },
  {
    "service_request": "2024-1086401",
    "request_type": "Trash/Recycling",
    "request_reason": "Missed Trash Pick-Up",
    "date_created": "2024-04-19T15:20:22.000",
    "date_modified": "2024-04-19T15:20:23.000",
    "request_status": "Pending",
    "responsible_agency": "Department of Sanitation",
    "final_address": "4632 Bright Dr",
    "address_councildis": "E",
    "status": "Assigned to Contractor",
    "contractor": "Waste Pro",
    "rowid": "1086401",
    "final_x": "3715847.06943",
    "final_y": "556501.557914",
    "longitude": "-89.95866954419644",
    "latitude": "30.023097860026716",
    "geocoded_column": {
      "latitude": "30.023097860026716",
      "longitude": "-89.95866954419644"
    }
  },
  {
    "service_request": "2024-1086400",
    "request_type": "Property Maintenance",
    "request_reason": "Property Maintenance",
    "date_created": "2024-04-19T15:18:09.000",
    "date_modified": "2024-04-19T15:18:09.000",
    "request_status": "Pending",
    "responsible_agency": "Department of Code Enforcement",
    "final_address": "5709 Wickfield Dr",
    "address_councildis": "D",
    "status": "Pending",
    "rowid": "1086400",
    "final_x": "3681097.94037",
    "final_y": "553793.363799",
    "longitude": "-90.06856356943807",
    "latitude": "30.01675181640533",
    "geocoded_column": {
      "latitude": "30.01675181640533",
      "longitude": "-90.06856356943807"
    }
  },
  {
    "service_request": "2024-1086399",
    "request_type": "Abandoned Vehicles",
    "request_reason": "Abandoned/Junk Vehicles",
    "date_created": "2024-04-19T15:15:10.000",
    "date_modified": "2024-04-19T15:15:54.000",
    "request_status": "Pending",
    "responsible_agency": "Department of Public Works",
    "final_address": "MARAIS ST & URSULINES AVE",
    "address_councildis": "C",
    "status": "Pending",
    "rowid": "1086399",
    "final_x": "3681461.8",
    "final_y": "535165.28",
    "longitude": "-90.06806384133719",
    "latitude": "29.965520119602687",
    "geocoded_column": {
      "latitude": "29.965520119602687",
      "longitude": "-90.06806384133719"
    }
  },
  {
    "service_request": "2024-1086398",
    "request_type": "Trash/Recycling",
    "request_reason": "Request a Large Item Pick Up",
    "date_created": "2024-04-19T15:08:04.000",
    "date_modified": "2024-04-19T15:08:05.000",
    "request_status": "Pending",
    "responsible_agency": "Department of Sanitation",
    "final_address": "1240 Eighth St",
    "address_councildis": "B",
    "status": "Assigned to Contractor",
    "contractor": "IV Waste",
    "rowid": "1086398",
    "final_x": "3675693.45057",
    "final_y": "520764.085945",
    "longitude": "-90.08677482034872",
    "latitude": "29.9260954788643",
    "geocoded_column": {
      "latitude": "29.9260954788643",
      "longitude": "-90.08677482034872"
    }
  },
  {
    "service_request": "2024-1086397",
    "request_type": "Trash/Recycling",
    "request_reason": "Repair Trash Cart",
    "date_created": "2024-04-19T15:05:28.000",
    "date_modified": "2024-04-19T15:05:29.000",
    "request_status": "Pending",
    "responsible_agency": "Department of Sanitation",
    "final_address": "2610 Upperline St",
    "address_councildis": "B",
    "status": "Assigned to Contractor",
    "contractor": "IV Waste",
    "rowid": "1086397",
    "final_x": "3669141.59719",
    "final_y": "524365.81606",
    "longitude": "-90.10733553302427",
    "latitude": "29.936193448835276",
    "geocoded_column": {
      "latitude": "29.936193448835276",
      "longitude": "-90.10733553302427"
    }
  },
  {
    "service_request": "2024-1086396",
    "request_type": "Trash/Recycling",
    "request_reason": "Replace Trash Cart",
    "date_created": "2024-04-19T15:05:24.000",
    "date_modified": "2024-04-19T15:05:25.000",
    "request_status": "Pending",
    "responsible_agency": "Department of Sanitation",
    "final_address": "4311 Laurel St. 70115",
    "status": "Assigned to Contractor",
    "rowid": "1086396",
    "longitude": "0.0",
    "latitude": "0.0",
    "geocoded_column": {
      "latitude": "0.0",
      "longitude": "0.0"
    }
  },
  {
    "service_request": "2024-1086395",
    "request_type": "Safety & Permits",
    "request_reason": "Licenses & Permits",
    "date_created": "2024-04-19T15:04:42.000",
    "date_modified": "2024-04-19T15:04:42.000",
    "request_status": "Pending",
    "responsible_agency": "Safety and Permits",
    "final_address": "2524 Magazine St",
    "address_councildis": "B",
    "status": "Pending",
    "rowid": "1086395",
    "final_x": "3677664.61947",
    "final_y": "521152.921401",
    "longitude": "-90.08053898892129",
    "latitude": "29.927105537862456",
    "geocoded_column": {
      "latitude": "29.927105537862456",
      "longitude": "-90.08053898892129"
    }
  },
  {
    "service_request": "2024-1086393",
    "request_type": "Trash/Recycling",
    "request_reason": "Request a Large Item Pick Up",
    "date_created": "2024-04-19T15:00:12.000",
    "date_modified": "2024-04-19T15:00:12.000",
    "request_status": "Pending",
    "responsible_agency": "Department of Sanitation",
    "final_address": "2307 Ap Tureaud Ave",
    "address_councildis": "D",
    "status": "Assigned to Contractor",
    "contractor": "IV Waste",
    "rowid": "1086393",
    "final_x": "3681723.96872",
    "final_y": "540564.862539",
    "longitude": "-90.06704748406128",
    "latitude": "29.980359140149222",
    "geocoded_column": {
      "latitude": "29.980359140149222",
      "longitude": "-90.06704748406128"
    }
  },
  {
    "service_request": "2024-1086392",
    "request_type": "Trash/Recycling",
    "request_reason": "Repair Trash Cart",
    "date_created": "2024-04-19T14:58:28.000",
    "date_modified": "2024-04-19T14:58:28.000",
    "request_status": "Pending",
    "responsible_agency": "Department of Sanitation",
    "final_address": "4503 S Galvez St",
    "address_councildis": "B",
    "status": "Assigned to Contractor",
    "contractor": "IV Waste",
    "rowid": "1086392",
    "final_x": "3669733.59502",
    "final_y": "527545.712319",
    "longitude": "-90.1053589869403",
    "latitude": "29.944919704046228",
    "geocoded_column": {
      "latitude": "29.944919704046228",
      "longitude": "-90.1053589869403"
    }
  },
  {
    "service_request": "2024-1086391",
    "request_type": "Traffic Signals/Signs/Striping/Streetlights",
    "request_reason": "Traffic Signal Malfunctioning/Damaged",
    "date_created": "2024-04-19T14:52:16.000",
    "date_modified": "2024-04-19T14:52:17.000",
    "request_status": "Pending",
    "responsible_agency": "Department of Public Works",
    "final_address": "EARHART BLVD & MAGNOLIA ST",
    "address_councildis": "B",
    "status": "Pending",
    "rowid": "1086391",
    "final_x": "3676590.5",
    "final_y": "528721.38",
    "longitude": "-90.08366914458753",
    "latitude": "29.947948562397546",
    "geocoded_column": {
      "latitude": "29.947948562397546",
      "longitude": "-90.08366914458753"
    }
  },
  {
    "service_request": "2024-1086390",
    "request_type": "Trash/Recycling",
    "request_reason": "MIssed Recycling Pick-Up",
    "date_created": "2024-04-19T14:50:23.000",
    "date_modified": "2024-04-19T15:58:21.000",
    "case_close_date": "2024-04-19T10:58:21.000",
    "request_status": "Closed",
    "responsible_agency": "Department of Sanitation",
    "final_address": "2319 Short St",
    "address_councildis": "A",
    "status": "Invalid Request",
    "contractor": "IV Waste",
    "contractor_action": "Invalid",
    "rowid": "1086390",
    "final_x": "3665039.41959",
    "final_y": "531026.666434",
    "longitude": "-90.12006362212367",
    "latitude": "29.954628693597694",
    "geocoded_column": {
      "latitude": "29.954628693597694",
      "longitude": "-90.12006362212367"
    }
  },
  {
    "service_request": "2024-1086389",
    "request_type": "Roads/Drainage",
    "request_reason": "Pothole",
    "date_created": "2024-04-19T14:50:01.000",
    "date_modified": "2024-04-19T14:50:01.000",
    "request_status": "Pending",
    "responsible_agency": "Department of Public Works",
    "final_address": "2230 France St",
    "address_councildis": "D",
    "status": "Pending",
    "rowid": "1086389",
    "final_x": "3693427.96067",
    "final_y": "539483.633674",
    "longitude": "-90.0301202833388",
    "latitude": "29.977025310008408",
    "geocoded_column": {
      "latitude": "29.977025310008408",
      "longitude": "-90.0301202833388"
    }
  },
  {
    "service_request": "2024-1086388",
    "request_type": "Property Maintenance",
    "request_reason": "Property Maintenance",
    "date_created": "2024-04-19T14:43:07.000",
    "date_modified": "2024-04-19T14:43:07.000",
    "request_status": "Pending",
    "responsible_agency": "Department of Code Enforcement",
    "final_address": "11323 Morrison Rd",
    "address_councildis": "E",
    "status": "Pending",
    "rowid": "1086388",
    "final_x": "3711929.08037",
    "final_y": "565626.402594",
    "longitude": "-89.97070652760509",
    "latitude": "30.048316203237874",
    "geocoded_column": {
      "latitude": "30.048316203237874",
      "longitude": "-89.97070652760509"
    }
  },
  {
    "service_request": "2024-1086387",
    "request_type": "Trash/Recycling",
    "request_reason": "Request a Large Item Pick Up",
    "date_created": "2024-04-19T14:42:03.000",
    "date_modified": "2024-04-19T14:42:04.000",
    "request_status": "Pending",
    "responsible_agency": "Department of Sanitation",
    "final_address": "4710 Schindler Dr",
    "address_councildis": "E",
    "status": "Assigned to Contractor",
    "contractor": "Waste Pro",
    "rowid": "1086387",
    "final_x": "3714289.11275",
    "final_y": "556439.45641",
    "longitude": "-89.96359463619194",
    "latitude": "30.02297840609669",
    "geocoded_column": {
      "latitude": "30.02297840609669",
      "longitude": "-89.96359463619194"
    }
  },
  {
    "service_request": "2024-1086386",
    "request_type": "Abandoned Vehicles",
    "request_reason": "Abandoned/Junk Vehicles",
    "date_created": "2024-04-19T14:35:07.000",
    "date_modified": "2024-04-19T14:35:08.000",
    "request_status": "Pending",
    "responsible_agency": "Department of Public Works",
    "final_address": "71 Marywood Ct",
    "address_councildis": "E",
    "status": "Pending",
    "rowid": "1086386",
    "final_x": "3712293.15416",
    "final_y": "566597.797347",
    "longitude": "-89.96951931346322",
    "latitude": "30.050975235111082",
    "geocoded_column": {
      "latitude": "30.050975235111082",
      "longitude": "-89.96951931346322"
    }
  },
  {
    "service_request": "2024-1086385",
    "request_type": "Trash/Recycling",
    "request_reason": "Request a Large Item Pick Up",
    "date_created": "2024-04-19T14:34:05.000",
    "date_modified": "2024-04-19T14:34:05.000",
    "request_status": "Pending",
    "responsible_agency": "Department of Sanitation",
    "final_address": "7810 Parry St",
    "address_councildis": "E",
    "status": "Assigned to Contractor",
    "contractor": "Waste Pro",
    "rowid": "1086385",
    "final_x": "3714004.72357",
    "final_y": "568887.280869",
    "longitude": "-89.96402320216197",
    "latitude": "30.057214252544263",
    "geocoded_column": {
      "latitude": "30.057214252544263",
      "longitude": "-89.96402320216197"
    }
  },
  {
    "service_request": "2024-1086384",
    "request_type": "Trash/Recycling",
    "request_reason": "Missed Trash Pick-Up",
    "date_created": "2024-04-19T14:33:35.000",
    "date_modified": "2024-04-19T16:59:37.000",
    "case_close_date": "2024-04-19T11:59:37.000",
    "request_status": "Closed",
    "responsible_agency": "Department of Sanitation",
    "final_address": "425 Celeste St",
    "address_councildis": "B",
    "status": "Assigned to Contractor",
    "contractor": "IV Waste",
    "contractor_action": "Completed",
    "rowid": "1086384",
    "final_x": "3682253.27951",
    "final_y": "521476.733881",
    "longitude": "-90.06604248169063",
    "latitude": "29.927857167766927",
    "geocoded_column": {
      "latitude": "29.927857167766927",
      "longitude": "-90.06604248169063"
    }
  },
  {
    "service_request": "2024-1086383",
    "request_type": "Trash/Recycling",
    "request_reason": "Repair Recycling Cart",
    "date_created": "2024-04-19T14:28:56.000",
    "date_modified": "2024-04-19T14:28:57.000",
    "request_status": "Pending",
    "responsible_agency": "Department of Sanitation",
    "final_address": "921 Louisiana Ave",
    "address_councildis": "B",
    "status": "Pending",
    "rowid": "1086383",
    "final_x": "3675372.30657",
    "final_y": "519158.017655",
    "longitude": "-90.08784368799412",
    "latitude": "29.92168891140618",
    "geocoded_column": {
      "latitude": "29.92168891140618",
      "longitude": "-90.08784368799412"
    }
  },
  {
    "service_request": "2024-1086382",
    "request_type": "Trash/Recycling",
    "request_reason": "Order Recycling Cart",
    "date_created": "2024-04-19T14:28:56.000",
    "date_modified": "2024-04-19T14:28:56.000",
    "request_status": "Pending",
    "responsible_agency": "Department of Sanitation",
    "final_address": "4890 Cerise Ave",
    "address_councildis": "E",
    "status": "Pending",
    "rowid": "1086382",
    "final_x": "3708434.4275",
    "final_y": "556714.639962",
    "longitude": "-89.98208370987345",
    "latitude": "30.02392619186717",
    "geocoded_column": {
      "latitude": "30.02392619186717",
      "longitude": "-89.98208370987345"
    }
  },
  {
    "service_request": "2024-1086381",
    "request_type": "Trash/Recycling",
    "request_reason": "Order Trash Cart",
    "date_created": "2024-04-19T14:28:34.000",
    "date_modified": "2024-04-19T14:28:34.000",
    "request_status": "Pending",
    "responsible_agency": "Department of Sanitation",
    "final_address": "4890 Cerise Ave",
    "address_councildis": "E",
    "status": "Assigned to Contractor",
    "contractor": "Waste Pro",
    "rowid": "1086381",
    "final_x": "3708434.4275",
    "final_y": "556714.639962",
    "longitude": "-89.98208370987345",
    "latitude": "30.02392619186717",
    "geocoded_column": {
      "latitude": "30.02392619186717",
      "longitude": "-89.98208370987345"
    }
  },
  {
    "service_request": "2024-1086380",
    "request_type": "Trash/Recycling",
    "request_reason": "Request a Large Item Pick Up",
    "date_created": "2024-04-19T14:28:00.000",
    "date_modified": "2024-04-19T14:28:00.000",
    "request_status": "Pending",
    "responsible_agency": "Department of Sanitation",
    "final_address": "4890 Cerise Ave",
    "address_councildis": "E",
    "status": "Assigned to Contractor",
    "contractor": "Waste Pro",
    "rowid": "1086380",
    "final_x": "3708434.4275",
    "final_y": "556714.639962",
    "longitude": "-89.98208370987345",
    "latitude": "30.02392619186717",
    "geocoded_column": {
      "latitude": "30.02392619186717",
      "longitude": "-89.98208370987345"
    }
  },
  {
    "service_request": "2024-1086379",
    "request_type": "Property Maintenance",
    "request_reason": "Property Maintenance",
    "date_created": "2024-04-19T14:27:02.000",
    "date_modified": "2024-04-19T14:55:44.000",
    "request_status": "Pending",
    "responsible_agency": "Department of Sanitation",
    "final_address": "7041 Yorktown Dr",
    "address_councildis": "E",
    "status": "Pending",
    "rowid": "1086379",
    "final_x": "3706204.6074",
    "final_y": "560627.893854",
    "longitude": "-89.98898437795343",
    "latitude": "30.034758224114018",
    "geocoded_column": {
      "latitude": "30.034758224114018",
      "longitude": "-89.98898437795343"
    }
  },
  {
    "service_request": "2024-1086377",
    "request_type": "Abandoned Vehicles",
    "request_reason": "Abandoned/Junk Vehicles",
    "date_created": "2024-04-19T14:26:24.000",
    "date_modified": "2024-04-19T14:27:06.000",
    "request_status": "Pending",
    "responsible_agency": "Department of Public Works",
    "final_address": "218 W Brooks St",
    "address_councildis": "A",
    "status": "Pending",
    "rowid": "1086377",
    "final_x": "3665396.63725",
    "final_y": "546560.413649",
    "longitude": "-90.1184155967271",
    "latitude": "29.99733090563569",
    "geocoded_column": {
      "latitude": "29.99733090563569",
      "longitude": "-90.1184155967271"
    }
  },
  {
    "service_request": "2024-1086378",
    "request_type": "Property Maintenance",
    "request_reason": "Property Maintenance",
    "date_created": "2024-04-19T14:26:24.000",
    "date_modified": "2024-04-19T14:26:24.000",
    "request_status": "Pending",
    "responsible_agency": "Department of Code Enforcement",
    "final_address": "2605 Memorial Park Dr",
    "address_councildis": "C",
    "status": "Pending",
    "rowid": "1086378",
    "final_x": "3692837.01699",
    "final_y": "521008.039161",
    "longitude": "-90.03264903748617",
    "latitude": "29.926242309385856",
    "geocoded_column": {
      "latitude": "29.926242309385856",
      "longitude": "-90.03264903748617"
    }
  },
  {
    "service_request": "2024-1086376",
    "request_type": "Trash/Recycling",
    "request_reason": "Illegal Dumping",
    "date_created": "2024-04-19T14:26:18.000",
    "date_modified": "2024-04-19T14:26:19.000",
    "request_status": "Pending",
    "responsible_agency": "Department of Sanitation",
    "final_address": "2027 N Tonti St",
    "address_councildis": "D",
    "status": "Pending",
    "rowid": "1086376",
    "final_x": "3683056.40578",
    "final_y": "540624.964939",
    "longitude": "-90.06283697925876",
    "latitude": "29.980483844886205",
    "geocoded_column": {
      "latitude": "29.980483844886205",
      "longitude": "-90.06283697925876"
    }
  },
  {
    "service_request": "2024-1086375",
    "request_type": "Property Maintenance",
    "request_reason": "Property Maintenance",
    "date_created": "2024-04-19T14:25:02.000",
    "date_modified": "2024-04-19T14:25:02.000",
    "request_status": "Pending",
    "responsible_agency": "Department of Code Enforcement",
    "final_address": "2535 Memorial Park Dr",
    "address_councildis": "C",
    "status": "Pending",
    "rowid": "1086375",
    "final_x": "3692796.73923",
    "final_y": "521052.483641",
    "longitude": "-90.03277458992366",
    "latitude": "29.92636577379837",
    "geocoded_column": {
      "latitude": "29.92636577379837",
      "longitude": "-90.03277458992366"
    }
  },
  {
    "service_request": "2024-1086373",
    "request_type": "Property Maintenance",
    "request_reason": "Property Maintenance",
    "date_created": "2024-04-19T14:23:49.000",
    "date_modified": "2024-04-19T14:23:49.000",
    "request_status": "Pending",
    "responsible_agency": "Department of Code Enforcement",
    "final_address": "2525 Memorial Park Dr",
    "address_councildis": "C",
    "status": "Pending",
    "rowid": "1086373",
    "final_x": "3692766.18371",
    "final_y": "521079.566969",
    "longitude": "-90.03287007438414",
    "latitude": "29.92644119738659",
    "geocoded_column": {
      "latitude": "29.92644119738659",
      "longitude": "-90.03287007438414"
    }
  },
  {
    "service_request": "2024-1086372",
    "request_type": "Abandoned Vehicles",
    "request_reason": "Abandoned/Junk Vehicles",
    "date_created": "2024-04-19T14:23:38.000",
    "date_modified": "2024-04-19T14:23:38.000",
    "request_status": "Pending",
    "responsible_agency": "Department of Public Works",
    "final_address": "801 Poland Ave",
    "address_councildis": "C",
    "status": "Pending",
    "rowid": "1086372",
    "final_x": "3692819.70973",
    "final_y": "533886.479429",
    "longitude": "-90.03224205457565",
    "latitude": "29.961654125498093",
    "geocoded_column": {
      "latitude": "29.961654125498093",
      "longitude": "-90.03224205457565"
    }
  },
  {
    "service_request": "2024-1086371",
    "request_type": "Abandoned Vehicles",
    "request_reason": "Abandoned/Junk Vehicles",
    "date_created": "2024-04-19T14:16:37.000",
    "date_modified": "2024-04-19T14:16:37.000",
    "request_status": "Pending",
    "responsible_agency": "Department of Public Works",
    "final_address": "1101 Valence St, New Orleans, Louisiana, 70115",
    "address_councildis": "B",
    "status": "Pending",
    "rowid": "1086371",
    "final_x": "3669921.4265",
    "final_y": "519456.014711",
    "longitude": "-90.10503974007678",
    "latitude": "29.92267009964274",
    "geocoded_column": {
      "latitude": "29.92267009964274",
      "longitude": "-90.10503974007678"
    }
  },
  {
    "service_request": "2024-1086370",
    "request_type": "Trash/Recycling",
    "request_reason": "Request a Large Item Pick Up",
    "date_created": "2024-04-19T14:16:21.000",
    "date_modified": "2024-04-19T14:16:22.000",
    "request_status": "Pending",
    "responsible_agency": "Department of Sanitation",
    "final_address": "4609 Crowder Blvd",
    "address_councildis": "E",
    "status": "Assigned to Contractor",
    "contractor": "Waste Pro",
    "rowid": "1086370",
    "final_x": "3706602.87377",
    "final_y": "554682.097944",
    "longitude": "-89.98794642458839",
    "latitude": "30.018396751129842",
    "geocoded_column": {
      "latitude": "30.018396751129842",
      "longitude": "-89.98794642458839"
    }
  },
  {
    "service_request": "2024-1086369",
    "request_type": "Roads/Drainage",
    "request_reason": "Road Shoulder Repair",
    "date_created": "2024-04-19T14:08:34.000",
    "date_modified": "2024-04-19T14:08:34.000",
    "request_status": "Pending",
    "responsible_agency": "Department of Public Works",
    "final_address": "5181 Basinview Dr",
    "address_councildis": "E",
    "status": "Pending",
    "rowid": "1086369",
    "final_x": "3698767.63639",
    "final_y": "556615.231002",
    "longitude": "-90.01263233571275",
    "latitude": "30.023962762012196",
    "geocoded_column": {
      "latitude": "30.023962762012196",
      "longitude": "-90.01263233571275"
    }
  },
  {
    "service_request": "2024-1086368",
    "request_type": "Traffic Signals/Signs/Striping/Streetlights",
    "request_reason": "Street Light Outage/Malfunction",
    "date_created": "2024-04-19T14:07:18.000",
    "date_modified": "2024-04-19T14:07:18.000",
    "request_status": "Pending",
    "responsible_agency": "Department of Public Works",
    "final_address": "1629 Pace Blvd",
    "address_councildis": "C",
    "status": "Assigned to Contractor",
    "contractor": "Legacy Professional Services",
    "rowid": "1086368",
    "final_x": "3694281.58301",
    "final_y": "525145.711165",
    "longitude": "-90.02794017444938",
    "latitude": "29.937574328378005",
    "geocoded_column": {
      "latitude": "29.937574328378005",
      "longitude": "-90.02794017444938"
    }
  },
  {
    "service_request": "2024-1086367",
    "request_type": "Trash/Recycling",
    "request_reason": "Missed Trash Pick-Up",
    "date_created": "2024-04-19T14:05:01.000",
    "date_modified": "2024-04-19T16:27:11.000",
    "case_close_date": "2024-04-19T11:27:11.000",
    "request_status": "Closed",
    "responsible_agency": "Department of Sanitation",
    "final_address": "1519 Tchoupitoulas St",
    "address_councildis": "B",
    "status": "Invalid Request",
    "contractor": "IV Waste",
    "contractor_action": "Invalid",
    "rowid": "1086367",
    "final_x": "3682243.58133",
    "final_y": "523162.693435",
    "longitude": "-90.06601423235377",
    "latitude": "29.932493294647102",
    "geocoded_column": {
      "latitude": "29.932493294647102",
      "longitude": "-90.06601423235377"
    }
  },
  {
    "service_request": "2024-1086366",
    "request_type": "Trash/Recycling",
    "request_reason": "Request a Large Item Pick Up",
    "date_created": "2024-04-19T14:04:22.000",
    "date_modified": "2024-04-19T14:04:23.000",
    "request_status": "Pending",
    "responsible_agency": "Department of Sanitation",
    "final_address": "6811 Norwood Ct",
    "address_councildis": "E",
    "status": "Assigned to Contractor",
    "contractor": "Waste Pro",
    "rowid": "1086366",
    "final_x": "3701256.5457",
    "final_y": "557009.765658",
    "longitude": "-90.00475346005435",
    "latitude": "30.02496846639835",
    "geocoded_column": {
      "latitude": "30.02496846639835",
      "longitude": "-90.00475346005435"
    }
  },
  {
    "service_request": "2024-1086365",
    "request_type": "Trash/Recycling",
    "request_reason": "Replace Trash Cart",
    "date_created": "2024-04-19T14:03:08.000",
    "date_modified": "2024-04-19T14:03:08.000",
    "request_status": "Pending",
    "responsible_agency": "Department of Sanitation",
    "final_address": "400 Burgundy St",
    "address_councildis": "C",
    "status": "Assigned to Contractor",
    "contractor": "Empire Services",
    "rowid": "1086365",
    "final_x": "3681070.44309",
    "final_y": "532261.208323",
    "longitude": "-90.06940089000652",
    "latitude": "29.957546789714907",
    "geocoded_column": {
      "latitude": "29.957546789714907",
      "longitude": "-90.06940089000652"
    }
  },
  {
    "service_request": "2024-1086364",
    "request_type": "Trash/Recycling",
    "request_reason": "Replace Trash Cart",
    "date_created": "2024-04-19T14:02:37.000",
    "date_modified": "2024-04-19T14:02:38.000",
    "request_status": "Pending",
    "responsible_agency": "Department of Sanitation",
    "final_address": "406 Burgundy St",
    "address_councildis": "C",
    "status": "Assigned to Contractor",
    "contractor": "Empire Services",
    "rowid": "1086364",
    "final_x": "3681081.61269",
    "final_y": "532262.382019",
    "longitude": "-90.0693655788444",
    "latitude": "29.957549678196617",
    "geocoded_column": {
      "latitude": "29.957549678196617",
      "longitude": "-90.0693655788444"
    }
  },
  {
    "service_request": "2024-1086362",
    "request_type": "Traffic Signals/Signs/Striping/Streetlights",
    "request_reason": "Request for Stop Sign",
    "date_created": "2024-04-19T14:01:52.000",
    "date_modified": "2024-04-19T14:01:53.000",
    "request_status": "Pending",
    "responsible_agency": "Department of Public Works",
    "final_address": "PELICAN AVE & ELMIRE AVE & ELMIRA AVE",
    "address_councildis": "C",
    "status": "Pending",
    "rowid": "1086362",
    "final_x": "3688247.4",
    "final_y": "530758.48",
    "longitude": "-90.04679151956897",
    "latitude": "29.95319517296049",
    "geocoded_column": {
      "latitude": "29.95319517296049",
      "longitude": "-90.04679151956897"
    }
  },
  {
    "service_request": "2024-1086361",
    "request_type": "Trash/Recycling",
    "request_reason": "Replace Trash Cart",
    "date_created": "2024-04-19T13:59:15.000",
    "date_modified": "2024-04-19T13:59:16.000",
    "request_status": "Pending",
    "responsible_agency": "Department of Sanitation",
    "final_address": "5908 Boeing St",
    "address_councildis": "D",
    "status": "Assigned to Contractor",
    "contractor": "Waste Pro",
    "rowid": "1086361",
    "final_x": "3696372.77674",
    "final_y": "553012.007319",
    "longitude": "-90.02033005637863",
    "latitude": "30.01413093966362",
    "geocoded_column": {
      "latitude": "30.01413093966362",
      "longitude": "-90.02033005637863"
    }
  },
  {
    "service_request": "2024-1086360",
    "request_type": "Roads/Drainage",
    "request_reason": "Pothole",
    "date_created": "2024-04-19T13:58:52.000",
    "date_modified": "2024-04-19T13:58:52.000",
    "request_status": "Pending",
    "responsible_agency": "Department of Public Works",
    "final_address": "4100 BLK Euphrosine St",
    "address_councildis": "B",
    "status": "Pending",
    "rowid": "1086360",
    "final_x": "3671851.65954",
    "final_y": "532170.397389",
    "longitude": "-90.09851424179658",
    "latitude": "29.957573479908874",
    "geocoded_column": {
      "latitude": "29.957573479908874",
      "longitude": "-90.09851424179658"
    }
  },
  {
    "service_request": "2024-1086359",
    "request_type": "Roads/Drainage",
    "request_reason": "Catch Basin - Broken/Damage",
    "date_created": "2024-04-19T13:57:00.000",
    "date_modified": "2024-04-19T13:57:00.000",
    "request_status": "Pending",
    "responsible_agency": "Department of Public Works",
    "final_address": "2401 Westbend Prkwy",
    "address_councildis": "C",
    "status": "Pending",
    "rowid": "1086359",
    "final_x": "3696531.23152",
    "final_y": "521885.760698",
    "longitude": "-90.02095578503594",
    "latitude": "29.928539921460334",
    "geocoded_column": {
      "latitude": "29.928539921460334",
      "longitude": "-90.02095578503594"
    }
  },
  {
    "service_request": "2024-1086358",
    "request_type": "Trash/Recycling",
    "request_reason": "Request a Large Item Pick Up",
    "date_created": "2024-04-19T13:56:44.000",
    "date_modified": "2024-04-19T13:56:45.000",
    "request_status": "Pending",
    "responsible_agency": "Department of Sanitation",
    "final_address": "7818 Darleen Ct",
    "address_councildis": "E",
    "status": "Assigned to Contractor",
    "contractor": "Waste Pro",
    "rowid": "1086358",
    "final_x": "3716993.22188",
    "final_y": "571850.686632",
    "longitude": "-89.95446436765376",
    "latitude": "30.065263850992107",
    "geocoded_column": {
      "latitude": "30.065263850992107",
      "longitude": "-89.95446436765376"
    }
  },
  {
    "service_request": "2024-1086357",
    "request_type": "Trash/Recycling",
    "request_reason": "Request a Large Item Pick Up",
    "date_created": "2024-04-19T13:54:55.000",
    "date_modified": "2024-04-19T13:54:55.000",
    "request_status": "Pending",
    "responsible_agency": "Department of Sanitation",
    "final_address": "9000 Hayne Blvd",
    "address_councildis": "E",
    "status": "Assigned to Contractor",
    "contractor": "Waste Pro",
    "rowid": "1086357",
    "final_x": "3704769.08727",
    "final_y": "564245.206177",
    "longitude": "-89.99338712364926",
    "latitude": "30.044750637550067",
    "geocoded_column": {
      "latitude": "30.044750637550067",
      "longitude": "-89.99338712364926"
    }
  },
  {
    "service_request": "2024-1086356",
    "request_type": "Trash/Recycling",
    "request_reason": "Request a Large Item Pick Up",
    "date_created": "2024-04-19T13:51:06.000",
    "date_modified": "2024-04-19T13:51:06.000",
    "request_status": "Pending",
    "responsible_agency": "Department of Sanitation",
    "final_address": "3754 Rue Delphine",
    "address_councildis": "C",
    "status": "Assigned to Contractor",
    "contractor": "Richards Disposal",
    "rowid": "1086356",
    "final_x": "3703064.81924",
    "final_y": "516616.613621",
    "longitude": "-90.00052426810822",
    "latitude": "29.913844204957304",
    "geocoded_column": {
      "latitude": "29.913844204957304",
      "longitude": "-90.00052426810822"
    }
  },
  {
    "service_request": "2024-1086355",
    "request_type": "Trash/Recycling",
    "request_reason": "Return Recycling Cart",
    "date_created": "2024-04-19T13:50:33.000",
    "date_modified": "2024-04-19T13:50:33.000",
    "request_status": "Pending",
    "responsible_agency": "Department of Sanitation",
    "final_address": "3646 Piedmont Dr",
    "address_councildis": "D",
    "status": "Pending",
    "rowid": "1086355",
    "final_x": "3685938.84834",
    "final_y": "546041.952144",
    "longitude": "-90.05354191028339",
    "latitude": "29.99529043871296",
    "geocoded_column": {
      "latitude": "29.99529043871296",
      "longitude": "-90.05354191028339"
    }
  },
  {
    "service_request": "2024-1086354",
    "request_type": "Trash/Recycling",
    "request_reason": "Repair Recycling Cart",
    "date_created": "2024-04-19T13:49:56.000",
    "date_modified": "2024-04-19T13:49:56.000",
    "request_status": "Pending",
    "responsible_agency": "Department of Sanitation",
    "final_address": "3646 Piedmont Dr",
    "address_councildis": "D",
    "status": "Pending",
    "rowid": "1086354",
    "final_x": "3685938.84834",
    "final_y": "546041.952144",
    "longitude": "-90.05354191028339",
    "latitude": "29.99529043871296",
    "geocoded_column": {
      "latitude": "29.99529043871296",
      "longitude": "-90.05354191028339"
    }
  },
  {
    "service_request": "2024-1086353",
    "request_type": "Trash/Recycling",
    "request_reason": "MIssed Recycling Pick-Up",
    "date_created": "2024-04-19T13:49:51.000",
    "date_modified": "2024-04-19T16:03:51.000",
    "case_close_date": "2024-04-19T11:03:51.000",
    "request_status": "Closed",
    "responsible_agency": "Department of Sanitation",
    "final_address": "1906 Jena St",
    "address_councildis": "B",
    "status": "Invalid Request",
    "contractor": "IV Waste",
    "contractor_action": "Invalid",
    "rowid": "1086353",
    "final_x": "3670295.81326",
    "final_y": "522023.891578",
    "longitude": "-90.10377096682107",
    "latitude": "29.92971990143083",
    "geocoded_column": {
      "latitude": "29.92971990143083",
      "longitude": "-90.10377096682107"
    }
  },
  {
    "service_request": "2024-1086352",
    "request_type": "Traffic Signals/Signs/Striping/Streetlights",
    "request_reason": "Street Light Knocked Down/Leaning",
    "date_created": "2024-04-19T13:48:22.000",
    "date_modified": "2024-04-19T13:48:23.000",
    "request_status": "Pending",
    "responsible_agency": "Department of Public Works",
    "final_address": "13200 BLK Interstate 10 Service Rd N",
    "address_councildis": "E",
    "status": "Pending",
    "contractor": "Legacy Professional Services",
    "rowid": "1086352",
    "final_x": "3719517.61014",
    "final_y": "568429.725133",
    "longitude": "-89.94661545677683",
    "latitude": "30.055773866225113",
    "geocoded_column": {
      "latitude": "30.055773866225113",
      "longitude": "-89.94661545677683"
    }
  },
  {
    "service_request": "2024-1086351",
    "request_type": "Trash/Recycling",
    "request_reason": "Return Trash Cart",
    "date_created": "2024-04-19T13:48:21.000",
    "date_modified": "2024-04-19T13:48:22.000",
    "request_status": "Pending",
    "responsible_agency": "Department of Sanitation",
    "final_address": "3646 Piedmont Dr",
    "address_councildis": "D",
    "status": "Assigned to Contractor",
    "contractor": "IV Waste",
    "rowid": "1086351",
    "final_x": "3685938.84834",
    "final_y": "546041.952144",
    "longitude": "-90.05354191028339",
    "latitude": "29.99529043871296",
    "geocoded_column": {
      "latitude": "29.99529043871296",
      "longitude": "-90.05354191028339"
    }
  },
  {
    "service_request": "2024-1086350",
    "request_type": "Trash/Recycling",
    "request_reason": "Repair Trash Cart",
    "date_created": "2024-04-19T13:47:45.000",
    "date_modified": "2024-04-19T13:47:46.000",
    "request_status": "Pending",
    "responsible_agency": "Department of Sanitation",
    "final_address": "3646 Piedmont Dr",
    "address_councildis": "D",
    "status": "Assigned to Contractor",
    "contractor": "IV Waste",
    "rowid": "1086350",
    "final_x": "3685938.84834",
    "final_y": "546041.952144",
    "longitude": "-90.05354191028339",
    "latitude": "29.99529043871296",
    "geocoded_column": {
      "latitude": "29.99529043871296",
      "longitude": "-90.05354191028339"
    }
  },
  {
    "service_request": "2024-1086349",
    "request_type": "Trash/Recycling",
    "request_reason": "Missed Trash Pick-Up",
    "date_created": "2024-04-19T13:46:00.000",
    "date_modified": "2024-04-19T13:46:01.000",
    "request_status": "Pending",
    "responsible_agency": "Department of Sanitation",
    "final_address": "6135 Chartres St",
    "address_councildis": "E",
    "status": "Assigned to Contractor",
    "contractor": "Waste Pro",
    "rowid": "1086349",
    "final_x": "3699024.64196",
    "final_y": "531485.532739",
    "longitude": "-90.0127354050799",
    "latitude": "29.954857184955504",
    "geocoded_column": {
      "latitude": "29.954857184955504",
      "longitude": "-90.0127354050799"
    }
  },
  {
    "service_request": "2024-1086348",
    "request_type": "Trash/Recycling",
    "request_reason": "Request a Large Item Pick Up",
    "date_created": "2024-04-19T13:45:24.000",
    "date_modified": "2024-04-19T13:45:24.000",
    "request_status": "Pending",
    "responsible_agency": "Department of Sanitation",
    "final_address": "New Orleans,LA",
    "status": "Assigned to Contractor",
    "rowid": "1086348",
    "longitude": "0.0",
    "latitude": "0.0",
    "geocoded_column": {
      "latitude": "0.0",
      "longitude": "0.0"
    }
  },
  {
    "service_request": "2024-1086347",
    "request_type": "Trash/Recycling",
    "request_reason": "Repair Trash Cart",
    "date_created": "2024-04-19T13:44:26.000",
    "date_modified": "2024-04-19T13:44:27.000",
    "request_status": "Pending",
    "responsible_agency": "Department of Sanitation",
    "final_address": "3911 Delachaise St",
    "address_councildis": "B",
    "status": "Assigned to Contractor",
    "contractor": "IV Waste",
    "rowid": "1086347",
    "final_x": "3671000.42363",
    "final_y": "529059.803968",
    "longitude": "-90.10130781226698",
    "latitude": "29.949045569443633",
    "geocoded_column": {
      "latitude": "29.949045569443633",
      "longitude": "-90.10130781226698"
    }
  },
  {
    "service_request": "2024-1086346",
    "request_type": "Trash/Recycling",
    "request_reason": "Replace Trash Cart",
    "date_created": "2024-04-19T13:30:07.000",
    "date_modified": "2024-04-19T13:30:08.000",
    "request_status": "Pending",
    "responsible_agency": "Department of Sanitation",
    "final_address": "4020 Camp St",
    "address_councildis": "B",
    "status": "Assigned to Contractor",
    "contractor": "IV Waste",
    "rowid": "1086346",
    "final_x": "3672329.72443",
    "final_y": "519227.943799",
    "longitude": "-90.09744545234194",
    "latitude": "29.92197177222624",
    "geocoded_column": {
      "latitude": "29.92197177222624",
      "longitude": "-90.09744545234194"
    }
  },
  {
    "service_request": "2024-1086345",
    "request_type": "Trash/Recycling",
    "request_reason": "Request a Large Item Pick Up",
    "date_created": "2024-04-19T13:26:20.000",
    "date_modified": "2024-04-19T13:26:20.000",
    "request_status": "Pending",
    "responsible_agency": "Department of Sanitation",
    "final_address": "3830 Napoleon Ave",
    "address_councildis": "B",
    "status": "Assigned to Contractor",
    "contractor": "IV Waste",
    "rowid": "1086345",
    "final_x": "3669916.20814",
    "final_y": "528720.800384",
    "longitude": "-90.10474263944931",
    "latitude": "29.948145430551396",
    "geocoded_column": {
      "latitude": "29.948145430551396",
      "longitude": "-90.10474263944931"
    }
  },
  {
    "service_request": "2024-1086344",
    "request_type": "Trash/Recycling",
    "request_reason": "Replace Trash Cart",
    "date_created": "2024-04-19T13:25:55.000",
    "date_modified": "2024-04-19T13:25:56.000",
    "request_status": "Pending",
    "responsible_agency": "Department of Sanitation",
    "final_address": "7821 Butterfield Rd",
    "address_councildis": "E",
    "status": "Assigned to Contractor",
    "contractor": "Waste Pro",
    "rowid": "1086344",
    "final_x": "3699571.98935",
    "final_y": "560985.682206",
    "longitude": "-90.00993125366848",
    "latitude": "30.035954301921223",
    "geocoded_column": {
      "latitude": "30.035954301921223",
      "longitude": "-90.00993125366848"
    }
  },
  {
    "service_request": "2024-1086343",
    "request_type": "Trash/Recycling",
    "request_reason": "Replace Recycling Cart",
    "date_created": "2024-04-19T13:24:15.000",
    "date_modified": "2024-04-19T13:24:15.000",
    "request_status": "Pending",
    "responsible_agency": "Department of Sanitation",
    "final_address": "1921 Burgundy St",
    "address_councildis": "C",
    "status": "Pending",
    "rowid": "1086343",
    "final_x": "3684112.86063",
    "final_y": "535539.768518",
    "longitude": "-90.0596787727184",
    "latitude": "29.96646907457239",
    "geocoded_column": {
      "latitude": "29.96646907457239",
      "longitude": "-90.0596787727184"
    }
  },
  {
    "service_request": "2024-1086342",
    "request_type": "Trash/Recycling",
    "request_reason": "Order Trash Cart",
    "date_created": "2024-04-19T13:22:50.000",
    "date_modified": "2024-04-19T13:22:50.000",
    "request_status": "Pending",
    "responsible_agency": "Department of Sanitation",
    "final_address": "1215 Seventh St",
    "address_councildis": "B",
    "status": "Assigned to Contractor",
    "contractor": "IV Waste",
    "rowid": "1086342",
    "final_x": "3676144.31861",
    "final_y": "520810.233849",
    "longitude": "-90.08534997280675",
    "latitude": "29.926208875839357",
    "geocoded_column": {
      "latitude": "29.926208875839357",
      "longitude": "-90.08534997280675"
    }
  },
  {
    "service_request": "2024-1086341",
    "request_type": "Traffic Signals/Signs/Striping/Streetlights",
    "request_reason": "Street Light Outage/Malfunction",
    "date_created": "2024-04-19T13:19:28.000",
    "date_modified": "2024-04-19T14:23:21.000",
    "request_status": "Pending",
    "responsible_agency": "Department of Public Works",
    "final_address": "101 Westchester Pl, New Orleans, Louisiana, 70131",
    "address_councildis": "C",
    "status": "Assigned to Contractor",
    "contractor": "Legacy Professional Services",
    "rowid": "1086341",
    "final_x": "3706097.16964",
    "final_y": "521753.911802",
    "longitude": "-89.99076328408194",
    "latitude": "29.927872656670797",
    "geocoded_column": {
      "latitude": "29.927872656670797",
      "longitude": "-89.99076328408194"
    }
  },
  {
    "service_request": "2024-1086340",
    "request_type": "Trash/Recycling",
    "request_reason": "Missed Trash Pick-Up",
    "date_created": "2024-04-19T13:17:36.000",
    "date_modified": "2024-04-19T16:25:12.000",
    "case_close_date": "2024-04-19T11:25:12.000",
    "request_status": "Closed",
    "responsible_agency": "Department of Sanitation",
    "final_address": "2200 BLK New Orleans St",
    "address_councildis": "D",
    "status": "Invalid Request",
    "contractor": "IV Waste",
    "contractor_action": "Invalid",
    "rowid": "1086340",
    "final_x": "3682068.87073",
    "final_y": "540331.549374",
    "longitude": "-90.06596628782827",
    "latitude": "29.979707125434974",
    "geocoded_column": {
      "latitude": "29.979707125434974",
      "longitude": "-90.06596628782827"
    }
  },
  {
    "service_request": "2024-1086339",
    "request_type": "Trash/Recycling",
    "request_reason": "Request a Large Item Pick Up",
    "date_created": "2024-04-19T13:16:57.000",
    "date_modified": "2024-04-19T13:16:57.000",
    "request_status": "Pending",
    "responsible_agency": "Department of Sanitation",
    "final_address": "5200 Toulon St",
    "address_councildis": "E",
    "status": "Assigned to Contractor",
    "contractor": "Waste Pro",
    "rowid": "1086339",
    "final_x": "3723502.32959",
    "final_y": "562454.791327",
    "longitude": "-89.9342512645963",
    "latitude": "30.03921207869082",
    "geocoded_column": {
      "latitude": "30.03921207869082",
      "longitude": "-89.9342512645963"
    }
  },
  {
    "service_request": "2024-1086338",
    "request_type": "Trash/Recycling",
    "request_reason": "Request a Large Item Pick Up",
    "date_created": "2024-04-19T13:14:33.000",
    "date_modified": "2024-04-19T13:14:34.000",
    "request_status": "Pending",
    "responsible_agency": "Department of Sanitation",
    "final_address": "1926 Burdette St",
    "address_councildis": "A",
    "status": "Assigned to Contractor",
    "contractor": "IV Waste",
    "rowid": "1086338",
    "final_x": "3664566.11629",
    "final_y": "529625.166145",
    "longitude": "-90.1216049357288",
    "latitude": "29.950788793727185",
    "geocoded_column": {
      "latitude": "29.950788793727185",
      "longitude": "-90.1216049357288"
    }
  },
  {
    "service_request": "2024-1086337",
    "request_type": "Trash/Recycling",
    "request_reason": "Missed Trash Pick-Up",
    "date_created": "2024-04-19T13:13:01.000",
    "date_modified": "2024-04-19T13:30:09.000",
    "case_close_date": "2024-04-19T08:30:09.000",
    "request_status": "Closed",
    "responsible_agency": "Department of Sanitation",
    "final_address": "11240 Lake Forest Blvd",
    "address_councildis": "E",
    "status": "Assigned to Contractor",
    "contractor": "Waste Pro",
    "contractor_action": "Completed",
    "rowid": "1086337",
    "final_x": "3716186.36901",
    "final_y": "561538.416799",
    "longitude": "-89.95740633339193",
    "latitude": "30.03693600874814",
    "geocoded_column": {
      "latitude": "30.03693600874814",
      "longitude": "-89.95740633339193"
    }
  },
  {
    "service_request": "2024-1086336",
    "request_type": "Trash/Recycling",
    "request_reason": "Missed Trash Pick-Up",
    "date_created": "2024-04-19T13:11:06.000",
    "date_modified": "2024-04-19T13:11:07.000",
    "request_status": "Pending",
    "responsible_agency": "Department of Sanitation",
    "final_address": "4734 Bonita Dr",
    "address_councildis": "E",
    "status": "Assigned to Contractor",
    "contractor": "Waste Pro",
    "rowid": "1086336",
    "final_x": "3704431.2961",
    "final_y": "555224.748441",
    "longitude": "-89.99478772628613",
    "latitude": "30.019958761129878",
    "geocoded_column": {
      "latitude": "30.019958761129878",
      "longitude": "-89.99478772628613"
    }
  },
  {
    "service_request": "2024-1086335",
    "request_type": "Trash/Recycling",
    "request_reason": "Replace Trash Cart",
    "date_created": "2024-04-19T13:09:19.000",
    "date_modified": "2024-04-19T13:09:20.000",
    "request_status": "Pending",
    "responsible_agency": "Department of Sanitation",
    "final_address": "2424 Short St",
    "address_councildis": "A",
    "status": "Assigned to Contractor",
    "contractor": "IV Waste",
    "rowid": "1086335",
    "final_x": "3665330.73709",
    "final_y": "531454.212291",
    "longitude": "-90.11912944484438",
    "latitude": "29.955795820590712",
    "geocoded_column": {
      "latitude": "29.955795820590712",
      "longitude": "-90.11912944484438"
    }
  },
  {
    "service_request": "2024-1086334",
    "request_type": "Trash/Recycling",
    "request_reason": "Request a Large Item Pick Up",
    "date_created": "2024-04-19T13:09:04.000",
    "date_modified": "2024-04-19T13:09:04.000",
    "request_status": "Pending",
    "responsible_agency": "Department of Sanitation",
    "final_address": "3132 Napoleon Ave",
    "address_councildis": "B",
    "status": "Assigned to Contractor",
    "contractor": "IV Waste",
    "rowid": "1086334",
    "final_x": "3670154.6747",
    "final_y": "526502.741758",
    "longitude": "-90.10406483362624",
    "latitude": "29.94203945920607",
    "geocoded_column": {
      "latitude": "29.94203945920607",
      "longitude": "-90.10406483362624"
    }
  },
  {
    "service_request": "2024-1086333",
    "request_type": "Healthy Homes",
    "request_reason": "Healthy Homes",
    "date_created": "2024-04-19T13:08:44.000",
    "date_modified": "2024-04-19T14:36:36.000",
    "case_close_date": "2024-04-19T09:36:36.000",
    "request_status": "Closed",
    "responsible_agency": "Department of Code Enforcement",
    "final_address": "5825 Fontainebleau Dr",
    "address_councildis": "B",
    "status": "Referred to Code Enforcement",
    "rowid": "1086333",
    "final_x": "3668326.61178",
    "final_y": "529916.278593",
    "longitude": "-90.10972135085393",
    "latitude": "29.951479375246524",
    "geocoded_column": {
      "latitude": "29.951479375246524",
      "longitude": "-90.10972135085393"
    }
  },
  {
    "service_request": "2024-1086332",
    "request_type": "Tax and Revenue",
    "request_reason": "Sales Tax Question",
    "date_created": "2024-04-19T13:05:21.000",
    "date_modified": "2024-04-19T13:05:21.000",
    "request_status": "Pending",
    "responsible_agency": "Bureau of Revenue",
    "final_address": "115 Magazine St",
    "address_councildis": "B",
    "status": "Pending",
    "rowid": "1086332",
    "final_x": "3681681.9821",
    "final_y": "530031.647169",
    "longitude": "-90.06754760441618",
    "latitude": "29.951397689579263",
    "geocoded_column": {
      "latitude": "29.951397689579263",
      "longitude": "-90.06754760441618"
    }
  },
  {
    "service_request": "2024-1086331",
    "request_type": "Trash/Recycling",
    "request_reason": "Request a Large Item Pick Up",
    "date_created": "2024-04-19T13:04:52.000",
    "date_modified": "2024-04-19T13:04:53.000",
    "request_status": "Pending",
    "responsible_agency": "Department of Sanitation",
    "final_address": "1724 Frenchmen St",
    "address_councildis": "D",
    "status": "Assigned to Contractor",
    "contractor": "IV Waste",
    "rowid": "1086331",
    "final_x": "3684365.27644",
    "final_y": "538688.057481",
    "longitude": "-90.05877105662731",
    "latitude": "29.975118058168416",
    "geocoded_column": {
      "latitude": "29.975118058168416",
      "longitude": "-90.05877105662731"
    }
  },
  {
    "service_request": "2024-1086330",
    "request_type": "Property Maintenance",
    "request_reason": "Property Maintenance",
    "date_created": "2024-04-19T12:54:48.000",
    "date_modified": "2024-04-19T12:57:31.000",
    "request_status": "Pending",
    "responsible_agency": "Department of Code Enforcement",
    "final_address": "2033 Mazant St",
    "address_councildis": "D",
    "status": "Pending",
    "rowid": "1086330",
    "final_x": "3693048.42966",
    "final_y": "538852.523849",
    "longitude": "-90.03134160786732",
    "latitude": "29.975301846883408",
    "geocoded_column": {
      "latitude": "29.975301846883408",
      "longitude": "-90.03134160786732"
    }
  },
  {
    "service_request": "2024-1086329",
    "request_type": "Abandoned Vehicles",
    "request_reason": "Abandoned/Junk Vehicles",
    "date_created": "2024-04-19T12:42:07.000",
    "date_modified": "2024-04-19T12:42:07.000",
    "request_status": "Pending",
    "responsible_agency": "Department of Public Works",
    "final_address": "1136 Merrill St",
    "address_councildis": "C",
    "status": "Pending",
    "rowid": "1086329",
    "final_x": "3695021.58275",
    "final_y": "527732.698687",
    "longitude": "-90.02551073403205",
    "latitude": "29.94466444959301",
    "geocoded_column": {
      "latitude": "29.94466444959301",
      "longitude": "-90.02551073403205"
    }
  },
  {
    "service_request": "2024-1086328",
    "request_type": "Abandoned Vehicles",
    "request_reason": "Abandoned/Junk Vehicles",
    "date_created": "2024-04-19T12:39:24.000",
    "date_modified": "2024-04-19T12:40:53.000",
    "request_status": "Pending",
    "responsible_agency": "Department of Public Works",
    "final_address": "438 Eighth St",
    "address_councildis": "B",
    "status": "Pending",
    "rowid": "1086328",
    "final_x": "3677111.56936",
    "final_y": "518640.134839",
    "longitude": "-90.08237142583228",
    "latitude": "29.920212803041746",
    "geocoded_column": {
      "latitude": "29.920212803041746",
      "longitude": "-90.08237142583228"
    }
  },
  {
    "service_request": "2024-1086327",
    "request_type": "Roads/Drainage",
    "request_reason": "Man hole cover issue",
    "date_created": "2024-04-19T12:39:18.000",
    "date_modified": "2024-04-19T12:42:59.000",
    "request_status": "Pending",
    "responsible_agency": "Department of Public Works",
    "final_address": "1601 Burdette St",
    "address_councildis": "A",
    "rowid": "1086327",
    "final_x": "3663798.37754",
    "final_y": "528653.434176",
    "longitude": "-90.12406145590433",
    "latitude": "29.94813914582865",
    "geocoded_column": {
      "latitude": "29.94813914582865",
      "longitude": "-90.12406145590433"
    }
  },
  {
    "service_request": "2024-1086326",
    "request_type": "Abandoned Vehicles",
    "request_reason": "Abandoned/Junk Vehicles",
    "date_created": "2024-04-19T12:37:49.000",
    "date_modified": "2024-04-19T12:37:50.000",
    "request_status": "Pending",
    "responsible_agency": "Department of Public Works",
    "final_address": "4441 Reynes St",
    "address_councildis": "E",
    "status": "Pending",
    "rowid": "1086326",
    "final_x": "3699383.91127",
    "final_y": "553396.779159",
    "longitude": "-90.01080241621786",
    "latitude": "30.015093698992324",
    "geocoded_column": {
      "latitude": "30.015093698992324",
      "longitude": "-90.01080241621786"
    }
  },
  {
    "service_request": "2024-1086325",
    "request_type": "Trash/Recycling",
    "request_reason": "Replace Recycling Cart",
    "date_created": "2024-04-19T12:35:25.000",
    "date_modified": "2024-04-19T12:35:25.000",
    "request_status": "Pending",
    "responsible_agency": "Department of Sanitation",
    "final_address": "3143 Chippewa St",
    "address_councildis": "B",
    "status": "Pending",
    "rowid": "1086325",
    "final_x": "3676600.06657",
    "final_y": "518756.909943",
    "longitude": "-90.083981978868",
    "latitude": "29.92054924204795",
    "geocoded_column": {
      "latitude": "29.92054924204795",
      "longitude": "-90.083981978868"
    }
  },
  {
    "service_request": "2024-1086324",
    "request_type": "Roads/Drainage",
    "request_reason": "Damaged Sidewalk",
    "date_created": "2024-04-19T12:34:39.000",
    "date_modified": "2024-04-19T12:34:40.000",
    "request_status": "Pending",
    "responsible_agency": "Department of Public Works",
    "final_address": "6039 Elysian Fields Ave",
    "address_councildis": "D",
    "status": "Pending",
    "rowid": "1086324",
    "final_x": "3683605.41135",
    "final_y": "555278.962713",
    "longitude": "-90.06058888945341",
    "latitude": "30.02076032775984",
    "geocoded_column": {
      "latitude": "30.02076032775984",
      "longitude": "-90.06058888945341"
    }
  },
  {
    "service_request": "2024-1086323",
    "request_type": "Abandoned Vehicles",
    "request_reason": "Abandoned/Junk Vehicles",
    "date_created": "2024-04-19T12:33:55.000",
    "date_modified": "2024-04-19T12:33:55.000",
    "request_status": "Pending",
    "responsible_agency": "Department of Public Works",
    "final_address": "4858 Hickerson Dr",
    "address_councildis": "E",
    "status": "Pending",
    "rowid": "1086323",
    "final_x": "3710139.13829",
    "final_y": "556643.416346",
    "longitude": "-89.9766998704206",
    "latitude": "30.02367496877861",
    "geocoded_column": {
      "latitude": "30.02367496877861",
      "longitude": "-89.9766998704206"
    }
  },
  {
    "service_request": "2024-1086322",
    "request_type": "Safety & Permits",
    "request_reason": "Licenses & Permits",
    "date_created": "2024-04-19T12:30:59.000",
    "date_modified": "2024-04-19T12:31:00.000",
    "request_status": "Pending",
    "responsible_agency": "Safety and Permits",
    "final_address": "GIROD ST & CHURCH ST",
    "address_councildis": "B",
    "status": "Pending",
    "rowid": "1086322",
    "final_x": "3680720.0",
    "final_y": "528497.98",
    "longitude": "-90.07063843558092",
    "latitude": "29.94720980540053",
    "geocoded_column": {
      "latitude": "29.94720980540053",
      "longitude": "-90.07063843558092"
    }
  },
  {
    "service_request": "2024-1086321",
    "request_type": "Property Maintenance",
    "request_reason": "Property Maintenance",
    "date_created": "2024-04-19T12:30:56.000",
    "date_modified": "2024-04-19T12:30:56.000",
    "request_status": "Pending",
    "responsible_agency": "Department of Code Enforcement",
    "final_address": "4627 Pecan St",
    "address_councildis": "E",
    "status": "Pending",
    "rowid": "1086321",
    "final_x": "3701930.25252",
    "final_y": "553616.698327",
    "longitude": "-90.00274917112537",
    "latitude": "30.015617335648592",
    "geocoded_column": {
      "latitude": "30.015617335648592",
      "longitude": "-90.00274917112537"
    }
  },
  {
    "service_request": "2024-1086320",
    "request_type": "Trash/Recycling",
    "request_reason": "Repair Trash Cart",
    "date_created": "2024-04-19T12:28:23.000",
    "date_modified": "2024-04-19T12:28:23.000",
    "request_status": "Pending",
    "responsible_agency": "Department of Sanitation",
    "final_address": "7724 Duke Ct",
    "address_councildis": "E",
    "status": "Assigned to Contractor",
    "contractor": "Waste Pro",
    "rowid": "1086320",
    "final_x": "3700070.78116",
    "final_y": "560952.216798",
    "longitude": "-90.00835621102274",
    "latitude": "30.035846435434742",
    "geocoded_column": {
      "latitude": "30.035846435434742",
      "longitude": "-90.00835621102274"
    }
  },
  {
    "service_request": "2024-1086319",
    "request_type": "Trash/Recycling",
    "request_reason": "Return Trash Cart",
    "date_created": "2024-04-19T12:27:50.000",
    "date_modified": "2024-04-19T12:27:50.000",
    "request_status": "Pending",
    "responsible_agency": "Department of Sanitation",
    "final_address": "1601 Burdette St",
    "address_councildis": "A",
    "status": "Assigned to Contractor",
    "contractor": "IV Waste",
    "rowid": "1086319",
    "final_x": "3663798.37754",
    "final_y": "528653.434176",
    "longitude": "-90.12406145590433",
    "latitude": "29.94813914582865",
    "geocoded_column": {
      "latitude": "29.94813914582865",
      "longitude": "-90.12406145590433"
    }
  },
  {
    "service_request": "2024-1086318",
    "request_type": "Roads/Drainage",
    "request_reason": "Street Flooding / Drainage",
    "date_created": "2024-04-19T12:26:00.000",
    "date_modified": "2024-04-19T12:26:00.000",
    "request_status": "Pending",
    "responsible_agency": "Department of Public Works",
    "final_address": "2900 BLK Saint Philip St",
    "address_councildis": "A",
    "status": "Pending",
    "rowid": "1086318",
    "final_x": "3676626.337",
    "final_y": "538448.619741",
    "longitude": "-90.08322091589125",
    "latitude": "29.974694115961668",
    "geocoded_column": {
      "latitude": "29.974694115961668",
      "longitude": "-90.08322091589125"
    }
  },
  {
    "service_request": "2024-1086317",
    "request_type": "Abandoned Vehicles",
    "request_reason": "Abandoned/Junk Vehicles",
    "date_created": "2024-04-19T12:24:17.000",
    "date_modified": "2024-04-19T12:24:17.000",
    "request_status": "Pending",
    "responsible_agency": "Department of Public Works",
    "final_address": "4900 BLK Spain St",
    "address_councildis": "D",
    "status": "Pending",
    "rowid": "1086317",
    "final_x": "3684934.83974",
    "final_y": "551113.584568",
    "longitude": "-90.05653494921434",
    "latitude": "30.009266393603923",
    "geocoded_column": {
      "latitude": "30.009266393603923",
      "longitude": "-90.05653494921434"
    }
  },