[
  {
    "service_request": "2025-1160107",
    "request_type": "Trash/Recycling",
    "request_reason": "Replace Trash Cart",
    "date_created": "2025-01-06T23:55:45.000",
    "date_modified": "2025-01-06T23:55:46.000",
    "request_status": "Pending",
    "responsible_agency": "Department of Sanitation",
    "final_address": "1225 Fern St Apt 2A",
    "address_councildis": "A",
    "status": "Assigned to Contractor",
    "contractor": "IV Waste",
    "rowid": "1160107",
    "final_x": "3662723.86631",
    "final_y": "527949.951871",
    "longitude": "-90.12747751713758",
    "latitude": "29.94623593237217",
    "geocoded_column": {
      "latitude": "29.94623593237217",
      "longitude": "-90.12747751713758"
    }
  },
  {
    "service_request": "2025-1160106",
    "request_type": "Health Related Request",
    "request_reason": "Noise Ordinance Complaint",
    "date_created": "2025-01-06T23:54:21.000",
    "date_modified": "2025-01-06T23:54:26.000",
    "request_status": "Pending",
    "responsible_agency": "Health Department",
    "final_address": "3821 Franklin Ave Apt A204",
    "address_councildis": "D",
    "status": "Pending",
    "rowid": "1160106",
    "final_x": "3687197.96802",
    "final_y": "547122.074705",
    "longitude": "-90.04952625919651",
    "latitude": "29.99822165776239",
    "geocoded_column": {
      "latitude": "29.99822165776239",
      "longitude": "-90.04952625919651"
    }
  },
  {
    "service_request": "2025-1160105",
    "request_type": "Trash/Recycling",
    "request_reason": "Order Trash Cart",
    "date_created": "2025-01-06T23:38:51.000",
    "date_modified": "2025-01-06T23:38:52.000",
    "request_status": "Pending",
    "responsible_agency": "Department of Sanitation",
    "final_address": "1225 Fern St Apt 2B",
    "address_councildis": "A",
    "status": "Assigned to Contractor",
    "contractor": "IV Waste",
    "rowid": "1160105",
    "final_x": "3662737.19251",
    "final_y": "527965.943295",
    "longitude": "-90.1274349101259",
    "latitude": "29.946279518041383",
    "geocoded_column": {
      "latitude": "29.946279518041383",
      "longitude": "-90.1274349101259"
    }
  },
  {
    "service_request": "2025-1160104",
    "request_type": "Trash/Recycling",
    "request_reason": "Replace Trash Cart",
    "date_created": "2025-01-06T23:37:17.000",
    "date_modified": "2025-01-06T23:37:18.000",
    "request_status": "Pending",
    "responsible_agency": "Department of Sanitation",
    "final_address": "1225 Fern St Apt 2B",
    "address_councildis": "A",
    "status": "Assigned to Contractor",
    "contractor": "IV Waste",
    "rowid": "1160104",
    "final_x": "3662737.19251",
    "final_y": "527965.943295",
    "longitude": "-90.1274349101259",
    "latitude": "29.946279518041383",
    "geocoded_column": {
      "latitude": "29.946279518041383",
      "longitude": "-90.1274349101259"
    }
  },
  {
    "service_request": "2025-1160103",
    "request_type": "Property Maintenance",
    "request_reason": "Property Maintenance",
    "date_created": "2025-01-06T23:18:48.000",
    "date_modified": "2025-01-06T23:18:50.000",
    "request_status": "Pending",
    "responsible_agency": "Department of Code Enforcement",
    "final_address": "1215 St Anthony St",
    "address_councildis": "C",
    "status": "Pending",
    "rowid": "1160103",
    "final_x": "3683554.72373",
    "final_y": "536318.237191",
    "longitude": "-90.06141407059715",
    "latitude": "29.968626641401414",
    "geocoded_column": {
      "latitude": "29.968626641401414",
      "longitude": "-90.06141407059715"
    }
  },
  {
    "service_request": "2025-1160102",
    "request_type": "Family Reunification",
    "request_reason": "Misplaced Citizen",
    "date_created": "2025-01-06T23:08:01.000",
    "date_modified": "2025-01-06T23:08:03.000",
    "request_status": "Pending",
    "responsible_agency": "Health Department",
    "final_address": "7749 Scottwood Dr",
    "address_councildis": "E",
    "status": "Pending",
    "rowid": "1160102",
    "final_x": "3716881.70021",
    "final_y": "571406.330536",
    "longitude": "-89.95483379514474",
    "latitude": "30.064045746531615",
    "geocoded_column": {
      "latitude": "30.064045746531615",
      "longitude": "-89.95483379514474"
    }
  },
  {
    "service_request": "2025-1160101",
    "request_type": "Trash/Recycling",
    "request_reason": "Replace Trash Cart",
    "date_created": "2025-01-06T23:06:43.000",
    "date_modified": "2025-01-06T23:06:44.000",
    "request_status": "Pending",
    "responsible_agency": "Department of Sanitation",
    "final_address": "5956 General Haig St",
    "address_councildis": "A",
    "status": "Assigned to Contractor",
    "contractor": "IV Waste",
    "rowid": "1160101",
    "final_x": "3670444.40814",
    "final_y": "546884.773457",
    "longitude": "-90.10245882063504",
    "latitude": "29.998074653501632",
    "geocoded_column": {
      "latitude": "29.998074653501632",
      "longitude": "-90.10245882063504"
    }
  },
  {
    "service_request": "2025-1160100",
    "request_type": "Trash/Recycling",
    "request_reason": "MIssed Recycling Pick-Up",
    "date_created": "2025-01-06T22:19:13.000",
    "date_modified": "2025-01-06T22:19:14.000",
    "request_status": "Pending",
    "responsible_agency": "Department of Sanitation",
    "final_address": "4355 General Meyer Ave",
    "address_councildis": "C",
    "status": "Assigned to Contractor",
    "contractor": "Richards Disposal",
    "rowid": "1160100",
    "final_x": "3699953.95274",
    "final_y": "524186.90854",
    "longitude": "-90.01006716171995",
    "latitude": "29.934759046262933",
    "geocoded_column": {
      "latitude": "29.934759046262933",
      "longitude": "-90.01006716171995"
    }
  },
  {
    "service_request": "2025-1160099",
    "request_type": "Trash/Recycling",
    "request_reason": "Replace Trash Cart",
    "date_created": "2025-01-06T22:08:32.000",
    "date_modified": "2025-01-06T22:08:33.000",
    "request_status": "Pending",
    "responsible_agency": "Department of Sanitation",
    "final_address": "1317 Burdette St",
    "address_councildis": "A",
    "status": "Assigned to Contractor",
    "contractor": "IV Waste",
    "rowid": "1160099",
    "final_x": "3663143.15533",
    "final_y": "527941.150911",
    "longitude": "-90.12615396268286",
    "latitude": "29.946199592971233",
    "geocoded_column": {
      "latitude": "29.946199592971233",
      "longitude": "-90.12615396268286"
    }
  },
  {
    "service_request": "2025-1160098",
    "request_type": "Trash/Recycling",
    "request_reason": "Order Second Trash Cart",
    "date_created": "2025-01-06T22:01:38.000",
    "date_modified": "2025-01-06T22:01:38.000",
    "request_status": "Pending",
    "responsible_agency": "Department of Sanitation",
    "final_address": "7530 Lady Gray St",
    "address_councildis": "E",
    "status": "Assigned to Contractor",
    "contractor": "Waste Pro",
    "rowid": "1160098",
    "final_x": "3710148.29304",
    "final_y": "564907.600738",
    "longitude": "-89.97636169715221",
    "latitude": "30.046397896000524",
    "geocoded_column": {
      "latitude": "30.046397896000524",
      "longitude": "-89.97636169715221"
    }
  },
  {
    "service_request": "2025-1160097",
    "request_type": "Trash/Recycling",
    "request_reason": "Request a Large Item Pick Up",
    "date_created": "2025-01-06T22:00:48.000",
    "date_modified": "2025-01-06T22:00:49.000",
    "request_status": "Pending",
    "responsible_agency": "Department of Sanitation",
    "final_address": "1614 N Lopez St",
    "address_councildis": "A",
    "status": "Assigned to Contractor",
    "contractor": "IV Waste",
    "rowid": "1160097",
    "final_x": "3676639.26958",
    "final_y": "540669.899979",
    "longitude": "-90.08310352683742",
    "latitude": "29.980801485029264",
    "geocoded_column": {
      "latitude": "29.980801485029264",
      "longitude": "-90.08310352683742"
    }
  },
  {
    "service_request": "2025-1160096",
    "request_type": "Streetlights",
    "request_reason": "Streetlight Outage/Malfunction",
    "date_created": "2025-01-06T21:51:35.000",
    "date_modified": "2025-01-06T21:51:36.000",
    "request_status": "Pending",
    "responsible_agency": "Department of Public Works",
    "final_address": "DWYER RD & BASINVIEW DR",
    "address_councildis": "E",
    "status": "Pending",
    "contractor": "Legacy Professional Services",
    "rowid": "1160096",
    "final_x": "3698626.8",
    "final_y": "555444.28",
    "longitude": "-90.01311997926317",
    "latitude": "30.020747555859757",
    "geocoded_column": {
      "latitude": "30.020747555859757",
      "longitude": "-90.01311997926317"
    }
  },
  {
    "service_request": "2025-1160095",
    "request_type": "Abandoned Vehicles",
    "request_reason": "Abandoned/Junk Vehicles",
    "date_created": "2025-01-06T21:24:26.000",
    "date_modified": "2025-01-06T21:24:28.000",
    "request_status": "Pending",
    "responsible_agency": "Department of Public Works",
    "final_address": "2401 St Ann St",
    "address_councildis": "D",
    "status": "Pending",
    "rowid": "1160095",
    "final_x": "3678006.47618",
    "final_y": "536449.586183",
    "longitude": "-90.07893120924889",
    "latitude": "29.969155983851625",
    "geocoded_column": {
      "latitude": "29.969155983851625",
      "longitude": "-90.07893120924889"
    }
  },
  {
    "service_request": "2025-1160094",
    "request_type": "Property Maintenance",
    "request_reason": "Property Maintenance",
    "date_created": "2025-01-06T21:23:12.000",
    "date_modified": "2025-01-06T21:23:16.000",
    "request_status": "Pending",
    "responsible_agency": "Department of Code Enforcement",
    "final_address": "710 N Carrollton Ave",
    "address_councildis": "A",
    "status": "Pending",
    "rowid": "1160094",
    "final_x": "3672733.29659",
    "final_y": "539957.811658",
    "longitude": "-90.09546463261647",
    "latitude": "29.978960092375473",
    "geocoded_column": {
      "latitude": "29.978960092375473",
      "longitude": "-90.09546463261647"
    }
  },
  {
    "service_request": "2025-1160092",
    "request_type": "Abandoned Vehicles",
    "request_reason": "Abandoned/Junk Vehicles",
    "date_created": "2025-01-06T21:04:38.000",
    "date_modified": "2025-01-06T21:04:40.000",
    "request_status": "Pending",
    "responsible_agency": "Department of Public Works",
    "final_address": "POWDER ST & ALIX ST",
    "address_councildis": "C",
    "status": "Pending",
    "rowid": "1160092",
    "final_x": "3685828.5",
    "final_y": "529516.58",
    "longitude": "-90.05447310936117",
    "latitude": "29.949854828776488",
    "geocoded_column": {
      "latitude": "29.949854828776488",
      "longitude": "-90.05447310936117"
    }
  },
  {
    "service_request": "2025-1160091",
    "request_type": "Trash/Recycling",
    "request_reason": "Request a Large Item Pick Up",
    "date_created": "2025-01-06T20:18:05.000",
    "date_modified": "2025-01-06T20:18:06.000",
    "request_status": "Pending",
    "responsible_agency": "Department of Sanitation",
    "final_address": "6357 Congress Dr",
    "address_councildis": "D",
    "status": "Assigned to Contractor",
    "contractor": "IV Waste",
    "rowid": "1160091",
    "final_x": "3690625.8776",
    "final_y": "556984.090714",
    "longitude": "-90.038345465967",
    "latitude": "30.025232506227532",
    "geocoded_column": {
      "latitude": "30.025232506227532",
      "longitude": "-90.038345465967"
    }
  },
  {
    "service_request": "2025-1160090",
    "request_type": "Streetlights",
    "request_reason": "Streetlight Outage/Malfunction",
    "date_created": "2025-01-06T20:15:14.000",
    "date_modified": "2025-01-06T20:15:15.000",
    "request_status": "Pending",
    "responsible_agency": "Department of Public Works",
    "final_address": "2100 BLK Pine St",
    "address_councildis": "A",
    "status": "Pending",
    "contractor": "Legacy Professional Services",
    "rowid": "1160090",
    "final_x": "3665796.76679",
    "final_y": "529457.289298",
    "longitude": "-90.11772477583126",
    "latitude": "29.950291344861945",
    "geocoded_column": {
      "latitude": "29.950291344861945",
      "longitude": "-90.11772477583126"
    }
  },
  {
    "service_request": "2025-1160089",
    "request_type": "Traffic Signals",
    "request_reason": "Traffic Signal Malfunctioning or Damaged",
    "date_created": "2025-01-06T19:52:55.000",
    "date_modified": "2025-01-06T19:52:58.000",
    "request_status": "Pending",
    "responsible_agency": "Department of Public Works",
    "final_address": "6600 BLK Franklin Ave",
    "address_councildis": "D",
    "status": "Pending",
    "rowid": "1160089",
    "final_x": "3686192.12364",
    "final_y": "557660.251593",
    "longitude": "-90.05233153876264",
    "latitude": "30.027228732091025",
    "geocoded_column": {
      "latitude": "30.027228732091025",
      "longitude": "-90.05233153876264"
    }
  },
  {
    "service_request": "2025-1160088",
    "request_type": "Trash/Recycling",
    "request_reason": "Order Trash Cart",
    "date_created": "2025-01-06T19:22:51.000",
    "date_modified": "2025-01-06T19:22:52.000",
    "request_status": "Pending",
    "responsible_agency": "Department of Sanitation",
    "final_address": "7610 Rochon Ave",
    "address_councildis": "E",
    "status": "Assigned to Contractor",
    "contractor": "Waste Pro",
    "rowid": "1160088",
    "final_x": "3718614.62655",
    "final_y": "571641.614696",
    "longitude": "-89.9493469647184",
    "latitude": "30.06463524211883",
    "geocoded_column": {
      "latitude": "30.06463524211883",
      "longitude": "-89.9493469647184"
    }
  },
  {
    "service_request": "2025-1160087",
    "request_type": "Trash/Recycling",
    "request_reason": "Order Recycling Cart",
    "date_created": "2025-01-06T18:58:57.000",
    "date_modified": "2025-01-06T18:59:00.000",
    "request_status": "Pending",
    "responsible_agency": "Department of Sanitation",
    "final_address": "7841 Jahncke Rd",
    "address_councildis": "E",
    "status": "Pending",
    "rowid": "1160087",
    "final_x": "3713735.4668",
    "final_y": "568966.919014",
    "longitude": "-89.96487126996699",
    "latitude": "30.05744206938833",
    "geocoded_column": {
      "latitude": "30.05744206938833",
      "longitude": "-89.96487126996699"
    }
  },
  {
    "service_request": "2025-1160086",
    "request_type": "Abandoned Vehicles",
    "request_reason": "Abandoned/Junk Vehicles",
    "date_created": "2025-01-06T18:31:02.000",
    "date_modified": "2025-01-06T18:31:07.000",
    "request_status": "Pending",
    "responsible_agency": "Department of Public Works",
    "final_address": "2271 Urquhart St",
    "address_councildis": "C",
    "status": "Pending",
    "rowid": "1160086",
    "final_x": "3685648.83106",
    "final_y": "537125.50676",
    "longitude": "-90.05477232965251",
    "latitude": "29.9707822690859",
    "geocoded_column": {
      "latitude": "29.9707822690859",
      "longitude": "-90.05477232965251"
    }
  },
  {
    "service_request": "2025-1160085",
    "request_type": "Roads and Streets",
    "request_reason": "Pothole",
    "date_created": "2025-01-06T17:49:40.000",
    "date_modified": "2025-01-06T17:49:43.000",
    "request_status": "Pending",
    "responsible_agency": "Department of Public Works",
    "final_address": "1412 Euterpe St",
    "address_councildis": "B",
    "status": "Pending",
    "rowid": "1160085",
    "final_x": "3679609.87515",
    "final_y": "524518.854204",
    "longitude": "-90.07428156781218",
    "latitude": "29.936302122826206",
    "geocoded_column": {
      "latitude": "29.936302122826206",
      "longitude": "-90.07428156781218"
    }
  },
  {
    "service_request": "2025-1160084",
    "request_type": "Drainage",
    "request_reason": "Catch Basin Clogged",
    "date_created": "2025-01-06T17:46:53.000",
    "date_modified": "2025-01-06T17:46:56.000",
    "request_status": "Pending",
    "responsible_agency": "Department of Public Works",
    "final_address": "1412 Euterpe St",
    "address_councildis": "B",
    "status": "Pending",
    "rowid": "1160084",
    "final_x": "3679609.87515",
    "final_y": "524518.854204",
    "longitude": "-90.07428156781218",
    "latitude": "29.936302122826206",
    "geocoded_column": {
      "latitude": "29.936302122826206",
      "longitude": "-90.07428156781218"
    }
  },
  {
    "service_request": "2025-1160083",
    "request_type": "Drainage",
    "request_reason": "Street Flooding",
    "date_created": "2025-01-06T17:28:52.000",
    "date_modified": "2025-01-06T17:28:55.000",
    "request_status": "Pending",
    "responsible_agency": "Department of Public Works",
    "final_address": "8221 Panola St",
    "address_councildis": "A",
    "status": "Pending",
    "rowid": "1160083",
    "final_x": "3663713.79802",
    "final_y": "531105.793538",
    "longitude": "-90.12424680411986",
    "latitude": "29.954884796063393",
    "geocoded_column": {
      "latitude": "29.954884796063393",
      "longitude": "-90.12424680411986"
    }
  },
  {
    "service_request": "2025-1160082",
    "request_type": "Trash/Recycling",
    "request_reason": "Request a Large Item Pick Up",
    "date_created": "2025-01-06T17:18:23.000",
    "date_modified": "2025-01-06T17:18:24.000",
    "request_status": "Pending",
    "responsible_agency": "Department of Sanitation",
    "final_address": "BULLARD AVE & S OAKRIDGE CT",
    "address_councildis": "E",
    "status": "Assigned to Contractor",
    "contractor": "Waste Pro",
    "rowid": "1160082",
    "final_x": "3713188.4",
    "final_y": "567377.08",
    "longitude": "-89.96666039533747",
    "latitude": "30.053088615904297",
    "geocoded_column": {
      "latitude": "30.053088615904297",
      "longitude": "-89.96666039533747"
    }
  },
  {
    "service_request": "2025-1160081",
    "request_type": "Trash/Recycling",
    "request_reason": "Request a Large Item Pick Up",
    "date_created": "2025-01-06T17:09:13.000",
    "date_modified": "2025-01-06T17:09:14.000",
    "request_status": "Pending",
    "responsible_agency": "Department of Sanitation",
    "final_address": "4134 Saint Peter St. New Orleans, LA 70119",
    "status": "Assigned to Contractor",
    "rowid": "1160081",
    "longitude": "0.0",
    "latitude": "0.0",
    "geocoded_column": {
      "latitude": "0.0",
      "longitude": "0.0"
    }
  },
  {
    "service_request": "2025-1160080",
    "request_type": "Trash/Recycling",
    "request_reason": "Start Trash Service",
    "date_created": "2025-01-06T16:54:38.000",
    "date_modified": "2025-01-06T16:54:39.000",
    "request_status": "Pending",
    "responsible_agency": "Department of Sanitation",
    "final_address": "1020 Piety St",
    "address_councildis": "C",
    "status": "Assigned to Contractor",
    "contractor": "IV Waste",
    "rowid": "1160080",
    "final_x": "3689748.78377",
    "final_y": "535534.012614",
    "longitude": "-90.04188086220162",
    "latitude": "29.966279789636655",
    "geocoded_column": {
      "latitude": "29.966279789636655",
      "longitude": "-90.04188086220162"
    }
  },
  {
    "service_request": "2025-1160079",
    "request_type": "Trash/Recycling",
    "request_reason": "Request a Large Item Pick Up",
    "date_created": "2025-01-06T16:52:52.000",
    "date_modified": "2025-01-06T16:52:53.000",
    "request_status": "Pending",
    "responsible_agency": "Department of Sanitation",
    "final_address": "5560 Maple Ridge Dr",
    "address_councildis": "E",
    "status": "Assigned to Contractor",
    "contractor": "Waste Pro",
    "rowid": "1160079",
    "final_x": "3724370.56774",
    "final_y": "563985.516577",
    "longitude": "-89.93144823422779",
    "latitude": "30.043391763074496",
    "geocoded_column": {
      "latitude": "30.043391763074496",
      "longitude": "-89.93144823422779"
    }
  },
  {
    "service_request": "2025-1160078",
    "request_type": "Trash/Recycling",
    "request_reason": "Request a Large Item Pick Up",
    "date_created": "2025-01-06T16:48:23.000",
    "date_modified": "2025-01-06T16:48:24.000",
    "request_status": "Pending",
    "responsible_agency": "Department of Sanitation",
    "final_address": "4708 Bonita Dr",
    "address_councildis": "E",
    "status": "Assigned to Contractor",
    "contractor": "Waste Pro",
    "rowid": "1160078",
    "final_x": "3704470.64369",
    "final_y": "555042.767897",
    "longitude": "-89.99467011904031",
    "latitude": "30.019457120811442",
    "geocoded_column": {
      "latitude": "30.019457120811442",
      "longitude": "-89.99467011904031"
    }
  },
  {
    "service_request": "2025-1160077",
    "request_type": "Trash/Recycling",
    "request_reason": "Request a Large Item Pick Up",
    "date_created": "2025-01-06T16:48:22.000",
    "date_modified": "2025-01-06T16:48:23.000",
    "request_status": "Pending",
    "responsible_agency": "Department of Sanitation",
    "final_address": "7010 Beauvoir Ct",
    "address_councildis": "E",
    "status": "Assigned to Contractor",
    "contractor": "Waste Pro",
    "rowid": "1160077",
    "final_x": "3716684.19839",
    "final_y": "567062.980772",
    "longitude": "-89.95562318554077",
    "latitude": "30.05210986290099",
    "geocoded_column": {
      "latitude": "30.05210986290099",
      "longitude": "-89.95562318554077"
    }
  },
  {
    "service_request": "2025-1160076",
    "request_type": "Trash/Recycling",
    "request_reason": "Request a Large Item Pick Up",
    "date_created": "2025-01-06T16:46:40.000",
    "date_modified": "2025-01-06T16:46:41.000",
    "request_status": "Pending",
    "responsible_agency": "Department of Sanitation",
    "final_address": "2001 St Claude Ave",
    "address_councildis": "C",
    "status": "Assigned to Contractor",
    "contractor": "IV Waste",
    "rowid": "1160076",
    "final_x": "3684256.41276",
    "final_y": "536277.165191",
    "longitude": "-90.05919954345346",
    "latitude": "29.968492271981315",
    "geocoded_column": {
      "latitude": "29.968492271981315",
      "longitude": "-90.05919954345346"
    }
  },
  {
    "service_request": "2025-1160075",
    "request_type": "Trash/Recycling",
    "request_reason": "Request a Large Item Pick Up",
    "date_created": "2025-01-06T16:42:02.000",
    "date_modified": "2025-01-06T16:42:03.000",
    "request_status": "Pending",
    "responsible_agency": "Department of Sanitation",
    "final_address": "2680 Lavender St",
    "address_councildis": "D",
    "status": "Assigned to Contractor",
    "contractor": "IV Waste",
    "rowid": "1160075",
    "final_x": "3687732.5119",
    "final_y": "546900.410065",
    "longitude": "-90.04784549932207",
    "latitude": "29.997595681479297",
    "geocoded_column": {
      "latitude": "29.997595681479297",
      "longitude": "-90.04784549932207"
    }
  },
  {
    "service_request": "2025-1160074",
    "request_type": "Abandoned Vehicles",
    "request_reason": "Abandoned/Junk Vehicles",
    "date_created": "2025-01-06T16:40:10.000",
    "date_modified": "2025-01-06T16:40:11.000",
    "request_status": "Pending",
    "responsible_agency": "Department of Public Works",
    "final_address": "1676 N Broad St",
    "address_councildis": "D",
    "status": "Pending",
    "rowid": "1160074",
    "final_x": "3679533.64085",
    "final_y": "540580.061899",
    "longitude": "-90.07396494601136",
    "latitude": "29.9804673084302",
    "geocoded_column": {
      "latitude": "29.9804673084302",
      "longitude": "-90.07396494601136"
    }
  },
  {
    "service_request": "2025-1160073",
    "request_type": "Trash/Recycling",
    "request_reason": "Request a Large Item Pick Up",
    "date_created": "2025-01-06T16:38:31.000",
    "date_modified": "2025-01-06T16:38:32.000",
    "request_status": "Pending",
    "responsible_agency": "Department of Sanitation",
    "final_address": "4783 Lancelot Dr",
    "address_councildis": "E",
    "status": "Assigned to Contractor",
    "contractor": "Waste Pro",
    "rowid": "1160073",
    "final_x": "3707491.54142",
    "final_y": "555797.698329",
    "longitude": "-89.98509711235381",
    "latitude": "30.02143549900781",
    "geocoded_column": {
      "latitude": "30.02143549900781",
      "longitude": "-89.98509711235381"
    }
  },
  {
    "service_request": "2025-1160072",
    "request_type": "Property Maintenance",
    "request_reason": "Property Maintenance",
    "date_created": "2025-01-06T16:35:14.000",
    "date_modified": "2025-01-06T16:35:16.000",
    "request_status": "Pending",
    "responsible_agency": "Department of Code Enforcement",
    "final_address": "4821 Chestnut St",
    "address_councildis": "B",
    "status": "Pending",
    "rowid": "1160072",
    "final_x": "3669332.68391",
    "final_y": "519396.987959",
    "longitude": "-90.10690016565421",
    "latitude": "29.922525135079614",
    "geocoded_column": {
      "latitude": "29.922525135079614",
      "longitude": "-90.10690016565421"
    }
  },
  {
    "service_request": "2025-1160071",
    "request_type": "Trash/Recycling",
    "request_reason": "Order Trash Cart",
    "date_created": "2025-01-06T16:33:26.000",
    "date_modified": "2025-01-06T16:33:27.000",
    "request_status": "Pending",
    "responsible_agency": "Department of Sanitation",
    "final_address": "1306 St Denis St",
    "address_councildis": "D",
    "status": "Assigned to Contractor",
    "contractor": "IV Waste",
    "rowid": "1160071",
    "final_x": "3677498.77378",
    "final_y": "545671.694992",
    "longitude": "-90.08021606316156",
    "latitude": "29.99452886367084",
    "geocoded_column": {
      "latitude": "29.99452886367084",
      "longitude": "-90.08021606316156"
    }
  },
  {
    "service_request": "2025-1160070",
    "request_type": "Streetlights",
    "request_reason": "Streetlight Outage/Malfunction",
    "date_created": "2025-01-06T16:31:47.000",
    "date_modified": "2025-01-06T16:31:49.000",
    "request_status": "Pending",
    "responsible_agency": "Department of Public Works",
    "final_address": "137 Eliza St",
    "address_councildis": "C",
    "status": "Pending",
    "contractor": "Legacy Professional Services",
    "rowid": "1160070",
    "final_x": "3685914.17686",
    "final_y": "529059.204352",
    "longitude": "-90.05421870968672",
    "latitude": "29.948594571849604",
    "geocoded_column": {
      "latitude": "29.948594571849604",
      "longitude": "-90.05421870968672"
    }
  },
  {
    "service_request": "2025-1160069",
    "request_type": "Street and Traffic Signs",
    "request_reason": "Stop Sign Missing or Damaged",
    "date_created": "2025-01-06T16:29:47.000",
    "date_modified": "2025-01-06T16:29:48.000",
    "request_status": "Pending",
    "responsible_agency": "Department of Public Works",
    "final_address": "GOVERNOR NICHOLLS ST & DAUPHINE ST",
    "address_councildis": "C",
    "status": "Pending",
    "rowid": "1160069",
    "final_x": "3683083.6",
    "final_y": "534354.68",
    "longitude": "-90.06297065275913",
    "latitude": "29.963241906748696",
    "geocoded_column": {
      "latitude": "29.963241906748696",
      "longitude": "-90.06297065275913"
    }
  },
  {
    "service_request": "2025-1160068",
    "request_type": "Traffic Signals",
    "request_reason": "Traffic Signal Malfunctioning or Damaged",
    "date_created": "2025-01-06T16:27:43.000",
    "date_modified": "2025-01-06T16:27:45.000",
    "request_status": "Pending",
    "responsible_agency": "Department of Public Works",
    "final_address": "CALLIOPE ST & ANNUNCIATION ST & TCHOUPITOULAS EXIT",
    "address_councildis": "B",
    "status": "Pending",
    "rowid": "1160068",
    "final_x": "3681443.2",
    "final_y": "525519.78",
    "longitude": "-90.06845882301015",
    "latitude": "29.938998817801245",
    "geocoded_column": {
      "latitude": "29.938998817801245",
      "longitude": "-90.06845882301015"
    }
  },
  {
    "service_request": "2025-1160067",
    "request_type": "Abandoned Vehicles",
    "request_reason": "Abandoned/Junk Vehicles",
    "date_created": "2025-01-06T16:25:56.000",
    "date_modified": "2025-01-06T16:25:56.000",
    "request_status": "Pending",
    "responsible_agency": "Department of Public Works",
    "final_address": "4719 Cerise Ave",
    "address_councildis": "E",
    "status": "Pending",
    "rowid": "1160067",
    "final_x": "3708694.24491",
    "final_y": "555538.063833",
    "longitude": "-89.98130661194844",
    "latitude": "30.020682639281645",
    "geocoded_column": {
      "latitude": "30.020682639281645",
      "longitude": "-89.98130661194844"
    }
  },
  {
    "service_request": "2025-1160066",
    "request_type": "Abandoned Vehicles",
    "request_reason": "Abandoned/Junk Vehicles",
    "date_created": "2025-01-06T16:25:12.000",
    "date_modified": "2025-01-06T16:25:12.000",
    "request_status": "Pending",
    "responsible_agency": "Department of Public Works",
    "final_address": "4735 Gabriel Dr",
    "address_councildis": "E",
    "status": "Pending",
    "rowid": "1160066",
    "final_x": "3708951.51716",
    "final_y": "555718.770073",
    "longitude": "-89.98048697414822",
    "latitude": "30.021171161550107",
    "geocoded_column": {
      "latitude": "30.021171161550107",
      "longitude": "-89.98048697414822"
    }
  },
  {
    "service_request": "2025-1160065",
    "request_type": "Trash/Recycling",
    "request_reason": "Change Size of Trash Cart",
    "date_created": "2025-01-06T16:24:30.000",
    "date_modified": "2025-01-06T16:24:59.000",
    "request_status": "Pending",
    "responsible_agency": "Department of Sanitation",
    "final_address": "23 N Blue Ridge Ct",
    "address_councildis": "E",
    "status": "Assigned to Contractor",
    "contractor": "Waste Pro",
    "rowid": "1160065",
    "final_x": "3713946.79551",
    "final_y": "567542.333732",
    "longitude": "-89.96425709676129",
    "latitude": "30.053518102465304",
    "geocoded_column": {
      "latitude": "30.053518102465304",
      "longitude": "-89.96425709676129"
    }
  },
  {
    "service_request": "2025-1160064",
    "request_type": "Trash/Recycling",
    "request_reason": "Repair Trash Cart",
    "date_created": "2025-01-06T16:17:03.000",
    "date_modified": "2025-01-06T16:17:05.000",
    "request_status": "Pending",
    "responsible_agency": "Department of Sanitation",
    "final_address": "1527 St Ann St",
    "address_councildis": "C",
    "status": "Assigned to Contractor",
    "contractor": "IV Waste",
    "rowid": "1160064",
    "final_x": "3680362.56021",
    "final_y": "534630.443206",
    "longitude": "-90.0715537911247",
    "latitude": "29.96408283108665",
    "geocoded_column": {
      "latitude": "29.96408283108665",
      "longitude": "-90.0715537911247"
    }
  },
  {
    "service_request": "2025-1160063",
    "request_type": "Trash/Recycling",
    "request_reason": "Request a Large Item Pick Up",
    "date_created": "2025-01-06T16:15:16.000",
    "date_modified": "2025-01-06T16:15:16.000",
    "request_status": "Pending",
    "responsible_agency": "Department of Sanitation",
    "final_address": "7200 Camberley Dr",
    "address_councildis": "E",
    "status": "Assigned to Contractor",
    "contractor": "Waste Pro",
    "rowid": "1160063",
    "final_x": "3713151.0181",
    "final_y": "564960.100194",
    "longitude": "-89.96686965125654",
    "latitude": "30.046444129922275",
    "geocoded_column": {
      "latitude": "30.046444129922275",
      "longitude": "-89.96686965125654"
    }
  },
  {
    "service_request": "2025-1160062",
    "request_type": "Abandoned Vehicles",
    "request_reason": "Abandoned/Junk Vehicles",
    "date_created": "2025-01-06T16:09:29.000",
    "date_modified": "2025-01-06T16:09:30.000",
    "request_status": "Pending",
    "responsible_agency": "Department of Public Works",
    "final_address": "924 Mandeville St",
    "address_councildis": "C",
    "status": "Pending",
    "rowid": "1160062",
    "final_x": "3685789.8463",
    "final_y": "535840.566727",
    "longitude": "-90.05437228141675",
    "latitude": "29.967244803785835",
    "geocoded_column": {
      "latitude": "29.967244803785835",
      "longitude": "-90.05437228141675"
    }
  },
  {
    "service_request": "2025-1160061",
    "request_type": "Property Maintenance",
    "request_reason": "Property Maintenance",
    "date_created": "2025-01-06T16:07:15.000",
    "date_modified": "2025-01-06T16:07:17.000",
    "request_status": "Pending",
    "responsible_agency": "Department of Code Enforcement",
    "final_address": "7340 Willowbrae Dr",
    "address_councildis": "E",
    "status": "Pending",
    "rowid": "1160061",
    "final_x": "3710832.19614",
    "final_y": "563810.412705",
    "longitude": "-89.97424136046918",
    "latitude": "30.04335878280408",
    "geocoded_column": {
      "latitude": "30.04335878280408",
      "longitude": "-89.97424136046918"
    }
  },
  {
    "service_request": "2025-1160060",
    "request_type": "Trash/Recycling",
    "request_reason": "Request a Large Item Pick Up",
    "date_created": "2025-01-06T16:05:28.000",
    "date_modified": "2025-01-06T16:05:29.000",
    "request_status": "Pending",
    "responsible_agency": "Department of Sanitation",
    "final_address": "838 Pacific Ave",
    "address_councildis": "C",
    "status": "Assigned to Contractor",
    "contractor": "Richards Disposal",
    "rowid": "1160060",
    "final_x": "3688491.77462",
    "final_y": "528367.43168",
    "longitude": "-90.04610470737498",
    "latitude": "29.946613063015857",
    "geocoded_column": {
      "latitude": "29.946613063015857",
      "longitude": "-90.04610470737498"
    }
  },
  {
    "service_request": "2025-1160059",
    "request_type": "Trash/Recycling",
    "request_reason": "Request a Large Item Pick Up",
    "date_created": "2025-01-06T16:04:03.000",
    "date_modified": "2025-01-06T16:04:04.000",
    "request_status": "Pending",
    "responsible_agency": "Department of Sanitation",
    "final_address": "7819 Mercier St",
    "address_councildis": "E",
    "status": "Assigned to Contractor",
    "contractor": "Waste Pro",
    "rowid": "1160059",
    "final_x": "3711086.40037",
    "final_y": "567095.634276",
    "longitude": "-89.97331474221654",
    "latitude": "30.05238352263999",
    "geocoded_column": {
      "latitude": "30.05238352263999",
      "longitude": "-89.97331474221654"
    }
  },
  {
    "service_request": "2025-1160058",
    "request_type": "Trash/Recycling",
    "request_reason": "Request a Large Item Pick Up",
    "date_created": "2025-01-06T16:03:44.000",
    "date_modified": "2025-01-06T16:03:45.000",
    "request_status": "Pending",
    "responsible_agency": "Department of Sanitation",
    "final_address": "5198 De Montluzin St",
    "address_councildis": "D",
    "status": "Assigned to Contractor",
    "contractor": "IV Waste",
    "rowid": "1160058",
    "final_x": "3686980.87062",
    "final_y": "552100.477206",
    "longitude": "-90.05003593331193",
    "latitude": "30.01191714014734",
    "geocoded_column": {
      "latitude": "30.01191714014734",
      "longitude": "-90.05003593331193"
    }
  },
  {
    "service_request": "2025-1160057",
    "request_type": "Trash/Recycling",
    "request_reason": "Illegal Dumping",
    "date_created": "2025-01-06T16:03:17.000",
    "date_modified": "2025-01-06T16:03:21.000",
    "request_status": "Pending",
    "responsible_agency": "Department of Sanitation",
    "final_address": "1441 Elysian Fields Ave",
    "address_councildis": "C",
    "status": "Pending",
    "rowid": "1160057",
    "final_x": "3685000.5094",
    "final_y": "537738.008392",
    "longitude": "-90.0567982561313",
    "latitude": "29.97248631073135",
    "geocoded_column": {
      "latitude": "29.97248631073135",
      "longitude": "-90.0567982561313"
    }
  },
  {
    "service_request": "2025-1160056",
    "request_type": "Trash/Recycling",
    "request_reason": "Request a Large Item Pick Up",
    "date_created": "2025-01-06T16:02:17.000",
    "date_modified": "2025-01-06T16:02:21.000",
    "request_status": "Pending",
    "responsible_agency": "Department of Sanitation",
    "final_address": "4837 Nottingham Dr",
    "address_councildis": "E",
    "status": "Assigned to Contractor",
    "contractor": "Waste Pro",
    "rowid": "1160056",
    "final_x": "3716424.3324",
    "final_y": "557384.970011",
    "longitude": "-89.95681200815142",
    "latitude": "30.025507836780207",
    "geocoded_column": {
      "latitude": "30.025507836780207",
      "longitude": "-89.95681200815142"
    }
  },
  {
    "service_request": "2025-1160055",
    "request_type": "Property Maintenance",
    "request_reason": "Property Maintenance",
    "date_created": "2025-01-06T16:00:17.000",
    "date_modified": "2025-01-06T16:00:25.000",
    "request_status": "Pending",
    "responsible_agency": "Department of Code Enforcement",
    "final_address": "2225 N Villere St",
    "address_councildis": "C",
    "status": "Pending",
    "rowid": "1160055",
    "final_x": "3685194.36693",
    "final_y": "537462.3314",
    "longitude": "-90.05619572473104",
    "latitude": "29.971722355299516",
    "geocoded_column": {
      "latitude": "29.971722355299516",
      "longitude": "-90.05619572473104"
    }
  },
  {
    "service_request": "2025-1160054",
    "request_type": "Trash/Recycling",
    "request_reason": "Order Second Trash Cart",
    "date_created": "2025-01-06T15:59:43.000",
    "date_modified": "2025-01-06T15:59:44.000",
    "request_status": "Pending",
    "responsible_agency": "Department of Sanitation",
    "final_address": "6970 Edgefield Dr",
    "address_councildis": "E",
    "status": "Assigned to Contractor",
    "contractor": "Waste Pro",
    "rowid": "1160054",
    "final_x": "3718973.47506",
    "final_y": "568765.494309",
    "longitude": "-89.94832251764012",
    "latitude": "30.056715187728603",
    "geocoded_column": {
      "latitude": "30.056715187728603",
      "longitude": "-89.94832251764012"
    }
  },
  {
    "service_request": "2025-1160053",
    "request_type": "Trash/Recycling",
    "request_reason": "Repair Trash Cart",
    "date_created": "2025-01-06T15:59:08.000",
    "date_modified": "2025-01-06T15:59:08.000",
    "request_status": "Pending",
    "responsible_agency": "Department of Sanitation",
    "final_address": "6970 Edgefield Dr",
    "address_councildis": "E",
    "status": "Assigned to Contractor",
    "contractor": "Waste Pro",
    "rowid": "1160053",
    "final_x": "3718973.47506",
    "final_y": "568765.494309",
    "longitude": "-89.94832251764012",
    "latitude": "30.056715187728603",
    "geocoded_column": {
      "latitude": "30.056715187728603",
      "longitude": "-89.94832251764012"
    }
  },
  {
    "service_request": "2025-1160052",
    "request_type": "Trash/Recycling",
    "request_reason": "Replace Recycling Cart",
    "date_created": "2025-01-06T15:58:40.000",
    "date_modified": "2025-01-06T15:58:43.000",
    "request_status": "Pending",
    "responsible_agency": "Department of Sanitation",
    "final_address": "3053 Grand-Route St John St",
    "address_councildis": "A",
    "status": "Pending",
    "rowid": "1160052",
    "final_x": "3676749.7803",
    "final_y": "540350.221387",
    "longitude": "-90.08276550470374",
    "latitude": "29.97991916320817",
    "geocoded_column": {
      "latitude": "29.97991916320817",
      "longitude": "-90.08276550470374"
    }
  },
  {
    "service_request": "2025-1160051",
    "request_type": "Property Maintenance",
    "request_reason": "Property Maintenance",
    "date_created": "2025-01-06T15:54:35.000",
    "date_modified": "2025-01-06T15:55:26.000",
    "request_status": "Pending",
    "responsible_agency": "Department of Code Enforcement",
    "final_address": "2415 Freret St",
    "address_councildis": "B",
    "status": "Pending",
    "rowid": "1160051",
    "final_x": "3674919.68712",
    "final_y": "526021.15827",
    "longitude": "-90.0890371604134",
    "latitude": "29.940573840816075",
    "geocoded_column": {
      "latitude": "29.940573840816075",
      "longitude": "-90.0890371604134"
    }
  },
  {
    "service_request": "2025-1160050",
    "request_type": "Trash/Recycling",
    "request_reason": "Request a Large Item Pick Up",
    "date_created": "2025-01-06T15:52:24.000",
    "date_modified": "2025-01-06T15:52:24.000",
    "request_status": "Pending",
    "responsible_agency": "Department of Sanitation",
    "final_address": "7618 Briarwood Dr",
    "address_councildis": "E",
    "status": "Assigned to Contractor",
    "contractor": "Waste Pro",
    "rowid": "1160050",
    "final_x": "3717544.46328",
    "final_y": "570771.709799",
    "longitude": "-89.95276294500813",
    "latitude": "30.06227886379369",
    "geocoded_column": {
      "latitude": "30.06227886379369",
      "longitude": "-89.95276294500813"
    }
  },
  {
    "service_request": "2025-1160049",
    "request_type": "Property Maintenance",
    "request_reason": "Property Maintenance",
    "date_created": "2025-01-06T15:48:16.000",
    "date_modified": "2025-01-06T15:48:20.000",
    "request_status": "Pending",
    "responsible_agency": "Department of Code Enforcement",
    "final_address": "617 Milan St",
    "address_councildis": "B",
    "status": "Pending",
    "rowid": "1160049",
    "final_x": "3671925.19879",
    "final_y": "517996.814454",
    "longitude": "-90.09876424335317",
    "latitude": "29.918598549352186",
    "geocoded_column": {
      "latitude": "29.918598549352186",
      "longitude": "-90.09876424335317"
    }
  },
  {
    "service_request": "2025-1160048",
    "request_type": "Trash/Recycling",
    "request_reason": "Request a Large Item Pick Up",
    "date_created": "2025-01-06T15:46:27.000",
    "date_modified": "2025-01-06T15:46:28.000",
    "request_status": "Pending",
    "responsible_agency": "Department of Sanitation",
    "final_address": "5208 Dauphine St",
    "address_councildis": "E",
    "status": "Assigned to Contractor",
    "contractor": "Waste Pro",
    "rowid": "1160048",
    "final_x": "3696293.98999",
    "final_y": "532950.308804",
    "longitude": "-90.0213047597758",
    "latitude": "29.95897105559996",
    "geocoded_column": {
      "latitude": "29.95897105559996",
      "longitude": "-90.0213047597758"
    }
  },
  {
    "service_request": "2025-1160047",
    "request_type": "Trash/Recycling",
    "request_reason": "Repair Recycling Cart",
    "date_created": "2025-01-06T15:44:52.000",
    "date_modified": "2025-01-06T15:44:55.000",
    "request_status": "Pending",
    "responsible_agency": "Department of Sanitation",
    "final_address": "1017 Jefferson Ave",
    "address_councildis": "B",
    "status": "Pending",
    "rowid": "1160047",
    "final_x": "3666999.41729",
    "final_y": "519291.241655",
    "longitude": "-90.11426892619464",
    "latitude": "29.922302829678884",
    "geocoded_column": {
      "latitude": "29.922302829678884",
      "longitude": "-90.11426892619464"
    }
  },
  {
    "service_request": "2025-1160046",
    "request_type": "Trash/Recycling",
    "request_reason": "Request a Large Item Pick Up",
    "date_created": "2025-01-06T15:44:32.000",
    "date_modified": "2025-01-06T15:44:33.000",
    "request_status": "Pending",
    "responsible_agency": "Department of Sanitation",
    "final_address": "2322 State St",
    "address_councildis": "A",
    "status": "Assigned to Contractor",
    "contractor": "IV Waste",
    "rowid": "1160046",
    "final_x": "3666574.43226",
    "final_y": "525254.130877",
    "longitude": "-90.11541036971003",
    "latitude": "29.938711307299418",
    "geocoded_column": {
      "latitude": "29.938711307299418",
      "longitude": "-90.11541036971003"
    }
  },
  {
    "service_request": "2025-1160045",
    "request_type": "Utility Poles",
    "request_reason": "Utility Pole Leaning",
    "date_created": "2025-01-06T15:40:39.000",
    "date_modified": "2025-01-06T15:40:44.000",
    "request_status": "Pending",
    "responsible_agency": "Utility Company Collective",
    "final_address": "AMELIA ST & FRERET ST",
    "address_councildis": "B",
    "status": "Pending",
    "rowid": "1160045",
    "final_x": "3672364.5",
    "final_y": "524284.18",
    "longitude": "-90.09716349406",
    "latitude": "29.935873764043876",
    "geocoded_column": {
      "latitude": "29.935873764043876",
      "longitude": "-90.09716349406"
    }
  },
  {
    "service_request": "2025-1160044",
    "request_type": "Trash/Recycling",
    "request_reason": "Return Trash Cart",
    "date_created": "2025-01-06T15:40:26.000",
    "date_modified": "2025-01-06T15:40:26.000",
    "request_status": "Pending",
    "responsible_agency": "Department of Sanitation",
    "final_address": "819 Sixth St",
    "address_councildis": "B",
    "status": "Assigned to Contractor",
    "contractor": "IV Waste",
    "rowid": "1160044",
    "final_x": "3677162.16968",
    "final_y": "519786.206584",
    "longitude": "-90.08217220343622",
    "latitude": "29.92336261103456",
    "geocoded_column": {
      "latitude": "29.92336261103456",
      "longitude": "-90.08217220343622"
    }
  },
  {
    "service_request": "2025-1160043",
    "request_type": "Trash/Recycling",
    "request_reason": "Request a Large Item Pick Up",
    "date_created": "2025-01-06T15:40:00.000",
    "date_modified": "2025-01-06T15:40:01.000",
    "request_status": "Pending",
    "responsible_agency": "Department of Sanitation",
    "final_address": "1017 Jefferson Ave",
    "address_councildis": "B",
    "status": "Assigned to Contractor",
    "contractor": "IV Waste",
    "rowid": "1160043",
    "final_x": "3666999.41729",
    "final_y": "519291.241655",
    "longitude": "-90.11426892619464",
    "latitude": "29.922302829678884",
    "geocoded_column": {
      "latitude": "29.922302829678884",
      "longitude": "-90.11426892619464"
    }
  },
  {
    "service_request": "2025-1160042",
    "request_type": "Trash/Recycling",
    "request_reason": "Request a Large Item Pick Up",
    "date_created": "2025-01-06T15:39:39.000",
    "date_modified": "2025-01-06T15:39:40.000",
    "request_status": "Pending",
    "responsible_agency": "Department of Sanitation",
    "final_address": "2504 Myrtle St",
    "address_councildis": "D",
    "status": "Assigned to Contractor",
    "contractor": "IV Waste",
    "rowid": "1160042",
    "final_x": "3686595.88918",
    "final_y": "545980.533264",
    "longitude": "-90.05146855943045",
    "latitude": "29.995101364220556",
    "geocoded_column": {
      "latitude": "29.995101364220556",
      "longitude": "-90.05146855943045"
    }
  },
  {
    "service_request": "2025-1160041",
    "request_type": "Traffic Signals",
    "request_reason": "Traffic Signal Malfunctioning or Damaged",
    "date_created": "2025-01-06T15:39:26.000",
    "date_modified": "2025-01-06T15:39:27.000",
    "request_status": "Pending",
    "responsible_agency": "Department of Public Works",
    "final_address": "FRANKLIN AVE & LEON C SIMON DR",
    "address_councildis": "D",
    "status": "Pending",
    "rowid": "1160041",
    "final_x": "3686215.6",
    "final_y": "557350.08",
    "longitude": "-90.05226831351399",
    "latitude": "30.026375154078544",
    "geocoded_column": {
      "latitude": "30.026375154078544",
      "longitude": "-90.05226831351399"
    }
  },
  {
    "service_request": "2025-1160040",
    "request_type": "Property Maintenance",
    "request_reason": "Property Maintenance",
    "date_created": "2025-01-06T15:39:19.000",
    "date_modified": "2025-01-06T15:39:21.000",
    "request_status": "Pending",
    "responsible_agency": "Department of Code Enforcement",
    "final_address": "2501 Burgundy St",
    "address_councildis": "C",
    "status": "Pending",
    "rowid": "1160040",
    "final_x": "3686582.59388",
    "final_y": "535738.639239",
    "longitude": "-90.05187238078656",
    "latitude": "29.966940184591206",
    "geocoded_column": {
      "latitude": "29.966940184591206",
      "longitude": "-90.05187238078656"
    }
  },
  {
    "service_request": "2025-1160039",
    "request_type": "Trash/Recycling",
    "request_reason": "Repair Recycling Cart",
    "date_created": "2025-01-06T15:39:01.000",
    "date_modified": "2025-01-06T15:39:04.000",
    "request_status": "Pending",
    "responsible_agency": "Department of Sanitation",
    "final_address": "819 Sixth St",
    "address_councildis": "B",
    "status": "Pending",
    "rowid": "1160039",
    "final_x": "3677162.16968",
    "final_y": "519786.206584",
    "longitude": "-90.08217220343622",
    "latitude": "29.92336261103456",
    "geocoded_column": {
      "latitude": "29.92336261103456",
      "longitude": "-90.08217220343622"
    }
  },
  {
    "service_request": "2025-1160038",
    "request_type": "Trash/Recycling",
    "request_reason": "Request a Large Item Pick Up",
    "date_created": "2025-01-06T15:36:58.000",
    "date_modified": "2025-01-06T15:36:59.000",
    "request_status": "Pending",
    "responsible_agency": "Department of Sanitation",
    "final_address": "2209 Bienville Ave",
    "address_councildis": "B",
    "status": "Assigned to Contractor",
    "contractor": "IV Waste",
    "rowid": "1160038",
    "final_x": "3677365.40578",
    "final_y": "534630.44487",
    "longitude": "-90.0810185451714",
    "latitude": "29.964173245454223",
    "geocoded_column": {
      "latitude": "29.964173245454223",
      "longitude": "-90.0810185451714"
    }
  },
  {
    "service_request": "2025-1160037",
    "request_type": "Trash/Recycling",
    "request_reason": "Request a Large Item Pick Up",
    "date_created": "2025-01-06T15:34:41.000",
    "date_modified": "2025-01-06T15:34:42.000",
    "request_status": "Pending",
    "responsible_agency": "Department of Sanitation",
    "final_address": "425 S Norman C Francis Prkwy",
    "address_councildis": "B",
    "status": "Assigned to Contractor",
    "contractor": "IV Waste",
    "rowid": "1160037",
    "final_x": "3672216.7842",
    "final_y": "535681.468039",
    "longitude": "-90.09724168130555",
    "latitude": "29.96721692689002",
    "geocoded_column": {
      "latitude": "29.96721692689002",
      "longitude": "-90.09724168130555"
    }
  },
  {
    "service_request": "2025-1160036",
    "request_type": "Trash/Recycling",
    "request_reason": "Order Trash Cart",
    "date_created": "2025-01-06T15:32:52.000",
    "date_modified": "2025-01-06T15:32:53.000",
    "request_status": "Pending",
    "responsible_agency": "Department of Sanitation",
    "final_address": "1920 Adams St A",
    "address_councildis": "A",
    "status": "Assigned to Contractor",
    "contractor": "IV Waste",
    "rowid": "1160036",
    "final_x": "3664783.77869",
    "final_y": "529377.072641",
    "longitude": "-90.1209259543458",
    "latitude": "29.95010028590199",
    "geocoded_column": {
      "latitude": "29.95010028590199",
      "longitude": "-90.1209259543458"
    }
  },
  {
    "service_request": "2025-1160035",
    "request_type": "Trash/Recycling",
    "request_reason": "Request a Large Item Pick Up",
    "date_created": "2025-01-06T15:32:39.000",
    "date_modified": "2025-01-06T15:32:40.000",
    "request_status": "Pending",
    "responsible_agency": "Department of Sanitation",
    "final_address": "5918 Orleans Ave",
    "address_councildis": "A",
    "status": "Assigned to Contractor",
    "contractor": "IV Waste",
    "rowid": "1160035",
    "final_x": "3670742.71361",
    "final_y": "546569.775057",
    "longitude": "-90.10152717224366",
    "latitude": "29.99719970280508",
    "geocoded_column": {
      "latitude": "29.99719970280508",
      "longitude": "-90.10152717224366"
    }
  },
  {
    "service_request": "2025-1160034",
    "request_type": "Property Maintenance",
    "request_reason": "Property Maintenance",
    "date_created": "2025-01-06T15:31:06.000",
    "date_modified": "2025-01-06T15:31:07.000",
    "request_status": "Pending",
    "responsible_agency": "Department of Code Enforcement",
    "final_address": "1226 Chartres St",
    "address_councildis": "C",
    "status": "Pending",
    "rowid": "1160034",
    "final_x": "3684094.43036",
    "final_y": "533834.039365",
    "longitude": "-90.05979684493936",
    "latitude": "29.961779470478238",
    "geocoded_column": {
      "latitude": "29.961779470478238",
      "longitude": "-90.05979684493936"
    }
  },
  {
    "service_request": "2025-1160033",
    "request_type": "Property Maintenance",
    "request_reason": "Property Maintenance",
    "date_created": "2025-01-06T15:30:39.000",
    "date_modified": "2025-01-06T15:30:42.000",
    "request_status": "Pending",
    "responsible_agency": "Department of Code Enforcement",
    "final_address": "638 Port St",
    "address_councildis": "C",
    "status": "Pending",
    "rowid": "1160033",
    "final_x": "3687006.54146",
    "final_y": "534868.168454",
    "longitude": "-90.05056433111247",
    "latitude": "29.96453364895112",
    "geocoded_column": {
      "latitude": "29.96453364895112",
      "longitude": "-90.05056433111247"
    }
  },
  {
    "service_request": "2025-1160032",
    "request_type": "Property Maintenance",
    "request_reason": "Property Maintenance",
    "date_created": "2025-01-06T15:29:36.000",
    "date_modified": "2025-01-06T15:29:38.000",
    "request_status": "Pending",
    "responsible_agency": "Department of Code Enforcement",
    "final_address": "1216 Chartres St",
    "address_councildis": "C",
    "status": "Pending",
    "rowid": "1160032",
    "final_x": "3684136.60194",
    "final_y": "533731.382149",
    "longitude": "-90.05966727747494",
    "latitude": "29.961495909545246",
    "geocoded_column": {
      "latitude": "29.961495909545246",
      "longitude": "-90.05966727747494"
    }
  },
  {
    "service_request": "2025-1160031",
    "request_type": "Trash/Recycling",
    "request_reason": "Illegal Dumping",
    "date_created": "2025-01-06T15:28:13.000",
    "date_modified": "2025-01-06T15:28:14.000",
    "request_status": "Pending",
    "responsible_agency": "Department of Sanitation",
    "final_address": "HAYNE BLVD & LAMB RD",
    "address_councildis": "E",
    "status": "Pending",
    "rowid": "1160031",
    "final_x": "3696530.3",
    "final_y": "560647.58",
    "longitude": "-90.0195557622221",
    "latitude": "30.035120895592602",
    "geocoded_column": {
      "latitude": "30.035120895592602",
      "longitude": "-90.0195557622221"
    }
  },
  {
    "service_request": "2025-1160030",
    "request_type": "Trash/Recycling",
    "request_reason": "Request a Large Item Pick Up",
    "date_created": "2025-01-06T15:24:53.000",
    "date_modified": "2025-01-06T15:24:54.000",
    "request_status": "Pending",
    "responsible_agency": "Department of Sanitation",
    "final_address": "806 Joseph St",
    "address_councildis": "A",
    "status": "Assigned to Contractor",
    "contractor": "IV Waste",
    "rowid": "1160030",
    "final_x": "3666029.50279",
    "final_y": "519053.500599",
    "longitude": "-90.1173385245845",
    "latitude": "29.921677454626334",
    "geocoded_column": {
      "latitude": "29.921677454626334",
      "longitude": "-90.1173385245845"
    }
  },
  {
    "service_request": "2025-1160029",
    "request_type": "Trash/Recycling",
    "request_reason": "Order Second Trash Cart",
    "date_created": "2025-01-06T15:24:10.000",
    "date_modified": "2025-01-06T15:24:11.000",
    "request_status": "Pending",
    "responsible_agency": "Department of Sanitation",
    "final_address": "6146 Catina St",
    "address_councildis": "A",
    "status": "Assigned to Contractor",
    "contractor": "IV Waste",
    "rowid": "1160029",
    "final_x": "3666758.36295",
    "final_y": "548704.511251",
    "longitude": "-90.11404186499708",
    "latitude": "30.00318666421659",
    "geocoded_column": {
      "latitude": "30.00318666421659",
      "longitude": "-90.11404186499708"
    }
  },
  {
    "service_request": "2025-1160028",
    "request_type": "Trash/Recycling",
    "request_reason": "Request a Large Item Pick Up",
    "date_created": "2025-01-06T15:21:07.000",
    "date_modified": "2025-01-06T15:21:08.000",
    "request_status": "Pending",
    "responsible_agency": "Department of Sanitation",
    "final_address": "13705 N Cavelier Dr",
    "address_councildis": "E",
    "status": "Assigned to Contractor",
    "contractor": "Waste Pro",
    "rowid": "1160028",
    "final_x": "3723880.93817",
    "final_y": "570200.873639",
    "longitude": "-89.93275554872598",
    "latitude": "30.060497862992147",
    "geocoded_column": {
      "latitude": "30.060497862992147",
      "longitude": "-89.93275554872598"
    }
  },
  {
    "service_request": "2025-1160027",
    "request_type": "Trash/Recycling",
    "request_reason": "Order Recycling Cart",
    "date_created": "2025-01-06T15:20:33.000",
    "date_modified": "2025-01-06T15:20:34.000",
    "request_status": "Pending",
    "responsible_agency": "Department of Sanitation",
    "final_address": "735 Mandeville St",
    "address_councildis": "C",
    "status": "Pending",
    "rowid": "1160027",
    "final_x": "3685901.78601",
    "final_y": "535217.95847",
    "longitude": "-90.05404072722237",
    "latitude": "29.965529411108943",
    "geocoded_column": {
      "latitude": "29.965529411108943",
      "longitude": "-90.05404072722237"
    }
  },
  {
    "service_request": "2025-1160026",
    "request_type": "Trash/Recycling",
    "request_reason": "Request a Large Item Pick Up",
    "date_created": "2025-01-06T15:19:41.000",
    "date_modified": "2025-01-06T15:19:42.000",
    "request_status": "Pending",
    "responsible_agency": "Department of Sanitation",
    "final_address": "735 Mandeville St",
    "address_councildis": "C",
    "status": "Assigned to Contractor",
    "contractor": "IV Waste",
    "rowid": "1160026",
    "final_x": "3685901.78601",
    "final_y": "535217.95847",
    "longitude": "-90.05404072722237",
    "latitude": "29.965529411108943",
    "geocoded_column": {
      "latitude": "29.965529411108943",
      "longitude": "-90.05404072722237"
    }
  },
  {
    "service_request": "2025-1160025",
    "request_type": "Trash/Recycling",
    "request_reason": "Request a Large Item Pick Up",
    "date_created": "2025-01-06T15:18:16.000",
    "date_modified": "2025-01-06T15:18:17.000",
    "request_status": "Pending",
    "responsible_agency": "Department of Sanitation",
    "final_address": "709 Mandeville St",
    "address_councildis": "C",
    "status": "Assigned to Contractor",
    "contractor": "IV Waste",
    "rowid": "1160025",
    "final_x": "3685916.33001",
    "final_y": "535017.410246",
    "longitude": "-90.05400186903074",
    "latitude": "29.964977526504114",
    "geocoded_column": {
      "latitude": "29.964977526504114",
      "longitude": "-90.05400186903074"
    }
  },
  {
    "service_request": "2025-1160024",
    "request_type": "Trash/Recycling",
    "request_reason": "Repair Trash Cart",
    "date_created": "2025-01-06T15:12:40.000",
    "date_modified": "2025-01-06T15:12:41.000",
    "request_status": "Pending",
    "responsible_agency": "Department of Sanitation",
    "final_address": "7661 Vincent Rd",
    "address_councildis": "E",
    "status": "Assigned to Contractor",
    "contractor": "Waste Pro",
    "rowid": "1160024",
    "final_x": "3718380.96441",
    "final_y": "571765.414056",
    "longitude": "-89.95008085996557",
    "latitude": "30.06498339657705",
    "geocoded_column": {
      "latitude": "30.06498339657705",
      "longitude": "-89.95008085996557"
    }
  },
  {
    "service_request": "2025-1160023",
    "request_type": "Trash/Recycling",
    "request_reason": "Request a Large Item Pick Up",
    "date_created": "2025-01-06T15:11:53.000",
    "date_modified": "2025-01-06T15:11:54.000",
    "request_status": "Pending",
    "responsible_agency": "Department of Sanitation",
    "final_address": "6321 Hewes St",
    "address_councildis": "A",
    "status": "Assigned to Contractor",
    "contractor": "IV Waste",
    "rowid": "1160023",
    "final_x": "3667689.93748",
    "final_y": "529831.456385",
    "longitude": "-90.11173452037725",
    "latitude": "29.951264821120333",
    "geocoded_column": {
      "latitude": "29.951264821120333",
      "longitude": "-90.11173452037725"
    }
  },
  {
    "service_request": "2025-1160022",
    "request_type": "Trash/Recycling",
    "request_reason": "Request a Large Item Pick Up",
    "date_created": "2025-01-06T15:11:23.000",
    "date_modified": "2025-01-06T15:11:24.000",
    "request_status": "Pending",
    "responsible_agency": "Department of Sanitation",
    "final_address": "9025 Pritchard Pl",
    "address_councildis": "A",
    "status": "Assigned to Contractor",
    "contractor": "IV Waste",
    "rowid": "1160022",
    "final_x": "3663627.03392",
    "final_y": "535157.009606",
    "longitude": "-90.12438580595648",
    "latitude": "29.966026835160967",
    "geocoded_column": {
      "latitude": "29.966026835160967",
      "longitude": "-90.12438580595648"
    }
  },
  {
    "service_request": "2025-1160021",
    "request_type": "Traffic Signals",
    "request_reason": "Traffic Signal Malfunctioning or Damaged",
    "date_created": "2025-01-06T15:10:38.000",
    "date_modified": "2025-01-06T15:10:39.000",
    "request_status": "Pending",
    "responsible_agency": "Department of Public Works",
    "final_address": "4301 Louisa Dr",
    "address_councildis": "D",
    "status": "Pending",
    "rowid": "1160021",
    "final_x": "3691389.74083",
    "final_y": "550011.353364",
    "longitude": "-90.03618120581444",
    "latitude": "30.006036313262985",
    "geocoded_column": {
      "latitude": "30.006036313262985",
      "longitude": "-90.03618120581444"
    }
  },
  {
    "service_request": "2025-1160020",
    "request_type": "Trash/Recycling",
    "request_reason": "Request a Large Item Pick Up",
    "date_created": "2025-01-06T15:09:36.000",
    "date_modified": "2025-01-06T15:09:37.000",
    "request_status": "Pending",
    "responsible_agency": "Department of Sanitation",
    "final_address": "15025 Emory Rd",
    "address_councildis": "E",
    "status": "Assigned to Contractor",
    "contractor": "Waste Pro",
    "rowid": "1160020",
    "final_x": "3721090.02022",
    "final_y": "574184.010794",
    "longitude": "-89.94142448381731",
    "latitude": "30.071543315572608",
    "geocoded_column": {
      "latitude": "30.071543315572608",
      "longitude": "-89.94142448381731"
    }
  },
  {
    "service_request": "2025-1160019",
    "request_type": "Trash/Recycling",
    "request_reason": "Request a Large Item Pick Up",
    "date_created": "2025-01-06T15:08:00.000",
    "date_modified": "2025-01-06T15:08:01.000",
    "request_status": "Pending",
    "responsible_agency": "Department of Sanitation",
    "final_address": "1231 Seville Dr",
    "address_councildis": "D",
    "status": "Assigned to Contractor",
    "contractor": "IV Waste",
    "rowid": "1160019",
    "final_x": "3677036.87752",
    "final_y": "551182.821973",
    "longitude": "-90.08148494118241",
    "latitude": "30.009696392567847",
    "geocoded_column": {
      "latitude": "30.009696392567847",
      "longitude": "-90.08148494118241"
    }
  },
  {
    "service_request": "2025-1160018",
    "request_type": "Trash/Recycling",
    "request_reason": "Order Trash Cart",
    "date_created": "2025-01-06T15:06:37.000",
    "date_modified": "2025-01-06T15:08:12.000",
    "case_close_date": "2025-01-06T09:08:12.000",
    "request_status": "Closed",
    "responsible_agency": "Department of Sanitation",
    "final_address": "1015 St Ann St Apt 1B",
    "address_councildis": "C",
    "status": "Assigned to Contractor",
    "contractor": "IV Waste",
    "contractor_action": "Completed",
    "rowid": "1160018",
    "final_x": "3681850.89333",
    "final_y": "533557.692933",
    "longitude": "-90.06689121246566",
    "latitude": "29.96108798600806",
    "geocoded_column": {
      "latitude": "29.96108798600806",
      "longitude": "-90.06689121246566"
    }
  },
  {
    "service_request": "2025-1160017",
    "request_type": "Trash/Recycling",
    "request_reason": "Request a Large Item Pick Up",
    "date_created": "2025-01-06T15:06:15.000",
    "date_modified": "2025-01-06T15:06:16.000",
    "request_status": "Pending",
    "responsible_agency": "Department of Sanitation",
    "final_address": "4874 Cerise Ave",
    "address_councildis": "E",
    "status": "Assigned to Contractor",
    "contractor": "Waste Pro",
    "rowid": "1160017",
    "final_x": "3708445.54417",
    "final_y": "556595.328346",
    "longitude": "-89.98205302960474",
    "latitude": "30.023597771052447",
    "geocoded_column": {
      "latitude": "30.023597771052447",
      "longitude": "-89.98205302960474"
    }
  },
  {
    "service_request": "2025-1160016",
    "request_type": "Property Maintenance",
    "request_reason": "Property Maintenance",
    "date_created": "2025-01-06T15:06:03.000",
    "date_modified": "2025-01-06T15:06:04.000",
    "request_status": "Pending",
    "responsible_agency": "Department of Code Enforcement",
    "final_address": "4918 Gawain Dr",
    "address_councildis": "E",
    "status": "Pending",
    "rowid": "1160016",
    "final_x": "3706794.44023",
    "final_y": "556533.695066",
    "longitude": "-89.98727242423352",
    "latitude": "30.02348173905399",
    "geocoded_column": {
      "latitude": "30.02348173905399",
      "longitude": "-89.98727242423352"
    }
  },
  {
    "service_request": "2025-1160015",
    "request_type": "Trash/Recycling",
    "request_reason": "Request a Large Item Pick Up",
    "date_created": "2025-01-06T15:05:41.000",
    "date_modified": "2025-01-06T15:05:42.000",
    "request_status": "Pending",
    "responsible_agency": "Department of Sanitation",
    "final_address": "8930 Curran Rd",
    "address_councildis": "E",
    "status": "Assigned to Contractor",
    "contractor": "Waste Pro",
    "rowid": "1160015",
    "final_x": "3705170.7107",
    "final_y": "563001.315808",
    "longitude": "-89.99216383071187",
    "latitude": "30.04131751203086",
    "geocoded_column": {
      "latitude": "30.04131751203086",
      "longitude": "-89.99216383071187"
    }
  },
  {
    "service_request": "2025-1160014",
    "request_type": "Abandoned Vehicles",
    "request_reason": "Abandoned/Junk Vehicles",
    "date_created": "2025-01-06T15:03:17.000",
    "date_modified": "2025-01-06T15:03:18.000",
    "request_status": "Pending",
    "responsible_agency": "Department of Public Works",
    "final_address": "900 BLK Sister St",
    "address_councildis": "E",
    "status": "Pending",
    "rowid": "1160014",
    "final_x": "3694490.48467",
    "final_y": "533987.817967",
    "longitude": "-90.02696239981658",
    "latitude": "29.96188049989214",
    "geocoded_column": {
      "latitude": "29.96188049989214",
      "longitude": "-90.02696239981658"
    }
  },
  {
    "service_request": "2025-1160013",
    "request_type": "Roads and Streets",
    "request_reason": "Sidewalk Damaged or Missing",
    "date_created": "2025-01-06T15:02:22.000",
    "date_modified": "2025-01-06T15:02:23.000",
    "request_status": "Pending",
    "responsible_agency": "Department of Public Works",
    "final_address": "2510 Jonquil St",
    "address_councildis": "D",
    "status": "Pending",
    "rowid": "1160013",
    "final_x": "3686462.18313",
    "final_y": "547137.227473",
    "longitude": "-90.05185005756492",
    "latitude": "29.99828596935465",
    "geocoded_column": {
      "latitude": "29.99828596935465",
      "longitude": "-90.05185005756492"
    }
  },
  {
    "service_request": "2025-1160012",
    "request_type": "Property Maintenance",
    "request_reason": "Property Maintenance",
    "date_created": "2025-01-06T15:02:21.000",
    "date_modified": "2025-01-06T15:02:24.000",
    "request_status": "Pending",
    "responsible_agency": "Department of Code Enforcement",
    "final_address": "1337 Esplanade Ave",
    "address_councildis": "C",
    "status": "Pending",
    "rowid": "1160012",
    "final_x": "3681949.48296",
    "final_y": "536125.623559",
    "longitude": "-90.06649023091612",
    "latitude": "29.968145917883767",
    "geocoded_column": {
      "latitude": "29.968145917883767",
      "longitude": "-90.06649023091612"
    }
  },
  {
    "service_request": "2025-1160011",
    "request_type": "Abandoned Vehicles",
    "request_reason": "Abandoned/Junk Vehicles",
    "date_created": "2025-01-06T15:00:46.000",
    "date_modified": "2025-01-06T15:00:47.000",
    "request_status": "Pending",
    "responsible_agency": "Department of Public Works",
    "final_address": "900 BLK Sister St",
    "address_councildis": "E",
    "status": "Pending",
    "rowid": "1160011",
    "final_x": "3694490.48467",
    "final_y": "533987.817967",
    "longitude": "-90.02696239981658",
    "latitude": "29.96188049989214",
    "geocoded_column": {
      "latitude": "29.96188049989214",
      "longitude": "-90.02696239981658"
    }
  },
  {
    "service_request": "2025-1160010",
    "request_type": "Trash/Recycling",
    "request_reason": "Repair Trash Cart",
    "date_created": "2025-01-06T14:58:38.000",
    "date_modified": "2025-01-06T14:58:39.000",
    "request_status": "Pending",
    "responsible_agency": "Department of Sanitation",
    "final_address": "3828 General Taylor St",
    "address_councildis": "B",
    "status": "Assigned to Contractor",
    "contractor": "IV Waste",
    "rowid": "1160010",
    "final_x": "3670760.80084",
    "final_y": "528840.728384",
    "longitude": "-90.10207184060567",
    "latitude": "29.948450265605473",
    "geocoded_column": {
      "latitude": "29.948450265605473",
      "longitude": "-90.10207184060567"
    }
  },
  {
    "service_request": "2025-1160009",
    "request_type": "Abandoned Vehicles",
    "request_reason": "Abandoned/Junk Vehicles",
    "date_created": "2025-01-06T14:58:37.000",
    "date_modified": "2025-01-06T14:58:38.000",
    "request_status": "Pending",
    "responsible_agency": "Department of Public Works",
    "final_address": "5000 BLK Royal St",
    "address_councildis": "E",
    "status": "Pending",
    "rowid": "1160009",
    "final_x": "3695687.81266",
    "final_y": "532750.087831",
    "longitude": "-90.02322613526789",
    "latitude": "29.95843958978671",
    "geocoded_column": {
      "latitude": "29.95843958978671",
      "longitude": "-90.02322613526789"
    }
  },
  {
    "service_request": "2025-1160008",
    "request_type": "Trash/Recycling",
    "request_reason": "Request a Large Item Pick Up",
    "date_created": "2025-01-06T14:58:13.000",
    "date_modified": "2025-01-06T14:58:15.000",
    "request_status": "Pending",
    "responsible_agency": "Department of Sanitation",
    "final_address": "11400 Curran Rd",
    "address_councildis": "E",
    "status": "Assigned to Contractor",
    "contractor": "Waste Pro",
    "rowid": "1160008",
    "final_x": "3711422.16146",
    "final_y": "566650.698403",
    "longitude": "-89.97227021459479",
    "latitude": "30.051149167532337",
    "geocoded_column": {
      "latitude": "30.051149167532337",
      "longitude": "-89.97227021459479"
    }
  },
  {
    "service_request": "2025-1160007",
    "request_type": "Abandoned Vehicles",
    "request_reason": "Abandoned/Junk Vehicles",
    "date_created": "2025-01-06T14:57:11.000",
    "date_modified": "2025-01-06T14:57:13.000",
    "request_status": "Pending",
    "responsible_agency": "Department of Public Works",
    "final_address": "0 BLK Across St",
    "address_councildis": "E",
    "status": "Pending",
    "rowid": "1160007",
    "final_x": "3711887.63918",
    "final_y": "553972.247814",
    "longitude": "-89.97127534652184",
    "latitude": "30.01627326470007",
    "geocoded_column": {
      "latitude": "30.01627326470007",
      "longitude": "-89.97127534652184"
    }
  },
  {
    "service_request": "2025-1160006",
    "request_type": "Trash/Recycling",
    "request_reason": "Request a Large Item Pick Up",
    "date_created": "2025-01-06T14:56:33.000",
    "date_modified": "2025-01-06T14:56:34.000",
    "request_status": "Pending",
    "responsible_agency": "Department of Sanitation",
    "final_address": "522 Montegut St Apt 102",
    "address_councildis": "C",
    "status": "Assigned to Contractor",
    "contractor": "IV Waste",
    "rowid": "1160006",
    "final_x": "3687925.87683",
    "final_y": "534279.765573",
    "longitude": "-90.04768199440517",
    "latitude": "29.96288741420469",
    "geocoded_column": {
      "latitude": "29.96288741420469",
      "longitude": "-90.04768199440517"
    }
  },
  {
    "service_request": "2025-1160005",
    "request_type": "Trash/Recycling",
    "request_reason": "Repair Recycling Cart",
    "date_created": "2025-01-06T14:55:49.000",
    "date_modified": "2025-01-06T14:55:50.000",
    "request_status": "Pending",
    "responsible_agency": "Department of Sanitation",
    "final_address": "7817 Doyle Ct",
    "address_councildis": "E",
    "status": "Pending",
    "rowid": "1160005",
    "final_x": "3700342.70487",
    "final_y": "561369.462494",
    "longitude": "-90.00748163044572",
    "latitude": "30.03698505019488",
    "geocoded_column": {
      "latitude": "30.03698505019488",
      "longitude": "-90.00748163044572"
    }
  },
  {
    "service_request": "2025-1160004",
    "request_type": "Abandoned Vehicles",
    "request_reason": "Abandoned/Junk Vehicles",
    "date_created": "2025-01-06T14:55:00.000",
    "date_modified": "2025-01-06T14:55:00.000",
    "request_status": "Pending",
    "responsible_agency": "Department of Public Works",
    "final_address": "2800 BLK N Tonti St",
    "address_councildis": "D",
    "status": "Pending",
    "rowid": "1160004",
    "final_x": "3688720.81773",
    "final_y": "540867.767462",
    "longitude": "-90.044937755625",
    "latitude": "29.980977553921665",
    "geocoded_column": {
      "latitude": "29.980977553921665",
      "longitude": "-90.044937755625"
    }
  },
  {
    "service_request": "2025-1160003",
    "request_type": "Abandoned Vehicles",
    "request_reason": "Abandoned/Junk Vehicles",
    "date_created": "2025-01-06T14:52:21.000",
    "date_modified": "2025-01-06T14:52:22.000",
    "request_status": "Pending",
    "responsible_agency": "Department of Public Works",
    "final_address": "1800 BLK Duels St",
    "address_councildis": "D",
    "status": "Pending",
    "rowid": "1160003",
    "final_x": "3681717.76678",
    "final_y": "542340.848833",
    "longitude": "-90.06700508087435",
    "latitude": "29.985242669242375",
    "geocoded_column": {
      "latitude": "29.985242669242375",
      "longitude": "-90.06700508087435"
    }
  },
  {
    "service_request": "2025-1160002",
    "request_type": "Drainage",
    "request_reason": "Catch Basin Clogged",
    "date_created": "2025-01-06T14:51:55.000",
    "date_modified": "2025-01-06T14:51:56.000",
    "request_status": "Pending",
    "responsible_agency": "Department of Public Works",
    "final_address": "1018 S Carrollton Ave",
    "address_councildis": "A",
    "status": "Pending",
    "rowid": "1160002",
    "final_x": "3661578.41107",
    "final_y": "527979.905343",
    "longitude": "-90.13109314330612",
    "latitude": "29.94635139106853",
    "geocoded_column": {
      "latitude": "29.94635139106853",
      "longitude": "-90.13109314330612"
    }
  },
  {
    "service_request": "2025-1160001",
    "request_type": "Trash/Recycling",
    "request_reason": "Damaged Caused By Contractor",
    "date_created": "2025-01-06T14:49:53.000",
    "date_modified": "2025-01-06T15:27:21.000",
    "case_close_date": "2025-01-06T09:27:21.000",
    "request_status": "Closed",
    "responsible_agency": "Department of Sanitation",
    "final_address": "200 BLK Fairway Dr",
    "address_councildis": "A",
    "status": "Invalid Request",
    "contractor": "IV Waste",
    "contractor_action": "Invalid",
    "rowid": "1160001",
    "final_x": "3664185.38944",
    "final_y": "541131.339441",
    "longitude": "-90.12242314433429",
    "latitude": "29.98243804705692",
    "geocoded_column": {
      "latitude": "29.98243804705692",
      "longitude": "-90.12242314433429"
    }
  },
  {
    "service_request": "2025-1160000",
    "request_type": "Trash/Recycling",
    "request_reason": "Request a Large Item Pick Up",
    "date_created": "2025-01-06T14:49:04.000",
    "date_modified": "2025-01-06T16:05:40.000",
    "case_close_date": "2025-01-06T10:05:40.000",
    "request_status": "Closed",
    "responsible_agency": "Department of Sanitation",
    "final_address": "7081 E Tamaron Blvd",
    "address_councildis": "E",
    "status": "Duplicate Request",
    "contractor": "Waste Pro",
    "contractor_action": "Duplicate",
    "rowid": "1160000",
    "final_x": "3718816.00537",
    "final_y": "568783.233765",
    "longitude": "-89.94881957127647",
    "latitude": "30.056769196486677",
    "geocoded_column": {
      "latitude": "30.056769196486677",
      "longitude": "-89.94881957127647"
    }
  },
  {
    "service_request": "2025-1159999",
    "request_type": "Abandoned Vehicles",
    "request_reason": "Abandoned/Junk Vehicles",
    "date_created": "2025-01-06T14:47:21.000",
    "date_modified": "2025-01-06T14:47:22.000",
    "request_status": "Pending",
    "responsible_agency": "Department of Public Works",
    "final_address": "1419 General Ogden St",
    "address_councildis": "A",
    "status": "Pending",
    "rowid": "1159999",
    "final_x": "3660483.07821",
    "final_y": "530898.965314",
    "longitude": "-90.13445508106298",
    "latitude": "29.95440942689051",
    "geocoded_column": {
      "latitude": "29.95440942689051",
      "longitude": "-90.13445508106298"
    }
  },
  {
    "service_request": "2025-1159998",
    "request_type": "Trash/Recycling",
    "request_reason": "Request a Large Item Pick Up",
    "date_created": "2025-01-06T14:42:11.000",
    "date_modified": "2025-01-06T14:42:12.000",
    "request_status": "Pending",
    "responsible_agency": "Department of Sanitation",
    "final_address": "5236 Revel St",
    "address_councildis": "E",
    "status": "Assigned to Contractor",
    "contractor": "Waste Pro",
    "rowid": "1159998",
    "final_x": "3725040.1687",
    "final_y": "562683.318944",
    "longitude": "-89.9293824679228",
    "latitude": "30.03978871568909",
    "geocoded_column": {
      "latitude": "30.03978871568909",
      "longitude": "-89.9293824679228"
    }
  },
  {
    "service_request": "2025-1159997",
    "request_type": "Streetlights",
    "request_reason": "Streetlight Outage/Malfunction",
    "date_created": "2025-01-06T14:37:32.000",
    "date_modified": "2025-01-06T14:37:33.000",
    "request_status": "Pending",
    "responsible_agency": "Department of Public Works",
    "final_address": "2129 Palmer Ave",
    "address_councildis": "A",
    "status": "Pending",
    "contractor": "Legacy Professional Services",
    "rowid": "1159997",
    "final_x": "3666121.59508",
    "final_y": "524791.087484",
    "longitude": "-90.11685555157926",
    "latitude": "29.93745131317883",
    "geocoded_column": {
      "latitude": "29.93745131317883",
      "longitude": "-90.11685555157926"
    }
  },
  {
    "service_request": "2025-1159996",
    "request_type": "Roads and Streets",
    "request_reason": "Sidewalk Damaged or Missing",
    "date_created": "2025-01-06T14:37:16.000",
    "date_modified": "2025-01-06T14:37:18.000",
    "request_status": "Pending",
    "responsible_agency": "Department of Public Works",
    "final_address": "400 BLK N Scott St",
    "address_councildis": "A",
    "status": "Pending",
    "rowid": "1159996",
    "final_x": "3672574.19747",
    "final_y": "538873.841003",
    "longitude": "-90.09600409900519",
    "latitude": "29.975984267041053",
    "geocoded_column": {
      "latitude": "29.975984267041053",
      "longitude": "-90.09600409900519"
    }
  },
  {
    "service_request": "2025-1159995",
    "request_type": "Streetlights",
    "request_reason": "Streetlight Outage/Malfunction",
    "date_created": "2025-01-06T14:37:11.000",
    "date_modified": "2025-01-06T14:37:11.000",
    "request_status": "Pending",
    "responsible_agency": "Department of Public Works",
    "final_address": "6800 BLK Louisville St",
    "address_councildis": "A",
    "status": "Pending",
    "contractor": "Legacy Professional Services",
    "rowid": "1159995",
    "final_x": "3668267.91408",
    "final_y": "553070.841481",
    "longitude": "-90.1091255784922",
    "latitude": "30.015148289903745",
    "geocoded_column": {
      "latitude": "30.015148289903745",
      "longitude": "-90.1091255784922"
    }
  },
  {
    "service_request": "2025-1159994",
    "request_type": "Drainage",
    "request_reason": "Drainage Manhole Cover Missing or Damaged",
    "date_created": "2025-01-06T14:35:52.000",
    "date_modified": "2025-01-06T14:35:55.000",
    "request_status": "Pending",
    "responsible_agency": "Department of Public Works",
    "final_address": "2600 BLK Lafitte Ave",
    "address_councildis": "D",
    "status": "Pending",
    "rowid": "1159994",
    "final_x": "3676591.74127",
    "final_y": "536284.427547",
    "longitude": "-90.0834047373837",
    "latitude": "29.968744363910645",
    "geocoded_column": {
      "latitude": "29.968744363910645",
      "longitude": "-90.0834047373837"
    }
  },
  {
    "service_request": "2025-1159993",
    "request_type": "Trash/Recycling",
    "request_reason": "Request a Large Item Pick Up",
    "date_created": "2025-01-06T14:35:42.000",
    "date_modified": "2025-01-06T14:35:43.000",
    "request_status": "Pending",
    "responsible_agency": "Department of Sanitation",
    "final_address": "7307 Burthe St",
    "address_councildis": "A",
    "status": "Assigned to Contractor",
    "contractor": "IV Waste",
    "rowid": "1159993",
    "final_x": "3663287.19527",
    "final_y": "525849.362109",
    "longitude": "-90.12576877945969",
    "latitude": "29.94044366884792",
    "geocoded_column": {
      "latitude": "29.94044366884792",
      "longitude": "-90.12576877945969"
    }
  },
  {
    "service_request": "2025-1159992",
    "request_type": "Roads and Streets",
    "request_reason": "Sidewalk Damaged or Missing",
    "date_created": "2025-01-06T14:34:57.000",
    "date_modified": "2025-01-06T14:35:00.000",
    "request_status": "Pending",
    "responsible_agency": "Department of Public Works",
    "final_address": "229 N Genois St",
    "address_councildis": "B",
    "status": "Pending",
    "rowid": "1159992",
    "final_x": "3672983.94472",
    "final_y": "537767.878216",
    "longitude": "-90.09474775336463",
    "latitude": "29.972931072208723",
    "geocoded_column": {
      "latitude": "29.972931072208723",
      "longitude": "-90.09474775336463"
    }
  },
  {
    "service_request": "2025-1159991",
    "request_type": "Trash/Recycling",
    "request_reason": "Request a Large Item Pick Up",
    "date_created": "2025-01-06T14:32:58.000",
    "date_modified": "2025-01-06T14:32:59.000",
    "request_status": "Pending",
    "responsible_agency": "Department of Sanitation",
    "final_address": "7433 Onyx St",
    "address_councildis": "D",
    "status": "Assigned to Contractor",
    "contractor": "IV Waste",
    "rowid": "1159991",
    "final_x": "3669029.05274",
    "final_y": "556247.424282",
    "longitude": "-90.10661328244117",
    "latitude": "30.023860382855094",
    "geocoded_column": {
      "latitude": "30.023860382855094",
      "longitude": "-90.10661328244117"
    }
  },
  {
    "service_request": "2025-1159990",
    "request_type": "Trash/Recycling",
    "request_reason": "Request a Large Item Pick Up",
    "date_created": "2025-01-06T14:32:31.000",
    "date_modified": "2025-01-06T14:33:00.000",
    "request_status": "Pending",
    "responsible_agency": "Department of Sanitation",
    "final_address": "7081 E Tamaron Blvd",
    "address_councildis": "E",
    "status": "Assigned to Contractor",
    "contractor": "Waste Pro",
    "rowid": "1159990",
    "final_x": "3718816.00537",
    "final_y": "568783.233765",
    "longitude": "-89.94881957127647",
    "latitude": "30.056769196486677",
    "geocoded_column": {
      "latitude": "30.056769196486677",
      "longitude": "-89.94881957127647"
    }
  },
  {
    "service_request": "2025-1159989",
    "request_type": "Trash/Recycling",
    "request_reason": "Request a Large Item Pick Up",
    "date_created": "2025-01-06T14:32:24.000",
    "date_modified": "2025-01-06T14:32:25.000",
    "request_status": "Pending",
    "responsible_agency": "Department of Sanitation",
    "final_address": "2754 Lavender St",
    "address_councildis": "D",
    "status": "Assigned to Contractor",
    "contractor": "IV Waste",
    "rowid": "1159989",
    "final_x": "3688306.1622",
    "final_y": "546982.610193",
    "longitude": "-90.04603044156204",
    "latitude": "29.997803993935175",
    "geocoded_column": {
      "latitude": "29.997803993935175",
      "longitude": "-90.04603044156204"
    }
  },
  {
    "service_request": "2025-1159988",
    "request_type": "Healthy Homes",
    "request_reason": "Healthy Homes",
    "date_created": "2025-01-06T14:31:35.000",
    "date_modified": "2025-01-06T15:45:07.000",
    "case_close_date": "2025-01-06T09:45:07.000",
    "request_status": "Closed",
    "responsible_agency": "Department of Code Enforcement",
    "final_address": "8802 Bunker Hill Rd",
    "address_councildis": "E",
    "status": "Referred to Code Enforcement",
    "rowid": "1159988",
    "final_x": "3706230.54359",
    "final_y": "559834.110493",
    "longitude": "-89.98893184796104",
    "latitude": "30.03257479508978",
    "geocoded_column": {
      "latitude": "30.03257479508978",
      "longitude": "-89.98893184796104"
    }
  },
  {
    "service_request": "2025-1159987",
    "request_type": "Trash/Recycling",
    "request_reason": "Request a Large Item Pick Up",
    "date_created": "2025-01-06T14:29:38.000",
    "date_modified": "2025-01-06T14:29:39.000",
    "request_status": "Pending",
    "responsible_agency": "Department of Sanitation",
    "final_address": "8013 Lehigh St",
    "address_councildis": "E",
    "status": "Assigned to Contractor",
    "contractor": "Waste Pro",
    "rowid": "1159987",
    "final_x": "3709803.82782",
    "final_y": "566962.542564",
    "longitude": "-89.97737351920539",
    "latitude": "30.052059369494643",
    "geocoded_column": {
      "latitude": "30.052059369494643",
      "longitude": "-89.97737351920539"
    }
  },
  {
    "service_request": "2025-1159986",
    "request_type": "Trash/Recycling",
    "request_reason": "Request a Large Item Pick Up",
    "date_created": "2025-01-06T14:24:14.000",
    "date_modified": "2025-01-06T14:24:14.000",
    "request_status": "Pending",
    "responsible_agency": "Department of Sanitation",
    "final_address": "2125 Forstall St",
    "address_councildis": "E",
    "status": "Assigned to Contractor",
    "contractor": "Waste Pro",
    "rowid": "1159986",
    "final_x": "3697441.99376",
    "final_y": "538131.746121",
    "longitude": "-90.01749178028349",
    "latitude": "29.97318196520593",
    "geocoded_column": {
      "latitude": "29.97318196520593",
      "longitude": "-90.01749178028349"
    }
  },
  {
    "service_request": "2025-1159985",
    "request_type": "Property Maintenance",
    "request_reason": "Property Maintenance",
    "date_created": "2025-01-06T14:21:26.000",
    "date_modified": "2025-01-06T15:12:40.000",
    "case_close_date": "2025-01-06T09:12:40.000",
    "request_status": "Closed",
    "responsible_agency": "Department of Code Enforcement",
    "final_address": "4418 Dale St",
    "address_councildis": "E",
    "status": "Referred to Code Enforcement",
    "rowid": "1159985",
    "final_x": "3699537.22909",
    "final_y": "553269.333527",
    "longitude": "-90.01032265679433",
    "latitude": "30.01473840514693",
    "geocoded_column": {
      "latitude": "30.01473840514693",
      "longitude": "-90.01032265679433"
    }
  },
  {
    "service_request": "2025-1159984",
    "request_type": "Trash/Recycling",
    "request_reason": "Repair Recycling Cart",
    "date_created": "2025-01-06T14:14:27.000",
    "date_modified": "2025-01-06T14:14:28.000",
    "request_status": "Pending",
    "responsible_agency": "Department of Sanitation",
    "final_address": "5220 Atlanta St",
    "address_councildis": "B",
    "status": "Pending",
    "rowid": "1159984",
    "final_x": "3667917.40577",
    "final_y": "520685.623161",
    "longitude": "-90.1113242624008",
    "latitude": "29.926110051036336",
    "geocoded_column": {
      "latitude": "29.926110051036336",
      "longitude": "-90.1113242624008"
    }
  },
  {
    "service_request": "2025-1159983",
    "request_type": "Streetlights",
    "request_reason": "Streetlight Outage/Malfunction",
    "date_created": "2025-01-06T14:14:15.000",
    "date_modified": "2025-01-06T14:14:16.000",
    "request_status": "Pending",
    "responsible_agency": "Department of Public Works",
    "final_address": "9400 Palmetto St",
    "address_councildis": "A",
    "status": "Pending",
    "contractor": "Legacy Professional Services",
    "rowid": "1159983",
    "final_x": "3664679.54624",
    "final_y": "538204.349321",
    "longitude": "-90.12096016388108",
    "latitude": "29.974375434230918",
    "geocoded_column": {
      "latitude": "29.974375434230918",
      "longitude": "-90.12096016388108"
    }
  },
  {
    "service_request": "2025-1159982",
    "request_type": "Trash/Recycling",
    "request_reason": "Request a Large Item Pick Up",
    "date_created": "2025-01-06T14:13:49.000",
    "date_modified": "2025-01-06T14:13:50.000",
    "request_status": "Pending",
    "responsible_agency": "Department of Sanitation",
    "final_address": "10940 Harrow Rd",
    "address_councildis": "E",
    "status": "Assigned to Contractor",
    "contractor": "Waste Pro",
    "rowid": "1159982",
    "final_x": "3711778.88235",
    "final_y": "563817.623201",
    "longitude": "-89.97124919197346",
    "latitude": "30.043347700071017",
    "geocoded_column": {
      "latitude": "30.043347700071017",
      "longitude": "-89.97124919197346"
    }
  },
  {
    "service_request": "2025-1159981",
    "request_type": "Trash/Recycling",
    "request_reason": "Repair Trash Cart",
    "date_created": "2025-01-06T14:11:34.000",
    "date_modified": "2025-01-06T14:12:41.000",
    "request_status": "Pending",
    "responsible_agency": "Department of Sanitation",
    "final_address": "8718 Palm St",
    "address_councildis": "A",
    "status": "Assigned to Contractor",
    "contractor": "IV Waste",
    "rowid": "1159981",
    "final_x": "3666025.7328",
    "final_y": "536187.965127",
    "longitude": "-90.11677618294246",
    "latitude": "29.968791814934324",
    "geocoded_column": {
      "latitude": "29.968791814934324",
      "longitude": "-90.11677618294246"
    }
  },
  {
    "service_request": "2025-1159980",
    "request_type": "Streetlights",
    "request_reason": "Streetlight Outage/Malfunction",
    "date_created": "2025-01-06T14:11:28.000",
    "date_modified": "2025-01-06T14:11:29.000",
    "request_status": "Pending",
    "responsible_agency": "Department of Public Works",
    "final_address": "PATTERSON DR & WESTCHESTER ST",
    "address_councildis": "C",
    "status": "Pending",
    "contractor": "Legacy Professional Services",
    "rowid": "1159980",
    "final_x": "3706212.7",
    "final_y": "521882.98",
    "longitude": "-89.9903938096226",
    "latitude": "29.928223826405983",
    "geocoded_column": {
      "latitude": "29.928223826405983",
      "longitude": "-89.9903938096226"
    }
  },
  {
    "service_request": "2025-1159979",
    "request_type": "Trash/Recycling",
    "request_reason": "Order Second Trash Cart",
    "date_created": "2025-01-06T14:10:25.000",
    "date_modified": "2025-01-06T14:10:26.000",
    "request_status": "Pending",
    "responsible_agency": "Department of Sanitation",
    "final_address": "1813 N Dupre St",
    "address_councildis": "D",
    "status": "Assigned to Contractor",
    "contractor": "IV Waste",
    "rowid": "1159979",
    "final_x": "3679469.22178",
    "final_y": "541916.554316",
    "longitude": "-90.07412202042795",
    "latitude": "29.984144144167512",
    "geocoded_column": {
      "latitude": "29.984144144167512",
      "longitude": "-90.07412202042795"
    }
  },
  {
    "service_request": "2025-1159978",
    "request_type": "Trash/Recycling",
    "request_reason": "Repair Recycling Cart",
    "date_created": "2025-01-06T14:09:31.000",
    "date_modified": "2025-01-06T14:09:32.000",
    "request_status": "Pending",
    "responsible_agency": "Department of Sanitation",
    "final_address": "106 Westchester St",
    "address_councildis": "C",
    "status": "Pending",
    "rowid": "1159978",
    "final_x": "3706180.39204",
    "final_y": "521379.590457",
    "longitude": "-89.99051442038949",
    "latitude": "29.92684072246448",
    "geocoded_column": {
      "latitude": "29.92684072246448",
      "longitude": "-89.99051442038949"
    }
  },
  {
    "service_request": "2025-1159977",
    "request_type": "Trash/Recycling",
    "request_reason": "Repair Trash Cart",
    "date_created": "2025-01-06T14:08:58.000",
    "date_modified": "2025-01-06T14:08:59.000",
    "request_status": "Pending",
    "responsible_agency": "Department of Sanitation",
    "final_address": "106 Westchester St",
    "address_councildis": "C",
    "status": "Assigned to Contractor",
    "contractor": "Richards Disposal",
    "rowid": "1159977",
    "final_x": "3706180.39204",
    "final_y": "521379.590457",
    "longitude": "-89.99051442038949",
    "latitude": "29.92684072246448",
    "geocoded_column": {
      "latitude": "29.92684072246448",
      "longitude": "-89.99051442038949"
    }
  },
  {
    "service_request": "2025-1159976",
    "request_type": "Streetlights",
    "request_reason": "New Streetlight Request",
    "date_created": "2025-01-06T14:08:18.000",
    "date_modified": "2025-01-06T14:08:19.000",
    "request_status": "Pending",
    "responsible_agency": "Department of Public Works",
    "final_address": "ESPLANADE AVE & BOURBON ST & PAUGER ST",
    "address_councildis": "C",
    "status": "Pending",
    "contractor": "Legacy Professional Services",
    "rowid": "1159976",
    "final_x": "3683741.9",
    "final_y": "534619.78",
    "longitude": "-90.06088252335391",
    "latitude": "29.963950756012366",
    "geocoded_column": {
      "latitude": "29.963950756012366",
      "longitude": "-90.06088252335391"
    }
  },
  {
    "service_request": "2025-1159975",
    "request_type": "Trash/Recycling",
    "request_reason": "Missed Trash Pick-Up",
    "date_created": "2025-01-06T14:05:56.000",
    "date_modified": "2025-01-06T14:05:57.000",
    "request_status": "Pending",
    "responsible_agency": "Department of Sanitation",
    "final_address": "2101 Easter Ln",
    "address_councildis": "C",
    "status": "Assigned to Contractor",
    "contractor": "Richards Disposal",
    "rowid": "1159975",
    "final_x": "3699437.75178",
    "final_y": "523661.041787",
    "longitude": "-90.01171593785695",
    "latitude": "29.93332947636682",
    "geocoded_column": {
      "latitude": "29.93332947636682",
      "longitude": "-90.01171593785695"
    }
  },
  {
    "service_request": "2025-1159974",
    "request_type": "Taxi Issues",
    "request_reason": "Taxi Complaint",
    "date_created": "2025-01-06T14:04:29.000",
    "date_modified": "2025-01-06T14:13:16.000",
    "request_status": "Pending",
    "responsible_agency": "Ground Transportation Bureau",
    "final_address": "214 Royal St",
    "address_councildis": "C",
    "status": "Pending",
    "rowid": "1159974",
    "final_x": "3681611.07157",
    "final_y": "531183.872066",
    "longitude": "-90.06773132081467",
    "latitude": "29.95456807206019",
    "geocoded_column": {
      "latitude": "29.95456807206019",
      "longitude": "-90.06773132081467"
    }
  },
  {
    "service_request": "2025-1159973",
    "request_type": "Drainage",
    "request_reason": "Catch Basin Clogged",
    "date_created": "2025-01-06T14:02:52.000",
    "date_modified": "2025-01-06T14:02:53.000",
    "request_status": "Pending",
    "responsible_agency": "Department of Public Works",
    "final_address": "4646 Donna Dr",
    "address_councildis": "E",
    "status": "Pending",
    "rowid": "1159973",
    "final_x": "3710978.98891",
    "final_y": "555411.736153",
    "longitude": "-89.97409230475408",
    "latitude": "30.02026096337242",
    "geocoded_column": {
      "latitude": "30.02026096337242",
      "longitude": "-89.97409230475408"
    }
  },
  {
    "service_request": "2025-1159972",
    "request_type": "Streetlights",
    "request_reason": "Streetlight Outage/Malfunction",
    "date_created": "2025-01-06T14:02:51.000",
    "date_modified": "2025-01-06T14:02:52.000",
    "request_status": "Pending",
    "responsible_agency": "Department of Public Works",
    "final_address": "3325 Clermont Dr",
    "address_councildis": "D",
    "status": "Pending",
    "contractor": "Legacy Professional Services",
    "rowid": "1159972",
    "final_x": "3686317.59062",
    "final_y": "545141.267855",
    "longitude": "-90.05237731072599",
    "latitude": "29.992802242917286",
    "geocoded_column": {
      "latitude": "29.992802242917286",
      "longitude": "-90.05237731072599"
    }
  },
  {
    "service_request": "2025-1159971",
    "request_type": "Trash/Recycling",
    "request_reason": "Replace Trash Cart",
    "date_created": "2025-01-06T14:02:18.000",
    "date_modified": "2025-01-06T14:02:19.000",
    "request_status": "Pending",
    "responsible_agency": "Department of Sanitation",
    "final_address": "826 N Dupre St",
    "address_councildis": "A",
    "status": "Assigned to Contractor",
    "contractor": "IV Waste",
    "rowid": "1159971",
    "final_x": "3676363.84853",
    "final_y": "537916.804873",
    "longitude": "-90.08406823221225",
    "latitude": "29.973239678690767",
    "geocoded_column": {
      "latitude": "29.973239678690767",
      "longitude": "-90.08406823221225"
    }
  },
  {
    "service_request": "2025-1159970",
    "request_type": "Trash/Recycling",
    "request_reason": "Request a Large Item Pick Up",
    "date_created": "2025-01-06T14:02:07.000",
    "date_modified": "2025-01-06T14:02:08.000",
    "request_status": "Pending",
    "responsible_agency": "Department of Sanitation",
    "final_address": "2524 Touro St",
    "address_councildis": "D",
    "status": "Assigned to Contractor",
    "contractor": "IV Waste",
    "rowid": "1159970",
    "final_x": "3683771.25897",
    "final_y": "541628.877196",
    "longitude": "-90.06054394729743",
    "latitude": "29.983222437129236",
    "geocoded_column": {
      "latitude": "29.983222437129236",
      "longitude": "-90.06054394729743"
    }
  },
  {
    "service_request": "2025-1159969",
    "request_type": "Trash/Recycling",
    "request_reason": "Request a Large Item Pick Up",
    "date_created": "2025-01-06T14:01:49.000",
    "date_modified": "2025-01-06T14:01:50.000",
    "request_status": "Pending",
    "responsible_agency": "Department of Sanitation",
    "final_address": "4906 Burgundy St",
    "address_councildis": "E",
    "status": "Assigned to Contractor",
    "contractor": "Waste Pro",
    "rowid": "1159969",
    "final_x": "3695244.3928",
    "final_y": "533588.743813",
    "longitude": "-90.02459608256262",
    "latitude": "29.960759531212037",
    "geocoded_column": {
      "latitude": "29.960759531212037",
      "longitude": "-90.02459608256262"
    }
  },