[
  {
    "service_request": "2024-1085317",
    "request_type": "Roads/Drainage",
    "request_reason": "Man hole cover issue",
    "date_created": "2024-04-16T23:37:51.000",
    "date_modified": "2024-04-16T23:37:51.000",
    "request_status": "Pending",
    "responsible_agency": "Department of Public Works",
    "final_address": "727 Iberville St",
    "address_councildis": "C",
    "status": "Pending",
    "rowid": "1085317",
    "final_x": "3681271.58133",
    "final_y": "531175.076226",
    "longitude": "-90.0688036046137",
    "latitude": "29.954554192610562",
    "geocoded_column": {
      "latitude": "29.954554192610562",
      "longitude": "-90.0688036046137"
    }
  },
  {
    "service_request": "2024-1085316",
    "request_type": "Trash/Recycling",
    "request_reason": "Request a Large Item Pick Up",
    "date_created": "2024-04-16T22:48:54.000",
    "date_modified": "2024-04-16T22:48:55.000",
    "request_status": "Pending",
    "responsible_agency": "Department of Sanitation",
    "final_address": "3330 Florida Ave",
    "address_councildis": "D",
    "status": "Assigned to Contractor",
    "contractor": "IV Waste",
    "rowid": "1085316",
    "final_x": "3691621.94966",
    "final_y": "541829.47534",
    "longitude": "-90.03574032318794",
    "latitude": "29.98353189179561",
    "geocoded_column": {
      "latitude": "29.98353189179561",
      "longitude": "-90.03574032318794"
    }
  },
  {
    "service_request": "2024-1085315",
    "request_type": "Roads/Drainage",
    "request_reason": "Alley Way",
    "date_created": "2024-04-16T22:38:46.000",
    "date_modified": "2024-04-16T22:38:46.000",
    "request_status": "Pending",
    "responsible_agency": "Department of Public Works",
    "final_address": "5859 Louis Xiv St",
    "address_councildis": "A",
    "status": "Pending",
    "rowid": "1085315",
    "final_x": "3668061.91687",
    "final_y": "546438.607953",
    "longitude": "-90.11000015389702",
    "latitude": "29.996918008801593",
    "geocoded_column": {
      "latitude": "29.996918008801593",
      "longitude": "-90.11000015389702"
    }
  },
  {
    "service_request": "2024-1085314",
    "request_type": "Trash/Recycling",
    "request_reason": "Request a Large Item Pick Up",
    "date_created": "2024-04-16T22:36:30.000",
    "date_modified": "2024-04-16T22:36:31.000",
    "request_status": "Pending",
    "responsible_agency": "Department of Sanitation",
    "final_address": "4516 Mark Twain Dr",
    "address_councildis": "D",
    "status": "Assigned to Contractor",
    "contractor": "IV Waste",
    "rowid": "1085314",
    "final_x": "3691458.21065",
    "final_y": "550759.554261",
    "longitude": "-90.03593813020397",
    "latitude": "30.0080914586232",
    "geocoded_column": {
      "latitude": "30.0080914586232",
      "longitude": "-90.03593813020397"
    }
  },
  {
    "service_request": "2024-1085313",
    "request_type": "Mosquito, Termite & Rodent Control",
    "request_reason": "Mosquito Complaint",
    "date_created": "2024-04-16T22:33:58.000",
    "date_modified": "2024-04-16T22:33:58.000",
    "request_status": "Pending",
    "responsible_agency": "Mosquito, Termite & Rodent Control Board",
    "final_address": "5859 Louis Xiv St",
    "address_councildis": "A",
    "status": "Pending",
    "rowid": "1085313",
    "final_x": "3668061.91687",
    "final_y": "546438.607953",
    "longitude": "-90.11000015389702",
    "latitude": "29.996918008801593",
    "geocoded_column": {
      "latitude": "29.996918008801593",
      "longitude": "-90.11000015389702"
    }
  },
  {
    "service_request": "2024-1085312",
    "request_type": "Trash/Recycling",
    "request_reason": "Request a Large Item Pick Up",
    "date_created": "2024-04-16T22:21:12.000",
    "date_modified": "2024-04-16T22:21:13.000",
    "request_status": "Pending",
    "responsible_agency": "Department of Sanitation",
    "final_address": "4842 Gabriel Dr",
    "address_councildis": "E",
    "status": "Assigned to Contractor",
    "contractor": "Waste Pro",
    "rowid": "1085312",
    "final_x": "3708759.61144",
    "final_y": "556382.21609",
    "longitude": "-89.98106859726059",
    "latitude": "30.023001607871134",
    "geocoded_column": {
      "latitude": "30.023001607871134",
      "longitude": "-89.98106859726059"
    }
  },
  {
    "service_request": "2024-1085311",
    "request_type": "Traffic Signals/Signs/Striping/Streetlights",
    "request_reason": "Street Light Outage/Malfunction",
    "date_created": "2024-04-16T22:10:13.000",
    "date_modified": "2024-04-16T22:10:13.000",
    "request_status": "Pending",
    "responsible_agency": "Department of Public Works",
    "final_address": "2 Five Oaks Dr",
    "address_councildis": "C",
    "status": "Assigned to Contractor",
    "contractor": "Legacy Professional Services",
    "rowid": "1085311",
    "final_x": "3699235.93706",
    "final_y": "526320.835134",
    "longitude": "-90.01225624127927",
    "latitude": "29.940649383287365",
    "geocoded_column": {
      "latitude": "29.940649383287365",
      "longitude": "-90.01225624127927"
    }
  },
  {
    "service_request": "2024-1085309",
    "request_type": "Trash/Recycling",
    "request_reason": "Request a Large Item Pick Up",
    "date_created": "2024-04-16T21:15:42.000",
    "date_modified": "2024-04-16T21:15:42.000",
    "request_status": "Pending",
    "responsible_agency": "Department of Sanitation",
    "final_address": "37 Curtis Dr",
    "address_councildis": "E",
    "status": "Assigned to Contractor",
    "contractor": "Waste Pro",
    "rowid": "1085309",
    "final_x": "3697804.54967",
    "final_y": "560738.177246",
    "longitude": "-90.01552565818882",
    "latitude": "30.035329769258666",
    "geocoded_column": {
      "latitude": "30.035329769258666",
      "longitude": "-90.01552565818882"
    }
  },
  {
    "service_request": "2024-1085308",
    "request_type": "Abandoned Vehicles",
    "request_reason": "Abandoned/Junk Vehicles",
    "date_created": "2024-04-16T21:15:33.000",
    "date_modified": "2024-04-16T21:15:33.000",
    "request_status": "Pending",
    "responsible_agency": "Department of Public Works",
    "final_address": "2026 Burdette St",
    "address_councildis": "A",
    "status": "Pending",
    "rowid": "1085308",
    "final_x": "3664814.40404",
    "final_y": "529883.378817",
    "longitude": "-90.12081233853885",
    "latitude": "29.951491572983286",
    "geocoded_column": {
      "latitude": "29.951491572983286",
      "longitude": "-90.12081233853885"
    }
  },
  {
    "service_request": "2024-1085307",
    "request_type": "Traffic Signals/Signs/Striping/Streetlights",
    "request_reason": "Street Light Outage/Malfunction",
    "date_created": "2024-04-16T21:07:38.000",
    "date_modified": "2024-04-16T21:07:39.000",
    "request_status": "Pending",
    "responsible_agency": "Department of Public Works",
    "final_address": "5300 BLK Prytania St",
    "address_councildis": "B",
    "status": "Assigned to Contractor",
    "contractor": "Legacy Professional Services",
    "rowid": "1085307",
    "final_x": "3667535.81351",
    "final_y": "520218.556135",
    "longitude": "-90.1125445511989",
    "latitude": "29.92483694905403",
    "geocoded_column": {
      "latitude": "29.92483694905403",
      "longitude": "-90.1125445511989"
    }
  },
  {
    "service_request": "2024-1085306",
    "request_type": "Traffic Signals/Signs/Striping/Streetlights",
    "request_reason": "Street Light Outage/Malfunction",
    "date_created": "2024-04-16T20:50:01.000",
    "date_modified": "2024-04-16T20:50:02.000",
    "request_status": "Pending",
    "responsible_agency": "Department of Public Works",
    "final_address": "2026 Philip St",
    "address_councildis": "B",
    "status": "Assigned to Contractor",
    "contractor": "Legacy Professional Services",
    "rowid": "1085306",
    "final_x": "3676203.36949",
    "final_y": "524710.893308",
    "longitude": "-90.08502942247196",
    "latitude": "29.93693265010777",
    "geocoded_column": {
      "latitude": "29.93693265010777",
      "longitude": "-90.08502942247196"
    }
  },
  {
    "service_request": "2024-1085305",
    "request_type": "Trash/Recycling",
    "request_reason": "Missed Trash Pick-Up",
    "date_created": "2024-04-16T20:45:48.000",
    "date_modified": "2024-04-17T10:14:00.000",
    "case_close_date": "2024-04-17T05:14:00.000",
    "request_status": "Closed",
    "responsible_agency": "Department of Sanitation",
    "final_address": "7670 Branch Dr",
    "address_councildis": "E",
    "status": "Duplicate Request",
    "contractor": "Waste Pro",
    "contractor_action": "Duplicate",
    "rowid": "1085305",
    "final_x": "3714555.95851",
    "final_y": "568863.263397",
    "longitude": "-89.9622817526227",
    "latitude": "30.057130090056642",
    "geocoded_column": {
      "latitude": "30.057130090056642",
      "longitude": "-89.9622817526227"
    }
  },
  {
    "service_request": "2024-1085304",
    "request_type": "Trash/Recycling",
    "request_reason": "Missed Trash Pick-Up",
    "date_created": "2024-04-16T20:44:17.000",
    "date_modified": "2024-04-17T10:37:23.000",
    "case_close_date": "2024-04-17T05:37:23.000",
    "request_status": "Closed",
    "responsible_agency": "Department of Sanitation",
    "final_address": "7670 Branch Dr",
    "address_councildis": "E",
    "status": "Duplicate Request",
    "contractor": "Waste Pro",
    "contractor_action": "Duplicate",
    "rowid": "1085304",
    "final_x": "3714555.95851",
    "final_y": "568863.263397",
    "longitude": "-89.9622817526227",
    "latitude": "30.057130090056642",
    "geocoded_column": {
      "latitude": "30.057130090056642",
      "longitude": "-89.9622817526227"
    }
  },
  {
    "service_request": "2024-1085303",
    "request_type": "Trash/Recycling",
    "request_reason": "Missed Trash Pick-Up",
    "date_created": "2024-04-16T20:40:02.000",
    "date_modified": "2024-04-17T11:49:52.000",
    "case_close_date": "2024-04-17T06:49:52.000",
    "request_status": "Closed",
    "responsible_agency": "Department of Sanitation",
    "final_address": "7670 Branch Dr",
    "address_councildis": "E",
    "status": "Assigned to Contractor",
    "contractor": "Waste Pro",
    "contractor_action": "Completed",
    "rowid": "1085303",
    "final_x": "3714555.95851",
    "final_y": "568863.263397",
    "longitude": "-89.9622817526227",
    "latitude": "30.057130090056642",
    "geocoded_column": {
      "latitude": "30.057130090056642",
      "longitude": "-89.9622817526227"
    }
  },
  {
    "service_request": "2024-1085301",
    "request_type": "Trash/Recycling",
    "request_reason": "Missed Trash Pick-Up",
    "date_created": "2024-04-16T20:14:55.000",
    "date_modified": "2024-04-16T20:14:56.000",
    "request_status": "Pending",
    "responsible_agency": "Department of Sanitation",
    "final_address": "820 Joseph St",
    "address_councildis": "A",
    "status": "Assigned to Contractor",
    "contractor": "IV Waste",
    "rowid": "1085301",
    "final_x": "3666139.52033",
    "final_y": "519136.262455",
    "longitude": "-90.11698847196",
    "latitude": "29.92190181293798",
    "geocoded_column": {
      "latitude": "29.92190181293798",
      "longitude": "-90.11698847196"
    }
  },
  {
    "service_request": "2024-1085300",
    "request_type": "Property Maintenance",
    "request_reason": "Property Maintenance",
    "date_created": "2024-04-16T20:06:45.000",
    "date_modified": "2024-04-16T20:06:45.000",
    "request_status": "Pending",
    "responsible_agency": "Department of Code Enforcement",
    "final_address": "1600 BLK S Peters St",
    "address_councildis": "B",
    "status": "Pending",
    "rowid": "1085300",
    "final_x": "3682595.86082",
    "final_y": "522306.417117",
    "longitude": "-90.06493204131179",
    "latitude": "29.930128100015754",
    "geocoded_column": {
      "latitude": "29.930128100015754",
      "longitude": "-90.06493204131179"
    }
  },
  {
    "service_request": "2024-1085299",
    "request_type": "Trash/Recycling",
    "request_reason": "Replace Recycling Cart",
    "date_created": "2024-04-16T20:05:53.000",
    "date_modified": "2024-04-16T20:05:53.000",
    "request_status": "Pending",
    "responsible_agency": "Department of Sanitation",
    "final_address": "1478 Granada Dr",
    "address_councildis": "D",
    "status": "Pending",
    "rowid": "1085299",
    "final_x": "3678371.05672",
    "final_y": "550524.23938",
    "longitude": "-90.07729260136318",
    "latitude": "30.007845379697333",
    "geocoded_column": {
      "latitude": "30.007845379697333",
      "longitude": "-90.07729260136318"
    }
  },
  {
    "service_request": "2024-1085298",
    "request_type": "Trash/Recycling",
    "request_reason": "Request a Large Item Pick Up",
    "date_created": "2024-04-16T20:02:01.000",
    "date_modified": "2024-04-16T20:02:02.000",
    "request_status": "Pending",
    "responsible_agency": "Department of Sanitation",
    "final_address": "4321 Trieste St",
    "address_councildis": "E",
    "status": "Assigned to Contractor",
    "contractor": "Waste Pro",
    "rowid": "1085298",
    "final_x": "3760220.06697",
    "final_y": "573504.147946",
    "longitude": "-89.81775378901686",
    "latitude": "30.06830896010249",
    "geocoded_column": {
      "latitude": "30.06830896010249",
      "longitude": "-89.81775378901686"
    }
  },
  {
    "service_request": "2024-1085297",
    "request_type": "Trash/Recycling",
    "request_reason": "Missed Trash Pick-Up",
    "date_created": "2024-04-16T20:00:11.000",
    "date_modified": "2024-04-16T20:00:11.000",
    "request_status": "Pending",
    "responsible_agency": "Department of Sanitation",
    "final_address": "4214 Bienville Ave",
    "address_councildis": "A",
    "status": "Assigned to Contractor",
    "contractor": "IV Waste",
    "rowid": "1085297",
    "final_x": "3670904.35271",
    "final_y": "539390.401994",
    "longitude": "-90.10126042102982",
    "latitude": "29.977454110212214",
    "geocoded_column": {
      "latitude": "29.977454110212214",
      "longitude": "-90.10126042102982"
    }
  },
  {
    "service_request": "2024-1085296",
    "request_type": "Trash/Recycling",
    "request_reason": "Request a Large Item Pick Up",
    "date_created": "2024-04-16T19:53:59.000",
    "date_modified": "2024-04-16T19:54:00.000",
    "request_status": "Pending",
    "responsible_agency": "Department of Sanitation",
    "final_address": "4015 N Rampart St",
    "address_councildis": "C",
    "status": "Assigned to Contractor",
    "contractor": "IV Waste",
    "rowid": "1085296",
    "final_x": "3691847.84566",
    "final_y": "534876.387206",
    "longitude": "-90.03527561655059",
    "latitude": "29.964406332503174",
    "geocoded_column": {
      "latitude": "29.964406332503174",
      "longitude": "-90.03527561655059"
    }
  },
  {
    "service_request": "2024-1085295",
    "request_type": "Trash/Recycling",
    "request_reason": "Order Recycling Cart",
    "date_created": "2024-04-16T19:53:18.000",
    "date_modified": "2024-04-16T19:53:18.000",
    "request_status": "Pending",
    "responsible_agency": "Department of Sanitation",
    "final_address": "45 Neron Pl",
    "address_councildis": "A",
    "status": "Pending",
    "rowid": "1085295",
    "final_x": "3665506.46138",
    "final_y": "530438.817346",
    "longitude": "-90.11860855704514",
    "latitude": "29.952998693768492",
    "geocoded_column": {
      "latitude": "29.952998693768492",
      "longitude": "-90.11860855704514"
    }
  },
  {
    "service_request": "2024-1085294",
    "request_type": "Abandoned Vehicles",
    "request_reason": "Abandoned/Junk Vehicles",
    "date_created": "2024-04-16T19:48:00.000",
    "date_modified": "2024-04-16T19:48:00.000",
    "request_status": "Pending",
    "responsible_agency": "Department of Public Works",
    "final_address": "4124 Iberville St, New Orleans, Louisiana, 70119",
    "status": "Pending",
    "rowid": "1085294",
    "longitude": "0.0",
    "latitude": "0.0",
    "geocoded_column": {
      "latitude": "0.0",
      "longitude": "0.0"
    }
  },
  {
    "service_request": "2024-1085293",
    "request_type": "Trash/Recycling",
    "request_reason": "Order Recycling Cart",
    "date_created": "2024-04-16T19:42:50.000",
    "date_modified": "2024-04-16T19:42:50.000",
    "request_status": "Pending",
    "responsible_agency": "Department of Sanitation",
    "final_address": "45 Neron Pl",
    "address_councildis": "A",
    "status": "Pending",
    "rowid": "1085293",
    "final_x": "3665506.46138",
    "final_y": "530438.817346",
    "longitude": "-90.11860855704514",
    "latitude": "29.952998693768492",
    "geocoded_column": {
      "latitude": "29.952998693768492",
      "longitude": "-90.11860855704514"
    }
  },
  {
    "service_request": "2024-1085290",
    "request_type": "Property Maintenance",
    "request_reason": "Property Maintenance",
    "date_created": "2024-04-16T19:20:44.000",
    "date_modified": "2024-04-16T19:20:44.000",
    "request_status": "Pending",
    "responsible_agency": "Department of Code Enforcement",
    "final_address": "631 S Lopez St",
    "address_councildis": "B",
    "status": "Pending",
    "rowid": "1085290",
    "final_x": "3672417.77991",
    "final_y": "534399.102597",
    "longitude": "-90.09665064127378",
    "latitude": "29.963684888522877",
    "geocoded_column": {
      "latitude": "29.963684888522877",
      "longitude": "-90.09665064127378"
    }
  },
  {
    "service_request": "2024-1085289",
    "request_type": "Trash/Recycling",
    "request_reason": "MIssed Recycling Pick-Up",
    "date_created": "2024-04-16T19:20:40.000",
    "date_modified": "2024-04-17T08:35:02.000",
    "case_close_date": "2024-04-17T03:35:02.000",
    "request_status": "Closed",
    "responsible_agency": "Department of Sanitation",
    "final_address": "2636 Governor Nicholls St",
    "address_councildis": "D",
    "status": "Invalid Request",
    "contractor": "IV Waste",
    "contractor_action": "Invalid",
    "rowid": "1085289",
    "final_x": "3677976.9675",
    "final_y": "538229.036745",
    "longitude": "-90.07896288076392",
    "latitude": "29.974049751791576",
    "geocoded_column": {
      "latitude": "29.974049751791576",
      "longitude": "-90.07896288076392"
    }
  },
  {
    "service_request": "2024-1085288",
    "request_type": "Utility Poles",
    "request_reason": "Utility Pole Leaning",
    "date_created": "2024-04-16T19:18:54.000",
    "date_modified": "2024-04-16T19:19:00.000",
    "request_status": "Pending",
    "responsible_agency": "Utility Company Collective",
    "final_address": "6015 Colbert St",
    "address_councildis": "A",
    "status": "Pending",
    "rowid": "1085288",
    "final_x": "3667474.5449",
    "final_y": "547484.730834",
    "longitude": "-90.11182041073776",
    "latitude": "29.999811715932992",
    "geocoded_column": {
      "latitude": "29.999811715932992",
      "longitude": "-90.11182041073776"
    }
  },
  {
    "service_request": "2024-1085287",
    "request_type": "Parks & Parkways",
    "request_reason": "Request Tree Service (Right of Way/Public Property)",
    "date_created": "2024-04-16T18:51:43.000",
    "date_modified": "2024-04-16T18:51:43.000",
    "request_status": "Pending",
    "responsible_agency": "Department of Parks & Parkway",
    "final_address": "6809 Colbert St",
    "address_councildis": "A",
    "status": "Pending",
    "rowid": "1085287",
    "final_x": "3668007.213",
    "final_y": "552872.180887",
    "longitude": "-90.10995597522442",
    "latitude": "30.01460969927326",
    "geocoded_column": {
      "latitude": "30.01460969927326",
      "longitude": "-90.10995597522442"
    }
  },
  {
    "service_request": "2024-1085286",
    "request_type": "Trash/Recycling",
    "request_reason": "Repair Trash Cart",
    "date_created": "2024-04-16T18:40:40.000",
    "date_modified": "2024-04-16T18:40:40.000",
    "request_status": "Pending",
    "responsible_agency": "Department of Sanitation",
    "final_address": "3529 Frenchmen St",
    "address_councildis": "D",
    "status": "Assigned to Contractor",
    "contractor": "IV Waste",
    "rowid": "1085286",
    "final_x": "3683873.42594",
    "final_y": "545721.06408",
    "longitude": "-90.06007762661142",
    "latitude": "29.99447138021544",
    "geocoded_column": {
      "latitude": "29.99447138021544",
      "longitude": "-90.06007762661142"
    }
  },
  {
    "service_request": "2024-1085285",
    "request_type": "Abandoned Vehicles",
    "request_reason": "Vehicle Blocking Your Driveway",
    "date_created": "2024-04-16T18:38:05.000",
    "date_modified": "2024-04-16T18:38:05.000",
    "request_status": "Pending",
    "responsible_agency": "Department of Public Works",
    "final_address": "1339 France St",
    "address_councildis": "D",
    "status": "Pending",
    "rowid": "1085285",
    "final_x": "3692683.97296",
    "final_y": "536210.330311",
    "longitude": "-90.03258738317676",
    "latitude": "29.968048134259593",
    "geocoded_column": {
      "latitude": "29.968048134259593",
      "longitude": "-90.03258738317676"
    }
  },
  {
    "service_request": "2024-1085284",
    "request_type": "Trash/Recycling",
    "request_reason": "Repair Trash Cart",
    "date_created": "2024-04-16T18:37:59.000",
    "date_modified": "2024-04-16T18:37:59.000",
    "request_status": "Pending",
    "responsible_agency": "Department of Sanitation",
    "final_address": "3529 Frenchmen St",
    "address_councildis": "D",
    "status": "Assigned to Contractor",
    "contractor": "IV Waste",
    "rowid": "1085284",
    "final_x": "3683873.42594",
    "final_y": "545721.06408",
    "longitude": "-90.06007762661142",
    "latitude": "29.99447138021544",
    "geocoded_column": {
      "latitude": "29.99447138021544",
      "longitude": "-90.06007762661142"
    }
  },
  {
    "service_request": "2024-1085283",
    "request_type": "Trash/Recycling",
    "request_reason": "Repair Trash Cart",
    "date_created": "2024-04-16T18:35:21.000",
    "date_modified": "2024-04-16T18:35:21.000",
    "request_status": "Pending",
    "responsible_agency": "Department of Sanitation",
    "final_address": "3529 Frenchmen St",
    "address_councildis": "D",
    "status": "Assigned to Contractor",
    "contractor": "IV Waste",
    "rowid": "1085283",
    "final_x": "3683873.42594",
    "final_y": "545721.06408",
    "longitude": "-90.06007762661142",
    "latitude": "29.99447138021544",
    "geocoded_column": {
      "latitude": "29.99447138021544",
      "longitude": "-90.06007762661142"
    }
  },
  {
    "service_request": "2024-1085282",
    "request_type": "Trash/Recycling",
    "request_reason": "Request a Large Item Pick Up",
    "date_created": "2024-04-16T18:22:58.000",
    "date_modified": "2024-04-17T08:53:44.000",
    "case_close_date": "2024-04-17T03:53:44.000",
    "request_status": "Closed",
    "responsible_agency": "Department of Sanitation",
    "final_address": "2646 Wisteria St, New Orleans, Louisiana, 70122",
    "address_councildis": "D",
    "status": "Assigned to Contractor",
    "contractor": "IV Waste",
    "contractor_action": "Completed",
    "rowid": "1085282",
    "final_x": "3687412.38543",
    "final_y": "548381.231762",
    "longitude": "-90.04880432686575",
    "latitude": "30.001677276594833",
    "geocoded_column": {
      "latitude": "30.001677276594833",
      "longitude": "-90.04880432686575"
    }
  },
  {
    "service_request": "2024-1085281",
    "request_type": "Parks & Parkways",
    "request_reason": "Request Tree Service (Right of Way/Public Property)",
    "date_created": "2024-04-16T18:09:04.000",
    "date_modified": "2024-04-16T18:09:04.000",
    "request_status": "Pending",
    "responsible_agency": "Department of Parks & Parkway",
    "final_address": "6201 Berkley Dr",
    "address_councildis": "C",
    "status": "Pending",
    "rowid": "1085281",
    "final_x": "3707025.10321",
    "final_y": "518035.768886",
    "longitude": "-89.98797185070612",
    "latitude": "29.917619132934384",
    "geocoded_column": {
      "latitude": "29.917619132934384",
      "longitude": "-89.98797185070612"
    }
  },
  {
    "service_request": "2024-1085280",
    "request_type": "Roads/Drainage",
    "request_reason": "Road Shoulder Repair",
    "date_created": "2024-04-16T17:52:33.000",
    "date_modified": "2024-04-16T17:52:33.000",
    "request_status": "Pending",
    "responsible_agency": "Department of Public Works",
    "final_address": "1110 Valmont St",
    "address_councildis": "B",
    "status": "Pending",
    "rowid": "1085280",
    "final_x": "3667561.31617",
    "final_y": "519486.984759",
    "longitude": "-90.11248865239399",
    "latitude": "29.922824611750997",
    "geocoded_column": {
      "latitude": "29.922824611750997",
      "longitude": "-90.11248865239399"
    }
  },
  {
    "service_request": "2024-1085279",
    "request_type": "Trash/Recycling",
    "request_reason": "Dead Animal Pick Up",
    "date_created": "2024-04-16T17:50:04.000",
    "date_modified": "2024-04-16T17:50:05.000",
    "request_status": "Pending",
    "responsible_agency": "Department of Sanitation",
    "final_address": "7904 St Charles Ave",
    "address_councildis": "A",
    "status": "Assigned to Contractor",
    "contractor": "IV Waste",
    "rowid": "1085279",
    "final_x": "3661026.29478",
    "final_y": "526321.54867",
    "longitude": "-90.13289123267742",
    "latitude": "29.941807354779325",
    "geocoded_column": {
      "latitude": "29.941807354779325",
      "longitude": "-90.13289123267742"
    }
  },
  {
    "service_request": "2024-1085278",
    "request_type": "Trash/Recycling",
    "request_reason": "Dead Animal Pick Up",
    "date_created": "2024-04-16T17:48:13.000",
    "date_modified": "2024-04-16T17:48:14.000",
    "request_status": "Pending",
    "responsible_agency": "Department of Sanitation",
    "final_address": "931 Louisa St",
    "address_councildis": "C",
    "status": "Assigned to Contractor",
    "contractor": "IV Waste",
    "rowid": "1085278",
    "final_x": "3689452.56457",
    "final_y": "535312.530118",
    "longitude": "-90.04282419136239",
    "latitude": "29.96567996700375",
    "geocoded_column": {
      "latitude": "29.96567996700375",
      "longitude": "-90.04282419136239"
    }
  },
  {
    "service_request": "2024-1085276",
    "request_type": "Tax and Revenue",
    "request_reason": "General Tax Question",
    "date_created": "2024-04-16T17:34:06.000",
    "date_modified": "2024-04-16T17:34:06.000",
    "request_status": "Pending",
    "responsible_agency": "Bureau of Revenue",
    "final_address": " & BALDWIN ST",
    "address_councildis": "D",
    "status": "Pending",
    "rowid": "1085276",
    "final_x": "3687880.8",
    "final_y": "560035.64",
    "longitude": "-90.04691121641319",
    "latitude": "30.03370814054373",
    "geocoded_column": {
      "latitude": "30.03370814054373",
      "longitude": "-90.04691121641319"
    }
  },
  {
    "service_request": "2024-1085275",
    "request_type": "Trash/Recycling",
    "request_reason": "Replace Trash Cart",
    "date_created": "2024-04-16T17:33:46.000",
    "date_modified": "2024-04-16T17:33:47.000",
    "request_status": "Pending",
    "responsible_agency": "Department of Sanitation",
    "final_address": "193 Cypress Grove Ct",
    "address_councildis": "C",
    "status": "Assigned to Contractor",
    "contractor": "Richards Disposal",
    "rowid": "1085275",
    "final_x": "3704803.63838",
    "final_y": "511820.62296",
    "longitude": "-89.99521281634222",
    "latitude": "29.900601141144257",
    "geocoded_column": {
      "latitude": "29.900601141144257",
      "longitude": "-89.99521281634222"
    }
  },
  {
    "service_request": "2024-1085274",
    "request_type": "Trash/Recycling",
    "request_reason": "Replace Trash Cart",
    "date_created": "2024-04-16T17:21:14.000",
    "date_modified": "2024-04-16T17:21:14.000",
    "request_status": "Pending",
    "responsible_agency": "Department of Sanitation",
    "final_address": "4107 Clara St",
    "address_councildis": "B",
    "status": "Assigned to Contractor",
    "contractor": "IV Waste",
    "rowid": "1085274",
    "final_x": "3671565.1131",
    "final_y": "525234.260861",
    "longitude": "-90.099654886031",
    "latitude": "29.938509867671172",
    "geocoded_column": {
      "latitude": "29.938509867671172",
      "longitude": "-90.099654886031"
    }
  },
  {
    "service_request": "2024-1085273",
    "request_type": "Trash/Recycling",
    "request_reason": "Order Recycling Cart",
    "date_created": "2024-04-16T17:12:21.000",
    "date_modified": "2024-04-16T17:12:21.000",
    "request_status": "Pending",
    "responsible_agency": "Department of Sanitation",
    "final_address": "1904 Milan St",
    "address_councildis": "B",
    "status": "Pending",
    "rowid": "1085273",
    "final_x": "3671439.90388",
    "final_y": "522084.324538",
    "longitude": "-90.100157211905",
    "latitude": "29.929852265746902",
    "geocoded_column": {
      "latitude": "29.929852265746902",
      "longitude": "-90.100157211905"
    }
  },
  {
    "service_request": "2024-1085272",
    "request_type": "Property Maintenance",
    "request_reason": "Property Maintenance",
    "date_created": "2024-04-16T17:11:31.000",
    "date_modified": "2024-04-16T17:11:31.000",
    "request_status": "Pending",
    "responsible_agency": "Department of Code Enforcement",
    "final_address": "3006 Marigny St",
    "address_councildis": "D",
    "status": "Pending",
    "rowid": "1085272",
    "final_x": "3684764.01109",
    "final_y": "543897.97147",
    "longitude": "-90.05732851655657",
    "latitude": "29.989431284189145",
    "geocoded_column": {
      "latitude": "29.989431284189145",
      "longitude": "-90.05732851655657"
    }
  },
  {
    "service_request": "2024-1085271",
    "request_type": "Mosquito, Termite & Rodent Control",
    "request_reason": "Rodent Complaint (Rats)",
    "date_created": "2024-04-16T17:10:00.000",
    "date_modified": "2024-04-16T17:10:00.000",
    "request_status": "Pending",
    "responsible_agency": "Mosquito, Termite & Rodent Control Board",
    "final_address": "1731 Annette St",
    "address_councildis": "D",
    "status": "Pending",
    "rowid": "1085271",
    "final_x": "3683032.40156",
    "final_y": "538623.846537",
    "longitude": "-90.06298286665495",
    "latitude": "29.974982199682994",
    "geocoded_column": {
      "latitude": "29.974982199682994",
      "longitude": "-90.06298286665495"
    }
  },
  {
    "service_request": "2024-1085270",
    "request_type": "Property Maintenance",
    "request_reason": "Property Maintenance",
    "date_created": "2024-04-16T17:06:55.000",
    "date_modified": "2024-04-16T17:06:55.000",
    "request_status": "Pending",
    "responsible_agency": "Department of Code Enforcement",
    "final_address": "1731 Annette St",
    "address_councildis": "D",
    "status": "Pending",
    "rowid": "1085270",
    "final_x": "3683032.40156",
    "final_y": "538623.846537",
    "longitude": "-90.06298286665495",
    "latitude": "29.974982199682994",
    "geocoded_column": {
      "latitude": "29.974982199682994",
      "longitude": "-90.06298286665495"
    }
  },
  {
    "service_request": "2024-1085269",
    "request_type": "Roads/Drainage",
    "request_reason": "Street Flooding / Drainage",
    "date_created": "2024-04-16T16:58:53.000",
    "date_modified": "2024-04-17T08:14:43.000",
    "case_close_date": "2024-04-17T03:14:43.000",
    "request_status": "Closed",
    "responsible_agency": "Department of Public Works",
    "final_address": "8923 Apple St",
    "address_councildis": "A",
    "status": "Duplicate Request",
    "rowid": "1085269",
    "final_x": "3663128.13197",
    "final_y": "534177.646021",
    "longitude": "-90.12599392048146",
    "latitude": "29.96334837037641",
    "geocoded_column": {
      "latitude": "29.96334837037641",
      "longitude": "-90.12599392048146"
    }
  },
  {
    "service_request": "2024-1085268",
    "request_type": "Trash/Recycling",
    "request_reason": "Missed Trash Pick-Up",
    "date_created": "2024-04-16T16:58:51.000",
    "date_modified": "2024-04-17T12:33:15.000",
    "case_close_date": "2024-04-17T07:33:15.000",
    "request_status": "Closed",
    "responsible_agency": "Department of Sanitation",
    "final_address": "4416 Perrier St, New Orleans, Louisiana, 70115",
    "address_councildis": "B",
    "status": "Invalid Request",
    "contractor": "IV Waste",
    "contractor_action": "Invalid",
    "rowid": "1085268",
    "final_x": "3670709.55137",
    "final_y": "519979.33324",
    "longitude": "-90.10253419361912",
    "latitude": "29.924085805200754",
    "geocoded_column": {
      "latitude": "29.924085805200754",
      "longitude": "-90.10253419361912"
    }
  },
  {
    "service_request": "2024-1085267",
    "request_type": "Trash/Recycling",
    "request_reason": "Replace Trash Cart",
    "date_created": "2024-04-16T16:58:39.000",
    "date_modified": "2024-04-16T16:58:39.000",
    "request_status": "Pending",
    "responsible_agency": "Department of Sanitation",
    "final_address": "8432 Panola St",
    "address_councildis": "A",
    "status": "Assigned to Contractor",
    "contractor": "IV Waste",
    "rowid": "1085267",
    "final_x": "3663106.9792",
    "final_y": "531560.678211",
    "longitude": "-90.12614778431227",
    "latitude": "29.95615317403037",
    "geocoded_column": {
      "latitude": "29.95615317403037",
      "longitude": "-90.12614778431227"
    }
  },
  {
    "service_request": "2024-1085266",
    "request_type": "Trash/Recycling",
    "request_reason": "Replace Trash Cart",
    "date_created": "2024-04-16T16:54:39.000",
    "date_modified": "2024-04-16T16:54:40.000",
    "request_status": "Pending",
    "responsible_agency": "Department of Sanitation",
    "final_address": "6351 Fairfax Pl",
    "address_councildis": "C",
    "status": "Assigned to Contractor",
    "contractor": "Richards Disposal",
    "rowid": "1085266",
    "final_x": "3707545.7658",
    "final_y": "517227.738549",
    "longitude": "-89.98635840599354",
    "latitude": "29.915380510461837",
    "geocoded_column": {
      "latitude": "29.915380510461837",
      "longitude": "-89.98635840599354"
    }
  },
  {
    "service_request": "2024-1085264",
    "request_type": "Roads/Drainage",
    "request_reason": "Catch Basin - Clogged",
    "date_created": "2024-04-16T16:50:52.000",
    "date_modified": "2024-04-16T16:50:52.000",
    "request_status": "Pending",
    "responsible_agency": "Department of Public Works",
    "final_address": "4300 BLK Iberville St",
    "address_councildis": "A",
    "status": "Pending",
    "rowid": "1085264",
    "final_x": "3670407.15849",
    "final_y": "539411.854035",
    "longitude": "-90.10283000340668",
    "latitude": "29.977527786675758",
    "geocoded_column": {
      "latitude": "29.977527786675758",
      "longitude": "-90.10283000340668"
    }
  },
  {
    "service_request": "2024-1085263",
    "request_type": "Tax and Revenue",
    "request_reason": "Business Renewal",
    "date_created": "2024-04-16T16:49:09.000",
    "date_modified": "2024-04-17T12:21:23.000",
    "case_close_date": "2024-04-17T07:21:23.000",
    "request_status": "Closed",
    "responsible_agency": "Bureau of Revenue",
    "final_address": "3336 Magazine St",
    "address_councildis": "B",
    "status": "Resolved",
    "rowid": "1085263",
    "final_x": "3675153.65595",
    "final_y": "519637.732856",
    "longitude": "-90.08851742441047",
    "latitude": "29.923014507172553",
    "geocoded_column": {
      "latitude": "29.923014507172553",
      "longitude": "-90.08851742441047"
    }
  },
  {
    "service_request": "2024-1085262",
    "request_type": "Trash/Recycling",
    "request_reason": "Dead Animal Pick Up",
    "date_created": "2024-04-16T16:47:48.000",
    "date_modified": "2024-04-16T16:47:48.000",
    "request_status": "Pending",
    "responsible_agency": "Department of Sanitation",
    "final_address": "701 N Lopez St",
    "address_councildis": "A",
    "status": "Assigned to Contractor",
    "contractor": "IV Waste",
    "rowid": "1085262",
    "final_x": "3675185.60603",
    "final_y": "537993.625993",
    "longitude": "-90.08778672659713",
    "latitude": "29.973486179848177",
    "geocoded_column": {
      "latitude": "29.973486179848177",
      "longitude": "-90.08778672659713"
    }
  },
  {
    "service_request": "2024-1085261",
    "request_type": "Abandoned Vehicles",
    "request_reason": "Abandoned/Junk Vehicles",
    "date_created": "2024-04-16T16:40:06.000",
    "date_modified": "2024-04-16T16:40:07.000",
    "request_status": "Pending",
    "responsible_agency": "Department of Public Works",
    "final_address": "921 Cherokee St",
    "address_councildis": "A",
    "status": "Pending",
    "rowid": "1085261",
    "final_x": "3662995.84506",
    "final_y": "526291.885438",
    "longitude": "-90.12667391141468",
    "latitude": "29.94166890656013",
    "geocoded_column": {
      "latitude": "29.94166890656013",
      "longitude": "-90.12667391141468"
    }
  },
  {
    "service_request": "2024-1085260",
    "request_type": "Roads/Drainage",
    "request_reason": "Pothole",
    "date_created": "2024-04-16T16:38:02.000",
    "date_modified": "2024-04-16T16:38:02.000",
    "request_status": "Pending",
    "responsible_agency": "Department of Public Works",
    "final_address": "1108 S Gayoso St",
    "address_councildis": "B",
    "status": "Pending",
    "rowid": "1085260",
    "final_x": "3671503.99041",
    "final_y": "531785.505091",
    "longitude": "-90.09962516688239",
    "latitude": "29.956525451151407",
    "geocoded_column": {
      "latitude": "29.956525451151407",
      "longitude": "-90.09962516688239"
    }
  },
  {
    "service_request": "2024-1085259",
    "request_type": "Roads/Drainage",
    "request_reason": "Street Flooding / Drainage",
    "date_created": "2024-04-16T16:37:37.000",
    "date_modified": "2024-04-17T09:50:32.000",
    "case_close_date": "2024-04-17T04:50:32.000",
    "request_status": "Closed",
    "responsible_agency": "Department of Public Works",
    "final_address": "8930 Apple St",
    "address_councildis": "A",
    "status": "Duplicate Request",
    "rowid": "1085259",
    "final_x": "3663054.56461",
    "final_y": "534147.646085",
    "longitude": "-90.12622723712552",
    "latitude": "29.96326801158287",
    "geocoded_column": {
      "latitude": "29.96326801158287",
      "longitude": "-90.12622723712552"
    }
  },
  {
    "service_request": "2024-1085258",
    "request_type": "Roads/Drainage",
    "request_reason": "Catch Basin - Clogged",
    "date_created": "2024-04-16T16:35:36.000",
    "date_modified": "2024-04-17T09:50:57.000",
    "case_close_date": "2024-04-17T04:50:57.000",
    "request_status": "Closed",
    "responsible_agency": "Department of Public Works",
    "final_address": "8430 Apple St",
    "address_councildis": "A",
    "status": "Duplicate Request",
    "rowid": "1085258",
    "final_x": "3664300.56525",
    "final_y": "533014.209156",
    "longitude": "-90.1223303200947",
    "latitude": "29.960115279583455",
    "geocoded_column": {
      "latitude": "29.960115279583455",
      "longitude": "-90.1223303200947"
    }
  },
  {
    "service_request": "2024-1085257",
    "request_type": "Trash/Recycling",
    "request_reason": "MIssed Recycling Pick-Up",
    "date_created": "2024-04-16T16:34:26.000",
    "date_modified": "2024-04-17T09:56:46.000",
    "case_close_date": "2024-04-17T04:56:46.000",
    "request_status": "Closed",
    "responsible_agency": "Department of Sanitation",
    "final_address": "0 BLK Avoyelles Pl",
    "address_councildis": "E",
    "status": "Invalid Request",
    "contractor": "Waste Pro",
    "contractor_action": "Invalid Pick-Up",
    "rowid": "1085257",
    "final_x": "3725656.02864",
    "final_y": "564342.81828",
    "longitude": "-89.92737183826097",
    "latitude": "30.044330888438765",
    "geocoded_column": {
      "latitude": "30.044330888438765",
      "longitude": "-89.92737183826097"
    }
  },
  {
    "service_request": "2024-1085256",
    "request_type": "Roads/Drainage",
    "request_reason": "Accessibility Ramps, Curbs and Sidewalk Repair",
    "date_created": "2024-04-16T16:33:38.000",
    "date_modified": "2024-04-17T09:36:26.000",
    "request_status": "Pending",
    "responsible_agency": "Department of Public Works",
    "final_address": "2131 St Anthony St",
    "address_councildis": "D",
    "status": "Pending",
    "rowid": "1085256",
    "final_x": "3683242.85116",
    "final_y": "540144.324107",
    "longitude": "-90.06226494494688",
    "latitude": "29.979156565238473",
    "geocoded_column": {
      "latitude": "29.979156565238473",
      "longitude": "-90.06226494494688"
    }
  },
  {
    "service_request": "2024-1085255",
    "request_type": "Roads/Drainage",
    "request_reason": "Catch Basin - Clogged",
    "date_created": "2024-04-16T16:32:00.000",
    "date_modified": "2024-04-16T16:32:00.000",
    "request_status": "Pending",
    "responsible_agency": "Department of Public Works",
    "final_address": "1233 St Mary St",
    "address_councildis": "B",
    "status": "Pending",
    "rowid": "1085255",
    "final_x": "3679308.91528",
    "final_y": "523346.731771",
    "longitude": "-90.07527233632892",
    "latitude": "29.93308826190815",
    "geocoded_column": {
      "latitude": "29.93308826190815",
      "longitude": "-90.07527233632892"
    }
  },
  {
    "service_request": "2024-1085254",
    "request_type": "Roads/Drainage",
    "request_reason": "Man hole cover issue",
    "date_created": "2024-04-16T16:28:37.000",
    "date_modified": "2024-04-16T16:28:37.000",
    "request_status": "Pending",
    "responsible_agency": "Department of Public Works",
    "final_address": "OAK ST & MONROE ST",
    "address_councildis": "A",
    "status": "Pending",
    "rowid": "1085254",
    "final_x": "3660389.1",
    "final_y": "529803.18",
    "longitude": "-90.13478802098518",
    "latitude": "29.951399072271673",
    "geocoded_column": {
      "latitude": "29.951399072271673",
      "longitude": "-90.13478802098518"
    }
  },
  {
    "service_request": "2024-1085253",
    "request_type": "Trash/Recycling",
    "request_reason": "Missed Trash Pick-Up",
    "date_created": "2024-04-16T16:27:09.000",
    "date_modified": "2024-04-16T16:27:09.000",
    "request_status": "Pending",
    "responsible_agency": "Department of Sanitation",
    "final_address": "914 N Rocheblave St",
    "address_councildis": "D",
    "status": "Assigned to Contractor",
    "contractor": "IV Waste",
    "rowid": "1085253",
    "final_x": "3678079.72437",
    "final_y": "537011.6866",
    "longitude": "-90.07868044882096",
    "latitude": "29.970699362745286",
    "geocoded_column": {
      "latitude": "29.970699362745286",
      "longitude": "-90.07868044882096"
    }
  },
  {
    "service_request": "2024-1085252",
    "request_type": "Trash/Recycling",
    "request_reason": "Order Trash Cart",
    "date_created": "2024-04-16T16:25:04.000",
    "date_modified": "2024-04-16T16:25:04.000",
    "request_status": "Pending",
    "responsible_agency": "Department of Sanitation",
    "final_address": "1446 N Dorgenois St",
    "address_councildis": "D",
    "status": "Assigned to Contractor",
    "contractor": "IV Waste",
    "rowid": "1085252",
    "final_x": "3679019.92667",
    "final_y": "539027.260682",
    "longitude": "-90.07564130811039",
    "latitude": "29.976213157209873",
    "geocoded_column": {
      "latitude": "29.976213157209873",
      "longitude": "-90.07564130811039"
    }
  },
  {
    "service_request": "2024-1085251",
    "request_type": "Healthy Homes",
    "request_reason": "Healthy Homes",
    "date_created": "2024-04-16T16:23:00.000",
    "date_modified": "2024-04-16T16:23:00.000",
    "request_status": "Pending",
    "responsible_agency": "Department of Code Enforcement",
    "final_address": "2821 Aubry St",
    "address_councildis": "D",
    "status": "Pending",
    "rowid": "1085251",
    "final_x": "3679074.76495",
    "final_y": "541645.558988",
    "longitude": "-90.07537732779598",
    "latitude": "29.983410914812133",
    "geocoded_column": {
      "latitude": "29.983410914812133",
      "longitude": "-90.07537732779598"
    }
  },
  {
    "service_request": "2024-1085250",
    "request_type": "Trash/Recycling",
    "request_reason": "Illegal Dumping",
    "date_created": "2024-04-16T16:22:06.000",
    "date_modified": "2024-04-16T16:22:06.000",
    "request_status": "Pending",
    "responsible_agency": "Department of Sanitation",
    "final_address": "1320 St Anthony St",
    "address_councildis": "C",
    "status": "Pending",
    "rowid": "1085250",
    "final_x": "3683432.52341",
    "final_y": "536720.072455",
    "longitude": "-90.06178590310616",
    "latitude": "29.969735278571186",
    "geocoded_column": {
      "latitude": "29.969735278571186",
      "longitude": "-90.06178590310616"
    }
  },
  {
    "service_request": "2024-1085249",
    "request_type": "Trash/Recycling",
    "request_reason": "Request a Large Item Pick Up",
    "date_created": "2024-04-16T16:19:24.000",
    "date_modified": "2024-04-16T17:43:11.000",
    "case_close_date": "2024-04-16T12:43:11.000",
    "request_status": "Closed",
    "responsible_agency": "Department of Sanitation",
    "final_address": "11412 Campbell Ln",
    "address_councildis": "E",
    "status": "Assigned to Contractor",
    "contractor": "Waste Pro",
    "contractor_action": "Completed",
    "rowid": "1085249",
    "final_x": "3718003.88178",
    "final_y": "561318.794974",
    "longitude": "-89.95167103494012",
    "latitude": "30.036272002757624",
    "geocoded_column": {
      "latitude": "30.036272002757624",
      "longitude": "-89.95167103494012"
    }
  },
  {
    "service_request": "2024-1085248",
    "request_type": "Trash/Recycling",
    "request_reason": "Request a Large Item Pick Up",
    "date_created": "2024-04-16T16:18:51.000",
    "date_modified": "2024-04-16T16:18:51.000",
    "request_status": "Pending",
    "responsible_agency": "Department of Sanitation",
    "final_address": "3313 Upperline St",
    "address_councildis": "B",
    "status": "Assigned to Contractor",
    "contractor": "IV Waste",
    "rowid": "1085248",
    "final_x": "3669306.89326",
    "final_y": "527211.314111",
    "longitude": "-90.10671752091596",
    "latitude": "29.944012784611893",
    "geocoded_column": {
      "latitude": "29.944012784611893",
      "longitude": "-90.10671752091596"
    }
  },
  {
    "service_request": "2024-1085247",
    "request_type": "Trash/Recycling",
    "request_reason": "Repair Recycling Cart",
    "date_created": "2024-04-16T16:14:10.000",
    "date_modified": "2024-04-16T16:14:11.000",
    "request_status": "Pending",
    "responsible_agency": "Department of Sanitation",
    "final_address": "5243 Sandhurst Dr",
    "address_councildis": "E",
    "status": "Pending",
    "rowid": "1085247",
    "final_x": "3704785.9891",
    "final_y": "557279.016731",
    "longitude": "-89.99359112649854",
    "latitude": "30.025595806528443",
    "geocoded_column": {
      "latitude": "30.025595806528443",
      "longitude": "-89.99359112649854"
    }
  },
  {
    "service_request": "2024-1085246",
    "request_type": "Trash/Recycling",
    "request_reason": "Replace Trash Cart",
    "date_created": "2024-04-16T16:11:05.000",
    "date_modified": "2024-04-16T16:11:05.000",
    "request_status": "Pending",
    "responsible_agency": "Department of Sanitation",
    "final_address": "6300 Debore Dr",
    "address_councildis": "D",
    "status": "Assigned to Contractor",
    "contractor": "IV Waste",
    "rowid": "1085246",
    "final_x": "3690755.96752",
    "final_y": "556603.794138",
    "longitude": "-90.03794798815478",
    "latitude": "30.024182790201557",
    "geocoded_column": {
      "latitude": "30.024182790201557",
      "longitude": "-90.03794798815478"
    }
  },
  {
    "service_request": "2024-1085245",
    "request_type": "Traffic Signals/Signs/Striping/Streetlights",
    "request_reason": "Traffic Signal Malfunctioning/Damaged",
    "date_created": "2024-04-16T16:08:11.000",
    "date_modified": "2024-04-16T16:08:12.000",
    "request_status": "Pending",
    "responsible_agency": "Department of Public Works",
    "final_address": "POLK AVE & WEST END BLVD",
    "address_councildis": "A",
    "status": "Pending",
    "rowid": "1085245",
    "final_x": "3666453.2",
    "final_y": "547537.78",
    "longitude": "-90.11504511338072",
    "latitude": "29.999987481371257",
    "geocoded_column": {
      "latitude": "29.999987481371257",
      "longitude": "-90.11504511338072"
    }
  },
  {
    "service_request": "2024-1085243",
    "request_type": "Trash/Recycling",
    "request_reason": "Request a Large Item Pick Up",
    "date_created": "2024-04-16T16:01:45.000",
    "date_modified": "2024-04-16T16:01:46.000",
    "request_status": "Pending",
    "responsible_agency": "Department of Sanitation",
    "final_address": "1568 N Dorgenois St",
    "address_councildis": "D",
    "status": "Assigned to Contractor",
    "contractor": "IV Waste",
    "rowid": "1085243",
    "final_x": "3679518.55183",
    "final_y": "539675.924106",
    "longitude": "-90.0740439875504",
    "latitude": "29.97798169901041",
    "geocoded_column": {
      "latitude": "29.97798169901041",
      "longitude": "-90.0740439875504"
    }
  },
  {
    "service_request": "2024-1085242",
    "request_type": "Trash/Recycling",
    "request_reason": "Request a Large Item Pick Up",
    "date_created": "2024-04-16T16:00:57.000",
    "date_modified": "2024-04-16T16:00:57.000",
    "request_status": "Pending",
    "responsible_agency": "Department of Sanitation",
    "final_address": "7820 W Laverne St",
    "address_councildis": "D",
    "status": "Assigned to Contractor",
    "contractor": "Waste Pro",
    "rowid": "1085242",
    "final_x": "3694921.08746",
    "final_y": "559182.959324",
    "longitude": "-90.02469396913096",
    "latitude": "30.031144383536343",
    "geocoded_column": {
      "latitude": "30.031144383536343",
      "longitude": "-90.02469396913096"
    }
  },
  {
    "service_request": "2024-1085241",
    "request_type": "Trash/Recycling",
    "request_reason": "MIssed Recycling Pick-Up",
    "date_created": "2024-04-16T15:55:39.000",
    "date_modified": "2024-04-17T10:29:22.000",
    "case_close_date": "2024-04-17T05:29:22.000",
    "request_status": "Closed",
    "responsible_agency": "Department of Sanitation",
    "final_address": "1000 Moss St",
    "address_councildis": "A",
    "status": "Invalid Request",
    "contractor": "IV Waste",
    "contractor_action": "Invalid",
    "rowid": "1085241",
    "final_x": "3675065.2964",
    "final_y": "539708.814794",
    "longitude": "-90.08810782238099",
    "latitude": "29.978205958359425",
    "geocoded_column": {
      "latitude": "29.978205958359425",
      "longitude": "-90.08810782238099"
    }
  },
  {
    "service_request": "2024-1085240",
    "request_type": "Trash/Recycling",
    "request_reason": "Replace Trash Cart",
    "date_created": "2024-04-16T15:48:07.000",
    "date_modified": "2024-04-16T15:48:08.000",
    "request_status": "Pending",
    "responsible_agency": "Department of Sanitation",
    "final_address": "631 Henry Clay Ave",
    "address_councildis": "A",
    "status": "Assigned to Contractor",
    "contractor": "IV Waste",
    "rowid": "1085240",
    "final_x": "3663689.11629",
    "final_y": "519179.064119",
    "longitude": "-90.12472197226587",
    "latitude": "29.922090800814694",
    "geocoded_column": {
      "latitude": "29.922090800814694",
      "longitude": "-90.12472197226587"
    }
  },
  {
    "service_request": "2024-1085239",
    "request_type": "Property Maintenance",
    "request_reason": "Property Maintenance",
    "date_created": "2024-04-16T15:46:51.000",
    "date_modified": "2024-04-16T15:46:51.000",
    "request_status": "Pending",
    "responsible_agency": "Department of Code Enforcement",
    "final_address": "2016 Simon Bolivar Ave",
    "address_councildis": "B",
    "status": "Pending",
    "rowid": "1085239",
    "final_x": "3676725.78549",
    "final_y": "525779.983357",
    "longitude": "-90.08334330686334",
    "latitude": "29.939856636776053",
    "geocoded_column": {
      "latitude": "29.939856636776053",
      "longitude": "-90.08334330686334"
    }
  },
  {
    "service_request": "2024-1085238",
    "request_type": "Parks & Parkways",
    "request_reason": "Request Tree Service (Right of Way/Public Property)",
    "date_created": "2024-04-16T15:44:56.000",
    "date_modified": "2024-04-16T15:44:56.000",
    "request_status": "Pending",
    "responsible_agency": "Department of Parks & Parkway",
    "final_address": "1931 Burgundy St",
    "address_councildis": "C",
    "status": "Pending",
    "rowid": "1085238",
    "final_x": "3684181.76892",
    "final_y": "535550.929862",
    "longitude": "-90.05946076969607",
    "latitude": "29.966497658138245",
    "geocoded_column": {
      "latitude": "29.966497658138245",
      "longitude": "-90.05946076969607"
    }
  },
  {
    "service_request": "2024-1085237",
    "request_type": "Trash/Recycling",
    "request_reason": "Request a Large Item Pick Up",
    "date_created": "2024-04-16T15:42:35.000",
    "date_modified": "2024-04-16T15:42:36.000",
    "request_status": "Pending",
    "responsible_agency": "Department of Sanitation",
    "final_address": "7240 Pinebrook Dr",
    "address_councildis": "E",
    "status": "Assigned to Contractor",
    "contractor": "Waste Pro",
    "rowid": "1085237",
    "final_x": "3718876.78975",
    "final_y": "570576.806695",
    "longitude": "-89.94855893011903",
    "latitude": "30.061698756008276",
    "geocoded_column": {
      "latitude": "30.061698756008276",
      "longitude": "-89.94855893011903"
    }
  },
  {
    "service_request": "2024-1085236",
    "request_type": "Parks & Parkways",
    "request_reason": "Tree Stump (removal, grind)",
    "date_created": "2024-04-16T15:41:01.000",
    "date_modified": "2024-04-16T15:52:33.000",
    "request_status": "Pending",
    "responsible_agency": "Department of Parks & Parkway",
    "final_address": "New Orleans,LA",
    "address_councildis": "A",
    "rowid": "1085236",
    "final_x": "3668711.80724",
    "final_y": "546541.080081",
    "longitude": "-90.10794371378421",
    "latitude": "29.997180677546144",
    "geocoded_column": {
      "latitude": "29.997180677546144",
      "longitude": "-90.10794371378421"
    }
  },
  {
    "service_request": "2024-1085234",
    "request_type": "Trash/Recycling",
    "request_reason": "Request a Large Item Pick Up",
    "date_created": "2024-04-16T15:35:46.000",
    "date_modified": "2024-04-16T15:35:47.000",
    "request_status": "Pending",
    "responsible_agency": "Department of Sanitation",
    "final_address": "326 S Cortez St",
    "address_councildis": "A",
    "status": "Assigned to Contractor",
    "contractor": "IV Waste",
    "rowid": "1085234",
    "final_x": "3671480.62951",
    "final_y": "536756.164552",
    "longitude": "-90.0995299266907",
    "latitude": "29.970193796810985",
    "geocoded_column": {
      "latitude": "29.970193796810985",
      "longitude": "-90.0995299266907"
    }
  },
  {
    "service_request": "2024-1085233",
    "request_type": "Property Maintenance",
    "request_reason": "Property Maintenance",
    "date_created": "2024-04-16T15:32:05.000",
    "date_modified": "2024-04-16T15:32:05.000",
    "request_status": "Pending",
    "responsible_agency": "Department of Code Enforcement",
    "final_address": "5232 Basinview Dr",
    "address_councildis": "E",
    "status": "Pending",
    "rowid": "1085233",
    "final_x": "3698881.25802",
    "final_y": "556893.398618",
    "longitude": "-90.01226318169539",
    "latitude": "30.024724015175146",
    "geocoded_column": {
      "latitude": "30.024724015175146",
      "longitude": "-90.01226318169539"
    }
  },
  {
    "service_request": "2024-1085231",
    "request_type": "Trash/Recycling",
    "request_reason": "Request a Large Item Pick Up",
    "date_created": "2024-04-16T15:30:24.000",
    "date_modified": "2024-04-16T17:43:57.000",
    "case_close_date": "2024-04-16T12:43:57.000",
    "request_status": "Closed",
    "responsible_agency": "Department of Sanitation",
    "final_address": "10810 Willowbrae Dr",
    "address_councildis": "E",
    "status": "Assigned to Contractor",
    "contractor": "Waste Pro",
    "contractor_action": "Completed",
    "rowid": "1085231",
    "final_x": "3710975.56357",
    "final_y": "564214.632353",
    "longitude": "-89.97377310558785",
    "latitude": "30.044465547903975",
    "geocoded_column": {
      "latitude": "30.044465547903975",
      "longitude": "-89.97377310558785"
    }
  },
  {
    "service_request": "2024-1085230",
    "request_type": "Trash/Recycling",
    "request_reason": "Repair Recycling Cart",
    "date_created": "2024-04-16T15:29:16.000",
    "date_modified": "2024-04-16T15:29:16.000",
    "request_status": "Pending",
    "responsible_agency": "Department of Sanitation",
    "final_address": "220 Olivier St",
    "address_councildis": "C",
    "status": "Pending",
    "rowid": "1085230",
    "final_x": "3687261.95958",
    "final_y": "531011.166914",
    "longitude": "-90.04989416928221",
    "latitude": "29.953920361971",
    "geocoded_column": {
      "latitude": "29.953920361971",
      "longitude": "-90.04989416928221"
    }
  },
  {
    "service_request": "2024-1085229",
    "request_type": "Trash/Recycling",
    "request_reason": "Missed Trash Pick-Up",
    "date_created": "2024-04-16T15:29:01.000",
    "date_modified": "2024-04-16T16:00:39.000",
    "case_close_date": "2024-04-16T11:00:39.000",
    "request_status": "Closed",
    "responsible_agency": "Department of Sanitation",
    "final_address": "3300 BLK Republic St",
    "address_councildis": "D",
    "status": "Invalid Request",
    "contractor": "IV Waste",
    "contractor_action": "Invalid",
    "rowid": "1085229",
    "final_x": "3680530.67269",
    "final_y": "544652.56337",
    "longitude": "-90.07067415114874",
    "latitude": "29.991635091776644",
    "geocoded_column": {
      "latitude": "29.991635091776644",
      "longitude": "-90.07067415114874"
    }
  },
  {
    "service_request": "2024-1085228",
    "request_type": "Traffic Signals/Signs/Striping/Streetlights",
    "request_reason": "Traffic Sign Missing/Damaged",
    "date_created": "2024-04-16T15:28:31.000",
    "date_modified": "2024-04-16T15:28:31.000",
    "request_status": "Pending",
    "responsible_agency": "Department of Public Works",
    "final_address": "CANAL BLVD & HARRISON AVE",
    "address_councildis": "A",
    "status": "Pending",
    "rowid": "1085228",
    "final_x": "3668718.2",
    "final_y": "549226.68",
    "longitude": "-90.1078327841811",
    "latitude": "30.004564957958806",
    "geocoded_column": {
      "latitude": "30.004564957958806",
      "longitude": "-90.1078327841811"
    }
  },
  {
    "service_request": "2024-1085227",
    "request_type": "Trash/Recycling",
    "request_reason": "MIssed Recycling Pick-Up",
    "date_created": "2024-04-16T15:28:09.000",
    "date_modified": "2024-04-17T04:06:58.000",
    "case_close_date": "2024-04-16T23:06:58.000",
    "request_status": "Closed",
    "responsible_agency": "Department of Sanitation",
    "final_address": "220 Olivier St",
    "address_councildis": "C",
    "status": "Resolved",
    "contractor": "Richards Disposal",
    "contractor_action": "Completed",
    "rowid": "1085227",
    "final_x": "3687261.95958",
    "final_y": "531011.166914",
    "longitude": "-90.04989416928221",
    "latitude": "29.953920361971",
    "geocoded_column": {
      "latitude": "29.953920361971",
      "longitude": "-90.04989416928221"
    }
  },
  {
    "service_request": "2024-1085226",
    "request_type": "Trash/Recycling",
    "request_reason": "MIssed Recycling Pick-Up",
    "date_created": "2024-04-16T15:27:25.000",
    "date_modified": "2024-04-17T04:09:44.000",
    "case_close_date": "2024-04-16T23:09:44.000",
    "request_status": "Closed",
    "responsible_agency": "Department of Sanitation",
    "final_address": "220 Olivier St",
    "address_councildis": "C",
    "status": "Duplicate Request",
    "contractor": "Richards Disposal",
    "contractor_action": "Duplicate",
    "rowid": "1085226",
    "final_x": "3687261.95958",
    "final_y": "531011.166914",
    "longitude": "-90.04989416928221",
    "latitude": "29.953920361971",
    "geocoded_column": {
      "latitude": "29.953920361971",
      "longitude": "-90.04989416928221"
    }
  },
  {
    "service_request": "2024-1085225",
    "request_type": "Trash/Recycling",
    "request_reason": "Order Trash Cart",
    "date_created": "2024-04-16T15:26:06.000",
    "date_modified": "2024-04-16T18:55:42.000",
    "case_close_date": "2024-04-16T13:55:42.000",
    "request_status": "Closed",
    "responsible_agency": "Department of Sanitation",
    "final_address": "4216 Mccoy St",
    "address_councildis": "E",
    "status": "Assigned to Contractor",
    "contractor": "Waste Pro",
    "contractor_action": "Invalid Request",
    "rowid": "1085225",
    "final_x": "3711967.34981",
    "final_y": "553752.011799",
    "longitude": "-89.97103177127718",
    "latitude": "30.015665096050245",
    "geocoded_column": {
      "latitude": "30.015665096050245",
      "longitude": "-89.97103177127718"
    }
  },
  {
    "service_request": "2024-1085224",
    "request_type": "Trash/Recycling",
    "request_reason": "Replace Trash Cart",
    "date_created": "2024-04-16T15:25:56.000",
    "date_modified": "2024-04-16T15:25:57.000",
    "request_status": "Pending",
    "responsible_agency": "Department of Sanitation",
    "final_address": "4168 Orleans Ave",
    "address_councildis": "A",
    "status": "Assigned to Contractor",
    "contractor": "IV Waste",
    "rowid": "1085224",
    "final_x": "3672175.96084",
    "final_y": "540385.834251",
    "longitude": "-90.09721033206395",
    "latitude": "29.980153552476356",
    "geocoded_column": {
      "latitude": "29.980153552476356",
      "longitude": "-90.09721033206395"
    }
  },
  {
    "service_request": "2024-1085223",
    "request_type": "Trash/Recycling",
    "request_reason": "Request a Large Item Pick Up",
    "date_created": "2024-04-16T15:25:29.000",
    "date_modified": "2024-04-17T11:10:13.000",
    "case_close_date": "2024-04-17T06:10:13.000",
    "request_status": "Closed",
    "responsible_agency": "Department of Sanitation",
    "final_address": "5542 Chamberlain Dr",
    "address_councildis": "D",
    "status": "Assigned to Contractor",
    "contractor": "IV Waste",
    "contractor_action": "Completed",
    "rowid": "1085223",
    "final_x": "3679340.07093",
    "final_y": "552890.911127",
    "longitude": "-90.0741490313644",
    "latitude": "30.01432363277341",
    "geocoded_column": {
      "latitude": "30.01432363277341",
      "longitude": "-90.0741490313644"
    }
  },
  {
    "service_request": "2024-1085222",
    "request_type": "Trash/Recycling",
    "request_reason": "Request a Large Item Pick Up",
    "date_created": "2024-04-16T15:22:57.000",
    "date_modified": "2024-04-16T15:22:57.000",
    "request_status": "Pending",
    "responsible_agency": "Department of Sanitation",
    "final_address": "3830 General Taylor St",
    "address_councildis": "B",
    "status": "Assigned to Contractor",
    "contractor": "IV Waste",
    "rowid": "1085222",
    "final_x": "3670757.65409",
    "final_y": "528855.047936",
    "longitude": "-90.10208129040248",
    "latitude": "29.948489732658352",
    "geocoded_column": {
      "latitude": "29.948489732658352",
      "longitude": "-90.10208129040248"
    }
  },
  {
    "service_request": "2024-1085221",
    "request_type": "Trash/Recycling",
    "request_reason": "Order Trash Cart",
    "date_created": "2024-04-16T15:22:09.000",
    "date_modified": "2024-04-16T15:22:10.000",
    "request_status": "Pending",
    "responsible_agency": "Department of Sanitation",
    "final_address": "3830 General Taylor St",
    "address_councildis": "B",
    "status": "Assigned to Contractor",
    "contractor": "IV Waste",
    "rowid": "1085221",
    "final_x": "3670757.65409",
    "final_y": "528855.047936",
    "longitude": "-90.10208129040248",
    "latitude": "29.948489732658352",
    "geocoded_column": {
      "latitude": "29.948489732658352",
      "longitude": "-90.10208129040248"
    }
  },
  {
    "service_request": "2024-1085220",
    "request_type": "Trash/Recycling",
    "request_reason": "Request a Large Item Pick Up",
    "date_created": "2024-04-16T15:19:14.000",
    "date_modified": "2024-04-16T15:19:15.000",
    "request_status": "Pending",
    "responsible_agency": "Department of Sanitation",
    "final_address": "3637 Delachaise St",
    "address_councildis": "B",
    "status": "Assigned to Contractor",
    "contractor": "IV Waste",
    "rowid": "1085220",
    "final_x": "3671248.70094",
    "final_y": "528311.311744",
    "longitude": "-90.10054931713128",
    "latitude": "29.946980118542594",
    "geocoded_column": {
      "latitude": "29.946980118542594",
      "longitude": "-90.10054931713128"
    }
  },
  {
    "service_request": "2024-1085219",
    "request_type": "Trash/Recycling",
    "request_reason": "Start Trash Service",
    "date_created": "2024-04-16T15:17:11.000",
    "date_modified": "2024-04-16T18:47:13.000",
    "case_close_date": "2024-04-16T13:47:13.000",
    "request_status": "Closed",
    "responsible_agency": "Department of Sanitation",
    "final_address": "7601 Symmes Ave",
    "address_councildis": "E",
    "status": "Assigned to Contractor",
    "contractor": "Waste Pro",
    "contractor_action": "Invalid Request",
    "rowid": "1085219",
    "final_x": "3707925.82545",
    "final_y": "564564.493537",
    "longitude": "-89.98339855981801",
    "latitude": "30.045526670428046",
    "geocoded_column": {
      "latitude": "30.045526670428046",
      "longitude": "-89.98339855981801"
    }
  },
  {
    "service_request": "2024-1085218",
    "request_type": "Roads/Drainage",
    "request_reason": "Accessibility Ramps, Curbs and Sidewalk Repair",
    "date_created": "2024-04-16T15:16:37.000",
    "date_modified": "2024-04-17T09:19:21.000",
    "request_status": "Pending",
    "responsible_agency": "Department of Public Works",
    "final_address": "1925 Pleasure St",
    "address_councildis": "D",
    "status": "Inspected",
    "rowid": "1085218",
    "final_x": "3682268.48533",
    "final_y": "545006.581007",
    "longitude": "-90.06517240541672",
    "latitude": "29.992555745097967",
    "geocoded_column": {
      "latitude": "29.992555745097967",
      "longitude": "-90.06517240541672"
    }
  },
  {
    "service_request": "2024-1085217",
    "request_type": "Traffic Signals/Signs/Striping/Streetlights",
    "request_reason": "Street Light Outage/Malfunction",
    "date_created": "2024-04-16T15:16:08.000",
    "date_modified": "2024-04-16T15:16:09.000",
    "request_status": "Pending",
    "responsible_agency": "Department of Public Works",
    "final_address": "921 S Carrollton Ave",
    "address_councildis": "A",
    "status": "Assigned to Contractor",
    "contractor": "Legacy Professional Services",
    "rowid": "1085217",
    "final_x": "3661625.12218",
    "final_y": "527628.269503",
    "longitude": "-90.13095730937361",
    "latitude": "29.9453831570515",
    "geocoded_column": {
      "latitude": "29.9453831570515",
      "longitude": "-90.13095730937361"
    }
  },
  {
    "service_request": "2024-1085216",
    "request_type": "Roads/Drainage",
    "request_reason": "Catch Basin - Clogged",
    "date_created": "2024-04-16T15:14:50.000",
    "date_modified": "2024-04-16T15:16:02.000",
    "request_status": "Pending",
    "responsible_agency": "Department of Public Works",
    "final_address": "1610 Soniat St",
    "address_councildis": "B",
    "status": "Pending",
    "rowid": "1085216",
    "final_x": "3668375.37178",
    "final_y": "521286.080953",
    "longitude": "-90.10985835269496",
    "latitude": "29.92774768160416",
    "geocoded_column": {
      "latitude": "29.92774768160416",
      "longitude": "-90.10985835269496"
    }
  },
  {
    "service_request": "2024-1085215",
    "request_type": "Trash/Recycling",
    "request_reason": "Request a Large Item Pick Up",
    "date_created": "2024-04-16T15:14:34.000",
    "date_modified": "2024-04-16T17:44:46.000",
    "case_close_date": "2024-04-16T12:44:46.000",
    "request_status": "Closed",
    "responsible_agency": "Department of Sanitation",
    "final_address": "7530 Trapier Ave",
    "address_councildis": "E",
    "status": "Assigned to Contractor",
    "contractor": "Waste Pro",
    "contractor_action": "Completed",
    "rowid": "1085215",
    "final_x": "3706650.74871",
    "final_y": "563282.276128",
    "longitude": "-89.9874759920712",
    "latitude": "30.042042325643468",
    "geocoded_column": {
      "latitude": "30.042042325643468",
      "longitude": "-89.9874759920712"
    }
  },
  {
    "service_request": "2024-1085214",
    "request_type": "Trash/Recycling",
    "request_reason": "MIssed Recycling Pick-Up",
    "date_created": "2024-04-16T15:12:12.000",
    "date_modified": "2024-04-16T15:56:06.000",
    "case_close_date": "2024-04-16T10:56:06.000",
    "request_status": "Closed",
    "responsible_agency": "Department of Sanitation",
    "final_address": "820 Jefferson Ave",
    "address_councildis": "A",
    "status": "Invalid Request",
    "contractor": "IV Waste",
    "contractor_action": "Invalid",
    "rowid": "1085214",
    "final_x": "3666616.29799",
    "final_y": "518590.638135",
    "longitude": "-90.11550178594287",
    "latitude": "29.920387592369174",
    "geocoded_column": {
      "latitude": "29.920387592369174",
      "longitude": "-90.11550178594287"
    }
  },
  {
    "service_request": "2024-1085213",
    "request_type": "Trash/Recycling",
    "request_reason": "Illegal Dumping",
    "date_created": "2024-04-16T15:11:43.000",
    "date_modified": "2024-04-16T15:11:44.000",
    "request_status": "Pending",
    "responsible_agency": "Department of Sanitation",
    "final_address": "2160 Florida Ave",
    "address_councildis": "D",
    "status": "Pending",
    "rowid": "1085213",
    "final_x": "3684317.93909",
    "final_y": "542389.894861",
    "longitude": "-90.05879051457502",
    "latitude": "29.985298258699665",
    "geocoded_column": {
      "latitude": "29.985298258699665",
      "longitude": "-90.05879051457502"
    }
  },
  {
    "service_request": "2024-1085212",
    "request_type": "Trash/Recycling",
    "request_reason": "Request a Large Item Pick Up",
    "date_created": "2024-04-16T15:11:18.000",
    "date_modified": "2024-04-16T15:11:19.000",
    "request_status": "Pending",
    "responsible_agency": "Department of Sanitation",
    "final_address": "1619 Short St",
    "address_councildis": "A",
    "status": "Assigned to Contractor",
    "contractor": "IV Waste",
    "rowid": "1085212",
    "final_x": "3663379.4192",
    "final_y": "529202.632192",
    "longitude": "-90.12536600353371",
    "latitude": "29.94966141470847",
    "geocoded_column": {
      "latitude": "29.94966141470847",
      "longitude": "-90.12536600353371"
    }
  },
  {
    "service_request": "2024-1085211",
    "request_type": "Traffic Signals/Signs/Striping/Streetlights",
    "request_reason": "Street Light Outage/Malfunction",
    "date_created": "2024-04-16T15:07:07.000",
    "date_modified": "2024-04-16T15:07:08.000",
    "request_status": "Pending",
    "responsible_agency": "Department of Public Works",
    "final_address": "BARONNE ST & TOLEDANO ST",
    "address_councildis": "B",
    "status": "Assigned to Contractor",
    "contractor": "Legacy Professional Services",
    "rowid": "1085211",
    "final_x": "3674275.1",
    "final_y": "522379.88",
    "longitude": "-90.09119685580025",
    "latitude": "29.930580742497437",
    "geocoded_column": {
      "latitude": "29.930580742497437",
      "longitude": "-90.09119685580025"
    }
  },
  {
    "service_request": "2024-1085210",
    "request_type": "Trash/Recycling",
    "request_reason": "Request a Large Item Pick Up",
    "date_created": "2024-04-16T15:07:07.000",
    "date_modified": "2024-04-16T15:07:07.000",
    "request_status": "Pending",
    "responsible_agency": "Department of Sanitation",
    "final_address": "4454 Dale St",
    "address_councildis": "E",
    "status": "Assigned to Contractor",
    "contractor": "Waste Pro",
    "rowid": "1085210",
    "final_x": "3699491.62468",
    "final_y": "553517.088919",
    "longitude": "-90.01045770645112",
    "latitude": "30.01542108638151",
    "geocoded_column": {
      "latitude": "30.01542108638151",
      "longitude": "-90.01045770645112"
    }
  },
  {
    "service_request": "2024-1085209",
    "request_type": "Trash/Recycling",
    "request_reason": "Illegal Dumping",
    "date_created": "2024-04-16T15:06:17.000",
    "date_modified": "2024-04-16T15:06:18.000",
    "request_status": "Pending",
    "responsible_agency": "Department of Sanitation",
    "final_address": "10841 Roger Dr",
    "address_councildis": "E",
    "status": "Pending",
    "rowid": "1085209",
    "final_x": "3711812.37182",
    "final_y": "563244.70224",
    "longitude": "-89.97116487729235",
    "latitude": "30.04177130309243",
    "geocoded_column": {
      "latitude": "30.04177130309243",
      "longitude": "-89.97116487729235"
    }
  },
  {
    "service_request": "2024-1085208",
    "request_type": "Trash/Recycling",
    "request_reason": "Replace Trash Cart",
    "date_created": "2024-04-16T15:06:08.000",
    "date_modified": "2024-04-16T15:06:09.000",
    "request_status": "Pending",
    "responsible_agency": "Department of Sanitation",
    "final_address": "4950 Hauck Dr",
    "address_councildis": "E",
    "status": "Assigned to Contractor",
    "contractor": "Waste Pro",
    "rowid": "1085208",
    "final_x": "3714392.94085",
    "final_y": "557715.557851",
    "longitude": "-89.96321835228194",
    "latitude": "30.02648376616878",
    "geocoded_column": {
      "latitude": "30.02648376616878",
      "longitude": "-89.96321835228194"
    }
  },
  {
    "service_request": "2024-1085207",
    "request_type": "Roads/Drainage",
    "request_reason": "Unpermitted work in ROW",
    "date_created": "2024-04-16T15:04:51.000",
    "date_modified": "2024-04-17T11:24:31.000",
    "request_status": "Pending",
    "responsible_agency": "Department of Public Works",
    "final_address": "407 Baronne St",
    "address_councildis": "B",
    "status": "Pending",
    "rowid": "1085207",
    "final_x": "3679959.5476",
    "final_y": "529827.668673",
    "longitude": "-90.07299329198408",
    "latitude": "29.950889023756122",
    "geocoded_column": {
      "latitude": "29.950889023756122",
      "longitude": "-90.07299329198408"
    }
  },
  {
    "service_request": "2024-1085206",
    "request_type": "Trash/Recycling",
    "request_reason": "Request a Large Item Pick Up",
    "date_created": "2024-04-16T14:58:30.000",
    "date_modified": "2024-04-17T08:33:02.000",
    "case_close_date": "2024-04-17T03:33:02.000",
    "request_status": "Closed",
    "responsible_agency": "Department of Sanitation",
    "final_address": "3811 Red Cypress Dr",
    "address_councildis": "C",
    "status": "Resolved",
    "contractor": "Richards Disposal",
    "contractor_action": "Completed",
    "rowid": "1085206",
    "final_x": "3703630.7347",
    "final_y": "512166.636465",
    "longitude": "-89.99890164242139",
    "latitude": "29.901590172061162",
    "geocoded_column": {
      "latitude": "29.901590172061162",
      "longitude": "-89.99890164242139"
    }
  },
  {
    "service_request": "2024-1085205",
    "request_type": "Trash/Recycling",
    "request_reason": "Order Recycling Cart",
    "date_created": "2024-04-16T14:57:37.000",
    "date_modified": "2024-04-16T14:57:37.000",
    "request_status": "Pending",
    "responsible_agency": "Department of Sanitation",
    "final_address": "832 Lafayette St",
    "address_councildis": "B",
    "status": "Pending",
    "rowid": "1085205",
    "final_x": "3679949.49352",
    "final_y": "529042.4672",
    "longitude": "-90.07305230652852",
    "latitude": "29.94873028731025",
    "geocoded_column": {
      "latitude": "29.94873028731025",
      "longitude": "-90.07305230652852"
    }
  },
  {
    "service_request": "2024-1085204",
    "request_type": "Trash/Recycling",
    "request_reason": "Order Recycling Cart",
    "date_created": "2024-04-16T14:56:30.000",
    "date_modified": "2024-04-16T14:56:31.000",
    "request_status": "Pending",
    "responsible_agency": "Department of Sanitation",
    "final_address": "3064 St Philip St",
    "address_councildis": "A",
    "status": "Pending",
    "rowid": "1085204",
    "final_x": "3675949.30261",
    "final_y": "538879.550537",
    "longitude": "-90.0853443369946",
    "latitude": "29.975899320997936",
    "geocoded_column": {
      "latitude": "29.975899320997936",
      "longitude": "-90.0853443369946"
    }
  },
  {
    "service_request": "2024-1085203",
    "request_type": "Trash/Recycling",
    "request_reason": "Request a Large Item Pick Up",
    "date_created": "2024-04-16T14:52:28.000",
    "date_modified": "2024-04-17T11:18:53.000",
    "case_close_date": "2024-04-17T06:18:53.000",
    "request_status": "Closed",
    "responsible_agency": "Department of Sanitation",
    "final_address": "2465 Bedford Dr",
    "address_councildis": "C",
    "status": "Resolved",
    "contractor": "Richards Disposal",
    "contractor_action": "Completed",
    "rowid": "1085203",
    "final_x": "3705170.35761",
    "final_y": "521905.953402",
    "longitude": "-89.9936833777809",
    "latitude": "29.928320545053342",
    "geocoded_column": {
      "latitude": "29.928320545053342",
      "longitude": "-89.9936833777809"
    }
  },
  {
    "service_request": "2024-1085202",
    "request_type": "Abandoned Vehicles",
    "request_reason": "Abandoned/Junk Vehicles",
    "date_created": "2024-04-16T14:48:55.000",
    "date_modified": "2024-04-16T14:48:56.000",
    "request_status": "Pending",
    "responsible_agency": "Department of Public Works",
    "final_address": "8300 BLK Forshey St",
    "address_councildis": "A",
    "status": "Pending",
    "rowid": "1085202",
    "final_x": "3666341.69385",
    "final_y": "534523.017684",
    "longitude": "-90.11583422332899",
    "latitude": "29.964204532577547",
    "geocoded_column": {
      "latitude": "29.964204532577547",
      "longitude": "-90.11583422332899"
    }
  },
  {
    "service_request": "2024-1085201",
    "request_type": "Trash/Recycling",
    "request_reason": "Order Trash Cart",
    "date_created": "2024-04-16T14:48:24.000",
    "date_modified": "2024-04-16T14:48:25.000",
    "request_status": "Pending",
    "responsible_agency": "Department of Sanitation",
    "final_address": "510 Henry Clay Ave Apt A",
    "address_councildis": "A",
    "status": "Assigned to Contractor",
    "contractor": "IV Waste",
    "rowid": "1085201",
    "final_x": "3663375.19591",
    "final_y": "518714.696247",
    "longitude": "-90.12572834104667",
    "latitude": "29.920823034850656",
    "geocoded_column": {
      "latitude": "29.920823034850656",
      "longitude": "-90.12572834104667"
    }
  },
  {
    "service_request": "2024-1085200",
    "request_type": "Trash/Recycling",
    "request_reason": "Request a Large Item Pick Up",
    "date_created": "2024-04-16T14:47:40.000",
    "date_modified": "2024-04-16T14:47:41.000",
    "request_status": "Pending",
    "responsible_agency": "Department of Sanitation",
    "final_address": "2601 Octavia St",
    "address_councildis": "A",
    "status": "Assigned to Contractor",
    "contractor": "IV Waste",
    "rowid": "1085200",
    "final_x": "3667861.62593",
    "final_y": "525058.337597",
    "longitude": "-90.11135313751238",
    "latitude": "29.93813525580303",
    "geocoded_column": {
      "latitude": "29.93813525580303",
      "longitude": "-90.11135313751238"
    }
  },
  {
    "service_request": "2024-1085199",
    "request_type": "Trash/Recycling",
    "request_reason": "Request a Large Item Pick Up",
    "date_created": "2024-04-16T14:47:20.000",
    "date_modified": "2024-04-16T17:45:25.000",
    "case_close_date": "2024-04-16T12:45:25.000",
    "request_status": "Closed",
    "responsible_agency": "Department of Sanitation",
    "final_address": "14592 Duane Rd",
    "address_councildis": "E",
    "status": "Assigned to Contractor",
    "contractor": "Waste Pro",
    "contractor_action": "Completed",
    "rowid": "1085199",
    "final_x": "3721178.63474",
    "final_y": "573464.70161",
    "longitude": "-89.94117197691024",
    "latitude": "30.06956255997951",
    "geocoded_column": {
      "latitude": "30.06956255997951",
      "longitude": "-89.94117197691024"
    }
  },
  {
    "service_request": "2024-1085198",
    "request_type": "Trash/Recycling",
    "request_reason": "Missed Trash Pick-Up",
    "date_created": "2024-04-16T14:46:52.000",
    "date_modified": "2024-04-16T15:57:31.000",
    "case_close_date": "2024-04-16T10:57:31.000",
    "request_status": "Closed",
    "responsible_agency": "Department of Sanitation",
    "final_address": "147 Stafford Pl, New Orleans, Louisiana, 70124",
    "address_councildis": "A",
    "status": "Invalid Request",
    "contractor": "IV Waste",
    "contractor_action": "Invalid",
    "rowid": "1085198",
    "final_x": "3665959.33076",
    "final_y": "554002.339352",
    "longitude": "-90.11638838477877",
    "latitude": "30.01777719901236",
    "geocoded_column": {
      "latitude": "30.01777719901236",
      "longitude": "-90.11638838477877"
    }
  },
  {
    "service_request": "2024-1085197",
    "request_type": "Abandoned Vehicles",
    "request_reason": "Abandoned/Junk Vehicles",
    "date_created": "2024-04-16T14:44:52.000",
    "date_modified": "2024-04-16T14:44:52.000",
    "request_status": "Pending",
    "responsible_agency": "Department of Public Works",
    "final_address": "8200 BLK Forshey St",
    "address_councildis": "A",
    "status": "Pending",
    "rowid": "1085197",
    "final_x": "3666611.49089",
    "final_y": "534278.119552",
    "longitude": "-90.11499044691294",
    "latitude": "29.96352325834584",
    "geocoded_column": {
      "latitude": "29.96352325834584",
      "longitude": "-90.11499044691294"
    }
  },
  {
    "service_request": "2024-1085196",
    "request_type": "Trash/Recycling",
    "request_reason": "Request a Large Item Pick Up",
    "date_created": "2024-04-16T14:44:49.000",
    "date_modified": "2024-04-16T17:46:29.000",
    "case_close_date": "2024-04-16T12:46:29.000",
    "request_status": "Closed",
    "responsible_agency": "Department of Sanitation",
    "final_address": "11400 Prentiss Ave",
    "address_councildis": "E",
    "status": "Assigned to Contractor",
    "contractor": "Waste Pro",
    "contractor_action": "Completed",
    "rowid": "1085196",
    "final_x": "3717548.21708",
    "final_y": "556632.307866",
    "longitude": "-89.95328938086897",
    "latitude": "30.0234011444467",
    "geocoded_column": {
      "latitude": "30.0234011444467",
      "longitude": "-89.95328938086897"
    }
  },
  {
    "service_request": "2024-1085195",
    "request_type": "Trash/Recycling",
    "request_reason": "Request a Large Item Pick Up",
    "date_created": "2024-04-16T14:43:48.000",
    "date_modified": "2024-04-16T17:47:13.000",
    "case_close_date": "2024-04-16T12:47:13.000",
    "request_status": "Closed",
    "responsible_agency": "Department of Sanitation",
    "final_address": "44 Marywood Ct",
    "address_councildis": "E",
    "status": "Assigned to Contractor",
    "contractor": "Waste Pro",
    "contractor_action": "Completed",
    "rowid": "1085195",
    "final_x": "3712233.94373",
    "final_y": "567025.747748",
    "longitude": "-89.96969035871096",
    "latitude": "30.052153862366005",
    "geocoded_column": {
      "latitude": "30.052153862366005",
      "longitude": "-89.96969035871096"
    }
  },
  {
    "service_request": "2024-1085194",
    "request_type": "Roads/Drainage",
    "request_reason": "Catch Basin - Clogged",
    "date_created": "2024-04-16T14:42:58.000",
    "date_modified": "2024-04-17T10:24:13.000",
    "request_status": "Pending",
    "responsible_agency": "Department of Public Works",
    "final_address": "2428 Pauger St",
    "address_councildis": "D",
    "status": "Inspected",
    "rowid": "1085194",
    "final_x": "3683642.24853",
    "final_y": "538670.068041",
    "longitude": "-90.06105519516595",
    "latitude": "29.975090687805654",
    "geocoded_column": {
      "latitude": "29.975090687805654",
      "longitude": "-90.06105519516595"
    }
  },
  {
    "service_request": "2024-1085193",
    "request_type": "Trash/Recycling",
    "request_reason": "Repair Trash Cart",
    "date_created": "2024-04-16T14:35:53.000",
    "date_modified": "2024-04-16T14:35:54.000",
    "request_status": "Pending",
    "responsible_agency": "Department of Sanitation",
    "final_address": "13 Mars Pl",
    "address_councildis": "B",
    "status": "Assigned to Contractor",
    "contractor": "IV Waste",
    "rowid": "1085193",
    "final_x": "3667364.17172",
    "final_y": "533326.842692",
    "longitude": "-90.11264555490746",
    "latitude": "29.96088553375347",
    "geocoded_column": {
      "latitude": "29.96088553375347",
      "longitude": "-90.11264555490746"
    }
  },
  {
    "service_request": "2024-1085192",
    "request_type": "Trash/Recycling",
    "request_reason": "Request a Large Item Pick Up",
    "date_created": "2024-04-16T14:33:50.000",
    "date_modified": "2024-04-16T14:33:51.000",
    "request_status": "Pending",
    "responsible_agency": "Department of Sanitation",
    "final_address": "1442 Henriette Delille St A",
    "address_councildis": "C",
    "status": "Assigned to Contractor",
    "contractor": "IV Waste",
    "rowid": "1085192",
    "final_x": "3682875.54709",
    "final_y": "535862.059271",
    "longitude": "-90.06357491001961",
    "latitude": "29.9673930219406",
    "geocoded_column": {
      "latitude": "29.9673930219406",
      "longitude": "-90.06357491001961"
    }
  },
  {
    "service_request": "2024-1085191",
    "request_type": "Property Maintenance",
    "request_reason": "Property Maintenance",
    "date_created": "2024-04-16T14:27:52.000",
    "date_modified": "2024-04-16T15:41:25.000",
    "case_close_date": "2024-04-16T10:41:25.000",
    "request_status": "Closed",
    "responsible_agency": "Department of Code Enforcement",
    "final_address": "4219 N Claiborne Ave",
    "address_councildis": "D",
    "status": "Referred to Code Enforcement",
    "rowid": "1085191",
    "final_x": "3693026.99401",
    "final_y": "537022.488136",
    "longitude": "-90.03147497410414",
    "latitude": "29.97027056918445",
    "geocoded_column": {
      "latitude": "29.97027056918445",
      "longitude": "-90.03147497410414"
    }
  },
  {
    "service_request": "2024-1085190",
    "request_type": "Trash/Recycling",
    "request_reason": "Request a Large Item Pick Up",
    "date_created": "2024-04-16T14:27:19.000",
    "date_modified": "2024-04-17T11:17:43.000",
    "case_close_date": "2024-04-17T06:17:43.000",
    "request_status": "Closed",
    "responsible_agency": "Department of Sanitation",
    "final_address": "2744 Jasmine St",
    "address_councildis": "D",
    "status": "Assigned to Contractor",
    "contractor": "IV Waste",
    "contractor_action": "Completed",
    "rowid": "1085190",
    "final_x": "3688036.68406",
    "final_y": "548125.065554",
    "longitude": "-90.04684119516165",
    "latitude": "30.00095365406136",
    "geocoded_column": {
      "latitude": "30.00095365406136",
      "longitude": "-90.04684119516165"
    }
  },
  {
    "service_request": "2024-1085189",
    "request_type": "Abandoned Vehicles",
    "request_reason": "Abandoned/Junk Vehicles",
    "date_created": "2024-04-16T14:25:53.000",
    "date_modified": "2024-04-17T10:30:02.000",
    "request_status": "Pending",
    "responsible_agency": "Department of Public Works",
    "final_address": "215 N Roman St",
    "address_councildis": "B",
    "status": "Inspected",
    "rowid": "1085189",
    "final_x": "3678134.74274",
    "final_y": "533720.857413",
    "longitude": "-90.07862049725821",
    "latitude": "29.96164904615079",
    "geocoded_column": {
      "latitude": "29.96164904615079",
      "longitude": "-90.07862049725821"
    }
  },
  {
    "service_request": "2024-1085188",
    "request_type": "Trash/Recycling",
    "request_reason": "Request a Large Item Pick Up",
    "date_created": "2024-04-16T14:21:43.000",
    "date_modified": "2024-04-16T17:47:53.000",
    "case_close_date": "2024-04-16T12:47:53.000",
    "request_status": "Closed",
    "responsible_agency": "Department of Sanitation",
    "final_address": "4859 Camelot Dr",
    "address_councildis": "E",
    "status": "Assigned to Contractor",
    "contractor": "Waste Pro",
    "contractor_action": "Completed",
    "rowid": "1085188",
    "final_x": "3708357.3603",
    "final_y": "556467.567386",
    "longitude": "-89.98233642988362",
    "latitude": "30.023249337445478",
    "geocoded_column": {
      "latitude": "30.023249337445478",
      "longitude": "-89.98233642988362"
    }
  },
  {
    "service_request": "2024-1085187",
    "request_type": "Trash/Recycling",
    "request_reason": "Illegal Dumping",
    "date_created": "2024-04-16T14:19:46.000",
    "date_modified": "2024-04-16T14:19:46.000",
    "request_status": "Pending",
    "responsible_agency": "Department of Sanitation",
    "final_address": "1819 Hamilton St",
    "address_councildis": "A",
    "status": "Pending",
    "rowid": "1085187",
    "final_x": "3660909.06093",
    "final_y": "532404.728387",
    "longitude": "-90.13306018359731",
    "latitude": "29.958537527326907",
    "geocoded_column": {
      "latitude": "29.958537527326907",
      "longitude": "-90.13306018359731"
    }
  },
  {
    "service_request": "2024-1085186",
    "request_type": "Traffic Signals/Signs/Striping/Streetlights",
    "request_reason": "Street Light Outage/Malfunction",
    "date_created": "2024-04-16T14:18:58.000",
    "date_modified": "2024-04-16T14:18:59.000",
    "request_status": "Pending",
    "responsible_agency": "Department of Public Works",
    "final_address": "1927 Pine St",
    "address_councildis": "A",
    "status": "Assigned to Contractor",
    "contractor": "Legacy Professional Services",
    "rowid": "1085186",
    "final_x": "3665451.36877",
    "final_y": "528853.357952",
    "longitude": "-90.11883557758783",
    "latitude": "29.9486408001641",
    "geocoded_column": {
      "latitude": "29.9486408001641",
      "longitude": "-90.11883557758783"
    }
  },
  {
    "service_request": "2024-1085185",
    "request_type": "Trash/Recycling",
    "request_reason": "Request a Large Item Pick Up",
    "date_created": "2024-04-16T14:15:59.000",
    "date_modified": "2024-04-16T17:48:53.000",
    "case_close_date": "2024-04-16T12:48:53.000",
    "request_status": "Closed",
    "responsible_agency": "Department of Sanitation",
    "final_address": "6820 Rugby Ct",
    "address_councildis": "E",
    "status": "Assigned to Contractor",
    "contractor": "Waste Pro",
    "contractor_action": "Completed",
    "rowid": "1085185",
    "final_x": "3701320.24637",
    "final_y": "557287.826587",
    "longitude": "-90.00454198841871",
    "latitude": "30.025730995899913",
    "geocoded_column": {
      "latitude": "30.025730995899913",
      "longitude": "-90.00454198841871"
    }
  },
  {
    "service_request": "2024-1085184",
    "request_type": "Trash/Recycling",
    "request_reason": "Order Trash Cart",
    "date_created": "2024-04-16T14:14:45.000",
    "date_modified": "2024-04-16T14:14:46.000",
    "request_status": "Pending",
    "responsible_agency": "Department of Sanitation",
    "final_address": "335 N Bernadotte St",
    "address_councildis": "A",
    "status": "Assigned to Contractor",
    "contractor": "IV Waste",
    "rowid": "1085184",
    "final_x": "3669463.51546",
    "final_y": "540985.663883",
    "longitude": "-90.10575710298932",
    "latitude": "29.98188306107415",
    "geocoded_column": {
      "latitude": "29.98188306107415",
      "longitude": "-90.10575710298932"
    }
  },
  {
    "service_request": "2024-1085183",
    "request_type": "Trash/Recycling",
    "request_reason": "Repair Recycling Cart",
    "date_created": "2024-04-16T14:13:43.000",
    "date_modified": "2024-04-16T14:13:44.000",
    "request_status": "Pending",
    "responsible_agency": "Department of Sanitation",
    "final_address": "4738 Baccich St",
    "address_councildis": "D",
    "status": "Pending",
    "rowid": "1085183",
    "final_x": "3687681.65283",
    "final_y": "550665.391444",
    "longitude": "-90.04787273455116",
    "latitude": "30.007949580998638",
    "geocoded_column": {
      "latitude": "30.007949580998638",
      "longitude": "-90.04787273455116"
    }
  },
  {
    "service_request": "2024-1085182",
    "request_type": "Roads/Drainage",
    "request_reason": "Catch Basin - Clogged",
    "date_created": "2024-04-16T14:13:29.000",
    "date_modified": "2024-04-17T09:51:41.000",
    "case_close_date": "2024-04-17T04:51:41.000",
    "request_status": "Closed",
    "responsible_agency": "Department of Public Works",
    "final_address": "7800 BLK Jeannette St",
    "address_councildis": "A",
    "status": "Duplicate Request",
    "rowid": "1085182",
    "final_x": "3663375.88811",
    "final_y": "528512.59565",
    "longitude": "-90.12540012113928",
    "latitude": "29.947764138546457",
    "geocoded_column": {
      "latitude": "29.947764138546457",
      "longitude": "-90.12540012113928"
    }
  },
  {
    "service_request": "2024-1085181",
    "request_type": "Abandoned Vehicles",
    "request_reason": "Abandoned/Junk Vehicles",
    "date_created": "2024-04-16T14:13:29.000",
    "date_modified": "2024-04-16T14:13:29.000",
    "request_status": "Pending",
    "responsible_agency": "Department of Public Works",
    "final_address": "3322 Monroe St",
    "address_councildis": "A",
    "status": "Pending",
    "rowid": "1085181",
    "final_x": "3665532.71092",
    "final_y": "535510.252806",
    "longitude": "-90.11835587625451",
    "latitude": "29.96694271410366",
    "geocoded_column": {
      "latitude": "29.96694271410366",
      "longitude": "-90.11835587625451"
    }
  },
  {
    "service_request": "2024-1085180",
    "request_type": "Parks & Parkways",
    "request_reason": "Request Tree Service (Right of Way/Public Property)",
    "date_created": "2024-04-16T14:11:18.000",
    "date_modified": "2024-04-16T14:11:19.000",
    "request_status": "Pending",
    "responsible_agency": "Department of Parks & Parkway",
    "final_address": "I 10 E ONRAMP & TULANE AVE & S ROBERTSON ST",
    "address_councildis": "B",
    "status": "Pending",
    "rowid": "1085180",
    "final_x": "3678103.3",
    "final_y": "531848.78",
    "longitude": "-90.07878451394791",
    "latitude": "29.95650241201187",
    "geocoded_column": {
      "latitude": "29.95650241201187",
      "longitude": "-90.07878451394791"
    }
  },
  {
    "service_request": "2024-1085179",
    "request_type": "Trash/Recycling",
    "request_reason": "Repair Trash Cart",
    "date_created": "2024-04-16T14:09:05.000",
    "date_modified": "2024-04-16T14:09:06.000",
    "request_status": "Pending",
    "responsible_agency": "Department of Sanitation",
    "final_address": "429 W Harrison Ave",
    "address_councildis": "A",
    "status": "Assigned to Contractor",
    "contractor": "IV Waste",
    "rowid": "1085179",
    "final_x": "3664575.19085",
    "final_y": "549717.312084",
    "longitude": "-90.12090500698528",
    "latitude": "30.00603521393529",
    "geocoded_column": {
      "latitude": "30.00603521393529",
      "longitude": "-90.12090500698528"
    }
  },
  {
    "service_request": "2024-1085178",
    "request_type": "Roads/Drainage",
    "request_reason": "Pothole",
    "date_created": "2024-04-16T14:06:52.000",
    "date_modified": "2024-04-16T14:07:09.000",
    "case_close_date": "2024-04-16T09:07:09.000",
    "request_status": "Closed",
    "responsible_agency": "Department of Public Works",
    "final_address": "2117 Rousseau St",
    "address_councildis": "B",
    "status": "Resolved",
    "rowid": "1085178",
    "final_x": "3680376.4173",
    "final_y": "520453.249656",
    "longitude": "-90.0720028591695",
    "latitude": "29.925099865372296",
    "geocoded_column": {
      "latitude": "29.925099865372296",
      "longitude": "-90.0720028591695"
    }
  },
  {
    "service_request": "2024-1085177",
    "request_type": "Roads/Drainage",
    "request_reason": "Pothole",
    "date_created": "2024-04-16T14:05:41.000",
    "date_modified": "2024-04-16T14:06:03.000",
    "case_close_date": "2024-04-16T09:06:03.000",
    "request_status": "Closed",
    "responsible_agency": "Department of Public Works",
    "final_address": "2000 BLK Simon Bolivar Ave",
    "address_councildis": "B",
    "status": "Resolved",
    "rowid": "1085177",
    "final_x": "3676646.10172",
    "final_y": "525853.062255",
    "longitude": "-90.08359236386846",
    "latitude": "29.940059969639712",
    "geocoded_column": {
      "latitude": "29.940059969639712",
      "longitude": "-90.08359236386846"
    }
  },
  {
    "service_request": "2024-1085176",
    "request_type": "Roads/Drainage",
    "request_reason": "Catch Basin - Broken/Damage",
    "date_created": "2024-04-16T14:04:15.000",
    "date_modified": "2024-04-16T14:04:16.000",
    "request_status": "Pending",
    "responsible_agency": "Department of Public Works",
    "final_address": "423 Bermuda St",
    "address_councildis": "C",
    "status": "Pending",
    "rowid": "1085176",
    "final_x": "3686587.34562",
    "final_y": "530300.09389",
    "longitude": "-90.05204942558763",
    "latitude": "29.951985914516992",
    "geocoded_column": {
      "latitude": "29.951985914516992",
      "longitude": "-90.05204942558763"
    }
  },
  {
    "service_request": "2024-1085175",
    "request_type": "Trash/Recycling",
    "request_reason": "Request a Large Item Pick Up",
    "date_created": "2024-04-16T14:02:02.000",
    "date_modified": "2024-04-16T14:02:03.000",
    "request_status": "Pending",
    "responsible_agency": "Department of Sanitation",
    "final_address": "3121 Plymouth Pl",
    "address_councildis": "C",
    "status": "Assigned to Contractor",
    "contractor": "Richards Disposal",
    "rowid": "1085175",
    "final_x": "3702771.05137",
    "final_y": "519698.906104",
    "longitude": "-90.0013383952731",
    "latitude": "29.922328842648717",
    "geocoded_column": {
      "latitude": "29.922328842648717",
      "longitude": "-90.0013383952731"
    }
  },
  {
    "service_request": "2024-1085174",
    "request_type": "Roads/Drainage",
    "request_reason": "Pothole",
    "date_created": "2024-04-16T14:01:51.000",
    "date_modified": "2024-04-16T14:02:12.000",
    "case_close_date": "2024-04-16T09:02:12.000",
    "request_status": "Closed",
    "responsible_agency": "Department of Public Works",
    "final_address": "3300 BLK Marie St",
    "address_councildis": "A",
    "status": "Resolved",
    "rowid": "1085174",
    "final_x": "3675746.92209",
    "final_y": "541448.178046",
    "longitude": "-90.08589519548384",
    "latitude": "29.982968223064294",
    "geocoded_column": {
      "latitude": "29.982968223064294",
      "longitude": "-90.08589519548384"
    }
  },