[
  {
    "service_request": "2025-1189155",
    "request_type": "Health Related Request",
    "request_reason": "Noise Ordinance Complaint",
    "date_created": "2025-05-03T23:08:54.000",
    "date_modified": "2025-05-03T23:08:57.000",
    "request_status": "Pending",
    "responsible_agency": "Health Department",
    "final_address": "600 N Broad St",
    "address_councildis": "D",
    "status": "Pending",
    "rowid": "1189155",
    "final_x": "3676514.68328",
    "final_y": "536431.051079",
    "longitude": "-90.0836430411453",
    "latitude": "29.969149839828454",
    "geocoded_column": {
      "latitude": "29.969149839828454",
      "longitude": "-90.0836430411453"
    }
  },
  {
    "service_request": "2025-1189154",
    "request_type": "Trash/Recycling",
    "request_reason": "Order Trash Cart",
    "date_created": "2025-05-03T21:49:02.000",
    "date_modified": "2025-05-03T21:49:04.000",
    "request_status": "Pending",
    "responsible_agency": "Department of Sanitation",
    "final_address": "1499 Pressburg St",
    "address_councildis": "D",
    "status": "Assigned to Contractor",
    "contractor": "IV Waste",
    "rowid": "1189154",
    "final_x": "3678302.82235",
    "final_y": "554108.0134",
    "longitude": "-90.0773840719837",
    "latitude": "30.017701525458456",
    "geocoded_column": {
      "latitude": "30.017701525458456",
      "longitude": "-90.0773840719837"
    }
  },
  {
    "service_request": "2025-1189153",
    "request_type": "Drainage",
    "request_reason": "Catch Basin Clogged",
    "date_created": "2025-05-03T20:16:29.000",
    "date_modified": "2025-05-03T20:16:31.000",
    "request_status": "Pending",
    "responsible_agency": "Sewerage & Water Board",
    "final_address": "203 Delaronde St",
    "address_councildis": "C",
    "status": "Pending",
    "rowid": "1189153",
    "final_x": "3686030.63497",
    "final_y": "530559.63853",
    "longitude": "-90.0537981004722",
    "latitude": "29.9527166789458",
    "geocoded_column": {
      "latitude": "29.9527166789458",
      "longitude": "-90.0537981004722"
    }
  },
  {
    "service_request": "2025-1189152",
    "request_type": "Street and Traffic Signs",
    "request_reason": "Street Name Sign Damaged or Missing",
    "date_created": "2025-05-03T20:04:44.000",
    "date_modified": "2025-05-03T20:04:45.000",
    "request_status": "Pending",
    "responsible_agency": "Department of Public Works",
    "final_address": "7832 Woodbine Dr",
    "address_councildis": "E",
    "status": "Pending",
    "rowid": "1189152",
    "final_x": "3701651.32343",
    "final_y": "561987.556767",
    "longitude": "-90.00332346363476",
    "latitude": "30.03864286812245",
    "geocoded_column": {
      "latitude": "30.03864286812245",
      "longitude": "-90.00332346363476"
    }
  },
  {
    "service_request": "2025-1189151",
    "request_type": "Trash/Recycling",
    "request_reason": "Repair Recycling Cart",
    "date_created": "2025-05-03T20:01:49.000",
    "date_modified": "2025-05-03T20:01:51.000",
    "request_status": "Pending",
    "responsible_agency": "Department of Sanitation",
    "final_address": "2000 S Carrollton Ave",
    "address_councildis": "A",
    "status": "Pending",
    "rowid": "1189151",
    "final_x": "3663869.15655",
    "final_y": "530500.026242",
    "longitude": "-90.12377643009548",
    "latitude": "29.953214623781495",
    "geocoded_column": {
      "latitude": "29.953214623781495",
      "longitude": "-90.12377643009548"
    }
  },
  {
    "service_request": "2025-1189150",
    "request_type": "Safety & Permits",
    "request_reason": "Licenses & Permits",
    "date_created": "2025-05-03T19:49:17.000",
    "date_modified": "2025-05-03T19:49:18.000",
    "request_status": "Pending",
    "responsible_agency": "Safety and Permits",
    "final_address": "601 Tchoupitoulas St",
    "address_councildis": "B",
    "status": "Pending",
    "rowid": "1189150",
    "final_x": "3681688.18415",
    "final_y": "528549.727488",
    "longitude": "-90.06757970994404",
    "latitude": "29.947322721332476",
    "geocoded_column": {
      "latitude": "29.947322721332476",
      "longitude": "-90.06757970994404"
    }
  },
  {
    "service_request": "2025-1189149",
    "request_type": "Abandoned Vehicles",
    "request_reason": "Vehicle Blocking Your Driveway",
    "date_created": "2025-05-03T19:45:01.000",
    "date_modified": "2025-05-03T19:45:04.000",
    "request_status": "Pending",
    "responsible_agency": "Department of Public Works",
    "final_address": "823 Chartres St, New Orleans, Louisiana, 70116",
    "address_councildis": "C",
    "status": "Pending",
    "rowid": "1189149",
    "final_x": "3683159.85756",
    "final_y": "532713.281348",
    "longitude": "-90.06278731510719",
    "latitude": "29.958726297870275",
    "geocoded_column": {
      "latitude": "29.958726297870275",
      "longitude": "-90.06278731510719"
    }
  },
  {
    "service_request": "2025-1189148",
    "request_type": "Abandoned Vehicles",
    "request_reason": "Abandoned/Junk Vehicles",
    "date_created": "2025-05-03T19:39:58.000",
    "date_modified": "2025-05-03T19:40:00.000",
    "request_status": "Pending",
    "responsible_agency": "Department of Public Works",
    "final_address": "3203 General Taylor St",
    "address_councildis": "B",
    "status": "Pending",
    "rowid": "1189148",
    "final_x": "3671340.17575",
    "final_y": "526726.933118",
    "longitude": "-90.10031432733949",
    "latitude": "29.942620888418688",
    "geocoded_column": {
      "latitude": "29.942620888418688",
      "longitude": "-90.10031432733949"
    }
  },
  {
    "service_request": "2025-1189147",
    "request_type": "Health Related Request",
    "request_reason": "Noise Ordinance Complaint",
    "date_created": "2025-05-03T19:33:29.000",
    "date_modified": "2025-05-03T19:33:31.000",
    "request_status": "Pending",
    "responsible_agency": "Health Department",
    "final_address": "1220 Cambronne St",
    "address_councildis": "A",
    "status": "Pending",
    "rowid": "1189147",
    "final_x": "3661266.36653",
    "final_y": "529266.946753",
    "longitude": "-90.13203577931166",
    "latitude": "29.949899342213094",
    "geocoded_column": {
      "latitude": "29.949899342213094",
      "longitude": "-90.13203577931166"
    }
  },
  {
    "service_request": "2025-1189146",
    "request_type": "Health Related Request",
    "request_reason": "Noise Ordinance Complaint",
    "date_created": "2025-05-03T19:33:28.000",
    "date_modified": "2025-05-03T19:33:45.000",
    "request_status": "Pending",
    "responsible_agency": "Health Department",
    "final_address": "1220 Cambronne St",
    "address_councildis": "A",
    "status": "Pending",
    "rowid": "1189146",
    "final_x": "3661266.36653",
    "final_y": "529266.946753",
    "longitude": "-90.13203577931166",
    "latitude": "29.949899342213094",
    "geocoded_column": {
      "latitude": "29.949899342213094",
      "longitude": "-90.13203577931166"
    }
  },
  {
    "service_request": "2025-1189145",
    "request_type": "Trash/Recycling",
    "request_reason": "Order Recycling Cart",
    "date_created": "2025-05-03T19:18:07.000",
    "date_modified": "2025-05-03T19:18:09.000",
    "request_status": "Pending",
    "responsible_agency": "Department of Sanitation",
    "final_address": "501 Topaz St",
    "address_councildis": "D",
    "status": "Pending",
    "rowid": "1189145",
    "final_x": "3668385.19534",
    "final_y": "556638.317914",
    "longitude": "-90.10863455101219",
    "latitude": "30.02495413857198",
    "geocoded_column": {
      "latitude": "30.02495413857198",
      "longitude": "-90.10863455101219"
    }
  },
  {
    "service_request": "2025-1189144",
    "request_type": "Trash/Recycling",
    "request_reason": "Start Trash Service",
    "date_created": "2025-05-03T19:17:58.000",
    "date_modified": "2025-05-03T19:18:00.000",
    "request_status": "Pending",
    "responsible_agency": "Department of Sanitation",
    "final_address": "748 Allen Toussaint Blvd",
    "address_councildis": "A",
    "status": "Assigned to Contractor",
    "contractor": "IV Waste",
    "rowid": "1189144",
    "final_x": "3669644.52026",
    "final_y": "554546.2726",
    "longitude": "-90.10472615564122",
    "latitude": "30.019164690052193",
    "geocoded_column": {
      "latitude": "30.019164690052193",
      "longitude": "-90.10472615564122"
    }
  },
  {
    "service_request": "2025-1189143",
    "request_type": "Abandoned Vehicles",
    "request_reason": "Abandoned/Junk Vehicles",
    "date_created": "2025-05-03T18:54:41.000",
    "date_modified": "2025-05-03T18:54:43.000",
    "request_status": "Pending",
    "responsible_agency": "Department of Public Works",
    "final_address": "137 Pinewood Ct",
    "address_councildis": "C",
    "status": "Pending",
    "rowid": "1189143",
    "final_x": "3695833.75306",
    "final_y": "523381.445051",
    "longitude": "-90.02310357549769",
    "latitude": "29.932674489197332",
    "geocoded_column": {
      "latitude": "29.932674489197332",
      "longitude": "-90.02310357549769"
    }
  },
  {
    "service_request": "2025-1189142",
    "request_type": "Trash/Recycling",
    "request_reason": "Request a Large Item Pick Up",
    "date_created": "2025-05-03T18:48:46.000",
    "date_modified": "2025-05-03T18:48:48.000",
    "request_status": "Pending",
    "responsible_agency": "Department of Sanitation",
    "final_address": "2512 Pressburg St",
    "address_councildis": "D",
    "status": "Assigned to Contractor",
    "contractor": "IV Waste",
    "rowid": "1189142",
    "final_x": "3685847.11401",
    "final_y": "554734.719896",
    "longitude": "-90.05352498878806",
    "latitude": "30.019195205203346",
    "geocoded_column": {
      "latitude": "30.019195205203346",
      "longitude": "-90.05352498878806"
    }
  },
  {
    "service_request": "2025-1189141",
    "request_type": "Trash/Recycling",
    "request_reason": "Illegal Dumping",
    "date_created": "2025-05-03T18:43:02.000",
    "date_modified": "2025-05-03T18:43:05.000",
    "request_status": "Pending",
    "responsible_agency": "Department of Sanitation",
    "final_address": "2114 Thalia St",
    "address_councildis": "B",
    "status": "Pending",
    "rowid": "1189141",
    "final_x": "3677588.29704",
    "final_y": "526886.951102",
    "longitude": "-90.08058202198723",
    "latitude": "29.94287453218626",
    "geocoded_column": {
      "latitude": "29.94287453218626",
      "longitude": "-90.08058202198723"
    }
  },
  {
    "service_request": "2025-1189140",
    "request_type": "Trash/Recycling",
    "request_reason": "Request a Large Item Pick Up",
    "date_created": "2025-05-03T18:24:41.000",
    "date_modified": "2025-05-03T18:24:43.000",
    "request_status": "Pending",
    "responsible_agency": "Department of Sanitation",
    "final_address": "6027 Laurel St",
    "address_councildis": "A",
    "status": "Assigned to Contractor",
    "contractor": "IV Waste",
    "rowid": "1189140",
    "final_x": "3664205.01146",
    "final_y": "518335.35583",
    "longitude": "-90.12312162749483",
    "latitude": "29.919755893766826",
    "geocoded_column": {
      "latitude": "29.919755893766826",
      "longitude": "-90.12312162749483"
    }
  },
  {
    "service_request": "2025-1189139",
    "request_type": "Trash/Recycling",
    "request_reason": "Order Trash Cart",
    "date_created": "2025-05-03T17:31:25.000",
    "date_modified": "2025-05-03T17:31:27.000",
    "request_status": "Pending",
    "responsible_agency": "Department of Sanitation",
    "final_address": "401 Harmony St",
    "address_councildis": "B",
    "status": "Assigned to Contractor",
    "contractor": "IV Waste",
    "rowid": "1189139",
    "final_x": "3676738.25115",
    "final_y": "518209.913014",
    "longitude": "-90.08356462634062",
    "latitude": "29.91904103301764",
    "geocoded_column": {
      "latitude": "29.91904103301764",
      "longitude": "-90.08356462634062"
    }
  },
  {
    "service_request": "2025-1189138",
    "request_type": "Roads and Streets",
    "request_reason": "Pothole",
    "date_created": "2025-05-03T17:26:35.000",
    "date_modified": "2025-05-03T17:26:37.000",
    "request_status": "Pending",
    "responsible_agency": "Department of Public Works",
    "final_address": "2519 N Roman St",
    "address_councildis": "D",
    "status": "Pending",
    "rowid": "1189138",
    "final_x": "3687142.48642",
    "final_y": "539112.912842",
    "longitude": "-90.04998489595131",
    "latitude": "29.97620102649558",
    "geocoded_column": {
      "latitude": "29.97620102649558",
      "longitude": "-90.04998489595131"
    }
  },
  {
    "service_request": "2025-1189137",
    "request_type": "General Services",
    "request_reason": "General Service Request",
    "date_created": "2025-05-03T17:02:22.000",
    "date_modified": "2025-05-03T17:02:24.000",
    "request_status": "Pending",
    "responsible_agency": "Orleans Parish Communication District",
    "final_address": "2100 Lafitte Ave",
    "address_councildis": "D",
    "status": "Pending",
    "rowid": "1189137",
    "final_x": "3678405.84462",
    "final_y": "535119.619014",
    "longitude": "-90.07771599982557",
    "latitude": "29.9654870000567",
    "geocoded_column": {
      "latitude": "29.9654870000567",
      "longitude": "-90.07771599982557"
    }
  },
  {
    "service_request": "2025-1189136",
    "request_type": "Trash/Recycling",
    "request_reason": "Repair Trash Cart",
    "date_created": "2025-05-03T16:40:58.000",
    "date_modified": "2025-05-03T16:40:59.000",
    "request_status": "Pending",
    "responsible_agency": "Department of Sanitation",
    "final_address": "4153 Patterson St",
    "address_councildis": "C",
    "status": "Assigned to Contractor",
    "contractor": "Richards Disposal",
    "rowid": "1189136",
    "final_x": "3699480.11428",
    "final_y": "526178.040958",
    "longitude": "-90.01149053779721",
    "latitude": "29.940249006001082",
    "geocoded_column": {
      "latitude": "29.940249006001082",
      "longitude": "-90.01149053779721"
    }
  },
  {
    "service_request": "2025-1189135",
    "request_type": "Abandoned Vehicles",
    "request_reason": "Vehicle Blocking Your Driveway",
    "date_created": "2025-05-03T16:27:24.000",
    "date_modified": "2025-05-03T16:27:26.000",
    "request_status": "Pending",
    "responsible_agency": "Department of Public Works",
    "final_address": "818 Chartres St, New Orleans, Louisiana, 70116",
    "address_councildis": "C",
    "status": "Pending",
    "rowid": "1189135",
    "final_x": "3683185.81877",
    "final_y": "532656.514884",
    "longitude": "-90.06270732415067",
    "latitude": "29.958569417931002",
    "geocoded_column": {
      "latitude": "29.958569417931002",
      "longitude": "-90.06270732415067"
    }
  },
  {
    "service_request": "2025-1189134",
    "request_type": "Abandoned Vehicles",
    "request_reason": "Abandoned/Junk Vehicles",
    "date_created": "2025-05-03T16:25:15.000",
    "date_modified": "2025-05-03T16:25:16.000",
    "request_status": "Pending",
    "responsible_agency": "Department of Public Works",
    "final_address": "823 Chartres St, New Orleans, Louisiana, 70116",
    "address_councildis": "C",
    "status": "Pending",
    "rowid": "1189134",
    "final_x": "3683159.85756",
    "final_y": "532713.281348",
    "longitude": "-90.06278731510719",
    "latitude": "29.958726297870275",
    "geocoded_column": {
      "latitude": "29.958726297870275",
      "longitude": "-90.06278731510719"
    }
  },
  {
    "service_request": "2025-1189133",
    "request_type": "General Services",
    "request_reason": "General Service Request",
    "date_created": "2025-05-03T16:21:46.000",
    "date_modified": "2025-05-03T16:21:48.000",
    "request_status": "Pending",
    "responsible_agency": "Orleans Parish Communication District",
    "final_address": " Lady is blocked by van ",
    "status": "Pending",
    "rowid": "1189133",
    "longitude": "0.0",
    "latitude": "0.0",
    "geocoded_column": {
      "latitude": "0.0",
      "longitude": "0.0"
    }
  },
  {
    "service_request": "2025-1189132",
    "request_type": "Roads and Streets",
    "request_reason": "Sidewalk Damaged or Missing",
    "date_created": "2025-05-03T16:20:03.000",
    "date_modified": "2025-05-03T16:20:05.000",
    "request_status": "Pending",
    "responsible_agency": "Department of Public Works",
    "final_address": "1026 Piety St",
    "address_councildis": "C",
    "status": "Pending",
    "rowid": "1189132",
    "final_x": "3689758.67427",
    "final_y": "535584.593606",
    "longitude": "-90.04184782791995",
    "latitude": "29.966418563129384",
    "geocoded_column": {
      "latitude": "29.966418563129384",
      "longitude": "-90.04184782791995"
    }
  },
  {
    "service_request": "2025-1189131",
    "request_type": "Roads and Streets",
    "request_reason": "Sidewalk Damaged or Missing",
    "date_created": "2025-05-03T16:15:34.000",
    "date_modified": "2025-05-03T16:15:37.000",
    "request_status": "Pending",
    "responsible_agency": "Department of Public Works",
    "final_address": "1026 Piety St",
    "address_councildis": "C",
    "status": "Pending",
    "rowid": "1189131",
    "final_x": "3689758.67427",
    "final_y": "535584.593606",
    "longitude": "-90.04184782791995",
    "latitude": "29.966418563129384",
    "geocoded_column": {
      "latitude": "29.966418563129384",
      "longitude": "-90.04184782791995"
    }
  },
  {
    "service_request": "2025-1189130",
    "request_type": "Trash/Recycling",
    "request_reason": "Missed Trash Pick-Up",
    "date_created": "2025-05-03T15:48:44.000",
    "date_modified": "2025-05-03T15:48:46.000",
    "request_status": "Pending",
    "responsible_agency": "Department of Sanitation",
    "final_address": "1426 Japonica St",
    "address_councildis": "D",
    "status": "Assigned to Contractor",
    "contractor": "IV Waste",
    "rowid": "1189130",
    "final_x": "3693959.02377",
    "final_y": "536165.114119",
    "longitude": "-90.02856236969428",
    "latitude": "29.967883945002878",
    "geocoded_column": {
      "latitude": "29.967883945002878",
      "longitude": "-90.02856236969428"
    }
  },
  {
    "service_request": "2025-1189129",
    "request_type": "Trash/Recycling",
    "request_reason": "Repair Recycling Cart",
    "date_created": "2025-05-03T14:26:26.000",
    "date_modified": "2025-05-03T14:26:27.000",
    "request_status": "Pending",
    "responsible_agency": "Department of Sanitation",
    "final_address": "4764 De Montluzin St",
    "address_councildis": "D",
    "status": "Pending",
    "rowid": "1189129",
    "final_x": "3687064.94274",
    "final_y": "550811.068309",
    "longitude": "-90.04981594699201",
    "latitude": "30.008369148312653",
    "geocoded_column": {
      "latitude": "30.008369148312653",
      "longitude": "-90.04981594699201"
    }
  },
  {
    "service_request": "2025-1189128",
    "request_type": "Trash/Recycling",
    "request_reason": "Request a Large Item Pick Up",
    "date_created": "2025-05-03T14:17:55.000",
    "date_modified": "2025-05-03T14:17:58.000",
    "request_status": "Pending",
    "responsible_agency": "Department of Sanitation",
    "final_address": "8050 Driftwood Dr",
    "address_councildis": "E",
    "status": "Assigned to Contractor",
    "contractor": "Waste Pro",
    "rowid": "1189128",
    "final_x": "3702287.5041",
    "final_y": "561861.579743",
    "longitude": "-90.0013176015962",
    "latitude": "30.038276161180363",
    "geocoded_column": {
      "latitude": "30.038276161180363",
      "longitude": "-90.0013176015962"
    }
  },
  {
    "service_request": "2025-1189127",
    "request_type": "Abandoned Vehicles",
    "request_reason": "Abandoned/Junk Vehicles",
    "date_created": "2025-05-03T14:10:20.000",
    "date_modified": "2025-05-03T14:10:22.000",
    "request_status": "Pending",
    "responsible_agency": "Department of Public Works",
    "final_address": "3706 Burgundy St",
    "address_councildis": "C",
    "status": "Pending",
    "rowid": "1189127",
    "final_x": "3690834.30505",
    "final_y": "534648.92967",
    "longitude": "-90.03848440419394",
    "latitude": "29.963812436114164",
    "geocoded_column": {
      "latitude": "29.963812436114164",
      "longitude": "-90.03848440419394"
    }
  },
  {
    "service_request": "2025-1189126",
    "request_type": "Trash/Recycling",
    "request_reason": "Replace Trash Cart",
    "date_created": "2025-05-03T13:52:38.000",
    "date_modified": "2025-05-03T13:52:40.000",
    "request_status": "Pending",
    "responsible_agency": "Department of Sanitation",
    "final_address": "4910 Camp St",
    "address_councildis": "B",
    "status": "Assigned to Contractor",
    "contractor": "IV Waste",
    "rowid": "1189126",
    "final_x": "3668890.95918",
    "final_y": "518852.769335",
    "longitude": "-90.10831288281439",
    "latitude": "29.921041698886068",
    "geocoded_column": {
      "latitude": "29.921041698886068",
      "longitude": "-90.10831288281439"
    }
  },
  {
    "service_request": "2025-1189125",
    "request_type": "Trash/Recycling",
    "request_reason": "Order Trash Cart",
    "date_created": "2025-05-03T13:44:36.000",
    "date_modified": "2025-05-03T13:44:38.000",
    "request_status": "Pending",
    "responsible_agency": "Department of Sanitation",
    "final_address": "4910 Camp St",
    "address_councildis": "B",
    "status": "Assigned to Contractor",
    "contractor": "IV Waste",
    "rowid": "1189125",
    "final_x": "3668890.95918",
    "final_y": "518852.769335",
    "longitude": "-90.10831288281439",
    "latitude": "29.921041698886068",
    "geocoded_column": {
      "latitude": "29.921041698886068",
      "longitude": "-90.10831288281439"
    }
  },
  {
    "service_request": "2025-1189124",
    "request_type": "Trash/Recycling",
    "request_reason": "Illegal Dumping",
    "date_created": "2025-05-03T13:40:03.000",
    "date_modified": "2025-05-03T13:40:06.000",
    "request_status": "Pending",
    "responsible_agency": "Department of Sanitation",
    "final_address": "2074 Florida Ave",
    "address_councildis": "D",
    "status": "Pending",
    "rowid": "1189124",
    "final_x": "3683636.32745",
    "final_y": "542659.627149",
    "longitude": "-90.06093397800102",
    "latitude": "29.986060756766904",
    "geocoded_column": {
      "latitude": "29.986060756766904",
      "longitude": "-90.06093397800102"
    }
  },
  {
    "service_request": "2025-1189123",
    "request_type": "Trash/Recycling",
    "request_reason": "Replace Trash Cart",
    "date_created": "2025-05-03T13:26:35.000",
    "date_modified": "2025-05-03T13:26:37.000",
    "request_status": "Pending",
    "responsible_agency": "Department of Sanitation",
    "final_address": "829 Atlantic Ave",
    "address_councildis": "C",
    "status": "Assigned to Contractor",
    "contractor": "Richards Disposal",
    "rowid": "1189123",
    "final_x": "3688692.40335",
    "final_y": "528450.964544",
    "longitude": "-90.04546828798084",
    "latitude": "29.946836550989424",
    "geocoded_column": {
      "latitude": "29.946836550989424",
      "longitude": "-90.04546828798084"
    }
  },
  {
    "service_request": "2025-1189122",
    "request_type": "Traffic Signals",
    "request_reason": "Traffic Signal Malfunctioning or Damaged",
    "date_created": "2025-05-03T13:13:19.000",
    "date_modified": "2025-05-03T13:13:21.000",
    "request_status": "Pending",
    "responsible_agency": "Department of Public Works",
    "final_address": "5415 Burgundy St",
    "address_councildis": "E",
    "status": "Pending",
    "rowid": "1189122",
    "final_x": "3697082.16797",
    "final_y": "533198.77082",
    "longitude": "-90.01880690380933",
    "latitude": "29.959629399258237",
    "geocoded_column": {
      "latitude": "29.959629399258237",
      "longitude": "-90.01880690380933"
    }
  },
  {
    "service_request": "2025-1189121",
    "request_type": "Street and Traffic Signs",
    "request_reason": "Traffic or Parking Sign Damaged or Missing",
    "date_created": "2025-05-03T13:09:00.000",
    "date_modified": "2025-05-03T13:09:02.000",
    "request_status": "Pending",
    "responsible_agency": "Department of Public Works",
    "final_address": "0 BLK Alice Ct",
    "address_councildis": "E",
    "status": "Pending",
    "rowid": "1189121",
    "final_x": "3696830.85368",
    "final_y": "533835.980016",
    "longitude": "-90.01957742212986",
    "latitude": "29.961389424106756",
    "geocoded_column": {
      "latitude": "29.961389424106756",
      "longitude": "-90.01957742212986"
    }
  },
  {
    "service_request": "2025-1189120",
    "request_type": "Trash/Recycling",
    "request_reason": "Replace Trash Cart",
    "date_created": "2025-05-03T13:02:50.000",
    "date_modified": "2025-05-03T13:02:52.000",
    "request_status": "Pending",
    "responsible_agency": "Department of Sanitation",
    "final_address": "829 Atlantic Ave",
    "address_councildis": "C",
    "status": "Assigned to Contractor",
    "contractor": "Richards Disposal",
    "rowid": "1189120",
    "final_x": "3688692.40335",
    "final_y": "528450.964544",
    "longitude": "-90.04546828798084",
    "latitude": "29.946836550989424",
    "geocoded_column": {
      "latitude": "29.946836550989424",
      "longitude": "-90.04546828798084"
    }
  },
  {
    "service_request": "2025-1189119",
    "request_type": "Trash/Recycling",
    "request_reason": "Request a Large Item Pick Up",
    "date_created": "2025-05-03T12:49:32.000",
    "date_modified": "2025-05-03T12:49:34.000",
    "request_status": "Pending",
    "responsible_agency": "Department of Sanitation",
    "final_address": "3317 Short St, New Orleans, Louisiana, 70125",
    "address_councildis": "B",
    "status": "Assigned to Contractor",
    "contractor": "IV Waste",
    "rowid": "1189119",
    "final_x": "3667477.17185",
    "final_y": "533693.625093",
    "longitude": "-90.1122763780639",
    "latitude": "29.96189075381497",
    "geocoded_column": {
      "latitude": "29.96189075381497",
      "longitude": "-90.1122763780639"
    }
  },
  {
    "service_request": "2025-1189118",
    "request_type": "Trash/Recycling",
    "request_reason": "Replace Trash Cart",
    "date_created": "2025-05-03T12:41:39.000",
    "date_modified": "2025-05-03T12:41:42.000",
    "request_status": "Pending",
    "responsible_agency": "Department of Sanitation",
    "final_address": "7272 Canal Blvd",
    "address_councildis": "D",
    "status": "Assigned to Contractor",
    "contractor": "IV Waste",
    "rowid": "1189118",
    "final_x": "3669049.91886",
    "final_y": "555300.200537",
    "longitude": "-90.1065793933683",
    "latitude": "30.0212552408949",
    "geocoded_column": {
      "latitude": "30.0212552408949",
      "longitude": "-90.1065793933683"
    }
  },
  {
    "service_request": "2025-1189117",
    "request_type": "Trash/Recycling",
    "request_reason": "Request a Large Item Pick Up",
    "date_created": "2025-05-03T12:24:21.000",
    "date_modified": "2025-05-03T12:24:23.000",
    "request_status": "Pending",
    "responsible_agency": "Department of Sanitation",
    "final_address": "7801 Devine Ave",
    "address_councildis": "E",
    "status": "Assigned to Contractor",
    "contractor": "Waste Pro",
    "rowid": "1189117",
    "final_x": "3705497.98942",
    "final_y": "563511.740896",
    "longitude": "-89.99111062549073",
    "latitude": "30.042710441832853",
    "geocoded_column": {
      "latitude": "30.042710441832853",
      "longitude": "-89.99111062549073"
    }
  },
  {
    "service_request": "2025-1189116",
    "request_type": "Streetlights",
    "request_reason": "Streetlight Knocked Down/Leaning",
    "date_created": "2025-05-03T12:22:04.000",
    "date_modified": "2025-05-03T12:22:06.000",
    "request_status": "Pending",
    "responsible_agency": "Department of Public Works",
    "final_address": "2285 Lakeshore Dr",
    "address_councildis": "D",
    "status": "Pending",
    "contractor": "Legacy Professional Services",
    "rowid": "1189116",
    "final_x": "3684038.87836",
    "final_y": "559467.901341",
    "longitude": "-90.0590720708281",
    "latitude": "30.032265110840207",
    "geocoded_column": {
      "latitude": "30.032265110840207",
      "longitude": "-90.0590720708281"
    }
  },
  {
    "service_request": "2025-1189115",
    "request_type": "Trash/Recycling",
    "request_reason": "Request a Large Item Pick Up",
    "date_created": "2025-05-03T12:02:09.000",
    "date_modified": "2025-05-03T12:02:11.000",
    "request_status": "Pending",
    "responsible_agency": "Department of Sanitation",
    "final_address": "833 Opelousas Ave",
    "address_councildis": "C",
    "status": "Assigned to Contractor",
    "contractor": "Richards Disposal",
    "rowid": "1189115",
    "final_x": "3688092.38607",
    "final_y": "529034.362752",
    "longitude": "-90.04734208395209",
    "latitude": "29.948459226502433",
    "geocoded_column": {
      "latitude": "29.948459226502433",
      "longitude": "-90.04734208395209"
    }
  },
  {
    "service_request": "2025-1189114",
    "request_type": "Trash/Recycling",
    "request_reason": "Missed Trash Pick-Up",
    "date_created": "2025-05-03T11:54:43.000",
    "date_modified": "2025-05-03T11:54:45.000",
    "request_status": "Pending",
    "responsible_agency": "Department of Sanitation",
    "final_address": "2029 Charbonnet St",
    "address_councildis": "E",
    "status": "Assigned to Contractor",
    "contractor": "Waste Pro",
    "rowid": "1189114",
    "final_x": "3699602.02391",
    "final_y": "537095.108616",
    "longitude": "-90.01070780718456",
    "latitude": "29.970263204298835",
    "geocoded_column": {
      "latitude": "29.970263204298835",
      "longitude": "-90.01070780718456"
    }
  },
  {
    "service_request": "2025-1189113",
    "request_type": "Trash/Recycling",
    "request_reason": "Request a Large Item Pick Up",
    "date_created": "2025-05-03T11:41:33.000",
    "date_modified": "2025-05-03T11:41:35.000",
    "request_status": "Pending",
    "responsible_agency": "Department of Sanitation",
    "final_address": "1662 Abundance St",
    "address_councildis": "D",
    "status": "Assigned to Contractor",
    "contractor": "IV Waste",
    "rowid": "1189113",
    "final_x": "3680434.6525",
    "final_y": "543303.392334",
    "longitude": "-90.07102440727711",
    "latitude": "29.987928255139828",
    "geocoded_column": {
      "latitude": "29.987928255139828",
      "longitude": "-90.07102440727711"
    }
  },
  {
    "service_request": "2025-1189112",
    "request_type": "Trash/Recycling",
    "request_reason": "Order Recycling Cart",
    "date_created": "2025-05-03T11:13:22.000",
    "date_modified": "2025-05-03T11:13:24.000",
    "request_status": "Pending",
    "responsible_agency": "Department of Sanitation",
    "final_address": "1649 Joseph St",
    "address_councildis": "A",
    "status": "Pending",
    "rowid": "1189112",
    "final_x": "3666961.43796",
    "final_y": "522283.127034",
    "longitude": "-90.11428833652462",
    "latitude": "29.930530678956117",
    "geocoded_column": {
      "latitude": "29.930530678956117",
      "longitude": "-90.11428833652462"
    }
  },
  {
    "service_request": "2025-1189111",
    "request_type": "Abandoned Vehicles",
    "request_reason": "Abandoned/Junk Vehicles",
    "date_created": "2025-05-03T11:03:14.000",
    "date_modified": "2025-05-03T11:03:16.000",
    "request_status": "Pending",
    "responsible_agency": "Department of Public Works",
    "final_address": "1000 BLK Upperline St",
    "address_councildis": "B",
    "status": "Pending",
    "rowid": "1189111",
    "final_x": "3669012.41325",
    "final_y": "519132.452008",
    "longitude": "-90.10792006437407",
    "latitude": "29.92180716686423",
    "geocoded_column": {
      "latitude": "29.92180716686423",
      "longitude": "-90.10792006437407"
    }
  },
  {
    "service_request": "2025-1189110",
    "request_type": "Abandoned Vehicles",
    "request_reason": "Abandoned/Junk Vehicles",
    "date_created": "2025-05-03T11:01:21.000",
    "date_modified": "2025-05-03T11:01:22.000",
    "request_status": "Pending",
    "responsible_agency": "Department of Public Works",
    "final_address": "1000 BLK Upperline St",
    "address_councildis": "B",
    "status": "Pending",
    "rowid": "1189110",
    "final_x": "3669012.41325",
    "final_y": "519132.452008",
    "longitude": "-90.10792006437407",
    "latitude": "29.92180716686423",
    "geocoded_column": {
      "latitude": "29.92180716686423",
      "longitude": "-90.10792006437407"
    }
  },
  {
    "service_request": "2025-1189109",
    "request_type": "Abandoned Vehicles",
    "request_reason": "Abandoned/Junk Vehicles",
    "date_created": "2025-05-03T11:00:31.000",
    "date_modified": "2025-05-03T11:00:34.000",
    "request_status": "Pending",
    "responsible_agency": "Department of Public Works",
    "final_address": "1000 BLK Upperline St",
    "address_councildis": "B",
    "status": "Pending",
    "rowid": "1189109",
    "final_x": "3669012.41325",
    "final_y": "519132.452008",
    "longitude": "-90.10792006437407",
    "latitude": "29.92180716686423",
    "geocoded_column": {
      "latitude": "29.92180716686423",
      "longitude": "-90.10792006437407"
    }
  },
  {
    "service_request": "2025-1189108",
    "request_type": "Roads and Streets",
    "request_reason": "Abandoned Service Cut",
    "date_created": "2025-05-03T10:46:42.000",
    "date_modified": "2025-05-03T10:46:43.000",
    "request_status": "Pending",
    "responsible_agency": "Department of Public Works",
    "final_address": "6011 Painters St",
    "address_councildis": "D",
    "status": "Pending",
    "rowid": "1189108",
    "final_x": "3686108.22434",
    "final_y": "555259.655449",
    "longitude": "-90.05268143396154",
    "latitude": "30.0206305624863",
    "geocoded_column": {
      "latitude": "30.0206305624863",
      "longitude": "-90.05268143396154"
    }
  },
  {
    "service_request": "2025-1189107",
    "request_type": "Traffic Signals",
    "request_reason": "Traffic Signal Malfunctioning or Damaged",
    "date_created": "2025-05-03T10:44:56.000",
    "date_modified": "2025-05-03T10:44:58.000",
    "request_status": "Pending",
    "responsible_agency": "Department of Public Works",
    "final_address": "4400 St Claude Ave",
    "address_councildis": "C",
    "status": "Pending",
    "rowid": "1189107",
    "final_x": "3693099.69814",
    "final_y": "534919.55975",
    "longitude": "-90.03132083196796",
    "latitude": "29.96448598809065",
    "geocoded_column": {
      "latitude": "29.96448598809065",
      "longitude": "-90.03132083196796"
    }
  },
  {
    "service_request": "2025-1189106",
    "request_type": "Traffic Signals",
    "request_reason": "Traffic Signal Malfunctioning or Damaged",
    "date_created": "2025-05-03T10:43:52.000",
    "date_modified": "2025-05-03T10:43:55.000",
    "request_status": "Pending",
    "responsible_agency": "Department of Public Works",
    "final_address": "5530 St Claude Ave",
    "address_councildis": "E",
    "status": "Pending",
    "rowid": "1189106",
    "final_x": "3697911.89629",
    "final_y": "533731.156549",
    "longitude": "-90.0161675020827",
    "latitude": "29.961067071593995",
    "geocoded_column": {
      "latitude": "29.961067071593995",
      "longitude": "-90.0161675020827"
    }
  },
  {
    "service_request": "2025-1189105",
    "request_type": "Trash/Recycling",
    "request_reason": "Request a Large Item Pick Up",
    "date_created": "2025-05-03T10:31:42.000",
    "date_modified": "2025-05-03T15:10:10.000",
    "case_close_date": "2025-05-03T10:10:08.000",
    "request_status": "Closed",
    "responsible_agency": "Department of Sanitation",
    "final_address": "8720 Morrison Rd",
    "address_councildis": "E",
    "status": "Duplicate Request",
    "contractor": "Waste Pro",
    "contractor_action": "Duplicate",
    "rowid": "1189105",
    "final_x": "3705268.81534",
    "final_y": "561533.999199",
    "longitude": "-89.99190807515622",
    "latitude": "30.0372798127504",
    "geocoded_column": {
      "latitude": "30.0372798127504",
      "longitude": "-89.99190807515622"
    }
  },
  {
    "service_request": "2025-1189104",
    "request_type": "Trash/Recycling",
    "request_reason": "Replace Trash Cart",
    "date_created": "2025-05-03T10:25:28.000",
    "date_modified": "2025-05-03T10:25:32.000",
    "request_status": "Pending",
    "responsible_agency": "Department of Sanitation",
    "final_address": "5734 Chatham Dr",
    "address_councildis": "D",
    "status": "Assigned to Contractor",
    "contractor": "IV Waste",
    "rowid": "1189104",
    "final_x": "3679565.59867",
    "final_y": "553829.141335",
    "longitude": "-90.07340388107194",
    "latitude": "30.01689660965046",
    "geocoded_column": {
      "latitude": "30.01689660965046",
      "longitude": "-90.07340388107194"
    }
  },
  {
    "service_request": "2025-1189103",
    "request_type": "Trash/Recycling",
    "request_reason": "Request a Large Item Pick Up",
    "date_created": "2025-05-03T10:24:33.000",
    "date_modified": "2025-05-03T10:24:35.000",
    "request_status": "Pending",
    "responsible_agency": "Department of Sanitation",
    "final_address": "7801 Woodbine Dr",
    "address_councildis": "E",
    "status": "Assigned to Contractor",
    "contractor": "Waste Pro",
    "rowid": "1189103",
    "final_x": "3701870.74519",
    "final_y": "561843.773407",
    "longitude": "-90.00263531287989",
    "latitude": "30.03824051532753",
    "geocoded_column": {
      "latitude": "30.03824051532753",
      "longitude": "-90.00263531287989"
    }
  },
  {
    "service_request": "2025-1189102",
    "request_type": "Trash/Recycling",
    "request_reason": "Request a Large Item Pick Up",
    "date_created": "2025-05-03T10:12:39.000",
    "date_modified": "2025-05-03T10:27:28.000",
    "case_close_date": "2025-05-03T05:27:27.000",
    "request_status": "Closed",
    "responsible_agency": "Department of Sanitation",
    "final_address": "8720 Morrison Rd",
    "address_councildis": "E",
    "status": "Duplicate Request",
    "contractor": "Waste Pro",
    "contractor_action": "Duplicate",
    "rowid": "1189102",
    "final_x": "3705268.81534",
    "final_y": "561533.999199",
    "longitude": "-89.99190807515622",
    "latitude": "30.0372798127504",
    "geocoded_column": {
      "latitude": "30.0372798127504",
      "longitude": "-89.99190807515622"
    }
  },
  {
    "service_request": "2025-1189101",
    "request_type": "Trash/Recycling",
    "request_reason": "Request a Large Item Pick Up",
    "date_created": "2025-05-03T10:10:32.000",
    "date_modified": "2025-05-03T10:10:34.000",
    "request_status": "Pending",
    "responsible_agency": "Department of Sanitation",
    "final_address": "8722 Morrison Rd",
    "address_councildis": "E",
    "status": "Assigned to Contractor",
    "contractor": "Waste Pro",
    "rowid": "1189101",
    "final_x": "3705293.6691",
    "final_y": "561544.252255",
    "longitude": "-89.99182915285628",
    "latitude": "30.0373072045616",
    "geocoded_column": {
      "latitude": "30.0373072045616",
      "longitude": "-89.99182915285628"
    }
  },
  {
    "service_request": "2025-1189100",
    "request_type": "Trash/Recycling",
    "request_reason": "Replace Trash Cart",
    "date_created": "2025-05-03T10:05:37.000",
    "date_modified": "2025-05-03T10:05:39.000",
    "request_status": "Pending",
    "responsible_agency": "Department of Sanitation",
    "final_address": "2929 Banks St",
    "address_councildis": "B",
    "status": "Assigned to Contractor",
    "contractor": "IV Waste",
    "rowid": "1189100",
    "final_x": "3673717.87054",
    "final_y": "534917.360774",
    "longitude": "-90.0925273570839",
    "latitude": "29.965071278101945",
    "geocoded_column": {
      "latitude": "29.965071278101945",
      "longitude": "-90.0925273570839"
    }
  },
  {
    "service_request": "2025-1189099",
    "request_type": "Traffic Signals",
    "request_reason": "Traffic Signal Malfunctioning or Damaged",
    "date_created": "2025-05-03T10:03:57.000",
    "date_modified": "2025-05-03T10:03:59.000",
    "request_status": "Pending",
    "responsible_agency": "Department of Public Works",
    "final_address": "4400 St Claude Ave",
    "address_councildis": "C",
    "status": "Pending",
    "rowid": "1189099",
    "final_x": "3693099.69814",
    "final_y": "534919.55975",
    "longitude": "-90.03132083196796",
    "latitude": "29.96448598809065",
    "geocoded_column": {
      "latitude": "29.96448598809065",
      "longitude": "-90.03132083196796"
    }
  },
  {
    "service_request": "2025-1189098",
    "request_type": "Traffic Signals",
    "request_reason": "Traffic Signal Malfunctioning or Damaged",
    "date_created": "2025-05-03T09:59:19.000",
    "date_modified": "2025-05-03T09:59:20.000",
    "request_status": "Pending",
    "responsible_agency": "Department of Public Works",
    "final_address": "5600 St Claude Ave",
    "address_councildis": "E",
    "status": "Pending",
    "rowid": "1189098",
    "final_x": "3698079.92106",
    "final_y": "533663.126469",
    "longitude": "-90.01563938430233",
    "latitude": "29.9608747010821",
    "geocoded_column": {
      "latitude": "29.9608747010821",
      "longitude": "-90.01563938430233"
    }
  },
  {
    "service_request": "2025-1189097",
    "request_type": "Trash/Recycling",
    "request_reason": "Replace Trash Cart",
    "date_created": "2025-05-03T09:48:44.000",
    "date_modified": "2025-05-03T09:48:45.000",
    "request_status": "Pending",
    "responsible_agency": "Department of Sanitation",
    "final_address": "2125 Jefferson Ave",
    "address_councildis": "B",
    "status": "Assigned to Contractor",
    "contractor": "IV Waste",
    "rowid": "1189097",
    "final_x": "3667872.59393",
    "final_y": "523517.977211",
    "longitude": "-90.11137037176854",
    "latitude": "29.933899436909137",
    "geocoded_column": {
      "latitude": "29.933899436909137",
      "longitude": "-90.11137037176854"
    }
  },
  {
    "service_request": "2025-1189096",
    "request_type": "Healthy Homes",
    "request_reason": "Healthy Homes",
    "date_created": "2025-05-03T09:43:42.000",
    "date_modified": "2025-05-03T09:43:44.000",
    "request_status": "Pending",
    "responsible_agency": "Department of Code Enforcement",
    "final_address": "1116 Barracks St",
    "address_councildis": "C",
    "status": "Pending",
    "rowid": "1189096",
    "final_x": "3682539.71592",
    "final_y": "535185.018502",
    "longitude": "-90.06465914238005",
    "latitude": "29.965541621444466",
    "geocoded_column": {
      "latitude": "29.965541621444466",
      "longitude": "-90.06465914238005"
    }
  },
  {
    "service_request": "2025-1189095",
    "request_type": "Healthy Homes",
    "request_reason": "Healthy Homes",
    "date_created": "2025-05-03T09:40:12.000",
    "date_modified": "2025-05-03T09:40:15.000",
    "request_status": "Pending",
    "responsible_agency": "Department of Code Enforcement",
    "final_address": "1000 BLK Barracks St",
    "address_councildis": "C",
    "status": "Pending",
    "rowid": "1189095",
    "final_x": "3682870.43081",
    "final_y": "534972.517769",
    "longitude": "-90.06362219601395",
    "latitude": "29.96494724503408",
    "geocoded_column": {
      "latitude": "29.96494724503408",
      "longitude": "-90.06362219601395"
    }
  },
  {
    "service_request": "2025-1189094",
    "request_type": "Roads and Streets",
    "request_reason": "Pothole",
    "date_created": "2025-05-03T09:33:51.000",
    "date_modified": "2025-05-03T09:33:53.000",
    "request_status": "Pending",
    "responsible_agency": "Department of Public Works",
    "final_address": "2823 DAbadie St",
    "address_councildis": "D",
    "status": "Pending",
    "rowid": "1189094",
    "final_x": "3678836.79349",
    "final_y": "541334.72462",
    "longitude": "-90.07613973818152",
    "latitude": "29.982563409864547",
    "geocoded_column": {
      "latitude": "29.982563409864547",
      "longitude": "-90.07613973818152"
    }
  },
  {
    "service_request": "2025-1189092",
    "request_type": "Roads and Streets",
    "request_reason": "Sidewalk Damaged or Missing",
    "date_created": "2025-05-03T09:18:28.000",
    "date_modified": "2025-05-03T09:18:30.000",
    "request_status": "Pending",
    "responsible_agency": "Department of Public Works",
    "final_address": "907 Dauphine St",
    "address_councildis": "C",
    "status": "Pending",
    "rowid": "1189092",
    "final_x": "3682454.96373",
    "final_y": "533560.886853",
    "longitude": "-90.06498355901505",
    "latitude": "29.961078396270416",
    "geocoded_column": {
      "latitude": "29.961078396270416",
      "longitude": "-90.06498355901505"
    }
  },
  {
    "service_request": "2025-1189091",
    "request_type": "Street and Traffic Signs",
    "request_reason": "Stop Sign Missing or Damaged",
    "date_created": "2025-05-03T09:13:18.000",
    "date_modified": "2025-05-03T09:13:20.000",
    "request_status": "Pending",
    "responsible_agency": "Department of Public Works",
    "final_address": "400 Dauphine St",
    "address_councildis": "C",
    "status": "Pending",
    "rowid": "1189091",
    "final_x": "3681351.87874",
    "final_y": "532037.492419",
    "longitude": "-90.0685199976539",
    "latitude": "29.956923107885665",
    "geocoded_column": {
      "latitude": "29.956923107885665",
      "longitude": "-90.0685199976539"
    }
  },
  {
    "service_request": "2025-1189090",
    "request_type": "Trash/Recycling",
    "request_reason": "Repair Trash Cart",
    "date_created": "2025-05-03T08:58:06.000",
    "date_modified": "2025-05-03T08:58:08.000",
    "request_status": "Pending",
    "responsible_agency": "Department of Sanitation",
    "final_address": "618 Peniston St",
    "address_councildis": "B",
    "status": "Assigned to Contractor",
    "contractor": "IV Waste",
    "rowid": "1189090",
    "final_x": "3673555.60347",
    "final_y": "518208.731126",
    "longitude": "-90.09361066933421",
    "latitude": "29.91913284954132",
    "geocoded_column": {
      "latitude": "29.91913284954132",
      "longitude": "-90.09361066933421"
    }
  },
  {
    "service_request": "2025-1189089",
    "request_type": "Streetlights",
    "request_reason": "Streetlight Outage/Malfunction",
    "date_created": "2025-05-03T08:52:14.000",
    "date_modified": "2025-05-03T08:52:16.000",
    "request_status": "Pending",
    "responsible_agency": "Department of Public Works",
    "final_address": "732 Cherokee St",
    "address_councildis": "A",
    "status": "Pending",
    "contractor": "Legacy Professional Services",
    "rowid": "1189089",
    "final_x": "3662506.58669",
    "final_y": "525870.963517",
    "longitude": "-90.12823258346445",
    "latitude": "29.940525663183635",
    "geocoded_column": {
      "latitude": "29.940525663183635",
      "longitude": "-90.12823258346445"
    }
  },
  {
    "service_request": "2025-1189088",
    "request_type": "Abandoned Vehicles",
    "request_reason": "Abandoned/Junk Vehicles",
    "date_created": "2025-05-03T08:39:34.000",
    "date_modified": "2025-05-03T08:39:36.000",
    "request_status": "Pending",
    "responsible_agency": "Department of Public Works",
    "final_address": "2222 St Bernard Ave",
    "address_councildis": "D",
    "status": "Pending",
    "rowid": "1189088",
    "final_x": "3680963.65755",
    "final_y": "539990.235467",
    "longitude": "-90.0694688885408",
    "latitude": "29.978802197275876",
    "geocoded_column": {
      "latitude": "29.978802197275876",
      "longitude": "-90.0694688885408"
    }
  },
  {
    "service_request": "2025-1189087",
    "request_type": "Property Maintenance",
    "request_reason": "Property Maintenance",
    "date_created": "2025-05-03T08:37:32.000",
    "date_modified": "2025-05-03T08:37:34.000",
    "request_status": "Pending",
    "responsible_agency": "Department of Code Enforcement",
    "final_address": "3712 Herschel St",
    "address_councildis": "C",
    "status": "Pending",
    "rowid": "1189087",
    "final_x": "3697383.69379",
    "final_y": "521206.070457",
    "longitude": "-90.01828938289724",
    "latitude": "29.926644131756852",
    "geocoded_column": {
      "latitude": "29.926644131756852",
      "longitude": "-90.01828938289724"
    }
  },
  {
    "service_request": "2025-1189086",
    "request_type": "Trash/Recycling",
    "request_reason": "Illegal Dumping",
    "date_created": "2025-05-03T08:33:59.000",
    "date_modified": "2025-05-03T08:34:02.000",
    "request_status": "Pending",
    "responsible_agency": "Department of Sanitation",
    "final_address": "3712 Herschel St",
    "address_councildis": "C",
    "status": "Pending",
    "rowid": "1189086",
    "final_x": "3697383.69379",
    "final_y": "521206.070457",
    "longitude": "-90.01828938289724",
    "latitude": "29.926644131756852",
    "geocoded_column": {
      "latitude": "29.926644131756852",
      "longitude": "-90.01828938289724"
    }
  },
  {
    "service_request": "2025-1189085",
    "request_type": "Roads and Streets",
    "request_reason": "Debris in Driving Lanes",
    "date_created": "2025-05-03T08:27:32.000",
    "date_modified": "2025-05-03T08:27:34.000",
    "request_status": "Pending",
    "responsible_agency": "Department of Public Works",
    "final_address": "950 Felicity St",
    "address_councildis": "B",
    "status": "Pending",
    "rowid": "1189085",
    "final_x": "3680205.53794",
    "final_y": "522775.031418",
    "longitude": "-90.07246162129708",
    "latitude": "29.931489175026222",
    "geocoded_column": {
      "latitude": "29.931489175026222",
      "longitude": "-90.07246162129708"
    }
  },
  {
    "service_request": "2025-1189084",
    "request_type": "Abandoned Vehicles",
    "request_reason": "Abandoned/Junk Vehicles",
    "date_created": "2025-05-03T08:12:48.000",
    "date_modified": "2025-05-03T08:12:51.000",
    "request_status": "Pending",
    "responsible_agency": "Department of Public Works",
    "final_address": "427 S Genois St",
    "address_councildis": "B",
    "status": "Pending",
    "rowid": "1189084",
    "final_x": "3671643.79483",
    "final_y": "536000.620743",
    "longitude": "-90.09904033511609",
    "latitude": "29.9681114734695",
    "geocoded_column": {
      "latitude": "29.9681114734695",
      "longitude": "-90.09904033511609"
    }
  },
  {
    "service_request": "2025-1189083",
    "request_type": "Drainage",
    "request_reason": "Catch Basin Clogged",
    "date_created": "2025-05-03T07:50:08.000",
    "date_modified": "2025-05-03T07:50:10.000",
    "request_status": "Pending",
    "responsible_agency": "Sewerage & Water Board",
    "final_address": "1441 Jackson Ave",
    "address_councildis": "B",
    "status": "Pending",
    "rowid": "1189083",
    "final_x": "3678037.95112",
    "final_y": "523243.762555",
    "longitude": "-90.0792882416217",
    "latitude": "29.93284343911363",
    "geocoded_column": {
      "latitude": "29.93284343911363",
      "longitude": "-90.0792882416217"
    }
  },
  {
    "service_request": "2025-1189082",
    "request_type": "Drainage",
    "request_reason": "Catch Basin Clogged",
    "date_created": "2025-05-03T07:48:16.000",
    "date_modified": "2025-05-03T07:48:18.000",
    "request_status": "Pending",
    "responsible_agency": "Sewerage & Water Board",
    "final_address": "2434 St Charles Ave",
    "address_councildis": "B",
    "status": "Pending",
    "rowid": "1189082",
    "final_x": "3676828.87925",
    "final_y": "523029.309563",
    "longitude": "-90.08311257838687",
    "latitude": "29.932290093026396",
    "geocoded_column": {
      "latitude": "29.932290093026396",
      "longitude": "-90.08311257838687"
    }
  },
  {
    "service_request": "2025-1189081",
    "request_type": "Drainage",
    "request_reason": "Catch Basin Clogged",
    "date_created": "2025-05-03T07:47:00.000",
    "date_modified": "2025-05-03T07:47:02.000",
    "request_status": "Pending",
    "responsible_agency": "Sewerage & Water Board",
    "final_address": "3101 St Charles Ave",
    "address_councildis": "B",
    "status": "Pending",
    "rowid": "1189081",
    "final_x": "3674886.17685",
    "final_y": "521934.203898",
    "longitude": "-90.08928304948076",
    "latitude": "29.929337048804616",
    "geocoded_column": {
      "latitude": "29.929337048804616",
      "longitude": "-90.08928304948076"
    }
  },
  {
    "service_request": "2025-1189080",
    "request_type": "Drainage",
    "request_reason": "Catch Basin Clogged",
    "date_created": "2025-05-03T07:45:11.000",
    "date_modified": "2025-05-03T07:45:12.000",
    "request_status": "Pending",
    "responsible_agency": "Sewerage & Water Board",
    "final_address": "1215 Louisiana Ave",
    "address_councildis": "B",
    "status": "Pending",
    "rowid": "1189080",
    "final_x": "3674896.86625",
    "final_y": "520164.734776",
    "longitude": "-90.08930995019197",
    "latitude": "29.924471261123163",
    "geocoded_column": {
      "latitude": "29.924471261123163",
      "longitude": "-90.08930995019197"
    }
  },
  {
    "service_request": "2025-1189079",
    "request_type": "Drainage",
    "request_reason": "Catch Basin Clogged",
    "date_created": "2025-05-03T07:42:05.000",
    "date_modified": "2025-05-03T07:42:06.000",
    "request_status": "Pending",
    "responsible_agency": "Sewerage & Water Board",
    "final_address": "5421 St Charles Ave",
    "address_councildis": "A",
    "status": "Pending",
    "rowid": "1189079",
    "final_x": "3667148.02471",
    "final_y": "521773.367226",
    "longitude": "-90.11371643649376",
    "latitude": "29.9291235418274",
    "geocoded_column": {
      "latitude": "29.9291235418274",
      "longitude": "-90.11371643649376"
    }
  },
  {
    "service_request": "2025-1189078",
    "request_type": "Drainage",
    "request_reason": "Catch Basin Clogged",
    "date_created": "2025-05-03T07:39:26.000",
    "date_modified": "2025-05-03T07:39:28.000",
    "request_status": "Pending",
    "responsible_agency": "Sewerage & Water Board",
    "final_address": "7444 St Charles Ave",
    "address_councildis": "A",
    "status": "Pending",
    "rowid": "1189078",
    "final_x": "3662243.5168",
    "final_y": "525135.928957",
    "longitude": "-90.12908753219392",
    "latitude": "29.93851215644767",
    "geocoded_column": {
      "latitude": "29.93851215644767",
      "longitude": "-90.12908753219392"
    }
  },
  {
    "service_request": "2025-1189077",
    "request_type": "General Services",
    "request_reason": "General Service Request",
    "date_created": "2025-05-03T07:11:08.000",
    "date_modified": "2025-05-03T07:11:10.000",
    "request_status": "Pending",
    "responsible_agency": "Orleans Parish Communication District",
    "final_address": "1100 BLK Euterpe St",
    "address_councildis": "B",
    "status": "Pending",
    "rowid": "1189077",
    "final_x": "3680094.42127",
    "final_y": "524256.022798",
    "longitude": "-90.07276096878125",
    "latitude": "29.935564774651674",
    "geocoded_column": {
      "latitude": "29.935564774651674",
      "longitude": "-90.07276096878125"
    }
  },
  {
    "service_request": "2025-1189076",
    "request_type": "Trash/Recycling",
    "request_reason": "Repair Recycling Cart",
    "date_created": "2025-05-03T06:31:03.000",
    "date_modified": "2025-05-03T06:31:05.000",
    "request_status": "Pending",
    "responsible_agency": "Department of Sanitation",
    "final_address": "5909 West End Blvd",
    "address_councildis": "A",
    "status": "Pending",
    "rowid": "1189076",
    "final_x": "3666502.10292",
    "final_y": "547177.730449",
    "longitude": "-90.11490272082729",
    "latitude": "29.998996039350793",
    "geocoded_column": {
      "latitude": "29.998996039350793",
      "longitude": "-90.11490272082729"
    }
  },
  {
    "service_request": "2025-1189075",
    "request_type": "Streetlights",
    "request_reason": "Streetlight Outage/Malfunction",
    "date_created": "2025-05-03T05:04:15.000",
    "date_modified": "2025-05-03T05:04:16.000",
    "request_status": "Pending",
    "responsible_agency": "Department of Public Works",
    "final_address": "917 Seventh St",
    "address_councildis": "B",
    "status": "Pending",
    "contractor": "Legacy Professional Services",
    "rowid": "1189075",
    "final_x": "3676723.41729",
    "final_y": "519913.963512",
    "longitude": "-90.08355278195359",
    "latitude": "29.92372706715264",
    "geocoded_column": {
      "latitude": "29.92372706715264",
      "longitude": "-90.08355278195359"
    }
  },
  {
    "service_request": "2025-1189074",
    "request_type": "Drainage",
    "request_reason": "Street Flooding",
    "date_created": "2025-05-03T02:31:32.000",
    "date_modified": "2025-05-03T02:31:34.000",
    "request_status": "Pending",
    "responsible_agency": "Sewerage & Water Board",
    "final_address": "4649 Arts St",
    "address_councildis": "D",
    "status": "Pending",
    "rowid": "1189074",
    "final_x": "3686049.94556",
    "final_y": "549990.855828",
    "longitude": "-90.05305158830822",
    "latitude": "30.006145085504038",
    "geocoded_column": {
      "latitude": "30.006145085504038",
      "longitude": "-90.05305158830822"
    }
  },
  {
    "service_request": "2025-1189073",
    "request_type": "Trash/Recycling",
    "request_reason": "Replace Trash Cart",
    "date_created": "2025-05-03T02:29:50.000",
    "date_modified": "2025-05-03T02:29:52.000",
    "request_status": "Pending",
    "responsible_agency": "Department of Sanitation",
    "final_address": "4649 Arts St",
    "address_councildis": "D",
    "status": "Assigned to Contractor",
    "contractor": "IV Waste",
    "rowid": "1189073",
    "final_x": "3686049.94556",
    "final_y": "549990.855828",
    "longitude": "-90.05305158830822",
    "latitude": "30.006145085504038",
    "geocoded_column": {
      "latitude": "30.006145085504038",
      "longitude": "-90.05305158830822"
    }
  },
  {
    "service_request": "2025-1189072",
    "request_type": "Streetlights",
    "request_reason": "Streetlight Outage/Malfunction",
    "date_created": "2025-05-03T01:39:25.000",
    "date_modified": "2025-05-03T01:39:28.000",
    "request_status": "Pending",
    "responsible_agency": "Department of Public Works",
    "final_address": "3531 Rue Delphine",
    "address_councildis": "C",
    "status": "Pending",
    "contractor": "Legacy Professional Services",
    "rowid": "1189072",
    "final_x": "3702991.10385",
    "final_y": "517682.909046",
    "longitude": "-90.00071779433426",
    "latitude": "29.91677850929977",
    "geocoded_column": {
      "latitude": "29.91677850929977",
      "longitude": "-90.00071779433426"
    }
  },
  {
    "service_request": "2025-1189071",
    "request_type": "Healthy Homes",
    "request_reason": "Healthy Homes",
    "date_created": "2025-05-03T00:16:44.000",
    "date_modified": "2025-05-03T00:16:52.000",
    "request_status": "Pending",
    "responsible_agency": "Department of Code Enforcement",
    "final_address": "421 Tupelo St",
    "address_councildis": "E",
    "status": "Pending",
    "rowid": "1189071",
    "final_x": "3698659.4794",
    "final_y": "531148.35501",
    "longitude": "-90.01390070235071",
    "latitude": "29.95394163236033",
    "geocoded_column": {
      "latitude": "29.95394163236033",
      "longitude": "-90.01390070235071"
    }
  },
  {
    "service_request": "2025-1189070",
    "request_type": "Health Related Request",
    "request_reason": "Noise Ordinance Complaint",
    "date_created": "2025-05-02T21:55:17.000",
    "date_modified": "2025-05-02T21:55:19.000",
    "request_status": "Pending",
    "responsible_agency": "Health Department",
    "final_address": "600 N Broad St",
    "address_councildis": "D",
    "status": "Pending",
    "rowid": "1189070",
    "final_x": "3676514.68328",
    "final_y": "536431.051079",
    "longitude": "-90.0836430411453",
    "latitude": "29.969149839828454",
    "geocoded_column": {
      "latitude": "29.969149839828454",
      "longitude": "-90.0836430411453"
    }
  },
  {
    "service_request": "2025-1189069",
    "request_type": "Abandoned Vehicles",
    "request_reason": "Abandoned/Junk Vehicles",
    "date_created": "2025-05-02T21:48:51.000",
    "date_modified": "2025-05-02T21:48:53.000",
    "request_status": "Pending",
    "responsible_agency": "Department of Public Works",
    "final_address": "3702 Earhart Blvd",
    "address_councildis": "B",
    "status": "Pending",
    "rowid": "1189069",
    "final_x": "3673297.49262",
    "final_y": "530724.450434",
    "longitude": "-90.09399810269231",
    "latitude": "29.953554684367635",
    "geocoded_column": {
      "latitude": "29.953554684367635",
      "longitude": "-90.09399810269231"
    }
  },
  {
    "service_request": "2025-1189068",
    "request_type": "Property Maintenance",
    "request_reason": "Property Maintenance",
    "date_created": "2025-05-02T21:47:50.000",
    "date_modified": "2025-05-02T21:47:52.000",
    "request_status": "Pending",
    "responsible_agency": "Department of Code Enforcement",
    "final_address": "4670 Lennox Blvd",
    "address_councildis": "C",
    "status": "Pending",
    "rowid": "1189068",
    "final_x": "3700838.28292",
    "final_y": "513311.268338",
    "longitude": "-90.0076725872935",
    "latitude": "29.904826649928573",
    "geocoded_column": {
      "latitude": "29.904826649928573",
      "longitude": "-90.0076725872935"
    }
  },
  {
    "service_request": "2025-1189067",
    "request_type": "Abandoned Vehicles",
    "request_reason": "Abandoned/Junk Vehicles",
    "date_created": "2025-05-02T21:47:37.000",
    "date_modified": "2025-05-02T21:47:39.000",
    "request_status": "Pending",
    "responsible_agency": "Department of Public Works",
    "final_address": "3600 Earhart Blvd",
    "address_councildis": "B",
    "status": "Pending",
    "rowid": "1189067",
    "final_x": "3673312.7963",
    "final_y": "530574.023618",
    "longitude": "-90.09395491762605",
    "latitude": "29.95314060534306",
    "geocoded_column": {
      "latitude": "29.95314060534306",
      "longitude": "-90.09395491762605"
    }
  },
  {
    "service_request": "2025-1189066",
    "request_type": "Property Maintenance",
    "request_reason": "Property Maintenance",
    "date_created": "2025-05-02T21:46:41.000",
    "date_modified": "2025-05-02T21:46:42.000",
    "request_status": "Pending",
    "responsible_agency": "Department of Code Enforcement",
    "final_address": "4660 Lennox Blvd",
    "address_councildis": "C",
    "status": "Pending",
    "rowid": "1189066",
    "final_x": "3700836.29393",
    "final_y": "513384.896818",
    "longitude": "-90.00767617617727",
    "latitude": "29.90502916668479",
    "geocoded_column": {
      "latitude": "29.90502916668479",
      "longitude": "-90.00767617617727"
    }
  },
  {
    "service_request": "2025-1189065",
    "request_type": "Abandoned Vehicles",
    "request_reason": "Abandoned/Junk Vehicles",
    "date_created": "2025-05-02T21:46:32.000",
    "date_modified": "2025-05-02T21:46:34.000",
    "request_status": "Pending",
    "responsible_agency": "Department of Public Works",
    "final_address": "3602 Earhart Blvd",
    "address_councildis": "B",
    "status": "Pending",
    "rowid": "1189065",
    "final_x": "3673585.71355",
    "final_y": "530537.550338",
    "longitude": "-90.09309440865617",
    "latitude": "29.953032196188353",
    "geocoded_column": {
      "latitude": "29.953032196188353",
      "longitude": "-90.09309440865617"
    }
  },
  {
    "service_request": "2025-1189064",
    "request_type": "Abandoned Vehicles",
    "request_reason": "Abandoned/Junk Vehicles",
    "date_created": "2025-05-02T21:44:57.000",
    "date_modified": "2025-05-02T21:44:59.000",
    "request_status": "Pending",
    "responsible_agency": "Department of Public Works",
    "final_address": "3800 Earhart Blvd",
    "address_councildis": "B",
    "status": "Pending",
    "rowid": "1189064",
    "final_x": "3672969.29096",
    "final_y": "530924.121922",
    "longitude": "-90.09502761357089",
    "latitude": "29.954113471506442",
    "geocoded_column": {
      "latitude": "29.954113471506442",
      "longitude": "-90.09502761357089"
    }
  },
  {
    "service_request": "2025-1189063",
    "request_type": "Streetlights",
    "request_reason": "Streetlight Outage/Malfunction",
    "date_created": "2025-05-02T21:37:22.000",
    "date_modified": "2025-05-02T21:37:23.000",
    "request_status": "Pending",
    "responsible_agency": "Department of Public Works",
    "final_address": "2031 Socrates St",
    "address_councildis": "C",
    "status": "Pending",
    "contractor": "Legacy Professional Services",
    "rowid": "1189063",
    "final_x": "3691660.7016",
    "final_y": "526191.69907",
    "longitude": "-90.03617707317022",
    "latitude": "29.94053227793786",
    "geocoded_column": {
      "latitude": "29.94053227793786",
      "longitude": "-90.03617707317022"
    }
  },
  {
    "service_request": "2025-1189062",
    "request_type": "Trash/Recycling",
    "request_reason": "Request a Large Item Pick Up",
    "date_created": "2025-05-02T21:36:40.000",
    "date_modified": "2025-05-02T21:36:42.000",
    "request_status": "Pending",
    "responsible_agency": "Department of Sanitation",
    "final_address": "7142 Bundy Rd",
    "address_councildis": "E",
    "status": "Assigned to Contractor",
    "contractor": "Waste Pro",
    "rowid": "1189062",
    "final_x": "3706593.60862",
    "final_y": "561435.217758",
    "longitude": "-89.98772512588032",
    "latitude": "30.036965491716817",
    "geocoded_column": {
      "latitude": "30.036965491716817",
      "longitude": "-89.98772512588032"
    }
  },
  {
    "service_request": "2025-1189061",
    "request_type": "Street and Traffic Signs",
    "request_reason": "Street Name Sign Damaged or Missing",
    "date_created": "2025-05-02T21:36:31.000",
    "date_modified": "2025-05-02T21:36:33.000",
    "request_status": "Pending",
    "responsible_agency": "Department of Public Works",
    "final_address": "OKEEFE AVE & GIROD ST",
    "address_councildis": "B",
    "status": "Pending",
    "rowid": "1189061",
    "final_x": "3679351.9",
    "final_y": "528821.98",
    "longitude": "-90.07494680918435",
    "latitude": "29.94814208070369",
    "geocoded_column": {
      "latitude": "29.94814208070369",
      "longitude": "-90.07494680918435"
    }
  },
  {
    "service_request": "2025-1189060",
    "request_type": "Streetlights",
    "request_reason": "Streetlight Outage/Malfunction",
    "date_created": "2025-05-02T21:34:59.000",
    "date_modified": "2025-05-02T21:35:01.000",
    "request_status": "Pending",
    "responsible_agency": "Department of Public Works",
    "final_address": "2031 Socrates St",
    "address_councildis": "C",
    "status": "Pending",
    "contractor": "Legacy Professional Services",
    "rowid": "1189060",
    "final_x": "3691660.7016",
    "final_y": "526191.69907",
    "longitude": "-90.03617707317022",
    "latitude": "29.94053227793786",
    "geocoded_column": {
      "latitude": "29.94053227793786",
      "longitude": "-90.03617707317022"
    }
  },
  {
    "service_request": "2025-1189059",
    "request_type": "Streetlights",
    "request_reason": "Streetlight Outage/Malfunction",
    "date_created": "2025-05-02T21:31:09.000",
    "date_modified": "2025-05-02T21:31:11.000",
    "request_status": "Pending",
    "responsible_agency": "Department of Public Works",
    "final_address": "2031 Socrates St",
    "address_councildis": "C",
    "status": "Pending",
    "contractor": "Legacy Professional Services",
    "rowid": "1189059",
    "final_x": "3691660.7016",
    "final_y": "526191.69907",
    "longitude": "-90.03617707317022",
    "latitude": "29.94053227793786",
    "geocoded_column": {
      "latitude": "29.94053227793786",
      "longitude": "-90.03617707317022"
    }
  },
  {
    "service_request": "2025-1189058",
    "request_type": "Trash/Recycling",
    "request_reason": "Illegal Dumping",
    "date_created": "2025-05-02T20:15:33.000",
    "date_modified": "2025-05-02T20:15:35.000",
    "request_status": "Pending",
    "responsible_agency": "Department of Sanitation",
    "final_address": "7690 Vincent Rd",
    "address_councildis": "E",
    "status": "Pending",
    "rowid": "1189058",
    "final_x": "3718223.63449",
    "final_y": "571764.564328",
    "longitude": "-89.95057822308358",
    "latitude": "30.06498628150632",
    "geocoded_column": {
      "latitude": "30.06498628150632",
      "longitude": "-89.95057822308358"
    }
  },
  {
    "service_request": "2025-1189057",
    "request_type": "Healthy Homes",
    "request_reason": "Healthy Homes",
    "date_created": "2025-05-02T19:48:34.000",
    "date_modified": "2025-05-02T19:48:36.000",
    "request_status": "Pending",
    "responsible_agency": "Department of Code Enforcement",
    "final_address": "1617 Foucher St Apt 6",
    "address_councildis": "B",
    "status": "Pending",
    "rowid": "1189057",
    "final_x": "3673470.79054",
    "final_y": "521447.709241",
    "longitude": "-90.09376778021216",
    "latitude": "29.92804152370522",
    "geocoded_column": {
      "latitude": "29.92804152370522",
      "longitude": "-90.09376778021216"
    }
  },
  {
    "service_request": "2025-1189056",
    "request_type": "Trash/Recycling",
    "request_reason": "Order Second Trash Cart",
    "date_created": "2025-05-02T19:45:42.000",
    "date_modified": "2025-05-02T19:45:44.000",
    "request_status": "Pending",
    "responsible_agency": "Department of Sanitation",
    "final_address": "2228 Annunciation St",
    "address_councildis": "B",
    "status": "Assigned to Contractor",
    "contractor": "IV Waste",
    "rowid": "1189056",
    "final_x": "3679336.25736",
    "final_y": "521026.825465",
    "longitude": "-90.07526643020485",
    "latitude": "29.926708454424453",
    "geocoded_column": {
      "latitude": "29.926708454424453",
      "longitude": "-90.07526643020485"
    }
  },
  {
    "service_request": "2025-1189055",
    "request_type": "Trash/Recycling",
    "request_reason": "Missed Trash Pick-Up",
    "date_created": "2025-05-02T19:42:08.000",
    "date_modified": "2025-05-03T07:04:37.000",
    "case_close_date": "2025-05-03T02:04:35.000",
    "request_status": "Closed",
    "responsible_agency": "Department of Sanitation",
    "final_address": "2228 Annunciation St",
    "address_councildis": "B",
    "status": "Invalid Request",
    "contractor": "IV Waste",
    "contractor_action": "Invalid",
    "rowid": "1189055",
    "final_x": "3679336.25736",
    "final_y": "521026.825465",
    "longitude": "-90.07526643020485",
    "latitude": "29.926708454424453",
    "geocoded_column": {
      "latitude": "29.926708454424453",
      "longitude": "-90.07526643020485"
    }
  },
  {
    "service_request": "2025-1189054",
    "request_type": "Abandoned Vehicles",
    "request_reason": "Abandoned/Junk Vehicles",
    "date_created": "2025-05-02T19:18:13.000",
    "date_modified": "2025-05-02T19:18:15.000",
    "request_status": "Pending",
    "responsible_agency": "Department of Public Works",
    "final_address": "5018 E Lemans St",
    "address_councildis": "E",
    "status": "Pending",
    "rowid": "1189054",
    "final_x": "3727274.97267",
    "final_y": "562718.974752",
    "longitude": "-89.92231851765813",
    "latitude": "30.039811274714182",
    "geocoded_column": {
      "latitude": "30.039811274714182",
      "longitude": "-89.92231851765813"
    }
  },
  {
    "service_request": "2025-1189053",
    "request_type": "General Services",
    "request_reason": "General Service Request",
    "date_created": "2025-05-02T19:17:36.000",
    "date_modified": "2025-05-02T19:17:38.000",
    "request_status": "Pending",
    "responsible_agency": "Orleans Parish Communication District",
    "final_address": "5387 Pratt Dr",
    "address_councildis": "D",
    "status": "Pending",
    "rowid": "1189053",
    "final_x": "3680485.37128",
    "final_y": "552336.817366",
    "longitude": "-90.07054974687786",
    "latitude": "30.0127654190267",
    "geocoded_column": {
      "latitude": "30.0127654190267",
      "longitude": "-90.07054974687786"
    }
  },
  {
    "service_request": "2025-1189052",
    "request_type": "Abandoned Vehicles",
    "request_reason": "Abandoned/Junk Vehicles",
    "date_created": "2025-05-02T19:14:50.000",
    "date_modified": "2025-05-02T19:14:52.000",
    "request_status": "Pending",
    "responsible_agency": "Department of Public Works",
    "final_address": "5018 E Lemans St",
    "address_councildis": "E",
    "status": "Pending",
    "rowid": "1189052",
    "final_x": "3727274.97267",
    "final_y": "562718.974752",
    "longitude": "-89.92231851765813",
    "latitude": "30.039811274714182",
    "geocoded_column": {
      "latitude": "30.039811274714182",
      "longitude": "-89.92231851765813"
    }
  },
  {
    "service_request": "2025-1189051",
    "request_type": "Utility Poles",
    "request_reason": "Wires Sagging/Hanging Low",
    "date_created": "2025-05-02T19:09:21.000",
    "date_modified": "2025-05-02T19:09:24.000",
    "request_status": "Pending",
    "responsible_agency": "Utility Company Collective",
    "final_address": "3442 Bennett St",
    "address_councildis": "C",
    "status": "Pending",
    "rowid": "1189051",
    "final_x": "3710462.66616",
    "final_y": "517928.183734",
    "longitude": "-89.9771255088155",
    "latitude": "29.917211883639347",
    "geocoded_column": {
      "latitude": "29.917211883639347",
      "longitude": "-89.9771255088155"
    }
  },
  {
    "service_request": "2025-1189050",
    "request_type": "Utility Poles",
    "request_reason": "Wires Sagging/Hanging Low",
    "date_created": "2025-05-02T19:05:51.000",
    "date_modified": "2025-05-02T19:05:53.000",
    "request_status": "Pending",
    "responsible_agency": "Utility Company Collective",
    "final_address": "3442 Bennett St",
    "address_councildis": "C",
    "status": "Pending",
    "rowid": "1189050",
    "final_x": "3710462.66616",
    "final_y": "517928.183734",
    "longitude": "-89.9771255088155",
    "latitude": "29.917211883639347",
    "geocoded_column": {
      "latitude": "29.917211883639347",
      "longitude": "-89.9771255088155"
    }
  },
  {
    "service_request": "2025-1189049",
    "request_type": "Trash/Recycling",
    "request_reason": "Replace Trash Cart",
    "date_created": "2025-05-02T19:04:07.000",
    "date_modified": "2025-05-02T19:04:09.000",
    "request_status": "Pending",
    "responsible_agency": "Department of Sanitation",
    "final_address": "4037 Banks St",
    "address_councildis": "A",
    "status": "Assigned to Contractor",
    "contractor": "IV Waste",
    "rowid": "1189049",
    "final_x": "3670538.96327",
    "final_y": "537335.927176",
    "longitude": "-90.10248414740127",
    "latitude": "29.971815795895292",
    "geocoded_column": {
      "latitude": "29.971815795895292",
      "longitude": "-90.10248414740127"
    }
  },
  {
    "service_request": "2025-1189048",
    "request_type": "General Services",
    "request_reason": "General Service Request",
    "date_created": "2025-05-02T19:00:16.000",
    "date_modified": "2025-05-02T19:00:17.000",
    "request_status": "Pending",
    "responsible_agency": "Orleans Parish Communication District",
    "final_address": "7737 Panola St",
    "address_councildis": "A",
    "status": "Pending",
    "rowid": "1189048",
    "final_x": "3665012.00576",
    "final_y": "529985.274113",
    "longitude": "-90.12018499951277",
    "latitude": "29.951766000964376",
    "geocoded_column": {
      "latitude": "29.951766000964376",
      "longitude": "-90.12018499951277"
    }
  },
  {
    "service_request": "2025-1189047",
    "request_type": "Abandoned Vehicles",
    "request_reason": "Abandoned/Junk Vehicles",
    "date_created": "2025-05-02T18:59:19.000",
    "date_modified": "2025-05-02T18:59:21.000",
    "request_status": "Pending",
    "responsible_agency": "Department of Public Works",
    "final_address": "4037 Banks St",
    "address_councildis": "A",
    "status": "Pending",
    "rowid": "1189047",
    "final_x": "3670538.96327",
    "final_y": "537335.927176",
    "longitude": "-90.10248414740127",
    "latitude": "29.971815795895292",
    "geocoded_column": {
      "latitude": "29.971815795895292",
      "longitude": "-90.10248414740127"
    }
  },
  {
    "service_request": "2025-1189046",
    "request_type": "Street and Traffic Signs",
    "request_reason": "One Way Sign Missing or Damaged",
    "date_created": "2025-05-02T18:57:25.000",
    "date_modified": "2025-05-02T18:57:27.000",
    "request_status": "Pending",
    "responsible_agency": "Department of Public Works",
    "final_address": "1539 Magazine St",
    "address_councildis": "B",
    "status": "Pending",
    "rowid": "1189046",
    "final_x": "3680074.52546",
    "final_y": "523537.804603",
    "longitude": "-90.07284872284791",
    "latitude": "29.933590513501308",
    "geocoded_column": {
      "latitude": "29.933590513501308",
      "longitude": "-90.07284872284791"
    }
  },
  {
    "service_request": "2025-1189045",
    "request_type": "Abandoned Vehicles",
    "request_reason": "Abandoned/Junk Vehicles",
    "date_created": "2025-05-02T18:56:45.000",
    "date_modified": "2025-05-02T18:56:47.000",
    "request_status": "Pending",
    "responsible_agency": "Department of Public Works",
    "final_address": "4037 Banks St",
    "address_councildis": "A",
    "status": "Pending",
    "rowid": "1189045",
    "final_x": "3670538.96327",
    "final_y": "537335.927176",
    "longitude": "-90.10248414740127",
    "latitude": "29.971815795895292",
    "geocoded_column": {
      "latitude": "29.971815795895292",
      "longitude": "-90.10248414740127"
    }
  },
  {
    "service_request": "2025-1189044",
    "request_type": "Trash/Recycling",
    "request_reason": "Request a Large Item Pick Up",
    "date_created": "2025-05-02T18:52:10.000",
    "date_modified": "2025-05-02T18:52:13.000",
    "request_status": "Pending",
    "responsible_agency": "Department of Sanitation",
    "final_address": "4820 Marque Dr",
    "address_councildis": "E",
    "status": "Assigned to Contractor",
    "contractor": "Waste Pro",
    "rowid": "1189044",
    "final_x": "3709961.0435",
    "final_y": "556333.491802",
    "longitude": "-89.9772741982535",
    "latitude": "30.022828594269978",
    "geocoded_column": {
      "latitude": "30.022828594269978",
      "longitude": "-89.9772741982535"
    }
  },
  {
    "service_request": "2025-1189043",
    "request_type": "Abandoned Vehicles",
    "request_reason": "Abandoned/Junk Vehicles",
    "date_created": "2025-05-02T18:51:06.000",
    "date_modified": "2025-05-02T18:51:09.000",
    "request_status": "Pending",
    "responsible_agency": "Department of Public Works",
    "final_address": "830 Desire St",
    "address_councildis": "C",
    "status": "Pending",
    "rowid": "1189043",
    "final_x": "3689926.60822",
    "final_y": "534811.692038",
    "longitude": "-90.0413450179329",
    "latitude": "29.964288148746352",
    "geocoded_column": {
      "latitude": "29.964288148746352",
      "longitude": "-90.0413450179329"
    }
  },
  {
    "service_request": "2025-1189042",
    "request_type": "Roads and Streets",
    "request_reason": "Debris in Driving Lanes",
    "date_created": "2025-05-02T18:10:25.000",
    "date_modified": "2025-05-02T18:10:28.000",
    "request_status": "Pending",
    "responsible_agency": "Department of Public Works",
    "final_address": "1590 Tennessee St",
    "address_councildis": "E",
    "status": "Pending",
    "rowid": "1189042",
    "final_x": "3696144.40131",
    "final_y": "536148.605831",
    "longitude": "-90.02166151056171",
    "latitude": "29.967769947165",
    "geocoded_column": {
      "latitude": "29.967769947165",
      "longitude": "-90.02166151056171"
    }
  },
  {
    "service_request": "2025-1189041",
    "request_type": "Property Maintenance",
    "request_reason": "Property Maintenance",
    "date_created": "2025-05-02T18:08:15.000",
    "date_modified": "2025-05-02T18:08:18.000",
    "request_status": "Pending",
    "responsible_agency": "Department of Code Enforcement",
    "final_address": "1509 Tennessee St",
    "address_councildis": "E",
    "status": "Pending",
    "rowid": "1189041",
    "final_x": "3696182.09994",
    "final_y": "535926.860359",
    "longitude": "-90.02155047477015",
    "latitude": "29.967159039457687",
    "geocoded_column": {
      "latitude": "29.967159039457687",
      "longitude": "-90.02155047477015"
    }
  },
  {
    "service_request": "2025-1189040",
    "request_type": "Property Maintenance",
    "request_reason": "Property Maintenance",
    "date_created": "2025-05-02T18:05:57.000",
    "date_modified": "2025-05-02T18:05:59.000",
    "request_status": "Pending",
    "responsible_agency": "Department of Code Enforcement",
    "final_address": "1430 Deslonde St",
    "address_councildis": "E",
    "status": "Pending",
    "rowid": "1189040",
    "final_x": "3695685.55946",
    "final_y": "535801.022855",
    "longitude": "-90.02312309009876",
    "latitude": "29.966828652143572",
    "geocoded_column": {
      "latitude": "29.966828652143572",
      "longitude": "-90.02312309009876"
    }
  },
  {
    "service_request": "2025-1189039",
    "request_type": "Property Maintenance",
    "request_reason": "Property Maintenance",
    "date_created": "2025-05-02T18:03:59.000",
    "date_modified": "2025-05-02T18:04:01.000",
    "request_status": "Pending",
    "responsible_agency": "Department of Code Enforcement",
    "final_address": "1500 Jourdan Ave",
    "address_councildis": "E",
    "status": "Pending",
    "rowid": "1189039",
    "final_x": "3695344.85885",
    "final_y": "536050.012231",
    "longitude": "-90.02419003306531",
    "latitude": "29.967523991968196",
    "geocoded_column": {
      "latitude": "29.967523991968196",
      "longitude": "-90.02419003306531"
    }
  },
  {
    "service_request": "2025-1189038",
    "request_type": "Property Maintenance",
    "request_reason": "Property Maintenance",
    "date_created": "2025-05-02T18:02:18.000",
    "date_modified": "2025-05-02T18:02:20.000",
    "request_status": "Pending",
    "responsible_agency": "Department of Code Enforcement",
    "final_address": "1512 Jourdan Ave",
    "address_councildis": "E",
    "status": "Pending",
    "rowid": "1189038",
    "final_x": "3695406.14026",
    "final_y": "536113.843783",
    "longitude": "-90.02399420263846",
    "latitude": "29.96769758072067",
    "geocoded_column": {
      "latitude": "29.96769758072067",
      "longitude": "-90.02399420263846"
    }
  },
  {
    "service_request": "2025-1189037",
    "request_type": "Property Maintenance",
    "request_reason": "Property Maintenance",
    "date_created": "2025-05-02T18:00:44.000",
    "date_modified": "2025-05-02T18:00:47.000",
    "request_status": "Pending",
    "responsible_agency": "Department of Code Enforcement",
    "final_address": "1520 Jourdan Ave",
    "address_councildis": "E",
    "status": "Pending",
    "rowid": "1189037",
    "final_x": "3695397.6639",
    "final_y": "536188.953095",
    "longitude": "-90.02401826069888",
    "latitude": "29.96790437093705",
    "geocoded_column": {
      "latitude": "29.96790437093705",
      "longitude": "-90.02401826069888"
    }
  },
  {
    "service_request": "2025-1189036",
    "request_type": "Property Maintenance",
    "request_reason": "Property Maintenance",
    "date_created": "2025-05-02T17:58:19.000",
    "date_modified": "2025-05-02T17:58:20.000",
    "request_status": "Pending",
    "responsible_agency": "Department of Code Enforcement",
    "final_address": "4818 N Claiborne Ave",
    "address_councildis": "E",
    "status": "Pending",
    "rowid": "1189036",
    "final_x": "3695655.35613",
    "final_y": "536121.960903",
    "longitude": "-90.02320688333967",
    "latitude": "29.967712067199958",
    "geocoded_column": {
      "latitude": "29.967712067199958",
      "longitude": "-90.02320688333967"
    }
  },
  {
    "service_request": "2025-1189035",
    "request_type": "Property Maintenance",
    "request_reason": "Property Maintenance",
    "date_created": "2025-05-02T17:56:51.000",
    "date_modified": "2025-05-02T17:56:53.000",
    "request_status": "Pending",
    "responsible_agency": "Department of Code Enforcement",
    "final_address": "1506 Deslonde St",
    "address_councildis": "E",
    "status": "Pending",
    "rowid": "1189035",
    "final_x": "3695736.68144",
    "final_y": "535987.363079",
    "longitude": "-90.02295491816825",
    "latitude": "29.96733941405759",
    "geocoded_column": {
      "latitude": "29.96733941405759",
      "longitude": "-90.02295491816825"
    }
  },
  {
    "service_request": "2025-1189034",
    "request_type": "Parks & Parkways",
    "request_reason": "Request Grass Cutting Service (City Owned Property)",
    "date_created": "2025-05-02T17:54:32.000",
    "date_modified": "2025-05-02T17:54:34.000",
    "request_status": "Pending",
    "responsible_agency": "Department of Parks & Parkway",
    "final_address": "1506 Deslonde St",
    "address_councildis": "E",
    "status": "Pending",
    "rowid": "1189034",
    "final_x": "3695736.68144",
    "final_y": "535987.363079",
    "longitude": "-90.02295491816825",
    "latitude": "29.96733941405759",
    "geocoded_column": {
      "latitude": "29.96733941405759",
      "longitude": "-90.02295491816825"
    }
  },
  {
    "service_request": "2025-1189033",
    "request_type": "Parks & Parkways",
    "request_reason": "Request Grass Cutting Service (City Owned Property)",
    "date_created": "2025-05-02T17:52:41.000",
    "date_modified": "2025-05-02T17:52:44.000",
    "request_status": "Pending",
    "responsible_agency": "Department of Parks & Parkway",
    "final_address": "1509 Forstall St",
    "address_councildis": "E",
    "status": "Pending",
    "rowid": "1189033",
    "final_x": "3696770.62743",
    "final_y": "535744.154503",
    "longitude": "-90.01969852454694",
    "latitude": "29.96663812433304",
    "geocoded_column": {
      "latitude": "29.96663812433304",
      "longitude": "-90.01969852454694"
    }
  },
  {
    "service_request": "2025-1189032",
    "request_type": "Trash/Recycling",
    "request_reason": "Order Second Trash Cart",
    "date_created": "2025-05-02T17:45:36.000",
    "date_modified": "2025-05-02T17:45:38.000",
    "request_status": "Pending",
    "responsible_agency": "Department of Sanitation",
    "final_address": "6057 Annunciation St",
    "address_councildis": "A",
    "status": "Assigned to Contractor",
    "contractor": "IV Waste",
    "rowid": "1189032",
    "final_x": "3663845.22061",
    "final_y": "518045.558326",
    "longitude": "-90.12426696813654",
    "latitude": "29.918969484829255",
    "geocoded_column": {
      "latitude": "29.918969484829255",
      "longitude": "-90.12426696813654"
    }
  },
  {
    "service_request": "2025-1189031",
    "request_type": "Property Maintenance",
    "request_reason": "Property Maintenance",
    "date_created": "2025-05-02T17:45:35.000",
    "date_modified": "2025-05-02T17:45:38.000",
    "request_status": "Pending",
    "responsible_agency": "Department of Code Enforcement",
    "final_address": "2118 Martin Luther King, Jr. Blvd",
    "address_councildis": "B",
    "status": "Pending",
    "rowid": "1189031",
    "final_x": "3677376.21288",
    "final_y": "526605.978046",
    "longitude": "-90.08126131651139",
    "latitude": "29.9421083232264",
    "geocoded_column": {
      "latitude": "29.9421083232264",
      "longitude": "-90.08126131651139"
    }
  },
  {
    "service_request": "2025-1189030",
    "request_type": "Trash/Recycling",
    "request_reason": "Order Trash Cart",
    "date_created": "2025-05-02T17:39:40.000",
    "date_modified": "2025-05-02T17:39:42.000",
    "request_status": "Pending",
    "responsible_agency": "Department of Sanitation",
    "final_address": "3310 Kabel Dr",
    "address_councildis": "C",
    "status": "Assigned to Contractor",
    "contractor": "Richards Disposal",
    "rowid": "1189030",
    "final_x": "3700701.84093",
    "final_y": "519013.445559",
    "longitude": "-90.0078950308809",
    "latitude": "29.92051003895938",
    "geocoded_column": {
      "latitude": "29.92051003895938",
      "longitude": "-90.0078950308809"
    }
  },
  {
    "service_request": "2025-1189029",
    "request_type": "Trash/Recycling",
    "request_reason": "Request a Large Item Pick Up",
    "date_created": "2025-05-02T17:38:09.000",
    "date_modified": "2025-05-02T17:38:11.000",
    "request_status": "Pending",
    "responsible_agency": "Department of Sanitation",
    "final_address": "8224 Freret St, New Orleans, Louisiana, 70118",
    "address_councildis": "A",
    "status": "Assigned to Contractor",
    "contractor": "IV Waste",
    "rowid": "1189029",
    "final_x": "3661047.79533",
    "final_y": "528207.534528",
    "longitude": "-90.13276096185935",
    "latitude": "29.946992596368695",
    "geocoded_column": {
      "latitude": "29.946992596368695",
      "longitude": "-90.13276096185935"
    }
  },
  {
    "service_request": "2025-1189028",
    "request_type": "Trash/Recycling",
    "request_reason": "Order Trash Cart",
    "date_created": "2025-05-02T17:35:33.000",
    "date_modified": "2025-05-02T17:35:35.000",
    "request_status": "Pending",
    "responsible_agency": "Department of Sanitation",
    "final_address": "3310 Kabel Dr",
    "address_councildis": "C",
    "status": "Assigned to Contractor",
    "contractor": "Richards Disposal",
    "rowid": "1189028",
    "final_x": "3700701.84093",
    "final_y": "519013.445559",
    "longitude": "-90.0078950308809",
    "latitude": "29.92051003895938",
    "geocoded_column": {
      "latitude": "29.92051003895938",
      "longitude": "-90.0078950308809"
    }
  },
  {
    "service_request": "2025-1189027",
    "request_type": "Trash/Recycling",
    "request_reason": "Request a Large Item Pick Up",
    "date_created": "2025-05-02T17:32:02.000",
    "date_modified": "2025-05-02T17:32:05.000",
    "request_status": "Pending",
    "responsible_agency": "Department of Sanitation",
    "final_address": "8224 Freret St",
    "address_councildis": "A",
    "status": "Assigned to Contractor",
    "contractor": "IV Waste",
    "rowid": "1189027",
    "final_x": "3661047.79533",
    "final_y": "528207.534528",
    "longitude": "-90.13276096185935",
    "latitude": "29.946992596368695",
    "geocoded_column": {
      "latitude": "29.946992596368695",
      "longitude": "-90.13276096185935"
    }
  },
  {
    "service_request": "2025-1189026",
    "request_type": "Trash/Recycling",
    "request_reason": "Illegal Dumping",
    "date_created": "2025-05-02T17:29:15.000",
    "date_modified": "2025-05-02T17:29:16.000",
    "request_status": "Pending",
    "responsible_agency": "Department of Sanitation",
    "final_address": "8541 Chase St",
    "address_councildis": "E",
    "status": "Pending",
    "rowid": "1189026",
    "final_x": "3703532.12926",
    "final_y": "563429.679904",
    "longitude": "-89.99732651034506",
    "latitude": "30.042547977715444",
    "geocoded_column": {
      "latitude": "30.042547977715444",
      "longitude": "-89.99732651034506"
    }
  },
  {
    "service_request": "2025-1189025",
    "request_type": "Property Maintenance",
    "request_reason": "Property Maintenance",
    "date_created": "2025-05-02T17:26:28.000",
    "date_modified": "2025-05-02T17:26:29.000",
    "request_status": "Pending",
    "responsible_agency": "Department of Code Enforcement",
    "final_address": "8513 Chase St",
    "address_councildis": "E",
    "status": "Pending",
    "rowid": "1189025",
    "final_x": "3703397.03998",
    "final_y": "563365.880864",
    "longitude": "-89.99775579301365",
    "latitude": "30.042376885727606",
    "geocoded_column": {
      "latitude": "30.042376885727606",
      "longitude": "-89.99775579301365"
    }
  },
  {
    "service_request": "2025-1189024",
    "request_type": "Trash/Recycling",
    "request_reason": "Illegal Dumping",
    "date_created": "2025-05-02T17:25:58.000",
    "date_modified": "2025-05-02T17:26:00.000",
    "request_status": "Pending",
    "responsible_agency": "Department of Sanitation",
    "final_address": "8513 Chase St",
    "address_councildis": "E",
    "status": "Pending",
    "rowid": "1189024",
    "final_x": "3703397.03998",
    "final_y": "563365.880864",
    "longitude": "-89.99775579301365",
    "latitude": "30.042376885727606",
    "geocoded_column": {
      "latitude": "30.042376885727606",
      "longitude": "-89.99775579301365"
    }
  },
  {
    "service_request": "2025-1189023",
    "request_type": "Trash/Recycling",
    "request_reason": "Request a Large Item Pick Up",
    "date_created": "2025-05-02T17:12:45.000",
    "date_modified": "2025-05-02T17:12:47.000",
    "request_status": "Pending",
    "responsible_agency": "Department of Sanitation",
    "final_address": "1833 pauger",
    "address_councildis": "C",
    "status": "Assigned to Contractor",
    "contractor": "IV Waste",
    "rowid": "1189023",
    "final_x": "3683883.32073",
    "final_y": "536485.857991",
    "longitude": "-90.06037046369843",
    "latitude": "29.96907750701022",
    "geocoded_column": {
      "latitude": "29.96907750701022",
      "longitude": "-90.06037046369843"
    }
  },
  {
    "service_request": "2025-1189022",
    "request_type": "Property Maintenance",
    "request_reason": "Property Maintenance",
    "date_created": "2025-05-02T17:00:37.000",
    "date_modified": "2025-05-02T17:00:39.000",
    "request_status": "Pending",
    "responsible_agency": "Department of Code Enforcement",
    "final_address": "4529 Thalia St",
    "address_councildis": "B",
    "status": "Pending",
    "rowid": "1189022",
    "final_x": "3669926.75681",
    "final_y": "531775.158979",
    "longitude": "-90.10460591817304",
    "latitude": "29.95654360282553",
    "geocoded_column": {
      "latitude": "29.95654360282553",
      "longitude": "-90.10460591817304"
    }
  },
  {
    "service_request": "2025-1189021",
    "request_type": "Trash/Recycling",
    "request_reason": "Missed Trash Pick-Up",
    "date_created": "2025-05-02T16:57:31.000",
    "date_modified": "2025-05-02T17:21:28.000",
    "case_close_date": "2025-05-02T12:21:27.000",
    "request_status": "Closed",
    "responsible_agency": "Department of Sanitation",
    "final_address": "7700 Woodbine Dr",
    "address_councildis": "E",
    "status": "Invalid Request",
    "contractor": "Waste Pro",
    "contractor_action": "Invalid",
    "rowid": "1189021",
    "final_x": "3701838.52945",
    "final_y": "561521.056287",
    "longitude": "-90.00274896529424",
    "latitude": "30.037354198093745",
    "geocoded_column": {
      "latitude": "30.037354198093745",
      "longitude": "-90.00274896529424"
    }
  },
  {
    "service_request": "2025-1189020",
    "request_type": "Street and Traffic Signs",
    "request_reason": "Traffic or Parking Sign Damaged or Missing",
    "date_created": "2025-05-02T16:45:18.000",
    "date_modified": "2025-05-02T16:45:21.000",
    "request_status": "Pending",
    "responsible_agency": "Department of Public Works",
    "final_address": "1545 Magazine St",
    "address_councildis": "B",
    "status": "Pending",
    "rowid": "1189020",
    "final_x": "3680064.90831",
    "final_y": "523452.087163",
    "longitude": "-90.07288206039478",
    "latitude": "29.933355109692144",
    "geocoded_column": {
      "latitude": "29.933355109692144",
      "longitude": "-90.07288206039478"
    }
  },
  {
    "service_request": "2025-1189019",
    "request_type": "Trash/Recycling",
    "request_reason": "Request a Large Item Pick Up",
    "date_created": "2025-05-02T16:41:24.000",
    "date_modified": "2025-05-02T16:41:26.000",
    "request_status": "Pending",
    "responsible_agency": "Department of Sanitation",
    "final_address": "7151 Edgefield Dr",
    "address_councildis": "E",
    "status": "Assigned to Contractor",
    "contractor": "Waste Pro",
    "rowid": "1189019",
    "final_x": "3718406.4942",
    "final_y": "569768.774758",
    "longitude": "-89.95007635169226",
    "latitude": "30.059492623987847",
    "geocoded_column": {
      "latitude": "30.059492623987847",
      "longitude": "-89.95007635169226"
    }
  },
  {
    "service_request": "2025-1189018",
    "request_type": "Trash/Recycling",
    "request_reason": "Missed Trash Pick-Up",
    "date_created": "2025-05-02T16:39:46.000",
    "date_modified": "2025-05-02T17:22:08.000",
    "case_close_date": "2025-05-02T12:22:07.000",
    "request_status": "Closed",
    "responsible_agency": "Department of Sanitation",
    "final_address": "5181 Basinview Dr",
    "address_councildis": "E",
    "status": "Invalid Request",
    "contractor": "Waste Pro",
    "contractor_action": "Invalid",
    "rowid": "1189018",
    "final_x": "3698767.63639",
    "final_y": "556615.231002",
    "longitude": "-90.01263233571275",
    "latitude": "30.023962762012196",
    "geocoded_column": {
      "latitude": "30.023962762012196",
      "longitude": "-90.01263233571275"
    }
  },
  {
    "service_request": "2025-1189017",
    "request_type": "Trash/Recycling",
    "request_reason": "Repair Trash Cart",
    "date_created": "2025-05-02T16:37:22.000",
    "date_modified": "2025-05-02T16:37:25.000",
    "request_status": "Pending",
    "responsible_agency": "Department of Sanitation",
    "final_address": "1834 Spain St",
    "address_councildis": "D",
    "status": "Assigned to Contractor",
    "contractor": "IV Waste",
    "rowid": "1189017",
    "final_x": "3685870.28969",
    "final_y": "539272.381706",
    "longitude": "-90.05399723730527",
    "latitude": "29.976678627497815",
    "geocoded_column": {
      "latitude": "29.976678627497815",
      "longitude": "-90.05399723730527"
    }
  },
  {
    "service_request": "2025-1189016",
    "request_type": "Mosquito, Termite & Rodent Control",
    "request_reason": "Non-Rodent Complaint (Possums & Snakes)",
    "date_created": "2025-05-02T16:34:27.000",
    "date_modified": "2025-05-02T16:34:29.000",
    "request_status": "Pending",
    "responsible_agency": "Mosquito, Termite & Rodent Control Board",
    "final_address": "5707 Dauphine St",
    "address_councildis": "E",
    "status": "Pending",
    "rowid": "1189016",
    "final_x": "3698160.81373",
    "final_y": "532551.345092",
    "longitude": "-90.01542432206516",
    "latitude": "29.95781513863559",
    "geocoded_column": {
      "latitude": "29.95781513863559",
      "longitude": "-90.01542432206516"
    }
  },
  {
    "service_request": "2025-1189015",
    "request_type": "Trash/Recycling",
    "request_reason": "Request a Large Item Pick Up",
    "date_created": "2025-05-02T16:28:48.000",
    "date_modified": "2025-05-02T16:28:49.000",
    "request_status": "Pending",
    "responsible_agency": "Department of Sanitation",
    "final_address": "2430 Nashville Ave",
    "address_councildis": "A",
    "status": "Assigned to Contractor",
    "contractor": "IV Waste",
    "rowid": "1189015",
    "final_x": "3667045.37844",
    "final_y": "525087.888893",
    "longitude": "-90.11392912134139",
    "latitude": "29.938240422670205",
    "geocoded_column": {
      "latitude": "29.938240422670205",
      "longitude": "-90.11392912134139"
    }
  },