[
  {
    "service_request": "2025-1186076",
    "request_type": "Drainage",
    "request_reason": "Catch Basin Clogged",
    "date_created": "2025-04-22T22:30:40.000",
    "date_modified": "2025-04-22T22:30:43.000",
    "request_status": "Pending",
    "responsible_agency": "Sewerage & Water Board",
    "final_address": "3101 Cambronne St",
    "address_councildis": "A",
    "status": "Pending",
    "rowid": "1186076",
    "final_x": "3665798.00237",
    "final_y": "534120.450437",
    "longitude": "-90.11756465050563",
    "latitude": "29.96311347864441",
    "geocoded_column": {
      "latitude": "29.96311347864441",
      "longitude": "-90.11756465050563"
    }
  },
  {
    "service_request": "2025-1186075",
    "request_type": "Trash/Recycling",
    "request_reason": "Order Second Trash Cart",
    "date_created": "2025-04-22T22:24:47.000",
    "date_modified": "2025-04-22T22:24:48.000",
    "request_status": "Pending",
    "responsible_agency": "Department of Sanitation",
    "final_address": "5801 W Louis Prima Dr",
    "address_councildis": "E",
    "status": "Assigned to Contractor",
    "contractor": "Waste Pro",
    "rowid": "1186075",
    "final_x": "3715692.02783",
    "final_y": "562503.008479",
    "longitude": "-89.95893197809397",
    "latitude": "30.03960455920913",
    "geocoded_column": {
      "latitude": "30.03960455920913",
      "longitude": "-89.95893197809397"
    }
  },
  {
    "service_request": "2025-1186074",
    "request_type": "Street and Traffic Signs",
    "request_reason": "Additional Signage Request",
    "date_created": "2025-04-22T21:49:12.000",
    "date_modified": "2025-04-22T21:49:15.000",
    "request_status": "Pending",
    "responsible_agency": "Department of Public Works",
    "final_address": "831 Third St",
    "address_councildis": "B",
    "status": "Pending",
    "rowid": "1186074",
    "final_x": "3678067.34875",
    "final_y": "520473.358264",
    "longitude": "-90.07929115387763",
    "latitude": "29.9252248468082",
    "geocoded_column": {
      "latitude": "29.9252248468082",
      "longitude": "-90.07929115387763"
    }
  },
  {
    "service_request": "2025-1186073",
    "request_type": "Trash/Recycling",
    "request_reason": "Replace Trash Cart",
    "date_created": "2025-04-22T21:29:35.000",
    "date_modified": "2025-04-22T21:29:37.000",
    "request_status": "Pending",
    "responsible_agency": "Department of Sanitation",
    "final_address": "229 Alix St",
    "address_councildis": "C",
    "status": "Assigned to Contractor",
    "contractor": "Richards Disposal",
    "rowid": "1186073",
    "final_x": "3686335.27222",
    "final_y": "529850.627073",
    "longitude": "-90.05286121243094",
    "latitude": "29.95075778235327",
    "geocoded_column": {
      "latitude": "29.95075778235327",
      "longitude": "-90.05286121243094"
    }
  },
  {
    "service_request": "2025-1186072",
    "request_type": "Trash/Recycling",
    "request_reason": "Replace Trash Cart",
    "date_created": "2025-04-22T21:21:48.000",
    "date_modified": "2025-04-22T21:21:50.000",
    "request_status": "Pending",
    "responsible_agency": "Department of Sanitation",
    "final_address": "2719 S Johnson St",
    "address_councildis": "B",
    "status": "Assigned to Contractor",
    "contractor": "IV Waste",
    "rowid": "1186072",
    "final_x": "3672524.54043",
    "final_y": "527995.194751",
    "longitude": "-90.0965317844263",
    "latitude": "29.94607309567279",
    "geocoded_column": {
      "latitude": "29.94607309567279",
      "longitude": "-90.0965317844263"
    }
  },
  {
    "service_request": "2025-1186071",
    "request_type": "Streetlights",
    "request_reason": "Streetlight Outage/Malfunction",
    "date_created": "2025-04-22T21:08:34.000",
    "date_modified": "2025-04-22T21:08:37.000",
    "request_status": "Pending",
    "responsible_agency": "Department of Public Works",
    "final_address": "2908 Annunciation St",
    "address_councildis": "B",
    "status": "Pending",
    "contractor": "Legacy Professional Services",
    "rowid": "1186071",
    "final_x": "3677169.18696",
    "final_y": "519540.395895",
    "longitude": "-90.0821585251264",
    "latitude": "29.92268650046469",
    "geocoded_column": {
      "latitude": "29.92268650046469",
      "longitude": "-90.0821585251264"
    }
  },
  {
    "service_request": "2025-1186070",
    "request_type": "Trash/Recycling",
    "request_reason": "Request a Large Item Pick Up",
    "date_created": "2025-04-22T20:58:42.000",
    "date_modified": "2025-04-22T20:58:44.000",
    "request_status": "Pending",
    "responsible_agency": "Department of Sanitation",
    "final_address": "1725 Jourdan Ave",
    "address_councildis": "E",
    "status": "Assigned to Contractor",
    "contractor": "Waste Pro",
    "rowid": "1186070",
    "final_x": "3695785.28848",
    "final_y": "536996.58996",
    "longitude": "-90.02276496383354",
    "latitude": "29.97011289976237",
    "geocoded_column": {
      "latitude": "29.97011289976237",
      "longitude": "-90.02276496383354"
    }
  },
  {
    "service_request": "2025-1186069",
    "request_type": "Property Maintenance",
    "request_reason": "Property Maintenance",
    "date_created": "2025-04-22T20:48:09.000",
    "date_modified": "2025-04-22T20:48:11.000",
    "request_status": "Pending",
    "responsible_agency": "Department of Code Enforcement",
    "final_address": "1202 St Anthony St",
    "address_councildis": "C",
    "status": "Pending",
    "rowid": "1186069",
    "final_x": "3683483.81065",
    "final_y": "536219.491527",
    "longitude": "-90.06164147869339",
    "latitude": "29.968357289194184",
    "geocoded_column": {
      "latitude": "29.968357289194184",
      "longitude": "-90.06164147869339"
    }
  },
  {
    "service_request": "2025-1186068",
    "request_type": "Street and Traffic Signs",
    "request_reason": "Additional Signage Request",
    "date_created": "2025-04-22T20:37:12.000",
    "date_modified": "2025-04-22T20:37:14.000",
    "request_status": "Pending",
    "responsible_agency": "Department of Public Works",
    "final_address": "1202 Elysian Fields Ave",
    "address_councildis": "C",
    "status": "Pending",
    "rowid": "1186068",
    "final_x": "3684887.98754",
    "final_y": "536709.537671",
    "longitude": "-90.0571897941232",
    "latitude": "29.96966182053927",
    "geocoded_column": {
      "latitude": "29.96966182053927",
      "longitude": "-90.0571897941232"
    }
  },
  {
    "service_request": "2025-1186067",
    "request_type": "Streetlights",
    "request_reason": "Streetlight Outage/Malfunction",
    "date_created": "2025-04-22T20:20:41.000",
    "date_modified": "2025-04-22T20:20:43.000",
    "request_status": "Pending",
    "responsible_agency": "Department of Public Works",
    "final_address": "412 Aurora Oaks Dr",
    "address_councildis": "C",
    "status": "Pending",
    "contractor": "Legacy Professional Services",
    "rowid": "1186067",
    "final_x": "3701381.21124",
    "final_y": "522241.31609",
    "longitude": "-90.00563253101333",
    "latitude": "29.929363944078688",
    "geocoded_column": {
      "latitude": "29.929363944078688",
      "longitude": "-90.00563253101333"
    }
  },
  {
    "service_request": "2025-1186066",
    "request_type": "Abandoned Vehicles",
    "request_reason": "Abandoned/Junk Vehicles",
    "date_created": "2025-04-22T20:15:56.000",
    "date_modified": "2025-04-22T20:15:58.000",
    "request_status": "Pending",
    "responsible_agency": "Department of Public Works",
    "final_address": "4023 Tchoupitoulas St",
    "address_councildis": "B",
    "status": "Pending",
    "rowid": "1186066",
    "final_x": "3672456.92334",
    "final_y": "517628.933814",
    "longitude": "-90.09709839396619",
    "latitude": "29.917571230941423",
    "geocoded_column": {
      "latitude": "29.917571230941423",
      "longitude": "-90.09709839396619"
    }
  },
  {
    "service_request": "2025-1186065",
    "request_type": "Trash/Recycling",
    "request_reason": "Replace Trash Cart",
    "date_created": "2025-04-22T20:10:44.000",
    "date_modified": "2025-04-22T20:10:46.000",
    "request_status": "Pending",
    "responsible_agency": "Department of Sanitation",
    "final_address": "4725 New Orleans St",
    "address_councildis": "D",
    "status": "Assigned to Contractor",
    "contractor": "IV Waste",
    "rowid": "1186065",
    "final_x": "3681343.71573",
    "final_y": "549964.391572",
    "longitude": "-90.06792062718328",
    "latitude": "30.006216066189445",
    "geocoded_column": {
      "latitude": "30.006216066189445",
      "longitude": "-90.06792062718328"
    }
  },
  {
    "service_request": "2025-1186064",
    "request_type": "Drainage",
    "request_reason": "Catch Basin Clogged",
    "date_created": "2025-04-22T20:09:57.000",
    "date_modified": "2025-04-22T20:09:59.000",
    "request_status": "Pending",
    "responsible_agency": "Sewerage & Water Board",
    "final_address": "3427 Desaix Blvd",
    "address_councildis": "D",
    "status": "Pending",
    "rowid": "1186064",
    "final_x": "3676613.19726",
    "final_y": "543762.366414",
    "longitude": "-90.08307930060919",
    "latitude": "29.989305477712065",
    "geocoded_column": {
      "latitude": "29.989305477712065",
      "longitude": "-90.08307930060919"
    }
  },
  {
    "service_request": "2025-1186063",
    "request_type": "General Services",
    "request_reason": "General Service Request",
    "date_created": "2025-04-22T19:53:59.000",
    "date_modified": "2025-04-22T19:54:01.000",
    "request_status": "Pending",
    "responsible_agency": "Orleans Parish Communication District",
    "final_address": "4006 Annunciation St",
    "address_councildis": "B",
    "status": "Pending",
    "rowid": "1186063",
    "final_x": "3672530.69691",
    "final_y": "517853.182198",
    "longitude": "-90.0968578934684",
    "latitude": "29.91818565394963",
    "geocoded_column": {
      "latitude": "29.91818565394963",
      "longitude": "-90.0968578934684"
    }
  },
  {
    "service_request": "2025-1186062",
    "request_type": "General Services",
    "request_reason": "General Service Request",
    "date_created": "2025-04-22T19:40:45.000",
    "date_modified": "2025-04-22T19:40:48.000",
    "request_status": "Pending",
    "responsible_agency": "Orleans Parish Communication District",
    "final_address": "1125 Casa Calvo St",
    "address_councildis": "C",
    "status": "Pending",
    "rowid": "1186062",
    "final_x": "3692062.15997",
    "final_y": "527100.299583",
    "longitude": "-90.03487710054839",
    "latitude": "29.943018115226707",
    "geocoded_column": {
      "latitude": "29.943018115226707",
      "longitude": "-90.03487710054839"
    }
  },
  {
    "service_request": "2025-1186061",
    "request_type": "General Services",
    "request_reason": "General Service Request",
    "date_created": "2025-04-22T19:28:47.000",
    "date_modified": "2025-04-22T19:28:48.000",
    "request_status": "Pending",
    "responsible_agency": "Orleans Parish Communication District",
    "final_address": "1010 Joseph St",
    "address_councildis": "A",
    "status": "Pending",
    "rowid": "1186061",
    "final_x": "3666234.2626",
    "final_y": "519638.903736",
    "longitude": "-90.11667256258782",
    "latitude": "29.923281152686286",
    "geocoded_column": {
      "latitude": "29.923281152686286",
      "longitude": "-90.11667256258782"
    }
  },
  {
    "service_request": "2025-1186060",
    "request_type": "Trash/Recycling",
    "request_reason": "Order Recycling Cart",
    "date_created": "2025-04-22T19:27:31.000",
    "date_modified": "2025-04-22T19:27:33.000",
    "request_status": "Pending",
    "responsible_agency": "Department of Sanitation",
    "final_address": "2414 Annunciation St",
    "address_councildis": "B",
    "status": "Pending",
    "rowid": "1186060",
    "final_x": "3678593.31675",
    "final_y": "520466.317624",
    "longitude": "-90.07763108320665",
    "latitude": "29.925189648770008",
    "geocoded_column": {
      "latitude": "29.925189648770008",
      "longitude": "-90.07763108320665"
    }
  },
  {
    "service_request": "2025-1186059",
    "request_type": "Streetlights",
    "request_reason": "Streetlight Knocked Down/Leaning",
    "date_created": "2025-04-22T19:26:56.000",
    "date_modified": "2025-04-22T19:26:59.000",
    "request_status": "Pending",
    "responsible_agency": "Department of Public Works",
    "final_address": "1000 BLK Saint Charles Ave",
    "address_councildis": "B",
    "status": "Pending",
    "contractor": "Legacy Professional Services",
    "rowid": "1186059",
    "final_x": "3679998.04318",
    "final_y": "527038.320055",
    "longitude": "-90.07296861871036",
    "latitude": "29.943218084111038",
    "geocoded_column": {
      "latitude": "29.943218084111038",
      "longitude": "-90.07296861871036"
    }
  },
  {
    "service_request": "2025-1186058",
    "request_type": "Trash/Recycling",
    "request_reason": "Replace Trash Cart",
    "date_created": "2025-04-22T19:21:35.000",
    "date_modified": "2025-04-22T19:21:37.000",
    "request_status": "Pending",
    "responsible_agency": "Department of Sanitation",
    "final_address": "2414 Annunciation St",
    "address_councildis": "B",
    "status": "Assigned to Contractor",
    "contractor": "IV Waste",
    "rowid": "1186058",
    "final_x": "3678593.31675",
    "final_y": "520466.317624",
    "longitude": "-90.07763108320665",
    "latitude": "29.925189648770008",
    "geocoded_column": {
      "latitude": "29.925189648770008",
      "longitude": "-90.07763108320665"
    }
  },
  {
    "service_request": "2025-1186057",
    "request_type": "Drainage",
    "request_reason": "Catch Basin Clogged",
    "date_created": "2025-04-22T18:59:14.000",
    "date_modified": "2025-04-22T18:59:16.000",
    "request_status": "Pending",
    "responsible_agency": "Sewerage & Water Board",
    "final_address": "2403 St Charles Ave",
    "address_councildis": "B",
    "status": "Pending",
    "rowid": "1186057",
    "final_x": "3676877.13621",
    "final_y": "523246.707387",
    "longitude": "-90.08295274640982",
    "latitude": "29.932886418152176",
    "geocoded_column": {
      "latitude": "29.932886418152176",
      "longitude": "-90.08295274640982"
    }
  },
  {
    "service_request": "2025-1186056",
    "request_type": "Trash/Recycling",
    "request_reason": "Missed Trash Pick-Up",
    "date_created": "2025-04-22T18:50:45.000",
    "date_modified": "2025-04-22T18:50:47.000",
    "request_status": "Pending",
    "responsible_agency": "Department of Sanitation",
    "final_address": "8023 Benson St",
    "address_councildis": "E",
    "status": "Assigned to Contractor",
    "contractor": "Waste Pro",
    "rowid": "1186056",
    "final_x": "3703899.70276",
    "final_y": "563611.358817",
    "longitude": "-89.99615814068312",
    "latitude": "30.043035733599485",
    "geocoded_column": {
      "latitude": "30.043035733599485",
      "longitude": "-89.99615814068312"
    }
  },
  {
    "service_request": "2025-1186055",
    "request_type": "General Services",
    "request_reason": "General Service Request",
    "date_created": "2025-04-22T18:41:05.000",
    "date_modified": "2025-04-22T18:41:06.000",
    "request_status": "Pending",
    "responsible_agency": "Orleans Parish Communication District",
    "final_address": "639 N Murat St",
    "address_councildis": "A",
    "status": "Pending",
    "rowid": "1186055",
    "final_x": "3670954.021",
    "final_y": "541106.668812",
    "longitude": "-90.1010452565352",
    "latitude": "29.982171791958805",
    "geocoded_column": {
      "latitude": "29.982171791958805",
      "longitude": "-90.1010452565352"
    }
  },
  {
    "service_request": "2025-1186054",
    "request_type": "Trash/Recycling",
    "request_reason": "MIssed Recycling Pick-Up",
    "date_created": "2025-04-22T18:34:30.000",
    "date_modified": "2025-04-22T18:34:31.000",
    "request_status": "Pending",
    "responsible_agency": "Department of Sanitation",
    "final_address": "4145 DHemecourt St",
    "address_councildis": "A",
    "status": "Assigned to Contractor",
    "contractor": "IV Waste",
    "rowid": "1186054",
    "final_x": "3669467.12743",
    "final_y": "537135.80468",
    "longitude": "-90.10587595281531",
    "latitude": "29.971297140941136",
    "geocoded_column": {
      "latitude": "29.971297140941136",
      "longitude": "-90.10587595281531"
    }
  },
  {
    "service_request": "2025-1186053",
    "request_type": "Streetlights",
    "request_reason": "Streetlight Outage/Malfunction",
    "date_created": "2025-04-22T18:27:51.000",
    "date_modified": "2025-04-22T18:27:52.000",
    "request_status": "Pending",
    "responsible_agency": "Department of Public Works",
    "final_address": "1121 Crete St",
    "address_councildis": "A",
    "status": "Pending",
    "contractor": "Legacy Professional Services",
    "rowid": "1186053",
    "final_x": "3677606.98984",
    "final_y": "538863.867337",
    "longitude": "-90.08010942644972",
    "latitude": "29.97580644937645",
    "geocoded_column": {
      "latitude": "29.97580644937645",
      "longitude": "-90.08010942644972"
    }
  },
  {
    "service_request": "2025-1186052",
    "request_type": "Street and Traffic Signs",
    "request_reason": "Stop Sign Missing or Damaged",
    "date_created": "2025-04-22T18:26:50.000",
    "date_modified": "2025-04-22T18:26:52.000",
    "request_status": "Pending",
    "responsible_agency": "Department of Public Works",
    "final_address": "1115 Crete St",
    "address_councildis": "A",
    "status": "Pending",
    "rowid": "1186052",
    "final_x": "3677617.11163",
    "final_y": "538827.812617",
    "longitude": "-90.08007870441617",
    "latitude": "29.9757070068908",
    "geocoded_column": {
      "latitude": "29.9757070068908",
      "longitude": "-90.08007870441617"
    }
  },
  {
    "service_request": "2025-1186051",
    "request_type": "Property Maintenance",
    "request_reason": "Property Maintenance",
    "date_created": "2025-04-22T18:25:43.000",
    "date_modified": "2025-04-22T18:25:46.000",
    "request_status": "Pending",
    "responsible_agency": "Department of Code Enforcement",
    "final_address": "1203 Delery St",
    "address_councildis": "E",
    "status": "Pending",
    "rowid": "1186051",
    "final_x": "3700604.56081",
    "final_y": "533243.422276",
    "longitude": "-90.00768243759227",
    "latitude": "29.95964059265631",
    "geocoded_column": {
      "latitude": "29.95964059265631",
      "longitude": "-90.00768243759227"
    }
  },
  {
    "service_request": "2025-1186050",
    "request_type": "Streetlights",
    "request_reason": "Streetlight Outage/Malfunction",
    "date_created": "2025-04-22T18:25:31.000",
    "date_modified": "2025-04-22T18:25:34.000",
    "request_status": "Pending",
    "responsible_agency": "Department of Public Works",
    "final_address": "1115 Crete St",
    "address_councildis": "A",
    "status": "Pending",
    "contractor": "Legacy Professional Services",
    "rowid": "1186050",
    "final_x": "3677617.11163",
    "final_y": "538827.812617",
    "longitude": "-90.08007870441617",
    "latitude": "29.9757070068908",
    "geocoded_column": {
      "latitude": "29.9757070068908",
      "longitude": "-90.08007870441617"
    }
  },
  {
    "service_request": "2025-1186049",
    "request_type": "Streetlights",
    "request_reason": "Streetlight Outage/Malfunction",
    "date_created": "2025-04-22T18:24:16.000",
    "date_modified": "2025-04-22T18:24:18.000",
    "request_status": "Pending",
    "responsible_agency": "Department of Public Works",
    "final_address": "1115 Crete St",
    "address_councildis": "A",
    "status": "Pending",
    "contractor": "Legacy Professional Services",
    "rowid": "1186049",
    "final_x": "3677617.11163",
    "final_y": "538827.812617",
    "longitude": "-90.08007870441617",
    "latitude": "29.9757070068908",
    "geocoded_column": {
      "latitude": "29.9757070068908",
      "longitude": "-90.08007870441617"
    }
  },
  {
    "service_request": "2025-1186048",
    "request_type": "Trash/Recycling",
    "request_reason": "Illegal Dumping",
    "date_created": "2025-04-22T18:16:48.000",
    "date_modified": "2025-04-22T18:16:51.000",
    "request_status": "Pending",
    "responsible_agency": "Department of Sanitation",
    "final_address": "1713 Cambronne St",
    "address_councildis": "A",
    "status": "Pending",
    "rowid": "1186048",
    "final_x": "3662457.49242",
    "final_y": "530465.651714",
    "longitude": "-90.12823501884108",
    "latitude": "29.953161003933456",
    "geocoded_column": {
      "latitude": "29.953161003933456",
      "longitude": "-90.12823501884108"
    }
  },
  {
    "service_request": "2025-1186047",
    "request_type": "Trash/Recycling",
    "request_reason": "Missed Trash Pick-Up",
    "date_created": "2025-04-22T18:02:01.000",
    "date_modified": "2025-04-22T18:14:28.000",
    "case_close_date": "2025-04-22T13:14:27.000",
    "request_status": "Closed",
    "responsible_agency": "Department of Sanitation",
    "final_address": "70127, New Orleans, Louisiana",
    "address_councildis": "E",
    "status": "Invalid Request",
    "contractor": "Waste Pro",
    "contractor_action": "Invalid",
    "rowid": "1186047",
    "final_x": "3715091.43685",
    "final_y": "557057.911898",
    "longitude": "-89.96103609625341",
    "latitude": "30.024652517412676",
    "geocoded_column": {
      "latitude": "30.024652517412676",
      "longitude": "-89.96103609625341"
    }
  },
  {
    "service_request": "2025-1186046",
    "request_type": "Property Maintenance",
    "request_reason": "Property Maintenance",
    "date_created": "2025-04-22T17:51:10.000",
    "date_modified": "2025-04-22T17:51:13.000",
    "request_status": "Pending",
    "responsible_agency": "Department of Code Enforcement",
    "final_address": "1242 Gordon St",
    "address_councildis": "E",
    "status": "Pending",
    "rowid": "1186046",
    "final_x": "3699388.66282",
    "final_y": "534110.772997",
    "longitude": "-90.0114903451558",
    "latitude": "29.962064121411135",
    "geocoded_column": {
      "latitude": "29.962064121411135",
      "longitude": "-90.0114903451558"
    }
  },
  {
    "service_request": "2025-1186045",
    "request_type": "Trash/Recycling",
    "request_reason": "Order Trash Cart",
    "date_created": "2025-04-22T17:45:20.000",
    "date_modified": "2025-04-22T17:45:24.000",
    "request_status": "Pending",
    "responsible_agency": "Department of Sanitation",
    "final_address": "725 Elmira Ave",
    "address_councildis": "C",
    "status": "Assigned to Contractor",
    "contractor": "Richards Disposal",
    "rowid": "1186045",
    "final_x": "3688115.21411",
    "final_y": "528865.137728",
    "longitude": "-90.04727600347704",
    "latitude": "29.94799321105526",
    "geocoded_column": {
      "latitude": "29.94799321105526",
      "longitude": "-90.04727600347704"
    }
  },
  {
    "service_request": "2025-1186044",
    "request_type": "Trash/Recycling",
    "request_reason": "Request a Large Item Pick Up",
    "date_created": "2025-04-22T17:43:41.000",
    "date_modified": "2025-04-22T17:43:44.000",
    "request_status": "Pending",
    "responsible_agency": "Department of Sanitation",
    "final_address": "213 Rhodes Ave",
    "address_councildis": "C",
    "status": "Assigned to Contractor",
    "contractor": "Richards Disposal",
    "rowid": "1186044",
    "final_x": "3706590.87191",
    "final_y": "519308.921207",
    "longitude": "-89.98929532757462",
    "latitude": "29.921133871324532",
    "geocoded_column": {
      "latitude": "29.921133871324532",
      "longitude": "-89.98929532757462"
    }
  },
  {
    "service_request": "2025-1186043",
    "request_type": "Drainage",
    "request_reason": "Catch Basin Clogged",
    "date_created": "2025-04-22T17:22:02.000",
    "date_modified": "2025-04-22T17:22:03.000",
    "request_status": "Pending",
    "responsible_agency": "Sewerage & Water Board",
    "final_address": "8335 Hickory St",
    "address_councildis": "A",
    "status": "Pending",
    "rowid": "1186043",
    "final_x": "3662661.89805",
    "final_y": "530643.60493",
    "longitude": "-90.1275836786205",
    "latitude": "29.953644405092493",
    "geocoded_column": {
      "latitude": "29.953644405092493",
      "longitude": "-90.1275836786205"
    }
  },
  {
    "service_request": "2025-1186042",
    "request_type": "Streetlights",
    "request_reason": "Streetlight Outage/Malfunction",
    "date_created": "2025-04-22T17:21:44.000",
    "date_modified": "2025-04-22T17:21:46.000",
    "request_status": "Pending",
    "responsible_agency": "Department of Public Works",
    "final_address": "1426 Prentiss Ave",
    "address_councildis": "D",
    "status": "Pending",
    "contractor": "Legacy Professional Services",
    "rowid": "1186042",
    "final_x": "3678012.32174",
    "final_y": "553252.095191",
    "longitude": "-90.07833156083458",
    "latitude": "30.015356811573028",
    "geocoded_column": {
      "latitude": "30.015356811573028",
      "longitude": "-90.07833156083458"
    }
  },
  {
    "service_request": "2025-1186041",
    "request_type": "Trash/Recycling",
    "request_reason": "Replace Recycling Cart",
    "date_created": "2025-04-22T17:18:49.000",
    "date_modified": "2025-04-22T17:18:51.000",
    "request_status": "Pending",
    "responsible_agency": "Department of Sanitation",
    "final_address": "5863 Marcia Ave",
    "address_councildis": "A",
    "status": "Pending",
    "rowid": "1186041",
    "final_x": "3664879.04589",
    "final_y": "546819.179089",
    "longitude": "-90.12004200074693",
    "latitude": "29.99805750177402",
    "geocoded_column": {
      "latitude": "29.99805750177402",
      "longitude": "-90.12004200074693"
    }
  },
  {
    "service_request": "2025-1186040",
    "request_type": "Streetlights",
    "request_reason": "Streetlight Outage/Malfunction",
    "date_created": "2025-04-22T17:12:48.000",
    "date_modified": "2025-04-22T17:12:50.000",
    "request_status": "Pending",
    "responsible_agency": "Department of Public Works",
    "final_address": "1200 Frenchmen St",
    "address_councildis": "C",
    "status": "Pending",
    "contractor": "Legacy Professional Services",
    "rowid": "1186040",
    "final_x": "3684498.6285",
    "final_y": "536673.452167",
    "longitude": "-90.05842069031115",
    "latitude": "29.969574515689832",
    "geocoded_column": {
      "latitude": "29.969574515689832",
      "longitude": "-90.05842069031115"
    }
  },
  {
    "service_request": "2025-1186039",
    "request_type": "Trash/Recycling",
    "request_reason": "Replace Trash Cart",
    "date_created": "2025-04-22T16:59:39.000",
    "date_modified": "2025-04-22T16:59:42.000",
    "request_status": "Pending",
    "responsible_agency": "Department of Sanitation",
    "final_address": "6517 Maumus Ave",
    "address_councildis": "C",
    "status": "Assigned to Contractor",
    "contractor": "Richards Disposal",
    "rowid": "1186039",
    "final_x": "3707956.78001",
    "final_y": "516625.427957",
    "longitude": "-89.98508347364522",
    "latitude": "29.913711073563572",
    "geocoded_column": {
      "latitude": "29.913711073563572",
      "longitude": "-89.98508347364522"
    }
  },
  {
    "service_request": "2025-1186038",
    "request_type": "Abandoned Vehicles",
    "request_reason": "Abandoned/Junk Vehicles",
    "date_created": "2025-04-22T16:54:40.000",
    "date_modified": "2025-04-22T16:54:42.000",
    "request_status": "Pending",
    "responsible_agency": "Department of Public Works",
    "final_address": "3018 Maurepas St",
    "address_councildis": "A",
    "status": "Pending",
    "rowid": "1186038",
    "final_x": "3676997.1421",
    "final_y": "540691.142667",
    "longitude": "-90.08197247418765",
    "latitude": "29.980849153502696",
    "geocoded_column": {
      "latitude": "29.980849153502696",
      "longitude": "-90.08197247418765"
    }
  },
  {
    "service_request": "2025-1186037",
    "request_type": "Safety & Permits",
    "request_reason": "Zoning Enforcement",
    "date_created": "2025-04-22T16:54:14.000",
    "date_modified": "2025-04-22T16:54:16.000",
    "request_status": "Pending",
    "responsible_agency": "Safety and Permits",
    "final_address": "4914 Tchoupitoulas St",
    "address_councildis": "B",
    "status": "Pending",
    "rowid": "1186037",
    "final_x": "3668811.20033",
    "final_y": "517178.510005",
    "longitude": "-90.10862113304385",
    "latitude": "29.91644035774569",
    "geocoded_column": {
      "latitude": "29.91644035774569",
      "longitude": "-90.10862113304385"
    }
  },
  {
    "service_request": "2025-1186036",
    "request_type": "Trash/Recycling",
    "request_reason": "Replace Recycling Cart",
    "date_created": "2025-04-22T16:53:28.000",
    "date_modified": "2025-04-22T16:53:30.000",
    "request_status": "Pending",
    "responsible_agency": "Department of Sanitation",
    "final_address": "2516 Chartres St",
    "address_councildis": "C",
    "status": "Pending",
    "rowid": "1186036",
    "final_x": "3686424.34972",
    "final_y": "534586.920517",
    "longitude": "-90.0524127740576",
    "latitude": "29.96377822303194",
    "geocoded_column": {
      "latitude": "29.96377822303194",
      "longitude": "-90.0524127740576"
    }
  },
  {
    "service_request": "2025-1186035",
    "request_type": "Trash/Recycling",
    "request_reason": "Replace Trash Cart",
    "date_created": "2025-04-22T16:51:23.000",
    "date_modified": "2025-04-22T16:51:25.000",
    "request_status": "Pending",
    "responsible_agency": "Department of Sanitation",
    "final_address": "2516 Chartres St",
    "address_councildis": "C",
    "status": "Assigned to Contractor",
    "contractor": "IV Waste",
    "rowid": "1186035",
    "final_x": "3686424.34972",
    "final_y": "534586.920517",
    "longitude": "-90.0524127740576",
    "latitude": "29.96377822303194",
    "geocoded_column": {
      "latitude": "29.96377822303194",
      "longitude": "-90.0524127740576"
    }
  },
  {
    "service_request": "2025-1186034",
    "request_type": "Trash/Recycling",
    "request_reason": "Request a Large Item Pick Up",
    "date_created": "2025-04-22T16:49:57.000",
    "date_modified": "2025-04-22T16:49:59.000",
    "request_status": "Pending",
    "responsible_agency": "Department of Sanitation",
    "final_address": "5972 Dreux Ave",
    "address_councildis": "D",
    "status": "Assigned to Contractor",
    "contractor": "Waste Pro",
    "rowid": "1186034",
    "final_x": "3696616.15101",
    "final_y": "553780.819543",
    "longitude": "-90.01953326931434",
    "latitude": "30.016237213525365",
    "geocoded_column": {
      "latitude": "30.016237213525365",
      "longitude": "-90.01953326931434"
    }
  },
  {
    "service_request": "2025-1186033",
    "request_type": "Roads and Streets",
    "request_reason": "Street Subsidence (Sinking)",
    "date_created": "2025-04-22T16:48:53.000",
    "date_modified": "2025-04-22T16:48:56.000",
    "request_status": "Pending",
    "responsible_agency": "Department of Public Works",
    "final_address": "2200 BLK Lafitte Ave",
    "address_councildis": "D",
    "status": "Pending",
    "rowid": "1186033",
    "final_x": "3677927.11196",
    "final_y": "535433.274394",
    "longitude": "-90.07921697603696",
    "latitude": "29.966363861621158",
    "geocoded_column": {
      "latitude": "29.966363861621158",
      "longitude": "-90.07921697603696"
    }
  },
  {
    "service_request": "2025-1186032",
    "request_type": "Traffic Signals",
    "request_reason": "Traffic Signal Malfunctioning or Damaged",
    "date_created": "2025-04-22T16:43:48.000",
    "date_modified": "2025-04-22T16:43:50.000",
    "request_status": "Pending",
    "responsible_agency": "Department of Public Works",
    "final_address": "CROWDER BLVD & CROWDER EXIT & I 10 W ONRAMP",
    "address_councildis": "E",
    "status": "Pending",
    "rowid": "1186032",
    "final_x": "3704699.5",
    "final_y": "559063.58",
    "longitude": "-89.99379849601604",
    "latitude": "30.030505441406184",
    "geocoded_column": {
      "latitude": "30.030505441406184",
      "longitude": "-89.99379849601604"
    }
  },
  {
    "service_request": "2025-1186031",
    "request_type": "Traffic Signals",
    "request_reason": "Traffic Signal Malfunctioning or Damaged",
    "date_created": "2025-04-22T16:43:05.000",
    "date_modified": "2025-04-22T16:43:07.000",
    "request_status": "Pending",
    "responsible_agency": "Department of Public Works",
    "final_address": "CROWDER BLVD & MORRISON RD",
    "address_councildis": "E",
    "status": "Pending",
    "rowid": "1186031",
    "final_x": "3703739.9",
    "final_y": "560831.58",
    "longitude": "-89.99676565482832",
    "latitude": "30.035397561791353",
    "geocoded_column": {
      "latitude": "30.035397561791353",
      "longitude": "-89.99676565482832"
    }
  },
  {
    "service_request": "2025-1186030",
    "request_type": "Abandoned Vehicles",
    "request_reason": "Abandoned/Junk Vehicles",
    "date_created": "2025-04-22T16:43:04.000",
    "date_modified": "2025-04-22T16:43:07.000",
    "request_status": "Pending",
    "responsible_agency": "Department of Public Works",
    "final_address": "9000 Lake Forest Blvd",
    "address_councildis": "E",
    "status": "Pending",
    "rowid": "1186030",
    "final_x": "3707449.97246",
    "final_y": "558311.370716",
    "longitude": "-89.98513500619254",
    "latitude": "30.02834846217099",
    "geocoded_column": {
      "latitude": "30.02834846217099",
      "longitude": "-89.98513500619254"
    }
  },
  {
    "service_request": "2025-1186029",
    "request_type": "Mosquito, Termite & Rodent Control",
    "request_reason": "Mosquito Complaint",
    "date_created": "2025-04-22T16:40:15.000",
    "date_modified": "2025-04-22T16:40:16.000",
    "request_status": "Pending",
    "responsible_agency": "Mosquito, Termite & Rodent Control Board",
    "final_address": "7514 Dominique Pl",
    "address_councildis": "E",
    "status": "Pending",
    "rowid": "1186029",
    "final_x": "3725483.30867",
    "final_y": "569860.015142",
    "longitude": "-89.92770380272081",
    "latitude": "30.059506695009446",
    "geocoded_column": {
      "latitude": "30.059506695009446",
      "longitude": "-89.92770380272081"
    }
  },
  {
    "service_request": "2025-1186028",
    "request_type": "Street and Traffic Signs",
    "request_reason": "Traffic or Parking Sign Damaged or Missing",
    "date_created": "2025-04-22T16:39:41.000",
    "date_modified": "2025-04-22T16:39:44.000",
    "request_status": "Pending",
    "responsible_agency": "Department of Public Works",
    "final_address": "241 Dauphine St",
    "address_councildis": "C",
    "status": "Pending",
    "rowid": "1186028",
    "final_x": "3681025.16431",
    "final_y": "531738.215171",
    "longitude": "-90.06956208121869",
    "latitude": "29.95611010919252",
    "geocoded_column": {
      "latitude": "29.95611010919252",
      "longitude": "-90.06956208121869"
    }
  },
  {
    "service_request": "2025-1186027",
    "request_type": "Abandoned Vehicles",
    "request_reason": "Abandoned/Junk Vehicles",
    "date_created": "2025-04-22T16:37:22.000",
    "date_modified": "2025-04-22T16:37:24.000",
    "request_status": "Pending",
    "responsible_agency": "Department of Public Works",
    "final_address": "9000 Lake Forest Blvd",
    "address_councildis": "E",
    "status": "Pending",
    "rowid": "1186027",
    "final_x": "3707449.97246",
    "final_y": "558311.370716",
    "longitude": "-89.98513500619254",
    "latitude": "30.02834846217099",
    "geocoded_column": {
      "latitude": "30.02834846217099",
      "longitude": "-89.98513500619254"
    }
  },
  {
    "service_request": "2025-1186026",
    "request_type": "Roads and Streets",
    "request_reason": "Debris in Driving Lanes",
    "date_created": "2025-04-22T16:37:03.000",
    "date_modified": "2025-04-22T16:37:05.000",
    "request_status": "Pending",
    "responsible_agency": "Department of Public Works",
    "final_address": "14301 Chef Menteur Hwy",
    "address_councildis": "E",
    "status": "Pending",
    "rowid": "1186026",
    "final_x": "3730087.8039",
    "final_y": "561446.40675",
    "longitude": "-89.91347907900003",
    "latitude": "30.036216702315635",
    "geocoded_column": {
      "latitude": "30.036216702315635",
      "longitude": "-89.91347907900003"
    }
  },
  {
    "service_request": "2025-1186025",
    "request_type": "Trash/Recycling",
    "request_reason": "Repair Trash Cart",
    "date_created": "2025-04-22T16:30:54.000",
    "date_modified": "2025-04-22T16:30:56.000",
    "request_status": "Pending",
    "responsible_agency": "Department of Sanitation",
    "final_address": "538 Olivier St",
    "address_councildis": "C",
    "status": "Assigned to Contractor",
    "contractor": "Richards Disposal",
    "rowid": "1186025",
    "final_x": "3687328.54204",
    "final_y": "529619.412417",
    "longitude": "-90.04973315898606",
    "latitude": "29.95009146319354",
    "geocoded_column": {
      "latitude": "29.95009146319354",
      "longitude": "-90.04973315898606"
    }
  },
  {
    "service_request": "2025-1186024",
    "request_type": "Utility Poles",
    "request_reason": "Utility Pole Leaning",
    "date_created": "2025-04-22T16:28:06.000",
    "date_modified": "2025-04-22T16:28:09.000",
    "request_status": "Pending",
    "responsible_agency": "Utility Company Collective",
    "final_address": "4731 Iberville St",
    "address_councildis": "A",
    "status": "Pending",
    "rowid": "1186024",
    "final_x": "3669220.6251",
    "final_y": "540420.756875",
    "longitude": "-90.10654337139317",
    "latitude": "29.980336911152122",
    "geocoded_column": {
      "latitude": "29.980336911152122",
      "longitude": "-90.10654337139317"
    }
  },
  {
    "service_request": "2025-1186023",
    "request_type": "Trash/Recycling",
    "request_reason": "Return Recycling Cart",
    "date_created": "2025-04-22T16:22:44.000",
    "date_modified": "2025-04-22T16:22:45.000",
    "request_status": "Pending",
    "responsible_agency": "Department of Sanitation",
    "final_address": "4015 Orleans Ave",
    "address_councildis": "A",
    "status": "Pending",
    "rowid": "1186023",
    "final_x": "3672950.56347",
    "final_y": "540063.568395",
    "longitude": "-90.09477480892825",
    "latitude": "29.979244431620753",
    "geocoded_column": {
      "latitude": "29.979244431620753",
      "longitude": "-90.09477480892825"
    }
  },
  {
    "service_request": "2025-1186022",
    "request_type": "Street and Traffic Signs",
    "request_reason": "Additional Signage Request",
    "date_created": "2025-04-22T16:20:49.000",
    "date_modified": "2025-04-22T16:20:50.000",
    "request_status": "Pending",
    "responsible_agency": "Department of Public Works",
    "final_address": "WASHINGTON AVE & DANNEEL ST",
    "address_councildis": "B",
    "status": "Pending",
    "rowid": "1186022",
    "final_x": "3675129.8",
    "final_y": "523731.88",
    "longitude": "-90.08845232155372",
    "latitude": "29.934272798679995",
    "geocoded_column": {
      "latitude": "29.934272798679995",
      "longitude": "-90.08845232155372"
    }
  },
  {
    "service_request": "2025-1186021",
    "request_type": "Trash/Recycling",
    "request_reason": "Order Second Trash Cart",
    "date_created": "2025-04-22T16:18:49.000",
    "date_modified": "2025-04-22T16:18:51.000",
    "request_status": "Pending",
    "responsible_agency": "Department of Sanitation",
    "final_address": "4719 Iberville St",
    "address_councildis": "A",
    "status": "Assigned to Contractor",
    "contractor": "IV Waste",
    "rowid": "1186021",
    "final_x": "3669299.95361",
    "final_y": "540362.526603",
    "longitude": "-90.10629478690561",
    "latitude": "29.980174462033066",
    "geocoded_column": {
      "latitude": "29.980174462033066",
      "longitude": "-90.10629478690561"
    }
  },
  {
    "service_request": "2025-1186020",
    "request_type": "Parks & Parkways",
    "request_reason": "Request Tree Service (Right of Way/Public Property)",
    "date_created": "2025-04-22T16:17:14.000",
    "date_modified": "2025-04-22T16:17:17.000",
    "request_status": "Pending",
    "responsible_agency": "Department of Parks & Parkway",
    "final_address": "2011 Washington Ave",
    "address_councildis": "B",
    "status": "Pending",
    "rowid": "1186020",
    "final_x": "3675097.84846",
    "final_y": "523850.157627",
    "longitude": "-90.08854913526439",
    "latitude": "29.93459897807159",
    "geocoded_column": {
      "latitude": "29.93459897807159",
      "longitude": "-90.08854913526439"
    }
  },
  {
    "service_request": "2025-1186019",
    "request_type": "Trash/Recycling",
    "request_reason": "Repair Recycling Cart",
    "date_created": "2025-04-22T16:15:11.000",
    "date_modified": "2025-04-22T16:15:12.000",
    "request_status": "Pending",
    "responsible_agency": "Department of Sanitation",
    "final_address": "6031 Lafaye St",
    "address_councildis": "D",
    "status": "Pending",
    "rowid": "1186019",
    "final_x": "3687173.99727",
    "final_y": "555509.266649",
    "longitude": "-90.04930507897815",
    "latitude": "30.0212841050229",
    "geocoded_column": {
      "latitude": "30.0212841050229",
      "longitude": "-90.04930507897815"
    }
  },
  {
    "service_request": "2025-1186018",
    "request_type": "Trash/Recycling",
    "request_reason": "Order Trash Cart",
    "date_created": "2025-04-22T16:13:34.000",
    "date_modified": "2025-04-22T16:13:36.000",
    "request_status": "Pending",
    "responsible_agency": "Department of Sanitation",
    "final_address": "3010 Monroe St",
    "address_councildis": "A",
    "status": "Assigned to Contractor",
    "contractor": "IV Waste",
    "rowid": "1186018",
    "final_x": "3664778.86356",
    "final_y": "534687.628998",
    "longitude": "-90.12076402943475",
    "latitude": "29.96470272700353",
    "geocoded_column": {
      "latitude": "29.96470272700353",
      "longitude": "-90.12076402943475"
    }
  },
  {
    "service_request": "2025-1186016",
    "request_type": "Trash/Recycling",
    "request_reason": "Request a Large Item Pick Up",
    "date_created": "2025-04-22T16:13:14.000",
    "date_modified": "2025-04-22T16:13:17.000",
    "request_status": "Pending",
    "responsible_agency": "Department of Sanitation",
    "final_address": "4917 S Miro St",
    "address_councildis": "B",
    "status": "Assigned to Contractor",
    "contractor": "IV Waste",
    "rowid": "1186016",
    "final_x": "3669119.55284",
    "final_y": "527730.772543",
    "longitude": "-90.1072914595208",
    "latitude": "29.94544663962311",
    "geocoded_column": {
      "latitude": "29.94544663962311",
      "longitude": "-90.1072914595208"
    }
  },
  {
    "service_request": "2025-1186017",
    "request_type": "Drainage",
    "request_reason": "Catch Basin Clogged",
    "date_created": "2025-04-22T16:13:14.000",
    "date_modified": "2025-04-22T16:13:15.000",
    "request_status": "Pending",
    "responsible_agency": "Sewerage & Water Board",
    "final_address": "2011 Washington Ave",
    "address_councildis": "B",
    "status": "Pending",
    "rowid": "1186017",
    "final_x": "3675097.84846",
    "final_y": "523850.157627",
    "longitude": "-90.08854913526439",
    "latitude": "29.93459897807159",
    "geocoded_column": {
      "latitude": "29.93459897807159",
      "longitude": "-90.08854913526439"
    }
  },
  {
    "service_request": "2025-1186015",
    "request_type": "Trash/Recycling",
    "request_reason": "Order Trash Cart",
    "date_created": "2025-04-22T16:12:37.000",
    "date_modified": "2025-04-22T16:12:39.000",
    "request_status": "Pending",
    "responsible_agency": "Department of Sanitation",
    "final_address": "3008 Monroe St",
    "address_councildis": "A",
    "status": "Assigned to Contractor",
    "contractor": "IV Waste",
    "rowid": "1186015",
    "final_x": "3664768.08807",
    "final_y": "534674.577862",
    "longitude": "-90.12079849397307",
    "latitude": "29.964667154212336",
    "geocoded_column": {
      "latitude": "29.964667154212336",
      "longitude": "-90.12079849397307"
    }
  },
  {
    "service_request": "2025-1186014",
    "request_type": "Abandoned Vehicles",
    "request_reason": "Abandoned/Junk Vehicles",
    "date_created": "2025-04-22T16:11:59.000",
    "date_modified": "2025-04-22T16:20:02.000",
    "request_status": "Pending",
    "responsible_agency": "Department of Public Works",
    "final_address": "941 Bartholomew St",
    "address_councildis": "C",
    "status": "Pending",
    "rowid": "1186014",
    "final_x": "3691720.00643",
    "final_y": "534830.13063",
    "longitude": "-90.03568097557593",
    "latitude": "29.964283124645387",
    "geocoded_column": {
      "latitude": "29.964283124645387",
      "longitude": "-90.03568097557593"
    }
  },
  {
    "service_request": "2025-1186013",
    "request_type": "Mosquito, Termite & Rodent Control",
    "request_reason": "Rodent Complaint (Rats)",
    "date_created": "2025-04-22T16:09:46.000",
    "date_modified": "2025-04-22T16:09:48.000",
    "request_status": "Pending",
    "responsible_agency": "Mosquito, Termite & Rodent Control Board",
    "final_address": "2011 Washington Ave",
    "address_councildis": "B",
    "status": "Pending",
    "rowid": "1186013",
    "final_x": "3675097.84846",
    "final_y": "523850.157627",
    "longitude": "-90.08854913526439",
    "latitude": "29.93459897807159",
    "geocoded_column": {
      "latitude": "29.93459897807159",
      "longitude": "-90.08854913526439"
    }
  },
  {
    "service_request": "2025-1186012",
    "request_type": "Roads and Streets",
    "request_reason": "Pothole",
    "date_created": "2025-04-22T16:03:00.000",
    "date_modified": "2025-04-22T16:03:02.000",
    "request_status": "Pending",
    "responsible_agency": "Department of Public Works",
    "final_address": "2011 Washington Ave",
    "address_councildis": "B",
    "status": "Pending",
    "rowid": "1186012",
    "final_x": "3675097.84846",
    "final_y": "523850.157627",
    "longitude": "-90.08854913526439",
    "latitude": "29.93459897807159",
    "geocoded_column": {
      "latitude": "29.93459897807159",
      "longitude": "-90.08854913526439"
    }
  },
  {
    "service_request": "2025-1186011",
    "request_type": "Abandoned Vehicles",
    "request_reason": "Abandoned/Junk Vehicles",
    "date_created": "2025-04-22T15:52:00.000",
    "date_modified": "2025-04-22T15:53:51.000",
    "request_status": "Pending",
    "responsible_agency": "Department of Public Works",
    "final_address": "8800 Lake Forest Blvd",
    "address_councildis": "E",
    "status": "Pending",
    "rowid": "1186011",
    "final_x": "3706906.4659",
    "final_y": "558210.502299",
    "longitude": "-89.98685618854782",
    "latitude": "30.028088685881247",
    "geocoded_column": {
      "latitude": "30.028088685881247",
      "longitude": "-89.98685618854782"
    }
  },
  {
    "service_request": "2025-1186010",
    "request_type": "Trash/Recycling",
    "request_reason": "Order Recycling Cart",
    "date_created": "2025-04-22T15:51:45.000",
    "date_modified": "2025-04-22T15:51:48.000",
    "request_status": "Pending",
    "responsible_agency": "Department of Sanitation",
    "final_address": "1932 St Philip St",
    "address_councildis": "D",
    "status": "Pending",
    "rowid": "1186010",
    "final_x": "3679638.23131",
    "final_y": "536075.439559",
    "longitude": "-90.07379099772749",
    "latitude": "29.968077989303925",
    "geocoded_column": {
      "latitude": "29.968077989303925",
      "longitude": "-90.07379099772749"
    }
  },
  {
    "service_request": "2025-1186009",
    "request_type": "Trash/Recycling",
    "request_reason": "Repair Trash Cart",
    "date_created": "2025-04-22T15:46:46.000",
    "date_modified": "2025-04-22T15:46:48.000",
    "request_status": "Pending",
    "responsible_agency": "Department of Sanitation",
    "final_address": "218 Helena St",
    "address_councildis": "A",
    "status": "Assigned to Contractor",
    "contractor": "IV Waste",
    "rowid": "1186009",
    "final_x": "3668605.84711",
    "final_y": "540949.075787",
    "longitude": "-90.10846727097874",
    "latitude": "29.98180769348527",
    "geocoded_column": {
      "latitude": "29.98180769348527",
      "longitude": "-90.10846727097874"
    }
  },
  {
    "service_request": "2025-1186008",
    "request_type": "Property Maintenance",
    "request_reason": "Property Maintenance",
    "date_created": "2025-04-22T15:46:23.000",
    "date_modified": "2025-04-22T15:46:25.000",
    "request_status": "Pending",
    "responsible_agency": "Department of Code Enforcement",
    "final_address": "4924 Rosalia Dr",
    "address_councildis": "E",
    "status": "Pending",
    "rowid": "1186008",
    "final_x": "3711014.5187",
    "final_y": "556999.73577",
    "longitude": "-89.97392051482005",
    "latitude": "30.024626180472037",
    "geocoded_column": {
      "latitude": "30.024626180472037",
      "longitude": "-89.97392051482005"
    }
  },
  {
    "service_request": "2025-1186007",
    "request_type": "Trash/Recycling",
    "request_reason": "Request a Large Item Pick Up",
    "date_created": "2025-04-22T15:43:09.000",
    "date_modified": "2025-04-22T15:43:11.000",
    "request_status": "Pending",
    "responsible_agency": "Department of Sanitation",
    "final_address": "4025 Iroquois St",
    "address_councildis": "D",
    "status": "Assigned to Contractor",
    "contractor": "IV Waste",
    "rowid": "1186007",
    "final_x": "3689225.93161",
    "final_y": "548019.344466",
    "longitude": "-90.04308804056899",
    "latitude": "30.00062619195202",
    "geocoded_column": {
      "latitude": "30.00062619195202",
      "longitude": "-90.04308804056899"
    }
  },
  {
    "service_request": "2025-1186006",
    "request_type": "Trash/Recycling",
    "request_reason": "Request a Large Item Pick Up",
    "date_created": "2025-04-22T15:40:17.000",
    "date_modified": "2025-04-22T15:40:19.000",
    "request_status": "Pending",
    "responsible_agency": "Department of Sanitation",
    "final_address": "1439 Broadway St",
    "address_councildis": "A",
    "status": "Assigned to Contractor",
    "contractor": "IV Waste",
    "rowid": "1186006",
    "final_x": "3664782.31821",
    "final_y": "527301.472127",
    "longitude": "-90.12099990540243",
    "latitude": "29.944393095852185",
    "geocoded_column": {
      "latitude": "29.944393095852185",
      "longitude": "-90.12099990540243"
    }
  },
  {
    "service_request": "2025-1186005",
    "request_type": "Trash/Recycling",
    "request_reason": "Order Second Trash Cart",
    "date_created": "2025-04-22T15:38:21.000",
    "date_modified": "2025-04-22T15:38:22.000",
    "request_status": "Pending",
    "responsible_agency": "Department of Sanitation",
    "final_address": "1501 St Roch Ave",
    "address_councildis": "C",
    "status": "Assigned to Contractor",
    "contractor": "IV Waste",
    "rowid": "1186005",
    "final_x": "3686454.49647",
    "final_y": "537936.210889",
    "longitude": "-90.05219931823717",
    "latitude": "29.97298667842607",
    "geocoded_column": {
      "latitude": "29.97298667842607",
      "longitude": "-90.05219931823717"
    }
  },
  {
    "service_request": "2025-1186004",
    "request_type": "Trash/Recycling",
    "request_reason": "Request a Large Item Pick Up",
    "date_created": "2025-04-22T15:38:15.000",
    "date_modified": "2025-04-22T15:38:17.000",
    "request_status": "Pending",
    "responsible_agency": "Department of Sanitation",
    "final_address": "15 Christopher Ct",
    "address_councildis": "E",
    "status": "Assigned to Contractor",
    "contractor": "Waste Pro",
    "rowid": "1186004",
    "final_x": "3716824.24056",
    "final_y": "570601.843559",
    "longitude": "-89.9550460166337",
    "latitude": "30.061835642633227",
    "geocoded_column": {
      "latitude": "30.061835642633227",
      "longitude": "-89.9550460166337"
    }
  },
  {
    "service_request": "2025-1186003",
    "request_type": "Trash/Recycling",
    "request_reason": "Replace Trash Cart",
    "date_created": "2025-04-22T15:36:36.000",
    "date_modified": "2025-04-22T18:11:49.000",
    "case_close_date": "2025-04-22T13:11:48.000",
    "request_status": "Closed",
    "responsible_agency": "Department of Sanitation",
    "final_address": "8003 W Laverne St",
    "address_councildis": "E",
    "status": "Duplicate Request",
    "contractor": "Waste Pro",
    "contractor_action": "Duplicate",
    "rowid": "1186003",
    "final_x": "3694844.44342",
    "final_y": "559719.518813",
    "longitude": "-90.0249168046913",
    "latitude": "30.032622123689368",
    "geocoded_column": {
      "latitude": "30.032622123689368",
      "longitude": "-90.0249168046913"
    }
  },
  {
    "service_request": "2025-1186002",
    "request_type": "Trash/Recycling",
    "request_reason": "Replace Trash Cart",
    "date_created": "2025-04-22T15:34:13.000",
    "date_modified": "2025-04-22T15:34:15.000",
    "request_status": "Pending",
    "responsible_agency": "Department of Sanitation",
    "final_address": "8003 W Laverne St",
    "address_councildis": "E",
    "status": "Assigned to Contractor",
    "contractor": "Waste Pro",
    "rowid": "1186002",
    "final_x": "3694844.44342",
    "final_y": "559719.518813",
    "longitude": "-90.0249168046913",
    "latitude": "30.032622123689368",
    "geocoded_column": {
      "latitude": "30.032622123689368",
      "longitude": "-90.0249168046913"
    }
  },
  {
    "service_request": "2025-1186001",
    "request_type": "Roads and Streets",
    "request_reason": "Pothole",
    "date_created": "2025-04-22T15:33:57.000",
    "date_modified": "2025-04-22T15:33:58.000",
    "request_status": "Pending",
    "responsible_agency": "Department of Public Works",
    "final_address": "5201 Camp St",
    "address_councildis": "B",
    "status": "Pending",
    "rowid": "1186001",
    "final_x": "3668019.37709",
    "final_y": "519063.205239",
    "longitude": "-90.11105699890958",
    "latitude": "29.92164592426312",
    "geocoded_column": {
      "latitude": "29.92164592426312",
      "longitude": "-90.11105699890958"
    }
  },
  {
    "service_request": "2025-1186000",
    "request_type": "Trash/Recycling",
    "request_reason": "Request a Large Item Pick Up",
    "date_created": "2025-04-22T15:33:50.000",
    "date_modified": "2025-04-22T15:33:53.000",
    "request_status": "Pending",
    "responsible_agency": "Department of Sanitation",
    "final_address": "2148 Tricou St",
    "address_councildis": "E",
    "status": "Assigned to Contractor",
    "contractor": "Waste Pro",
    "rowid": "1186000",
    "final_x": "3701628.98749",
    "final_y": "536858.643208",
    "longitude": "-90.00431514514538",
    "latitude": "29.96954852096833",
    "geocoded_column": {
      "latitude": "29.96954852096833",
      "longitude": "-90.00431514514538"
    }
  },
  {
    "service_request": "2025-1185999",
    "request_type": "Streetlights",
    "request_reason": "Streetlight Outage/Malfunction",
    "date_created": "2025-04-22T15:30:55.000",
    "date_modified": "2025-04-22T15:31:01.000",
    "request_status": "Pending",
    "responsible_agency": "Department of Public Works",
    "final_address": "5152 Timber Crest Dr",
    "address_councildis": "C",
    "status": "Pending",
    "contractor": "Legacy Professional Services",
    "rowid": "1185999",
    "final_x": "3703322.18993",
    "final_y": "511255.405936",
    "longitude": "-89.99990884807974",
    "latitude": "29.89909447280116",
    "geocoded_column": {
      "latitude": "29.89909447280116",
      "longitude": "-89.99990884807974"
    }
  },
  {
    "service_request": "2025-1185998",
    "request_type": "Trash/Recycling",
    "request_reason": "Missed Trash Pick-Up",
    "date_created": "2025-04-22T15:30:51.000",
    "date_modified": "2025-04-22T15:30:53.000",
    "request_status": "Pending",
    "responsible_agency": "Department of Sanitation",
    "final_address": "601 Belleville St",
    "address_councildis": "C",
    "status": "Assigned to Contractor",
    "contractor": "Richards Disposal",
    "rowid": "1185998",
    "final_x": "3687783.86678",
    "final_y": "529462.114497",
    "longitude": "-90.04830105899731",
    "latitude": "29.94964491478264",
    "geocoded_column": {
      "latitude": "29.94964491478264",
      "longitude": "-90.04830105899731"
    }
  },
  {
    "service_request": "2025-1185997",
    "request_type": "Trash/Recycling",
    "request_reason": "Request a Large Item Pick Up",
    "date_created": "2025-04-22T15:30:32.000",
    "date_modified": "2025-04-22T15:30:34.000",
    "request_status": "Pending",
    "responsible_agency": "Department of Sanitation",
    "final_address": "6200 Eastover Dr",
    "address_councildis": "E",
    "status": "Assigned to Contractor",
    "contractor": "Waste Pro",
    "rowid": "1185997",
    "final_x": "3717498.93983",
    "final_y": "564868.848546",
    "longitude": "-89.95313159758682",
    "latitude": "30.046049938574868",
    "geocoded_column": {
      "latitude": "30.046049938574868",
      "longitude": "-89.95313159758682"
    }
  },
  {
    "service_request": "2025-1185996",
    "request_type": "Streetlights",
    "request_reason": "Streetlight Outage/Malfunction",
    "date_created": "2025-04-22T15:30:22.000",
    "date_modified": "2025-04-22T15:30:24.000",
    "request_status": "Pending",
    "responsible_agency": "Department of Public Works",
    "final_address": "1401 S Prieur St",
    "address_councildis": "B",
    "status": "Pending",
    "contractor": "Legacy Professional Services",
    "rowid": "1185996",
    "final_x": "3674272.15835",
    "final_y": "528938.168576",
    "longitude": "-90.09098166855044",
    "latitude": "29.948613978452848",
    "geocoded_column": {
      "latitude": "29.948613978452848",
      "longitude": "-90.09098166855044"
    }
  },
  {
    "service_request": "2025-1185995",
    "request_type": "Trash/Recycling",
    "request_reason": "Request a Large Item Pick Up",
    "date_created": "2025-04-22T15:27:29.000",
    "date_modified": "2025-04-22T15:27:30.000",
    "request_status": "Pending",
    "responsible_agency": "Department of Sanitation",
    "final_address": "6151 Eastover Dr",
    "address_councildis": "E",
    "status": "Assigned to Contractor",
    "contractor": "Waste Pro",
    "rowid": "1185995",
    "final_x": "3717973.75717",
    "final_y": "564754.295778",
    "longitude": "-89.95163531784956",
    "latitude": "30.04571923083842",
    "geocoded_column": {
      "latitude": "30.04571923083842",
      "longitude": "-89.95163531784956"
    }
  },
  {
    "service_request": "2025-1185994",
    "request_type": "Trash/Recycling",
    "request_reason": "Request a Large Item Pick Up",
    "date_created": "2025-04-22T15:27:21.000",
    "date_modified": "2025-04-22T15:27:23.000",
    "request_status": "Pending",
    "responsible_agency": "Department of Sanitation",
    "final_address": "4740 Sherwood Dr",
    "address_councildis": "E",
    "status": "Assigned to Contractor",
    "contractor": "Waste Pro",
    "rowid": "1185994",
    "final_x": "3717936.25932",
    "final_y": "556904.797082",
    "longitude": "-89.95205288478644",
    "latitude": "30.024137524794895",
    "geocoded_column": {
      "latitude": "30.024137524794895",
      "longitude": "-89.95205288478644"
    }
  },
  {
    "service_request": "2025-1185993",
    "request_type": "Trash/Recycling",
    "request_reason": "Order Recycling Cart",
    "date_created": "2025-04-22T15:27:05.000",
    "date_modified": "2025-04-22T15:27:07.000",
    "request_status": "Pending",
    "responsible_agency": "Department of Sanitation",
    "final_address": "2640 Jefferson Ave B",
    "address_councildis": "A",
    "status": "Pending",
    "rowid": "1185993",
    "final_x": "3668119.2649",
    "final_y": "525272.616573",
    "longitude": "-90.11053252586953",
    "latitude": "29.93871689658271",
    "geocoded_column": {
      "latitude": "29.93871689658271",
      "longitude": "-90.11053252586953"
    }
  },
  {
    "service_request": "2025-1185992",
    "request_type": "Trash/Recycling",
    "request_reason": "Request a Large Item Pick Up",
    "date_created": "2025-04-22T15:26:58.000",
    "date_modified": "2025-04-22T15:27:00.000",
    "request_status": "Pending",
    "responsible_agency": "Department of Sanitation",
    "final_address": "3928 Delachaise St",
    "address_councildis": "B",
    "status": "Assigned to Contractor",
    "contractor": "IV Waste",
    "rowid": "1185992",
    "final_x": "3670899.36315",
    "final_y": "529191.675008",
    "longitude": "-90.10162242925817",
    "latitude": "29.949411159008605",
    "geocoded_column": {
      "latitude": "29.949411159008605",
      "longitude": "-90.10162242925817"
    }
  },
  {
    "service_request": "2025-1185991",
    "request_type": "Trash/Recycling",
    "request_reason": "Request a Large Item Pick Up",
    "date_created": "2025-04-22T15:25:00.000",
    "date_modified": "2025-04-22T15:25:13.000",
    "request_status": "Pending",
    "responsible_agency": "Department of Sanitation",
    "final_address": "718 Jefferson Ave",
    "address_councildis": "A",
    "status": "Assigned to Contractor",
    "contractor": "IV Waste",
    "rowid": "1185991",
    "final_x": "3666495.87706",
    "final_y": "518069.624182",
    "longitude": "-90.11589937313465",
    "latitude": "29.918958486054986",
    "geocoded_column": {
      "latitude": "29.918958486054986",
      "longitude": "-90.11589937313465"
    }
  },
  {
    "service_request": "2025-1185990",
    "request_type": "Parks & Parkways",
    "request_reason": "Request Tree Service (Right of Way/Public Property)",
    "date_created": "2025-04-22T15:24:30.000",
    "date_modified": "2025-04-22T15:24:32.000",
    "request_status": "Pending",
    "responsible_agency": "Department of Parks & Parkway",
    "final_address": "1534 Nashville Ave",
    "address_councildis": "A",
    "status": "Pending",
    "rowid": "1185990",
    "final_x": "3666106.72704",
    "final_y": "521932.039098",
    "longitude": "-90.11699830656643",
    "latitude": "29.929590273989877",
    "geocoded_column": {
      "latitude": "29.929590273989877",
      "longitude": "-90.11699830656643"
    }
  },
  {
    "service_request": "2025-1185989",
    "request_type": "Street and Traffic Signs",
    "request_reason": "Traffic or Parking Sign Damaged or Missing",
    "date_created": "2025-04-22T15:22:01.000",
    "date_modified": "2025-04-22T15:22:02.000",
    "request_status": "Pending",
    "responsible_agency": "Department of Public Works",
    "final_address": "400 Royal St",
    "address_councildis": "C",
    "status": "Pending",
    "rowid": "1185989",
    "final_x": "3682132.51036",
    "final_y": "531622.623235",
    "longitude": "-90.06606949950942",
    "latitude": "29.95575864215333",
    "geocoded_column": {
      "latitude": "29.95575864215333",
      "longitude": "-90.06606949950942"
    }
  },
  {
    "service_request": "2025-1185988",
    "request_type": "Utility Poles",
    "request_reason": "Utility Pole Down",
    "date_created": "2025-04-22T15:19:39.000",
    "date_modified": "2025-04-22T15:19:42.000",
    "request_status": "Pending",
    "responsible_agency": "Utility Company Collective",
    "final_address": "0 BLK Charlotte Dr",
    "address_councildis": "D",
    "status": "Pending",
    "rowid": "1185988",
    "final_x": "3680128.54292",
    "final_y": "551659.371863",
    "longitude": "-90.07170069550259",
    "latitude": "30.01091349637605",
    "geocoded_column": {
      "latitude": "30.01091349637605",
      "longitude": "-90.07170069550259"
    }
  },
  {
    "service_request": "2025-1185987",
    "request_type": "Trash/Recycling",
    "request_reason": "Repair Trash Cart",
    "date_created": "2025-04-22T15:18:28.000",
    "date_modified": "2025-04-22T15:18:32.000",
    "request_status": "Pending",
    "responsible_agency": "Department of Sanitation",
    "final_address": "3401 Lancaster St",
    "address_councildis": "C",
    "status": "Assigned to Contractor",
    "contractor": "Richards Disposal",
    "rowid": "1185987",
    "final_x": "3709859.48702",
    "final_y": "518241.645622",
    "longitude": "-89.97901768831099",
    "latitude": "29.918093410800722",
    "geocoded_column": {
      "latitude": "29.918093410800722",
      "longitude": "-89.97901768831099"
    }
  },
  {
    "service_request": "2025-1185986",
    "request_type": "Streetlights",
    "request_reason": "New Streetlight Request",
    "date_created": "2025-04-22T15:16:47.000",
    "date_modified": "2025-04-22T15:16:50.000",
    "request_status": "Pending",
    "responsible_agency": "Department of Public Works",
    "final_address": "8211 Apple St",
    "address_councildis": "A",
    "status": "Pending",
    "contractor": "Legacy Professional Services",
    "rowid": "1185986",
    "final_x": "3665041.98765",
    "final_y": "532439.407619",
    "longitude": "-90.12000827694052",
    "latitude": "29.95851319652663",
    "geocoded_column": {
      "latitude": "29.95851319652663",
      "longitude": "-90.12000827694052"
    }
  },
  {
    "service_request": "2025-1185985",
    "request_type": "Streetlights",
    "request_reason": "New Streetlight Request",
    "date_created": "2025-04-22T15:15:16.000",
    "date_modified": "2025-04-22T15:15:18.000",
    "request_status": "Pending",
    "responsible_agency": "Department of Public Works",
    "final_address": "8222 Nelson St",
    "address_councildis": "A",
    "status": "Pending",
    "contractor": "Legacy Professional Services",
    "rowid": "1185985",
    "final_x": "3664696.83386",
    "final_y": "532176.643267",
    "longitude": "-90.12110696411133",
    "latitude": "29.95780072532039",
    "geocoded_column": {
      "latitude": "29.95780072532039",
      "longitude": "-90.12110696411133"
    }
  },
  {
    "service_request": "2025-1185984",
    "request_type": "Trash/Recycling",
    "request_reason": "Repair Recycling Cart",
    "date_created": "2025-04-22T15:10:10.000",
    "date_modified": "2025-04-22T15:10:12.000",
    "request_status": "Pending",
    "responsible_agency": "Department of Sanitation",
    "final_address": "136 12Th St",
    "address_councildis": "A",
    "status": "Pending",
    "rowid": "1185984",
    "final_x": "3665792.57063",
    "final_y": "547748.99125",
    "longitude": "-90.11712499977526",
    "latitude": "30.000587536566936",
    "geocoded_column": {
      "latitude": "30.000587536566936",
      "longitude": "-90.11712499977526"
    }
  },
  {
    "service_request": "2025-1185983",
    "request_type": "Roads and Streets",
    "request_reason": "Curb Damage",
    "date_created": "2025-04-22T15:09:43.000",
    "date_modified": "2025-04-22T15:43:44.000",
    "request_status": "Pending",
    "responsible_agency": "Department of Public Works",
    "final_address": "7700 Duke Ct",
    "address_councildis": "E",
    "status": "Pending",
    "rowid": "1185983",
    "final_x": "3700137.75856",
    "final_y": "560778.50403",
    "longitude": "-90.00815090031469",
    "latitude": "30.03536666309471",
    "geocoded_column": {
      "latitude": "30.03536666309471",
      "longitude": "-90.00815090031469"
    }
  },
  {
    "service_request": "2025-1185982",
    "request_type": "Roads and Streets",
    "request_reason": "Debris in Driving Lanes",
    "date_created": "2025-04-22T15:09:39.000",
    "date_modified": "2025-04-22T15:09:42.000",
    "request_status": "Pending",
    "responsible_agency": "Department of Public Works",
    "final_address": "2703 Edge St",
    "address_councildis": "D",
    "status": "Pending",
    "rowid": "1185982",
    "final_x": "3687919.73347",
    "final_y": "545119.305487",
    "longitude": "-90.04731722073876",
    "latitude": "29.992692509073272",
    "geocoded_column": {
      "latitude": "29.992692509073272",
      "longitude": "-90.04731722073876"
    }
  },
  {
    "service_request": "2025-1185981",
    "request_type": "Trash/Recycling",
    "request_reason": "Request a Large Item Pick Up",
    "date_created": "2025-04-22T15:07:37.000",
    "date_modified": "2025-04-22T15:07:38.000",
    "request_status": "Pending",
    "responsible_agency": "Department of Sanitation",
    "final_address": "934 Delery St",
    "address_councildis": "E",
    "status": "Assigned to Contractor",
    "contractor": "Waste Pro",
    "rowid": "1185981",
    "final_x": "3700184.84528",
    "final_y": "532452.293571",
    "longitude": "-90.00903666725098",
    "latitude": "29.957478615645986",
    "geocoded_column": {
      "latitude": "29.957478615645986",
      "longitude": "-90.00903666725098"
    }
  },
  {
    "service_request": "2025-1185980",
    "request_type": "Trash/Recycling",
    "request_reason": "Repair Trash Cart",
    "date_created": "2025-04-22T15:07:34.000",
    "date_modified": "2025-04-22T15:07:36.000",
    "request_status": "Pending",
    "responsible_agency": "Department of Sanitation",
    "final_address": "5458 Dayna Ct",
    "address_councildis": "A",
    "status": "Assigned to Contractor",
    "contractor": "IV Waste",
    "rowid": "1185980",
    "final_x": "3664256.2416",
    "final_y": "543638.220878",
    "longitude": "-90.12211565984326",
    "latitude": "29.98932906720055",
    "geocoded_column": {
      "latitude": "29.98932906720055",
      "longitude": "-90.12211565984326"
    }
  },
  {
    "service_request": "2025-1185979",
    "request_type": "Trash/Recycling",
    "request_reason": "Replace Trash Cart",
    "date_created": "2025-04-22T15:06:33.000",
    "date_modified": "2025-04-22T15:06:35.000",
    "request_status": "Pending",
    "responsible_agency": "Department of Sanitation",
    "final_address": "3125 Cambronne St",
    "address_councildis": "A",
    "status": "Assigned to Contractor",
    "contractor": "IV Waste",
    "rowid": "1185979",
    "final_x": "3665905.19501",
    "final_y": "534238.760517",
    "longitude": "-90.11722218235055",
    "latitude": "29.96343566465797",
    "geocoded_column": {
      "latitude": "29.96343566465797",
      "longitude": "-90.11722218235055"
    }
  },
  {
    "service_request": "2025-1185978",
    "request_type": "Streetlights",
    "request_reason": "Streetlight Outage/Malfunction",
    "date_created": "2025-04-22T15:06:26.000",
    "date_modified": "2025-04-22T15:06:28.000",
    "request_status": "Pending",
    "responsible_agency": "Department of Public Works",
    "final_address": "2513 Laharpe St",
    "address_councildis": "D",
    "status": "Pending",
    "contractor": "Legacy Professional Services",
    "rowid": "1185978",
    "final_x": "3679245.24527",
    "final_y": "539609.518026",
    "longitude": "-90.07490948914548",
    "latitude": "29.977807361474238",
    "geocoded_column": {
      "latitude": "29.977807361474238",
      "longitude": "-90.07490948914548"
    }
  },
  {
    "service_request": "2025-1185977",
    "request_type": "Trash/Recycling",
    "request_reason": "Request a Large Item Pick Up",
    "date_created": "2025-04-22T15:05:38.000",
    "date_modified": "2025-04-22T15:05:45.000",
    "request_status": "Pending",
    "responsible_agency": "Department of Sanitation",
    "final_address": "401 Girod St Apt 1",
    "address_councildis": "B",
    "status": "Assigned to Contractor",
    "contractor": "IV Waste",
    "rowid": "1185977",
    "final_x": "3681661.13359",
    "final_y": "528313.0608",
    "longitude": "-90.06767337267034",
    "latitude": "29.946672789069513",
    "geocoded_column": {
      "latitude": "29.946672789069513",
      "longitude": "-90.06767337267034"
    }
  },
  {
    "service_request": "2025-1185976",
    "request_type": "Streetlights",
    "request_reason": "Streetlight Outage/Malfunction",
    "date_created": "2025-04-22T15:03:51.000",
    "date_modified": "2025-04-22T15:03:53.000",
    "request_status": "Pending",
    "responsible_agency": "Department of Public Works",
    "final_address": "1538 N Dorgenois St",
    "address_councildis": "D",
    "status": "Pending",
    "contractor": "Legacy Professional Services",
    "rowid": "1185976",
    "final_x": "3679330.02677",
    "final_y": "539455.383306",
    "longitude": "-90.07464706737545",
    "latitude": "29.97738098379635",
    "geocoded_column": {
      "latitude": "29.97738098379635",
      "longitude": "-90.07464706737545"
    }
  },
  {
    "service_request": "2025-1185975",
    "request_type": "Trash/Recycling",
    "request_reason": "Repair Trash Cart",
    "date_created": "2025-04-22T14:58:12.000",
    "date_modified": "2025-04-22T14:58:37.000",
    "request_status": "Pending",
    "responsible_agency": "Department of Sanitation",
    "final_address": "4157 Canal St",
    "address_councildis": "A",
    "status": "Assigned to Contractor",
    "contractor": "IV Waste",
    "rowid": "1185975",
    "final_x": "3670780.6059",
    "final_y": "538723.264713",
    "longitude": "-90.10167390441993",
    "latitude": "29.975623366604",
    "geocoded_column": {
      "latitude": "29.975623366604",
      "longitude": "-90.10167390441993"
    }
  },
  {
    "service_request": "2025-1185974",
    "request_type": "Trash/Recycling",
    "request_reason": "Missed Trash Pick-Up",
    "date_created": "2025-04-22T14:57:56.000",
    "date_modified": "2025-04-22T17:55:20.000",
    "case_close_date": "2025-04-22T12:55:19.000",
    "request_status": "Closed",
    "responsible_agency": "Department of Sanitation",
    "final_address": "10800 Roger Dr, New Orleans, Louisiana, 70127",
    "address_councildis": "E",
    "status": "Invalid Request",
    "contractor": "Waste Pro",
    "contractor_action": "Invalid",
    "rowid": "1185974",
    "final_x": "3711652.30936",
    "final_y": "563027.48848",
    "longitude": "-89.97167888673765",
    "latitude": "30.041179283472275",
    "geocoded_column": {
      "latitude": "30.041179283472275",
      "longitude": "-89.97167888673765"
    }
  },
  {
    "service_request": "2025-1185973",
    "request_type": "Trash/Recycling",
    "request_reason": "Request a Large Item Pick Up",
    "date_created": "2025-04-22T14:56:11.000",
    "date_modified": "2025-04-22T14:56:14.000",
    "request_status": "Pending",
    "responsible_agency": "Department of Sanitation",
    "final_address": "7720 Hansbrough Ave",
    "address_councildis": "E",
    "status": "Assigned to Contractor",
    "contractor": "Waste Pro",
    "rowid": "1185973",
    "final_x": "3707438.93214",
    "final_y": "564758.407266",
    "longitude": "-89.98493015615949",
    "latitude": "30.04607561899579",
    "geocoded_column": {
      "latitude": "30.04607561899579",
      "longitude": "-89.98493015615949"
    }
  },
  {
    "service_request": "2025-1185972",
    "request_type": "Trash/Recycling",
    "request_reason": "Missed Trash Pick-Up",
    "date_created": "2025-04-22T14:55:09.000",
    "date_modified": "2025-04-22T18:13:35.000",
    "case_close_date": "2025-04-22T13:13:29.000",
    "request_status": "Closed",
    "responsible_agency": "Department of Sanitation",
    "final_address": "10800 Roger Dr Apt C",
    "address_councildis": "E",
    "status": "Invalid Request",
    "contractor": "Waste Pro",
    "contractor_action": "Invalid",
    "rowid": "1185972",
    "final_x": "3711683.14021",
    "final_y": "562981.394528",
    "longitude": "-89.97158318257173",
    "latitude": "30.041051536165806",
    "geocoded_column": {
      "latitude": "30.041051536165806",
      "longitude": "-89.97158318257173"
    }
  },
  {
    "service_request": "2025-1185971",
    "request_type": "Property Maintenance",
    "request_reason": "Property Maintenance",
    "date_created": "2025-04-22T14:52:32.000",
    "date_modified": "2025-04-22T14:52:34.000",
    "request_status": "Pending",
    "responsible_agency": "Department of Code Enforcement",
    "final_address": "3013 Maurepas St",
    "address_councildis": "A",
    "status": "Pending",
    "rowid": "1185971",
    "final_x": "3677065.5979",
    "final_y": "540759.030155",
    "longitude": "-90.0817539182976",
    "latitude": "29.981033764829885",
    "geocoded_column": {
      "latitude": "29.981033764829885",
      "longitude": "-90.0817539182976"
    }
  },
  {
    "service_request": "2025-1185970",
    "request_type": "Trash/Recycling",
    "request_reason": "Request a Large Item Pick Up",
    "date_created": "2025-04-22T14:52:16.000",
    "date_modified": "2025-04-22T14:53:00.000",
    "request_status": "Pending",
    "responsible_agency": "Department of Sanitation",
    "final_address": "7311 Farwood Dr",
    "address_councildis": "E",
    "status": "Assigned to Contractor",
    "contractor": "Waste Pro",
    "rowid": "1185970",
    "final_x": "3701334.20797",
    "final_y": "556928.493722",
    "longitude": "-90.00451103958198",
    "latitude": "30.024742523630163",
    "geocoded_column": {
      "latitude": "30.024742523630163",
      "longitude": "-90.00451103958198"
    }
  },
  {
    "service_request": "2025-1185969",
    "request_type": "Trash/Recycling",
    "request_reason": "Request a Large Item Pick Up",
    "date_created": "2025-04-22T14:51:08.000",
    "date_modified": "2025-04-22T14:51:15.000",
    "request_status": "Pending",
    "responsible_agency": "Department of Sanitation",
    "final_address": "5411 Edenboro Rd",
    "address_councildis": "E",
    "status": "Assigned to Contractor",
    "contractor": "Waste Pro",
    "rowid": "1185969",
    "final_x": "3708380.44875",
    "final_y": "557795.508443",
    "longitude": "-89.98221399886887",
    "latitude": "30.02689990750971",
    "geocoded_column": {
      "latitude": "30.02689990750971",
      "longitude": "-89.98221399886887"
    }
  },
  {
    "service_request": "2025-1185968",
    "request_type": "Property Maintenance",
    "request_reason": "Property Maintenance",
    "date_created": "2025-04-22T14:50:35.000",
    "date_modified": "2025-04-22T14:50:37.000",
    "request_status": "Pending",
    "responsible_agency": "Department of Code Enforcement",
    "final_address": "2964 Fortin St",
    "address_councildis": "A",
    "status": "Pending",
    "rowid": "1185968",
    "final_x": "3677253.06952",
    "final_y": "540899.837195",
    "longitude": "-90.08115693851802",
    "latitude": "29.981415303673423",
    "geocoded_column": {
      "latitude": "29.981415303673423",
      "longitude": "-90.08115693851802"
    }
  },
  {
    "service_request": "2025-1185967",
    "request_type": "Streetlights",
    "request_reason": "Streetlight Outage/Malfunction",
    "date_created": "2025-04-22T14:48:54.000",
    "date_modified": "2025-04-22T14:48:56.000",
    "request_status": "Pending",
    "responsible_agency": "Department of Public Works",
    "final_address": "4858 Michoud Blvd",
    "address_councildis": "E",
    "status": "Pending",
    "contractor": "Legacy Professional Services",
    "rowid": "1185967",
    "final_x": "3724924.96172",
    "final_y": "560934.55811",
    "longitude": "-89.92981424657769",
    "latitude": "30.03498422409397",
    "geocoded_column": {
      "latitude": "30.03498422409397",
      "longitude": "-89.92981424657769"
    }
  },
  {
    "service_request": "2025-1185966",
    "request_type": "Property Maintenance",
    "request_reason": "Property Maintenance",
    "date_created": "2025-04-22T14:48:37.000",
    "date_modified": "2025-04-22T14:48:40.000",
    "request_status": "Pending",
    "responsible_agency": "Department of Code Enforcement",
    "final_address": "1631 Sauvage St",
    "address_councildis": "A",
    "status": "Pending",
    "rowid": "1185966",
    "final_x": "3677111.02888",
    "final_y": "540810.914379",
    "longitude": "-90.08160863664334",
    "latitude": "29.98117506396978",
    "geocoded_column": {
      "latitude": "29.98117506396978",
      "longitude": "-90.08160863664334"
    }
  },
  {
    "service_request": "2025-1185965",
    "request_type": "Safety & Permits",
    "request_reason": "Zoning Enforcement",
    "date_created": "2025-04-22T14:48:07.000",
    "date_modified": "2025-04-22T14:48:09.000",
    "request_status": "Pending",
    "responsible_agency": "Safety and Permits",
    "final_address": "1307 Spain St",
    "address_councildis": "C",
    "status": "Pending",
    "rowid": "1185965",
    "final_x": "3686107.56796",
    "final_y": "537203.952712",
    "longitude": "-90.05332081733636",
    "latitude": "29.970983885404518",
    "geocoded_column": {
      "latitude": "29.970983885404518",
      "longitude": "-90.05332081733636"
    }
  },
  {
    "service_request": "2025-1185964",
    "request_type": "Property Maintenance",
    "request_reason": "Property Maintenance",
    "date_created": "2025-04-22T14:45:08.000",
    "date_modified": "2025-04-22T15:52:20.000",
    "case_close_date": "2025-04-22T10:52:19.000",
    "request_status": "Closed",
    "responsible_agency": "Department of Code Enforcement",
    "final_address": "1624 Sauvage St",
    "address_councildis": "A",
    "status": "Referred to Code Enforcement",
    "rowid": "1185964",
    "final_x": "3677209.96526",
    "final_y": "540769.864587",
    "longitude": "-90.08129756728515",
    "latitude": "29.981059219064324",
    "geocoded_column": {
      "latitude": "29.981059219064324",
      "longitude": "-90.08129756728515"
    }
  },
  {
    "service_request": "2025-1185963",
    "request_type": "Trash/Recycling",
    "request_reason": "Request a Large Item Pick Up",
    "date_created": "2025-04-22T14:45:03.000",
    "date_modified": "2025-04-22T14:45:05.000",
    "request_status": "Pending",
    "responsible_agency": "Department of Sanitation",
    "final_address": "4816 Mithra St",
    "address_councildis": "D",
    "status": "Assigned to Contractor",
    "contractor": "IV Waste",
    "rowid": "1185963",
    "final_x": "3691535.32252",
    "final_y": "553568.776407",
    "longitude": "-90.03559399400828",
    "latitude": "30.015813377539015",
    "geocoded_column": {
      "latitude": "30.015813377539015",
      "longitude": "-90.03559399400828"
    }
  },
  {
    "service_request": "2025-1185962",
    "request_type": "Drainage",
    "request_reason": "Catch Basin Clogged",
    "date_created": "2025-04-22T14:39:19.000",
    "date_modified": "2025-04-22T14:39:21.000",
    "request_status": "Pending",
    "responsible_agency": "Sewerage & Water Board",
    "final_address": "625 Dauphine St",
    "address_councildis": "C",
    "status": "Pending",
    "rowid": "1185962",
    "final_x": "3681801.77039",
    "final_y": "532833.459844",
    "longitude": "-90.0670716070408",
    "latitude": "29.959098084840257",
    "geocoded_column": {
      "latitude": "29.959098084840257",
      "longitude": "-90.0670716070408"
    }
  },
  {
    "service_request": "2025-1185961",
    "request_type": "Trash/Recycling",
    "request_reason": "Order Recycling Cart",
    "date_created": "2025-04-22T14:36:00.000",
    "date_modified": "2025-04-22T14:36:01.000",
    "request_status": "Pending",
    "responsible_agency": "Department of Sanitation",
    "final_address": "7540 Ligustrum Dr",
    "address_councildis": "E",
    "status": "Pending",
    "rowid": "1185961",
    "final_x": "3701508.27255",
    "final_y": "560958.916638",
    "longitude": "-90.00381325912241",
    "latitude": "30.03581907414187",
    "geocoded_column": {
      "latitude": "30.03581907414187",
      "longitude": "-90.00381325912241"
    }
  },
  {
    "service_request": "2025-1185960",
    "request_type": "Drainage",
    "request_reason": "Catch Basin Clogged",
    "date_created": "2025-04-22T14:33:15.000",
    "date_modified": "2025-04-22T14:33:16.000",
    "request_status": "Pending",
    "responsible_agency": "Sewerage & Water Board",
    "final_address": "638 Esplanade Ave",
    "address_councildis": "C",
    "status": "Pending",
    "rowid": "1185960",
    "final_x": "3684030.56924",
    "final_y": "534355.233413",
    "longitude": "-90.05998021775397",
    "latitude": "29.963214526364883",
    "geocoded_column": {
      "latitude": "29.963214526364883",
      "longitude": "-90.05998021775397"
    }
  },
  {
    "service_request": "2025-1185959",
    "request_type": "Trash/Recycling",
    "request_reason": "Illegal Dumping",
    "date_created": "2025-04-22T14:32:34.000",
    "date_modified": "2025-04-22T14:32:37.000",
    "request_status": "Pending",
    "responsible_agency": "Department of Sanitation",
    "final_address": "1614 First St",
    "address_councildis": "B",
    "status": "Pending",
    "rowid": "1185959",
    "final_x": "3676862.04929",
    "final_y": "523276.894779",
    "longitude": "-90.08299933481308",
    "latitude": "29.932969876295186",
    "geocoded_column": {
      "latitude": "29.932969876295186",
      "longitude": "-90.08299933481308"
    }
  },
  {
    "service_request": "2025-1185958",
    "request_type": "Healthy Homes",
    "request_reason": "Healthy Homes",
    "date_created": "2025-04-22T14:28:33.000",
    "date_modified": "2025-04-22T14:28:35.000",
    "request_status": "Pending",
    "responsible_agency": "Department of Code Enforcement",
    "final_address": "2317 DAbadie St",
    "address_councildis": "D",
    "status": "Pending",
    "rowid": "1185958",
    "final_x": "3680576.11503",
    "final_y": "539995.224971",
    "longitude": "-90.07069271996387",
    "latitude": "29.978827664660447",
    "geocoded_column": {
      "latitude": "29.978827664660447",
      "longitude": "-90.07069271996387"
    }
  },
  {
    "service_request": "2025-1185957",
    "request_type": "Trash/Recycling",
    "request_reason": "Repair Trash Cart",
    "date_created": "2025-04-22T14:27:02.000",
    "date_modified": "2025-04-22T14:27:04.000",
    "request_status": "Pending",
    "responsible_agency": "Department of Sanitation",
    "final_address": "2532 Dumaine St",
    "address_councildis": "D",
    "status": "Assigned to Contractor",
    "contractor": "IV Waste",
    "rowid": "1185957",
    "final_x": "3677721.62088",
    "final_y": "537035.348104",
    "longitude": "-90.07981056600879",
    "latitude": "29.97077520061568",
    "geocoded_column": {
      "latitude": "29.97077520061568",
      "longitude": "-90.07981056600879"
    }
  },
  {
    "service_request": "2025-1185956",
    "request_type": "Abandoned Vehicles",
    "request_reason": "Abandoned/Junk Vehicles",
    "date_created": "2025-04-22T14:23:56.000",
    "date_modified": "2025-04-22T14:23:59.000",
    "request_status": "Pending",
    "responsible_agency": "Department of Public Works",
    "final_address": "1502 Mandolin St",
    "address_councildis": "D",
    "status": "Pending",
    "rowid": "1185956",
    "final_x": "3678843.90856",
    "final_y": "547976.115026",
    "longitude": "-90.07588706557104",
    "latitude": "30.000824685704785",
    "geocoded_column": {
      "latitude": "30.000824685704785",
      "longitude": "-90.07588706557104"
    }
  },
  {
    "service_request": "2025-1185955",
    "request_type": "Trash/Recycling",
    "request_reason": "Request a Large Item Pick Up",
    "date_created": "2025-04-22T14:23:15.000",
    "date_modified": "2025-04-22T14:23:17.000",
    "request_status": "Pending",
    "responsible_agency": "Department of Sanitation",
    "final_address": "2612 S Carrollton Ave",
    "address_councildis": "A",
    "status": "Assigned to Contractor",
    "contractor": "IV Waste",
    "rowid": "1185955",
    "final_x": "3665424.58778",
    "final_y": "532200.644547",
    "longitude": "-90.1188081134764",
    "latitude": "29.957845530775696",
    "geocoded_column": {
      "latitude": "29.957845530775696",
      "longitude": "-90.1188081134764"
    }
  },
  {
    "service_request": "2025-1185954",
    "request_type": "Healthy Homes",
    "request_reason": "Healthy Homes",
    "date_created": "2025-04-22T14:22:33.000",
    "date_modified": "2025-04-22T14:22:34.000",
    "request_status": "Pending",
    "responsible_agency": "Department of Code Enforcement",
    "final_address": "909 Gravier St Apt 1902",
    "address_councildis": "B",
    "status": "Pending",
    "rowid": "1185954",
    "final_x": "3679994.13211",
    "final_y": "530490.952834",
    "longitude": "-90.07286105327701",
    "latitude": "29.95271178603239",
    "geocoded_column": {
      "latitude": "29.95271178603239",
      "longitude": "-90.07286105327701"
    }
  },
  {
    "service_request": "2025-1185953",
    "request_type": "Trash/Recycling",
    "request_reason": "Request a Large Item Pick Up",
    "date_created": "2025-04-22T14:21:25.000",
    "date_modified": "2025-04-22T14:21:27.000",
    "request_status": "Pending",
    "responsible_agency": "Department of Sanitation",
    "final_address": "2235 Audubon St",
    "address_councildis": "A",
    "status": "Assigned to Contractor",
    "contractor": "IV Waste",
    "rowid": "1185953",
    "final_x": "3666573.07425",
    "final_y": "529485.531841",
    "longitude": "-90.11527264707127",
    "latitude": "29.950346334257723",
    "geocoded_column": {
      "latitude": "29.950346334257723",
      "longitude": "-90.11527264707127"
    }
  },
  {
    "service_request": "2025-1185952",
    "request_type": "Trash/Recycling",
    "request_reason": "Request a Large Item Pick Up",
    "date_created": "2025-04-22T14:17:26.000",
    "date_modified": "2025-04-22T16:00:40.000",
    "case_close_date": "2025-04-22T11:00:39.000",
    "request_status": "Closed",
    "responsible_agency": "Department of Sanitation",
    "final_address": "5510 Clements Dr",
    "address_councildis": "E",
    "status": "Invalid Request",
    "contractor": "Waste Pro",
    "contractor_action": "Invalid",
    "rowid": "1185952",
    "final_x": "3702416.65053",
    "final_y": "556012.938777",
    "longitude": "-90.00112436249216",
    "latitude": "30.02219053955965",
    "geocoded_column": {
      "latitude": "30.02219053955965",
      "longitude": "-90.00112436249216"
    }
  },
  {
    "service_request": "2025-1185951",
    "request_type": "Property Maintenance",
    "request_reason": "Property Maintenance",
    "date_created": "2025-04-22T14:16:53.000",
    "date_modified": "2025-04-22T14:16:55.000",
    "request_status": "Pending",
    "responsible_agency": "Department of Code Enforcement",
    "final_address": "1807 Dumaine St",
    "address_councildis": "D",
    "status": "Pending",
    "rowid": "1185951",
    "final_x": "3679871.10792",
    "final_y": "535483.911494",
    "longitude": "-90.07307611069541",
    "latitude": "29.966444448831485",
    "geocoded_column": {
      "latitude": "29.966444448831485",
      "longitude": "-90.07307611069541"
    }
  },
  {
    "service_request": "2025-1185950",
    "request_type": "Trash/Recycling",
    "request_reason": "Repair Trash Cart",
    "date_created": "2025-04-22T14:16:20.000",
    "date_modified": "2025-04-22T14:16:22.000",
    "request_status": "Pending",
    "responsible_agency": "Department of Sanitation",
    "final_address": "3030 Florida Ave",
    "address_councildis": "D",
    "status": "Assigned to Contractor",
    "contractor": "IV Waste",
    "rowid": "1185950",
    "final_x": "3690206.17289",
    "final_y": "542191.946317",
    "longitude": "-90.04019915716556",
    "latitude": "29.984572565887003",
    "geocoded_column": {
      "latitude": "29.984572565887003",
      "longitude": "-90.04019915716556"
    }
  },
  {
    "service_request": "2025-1185949",
    "request_type": "Trash/Recycling",
    "request_reason": "Request a Large Item Pick Up",
    "date_created": "2025-04-22T14:13:57.000",
    "date_modified": "2025-04-22T14:14:00.000",
    "request_status": "Pending",
    "responsible_agency": "Department of Sanitation",
    "final_address": "1427 Jourdan Ave",
    "address_councildis": "E",
    "status": "Assigned to Contractor",
    "contractor": "Waste Pro",
    "rowid": "1185949",
    "final_x": "3695470.46717",
    "final_y": "535857.584903",
    "longitude": "-90.02380030641986",
    "latitude": "29.966990938613325",
    "geocoded_column": {
      "latitude": "29.966990938613325",
      "longitude": "-90.02380030641986"
    }
  },
  {
    "service_request": "2025-1185948",
    "request_type": "Drainage",
    "request_reason": "Catch Basin Clogged",
    "date_created": "2025-04-22T14:12:36.000",
    "date_modified": "2025-04-22T14:12:38.000",
    "request_status": "Pending",
    "responsible_agency": "Sewerage & Water Board",
    "final_address": "1939 Frenchmen St",
    "address_councildis": "D",
    "status": "Pending",
    "rowid": "1185948",
    "final_x": "3684374.8045",
    "final_y": "539544.333898",
    "longitude": "-90.05871088171206",
    "latitude": "29.97747222749473",
    "geocoded_column": {
      "latitude": "29.97747222749473",
      "longitude": "-90.05871088171206"
    }
  },
  {
    "service_request": "2025-1185947",
    "request_type": "Trash/Recycling",
    "request_reason": "Start Trash Service",
    "date_created": "2025-04-22T14:10:25.000",
    "date_modified": "2025-04-22T14:10:27.000",
    "request_status": "Pending",
    "responsible_agency": "Department of Sanitation",
    "final_address": "1729 Port St",
    "address_councildis": "D",
    "status": "Assigned to Contractor",
    "contractor": "IV Waste",
    "rowid": "1185947",
    "final_x": "3688077.0822",
    "final_y": "538870.140233",
    "longitude": "-90.0470417819246",
    "latitude": "29.975504672252345",
    "geocoded_column": {
      "latitude": "29.975504672252345",
      "longitude": "-90.0470417819246"
    }
  },
  {
    "service_request": "2025-1185946",
    "request_type": "Abandoned Vehicles",
    "request_reason": "Abandoned/Junk Vehicles",
    "date_created": "2025-04-22T14:09:26.000",
    "date_modified": "2025-04-22T14:12:29.000",
    "request_status": "Pending",
    "responsible_agency": "Department of Public Works",
    "final_address": "10731 Roger Dr",
    "address_councildis": "E",
    "status": "Pending",
    "rowid": "1185946",
    "final_x": "3711582.77387",
    "final_y": "563095.126112",
    "longitude": "-89.97189610143394",
    "latitude": "30.041367531709113",
    "geocoded_column": {
      "latitude": "30.041367531709113",
      "longitude": "-89.97189610143394"
    }
  },
  {
    "service_request": "2025-1185945",
    "request_type": "Streetlights",
    "request_reason": "Streetlight Outage/Malfunction",
    "date_created": "2025-04-22T14:05:28.000",
    "date_modified": "2025-04-22T14:05:30.000",
    "request_status": "Pending",
    "responsible_agency": "Department of Public Works",
    "final_address": "919 Homer St",
    "address_councildis": "C",
    "status": "Pending",
    "contractor": "Legacy Professional Services",
    "rowid": "1185945",
    "final_x": "3688307.72361",
    "final_y": "528276.659584",
    "longitude": "-90.04668903902505",
    "latitude": "29.946369154705565",
    "geocoded_column": {
      "latitude": "29.946369154705565",
      "longitude": "-90.04668903902505"
    }
  },
  {
    "service_request": "2025-1185944",
    "request_type": "Safety & Permits",
    "request_reason": "Zoning Enforcement",
    "date_created": "2025-04-22T14:00:26.000",
    "date_modified": "2025-04-22T14:00:27.000",
    "request_status": "Pending",
    "responsible_agency": "Safety and Permits",
    "final_address": "7512 Freret St",
    "address_councildis": "A",
    "status": "Pending",
    "rowid": "1185944",
    "final_x": "3662941.73991",
    "final_y": "526489.155006",
    "longitude": "-90.12683817525306",
    "latitude": "29.942212901551265",
    "geocoded_column": {
      "latitude": "29.942212901551265",
      "longitude": "-90.12683817525306"
    }
  },
  {
    "service_request": "2025-1185943",
    "request_type": "Trash/Recycling",
    "request_reason": "Order Second Trash Cart",
    "date_created": "2025-04-22T13:59:43.000",
    "date_modified": "2025-04-22T13:59:45.000",
    "request_status": "Pending",
    "responsible_agency": "Department of Sanitation",
    "final_address": "1120 Lowerline St",
    "address_councildis": "A",
    "status": "Assigned to Contractor",
    "contractor": "IV Waste",
    "rowid": "1185943",
    "final_x": "3663544.44755",
    "final_y": "526686.65459",
    "longitude": "-90.12492871002634",
    "latitude": "29.94273849880697",
    "geocoded_column": {
      "latitude": "29.94273849880697",
      "longitude": "-90.12492871002634"
    }
  },
  {
    "service_request": "2025-1185942",
    "request_type": "Trash/Recycling",
    "request_reason": "Replace Trash Cart",
    "date_created": "2025-04-22T13:59:11.000",
    "date_modified": "2025-04-22T13:59:13.000",
    "request_status": "Pending",
    "responsible_agency": "Department of Sanitation",
    "final_address": "2128 Valentine Ct",
    "address_councildis": "C",
    "status": "Assigned to Contractor",
    "contractor": "Richards Disposal",
    "rowid": "1185942",
    "final_x": "3699749.22052",
    "final_y": "523348.430459",
    "longitude": "-90.0107440476394",
    "latitude": "29.932460021623907",
    "geocoded_column": {
      "latitude": "29.932460021623907",
      "longitude": "-90.0107440476394"
    }
  },
  {
    "service_request": "2025-1185941",
    "request_type": "Trash/Recycling",
    "request_reason": "Missed Trash Pick-Up",
    "date_created": "2025-04-22T13:58:32.000",
    "date_modified": "2025-04-22T14:01:05.000",
    "case_close_date": "2025-04-22T09:01:03.000",
    "request_status": "Closed",
    "responsible_agency": "Department of Sanitation",
    "final_address": "6535 E Hermes St",
    "address_councildis": "D",
    "status": "Invalid Request",
    "contractor": "Waste Pro",
    "contractor_action": "Additional information required from resident",
    "rowid": "1185941",
    "final_x": "3697991.15523",
    "final_y": "555579.703769",
    "longitude": "-90.01512349541927",
    "latitude": "30.021140042087282",
    "geocoded_column": {
      "latitude": "30.021140042087282",
      "longitude": "-90.01512349541927"
    }
  },
  {
    "service_request": "2025-1185940",
    "request_type": "Trash/Recycling",
    "request_reason": "Request a Large Item Pick Up",
    "date_created": "2025-04-22T13:58:07.000",
    "date_modified": "2025-04-22T13:58:09.000",
    "request_status": "Pending",
    "responsible_agency": "Department of Sanitation",
    "final_address": "7720 Shaw Ave",
    "address_councildis": "E",
    "status": "Assigned to Contractor",
    "contractor": "Waste Pro",
    "rowid": "1185940",
    "final_x": "3707000.23729",
    "final_y": "564517.056481",
    "longitude": "-89.98632560997274",
    "latitude": "30.04542618821065",
    "geocoded_column": {
      "latitude": "30.04542618821065",
      "longitude": "-89.98632560997274"
    }
  },
  {
    "service_request": "2025-1185939",
    "request_type": "Drainage",
    "request_reason": "Catch Basin Clogged",
    "date_created": "2025-04-22T13:57:47.000",
    "date_modified": "2025-04-22T13:57:49.000",
    "request_status": "Pending",
    "responsible_agency": "Sewerage & Water Board",
    "final_address": "5422 York St",
    "address_councildis": "A",
    "status": "Pending",
    "rowid": "1185939",
    "final_x": "3668773.31162",
    "final_y": "528618.737984",
    "longitude": "-90.1083546856561",
    "latitude": "29.947898438089325",
    "geocoded_column": {
      "latitude": "29.947898438089325",
      "longitude": "-90.1083546856561"
    }
  },