[
  {
    "service_request": "2021-833489",
    "request_type": "Abandoned Vehicles",
    "request_reason": "Abandoned/Junk Vehicles",
    "date_created": "2021-10-15T00:34:10.000",
    "date_modified": "2021-10-15T00:34:10.000",
    "request_status": "Pending",
    "responsible_agency": "Department of Public Works",
    "final_address": "222 N Tonti St",
    "address_councildis": "B",
    "status": "Pending",
    "rowid": "833489",
    "final_x": "3676831.96449",
    "final_y": "534776.733574",
    "longitude": "-90.08269806618439",
    "latitude": "29.964591509861442",
    "geocoded_column": {
      "latitude": "29.964591509861442",
      "longitude": "-90.08269806618439"
    }
  },
  {
    "service_request": "2021-833488",
    "request_type": "Health Related Questions",
    "request_reason": "Noise Ordinance Complaint",
    "date_created": "2021-10-14T22:55:51.000",
    "date_modified": "2021-10-14T22:55:51.000",
    "request_status": "Pending",
    "responsible_agency": "Health Department",
    "final_address": "1500 N Claiborne Ave",
    "address_councildis": "C",
    "status": "Pending",
    "rowid": "833488",
    "final_x": "3681846.67516",
    "final_y": "537148.826504",
    "longitude": "-90.0667791844965",
    "latitude": "29.970962498120493",
    "geocoded_column": {
      "latitude": "29.970962498120493",
      "longitude": "-90.0667791844965"
    }
  },
  {
    "service_request": "2021-833487",
    "request_type": "Trash/Recycling",
    "request_reason": "Illegal Dumping",
    "date_created": "2021-10-14T22:51:00.000",
    "date_modified": "2021-10-14T22:51:00.000",
    "request_status": "Pending",
    "responsible_agency": "Department of Sanitation",
    "final_address": "2111 Erato St",
    "address_councildis": "B",
    "status": "Pending",
    "rowid": "833487",
    "final_x": "3677803.81576",
    "final_y": "527172.648959",
    "longitude": "-90.07989171002914",
    "latitude": "29.943653625889663",
    "geocoded_column": {
      "latitude": "29.943653625889663",
      "longitude": "-90.07989171002914"
    }
  },
  {
    "service_request": "2021-833483",
    "request_type": "Trash/Recycling",
    "request_reason": "Illegal Dumping",
    "date_created": "2021-10-14T22:28:37.000",
    "date_modified": "2021-10-14T22:28:37.000",
    "request_status": "Pending",
    "responsible_agency": "Department of Sanitation",
    "final_address": "2101 St Claude Ave",
    "address_councildis": "C",
    "status": "Pending",
    "rowid": "833483",
    "final_x": "3684650.13001",
    "final_y": "536382.140039",
    "longitude": "-90.05795247634498",
    "latitude": "29.96876887254759",
    "geocoded_column": {
      "latitude": "29.96876887254759",
      "longitude": "-90.05795247634498"
    }
  },
  {
    "service_request": "2021-833481",
    "request_type": "Property Maintenance",
    "request_reason": "Property Maintenance",
    "date_created": "2021-10-14T22:12:24.000",
    "date_modified": "2021-10-14T22:12:24.000",
    "request_status": "Pending",
    "responsible_agency": "Department of Code Enforcement",
    "final_address": "2236 Spain St",
    "address_councildis": "D",
    "status": "Pending",
    "rowid": "833481",
    "final_x": "3685728.97462",
    "final_y": "540738.261579",
    "longitude": "-90.05439187838377",
    "latitude": "29.98071361912676",
    "geocoded_column": {
      "latitude": "29.98071361912676",
      "longitude": "-90.05439187838377"
    }
  },
  {
    "service_request": "2021-833480",
    "request_type": "Trash/Recycling",
    "request_reason": "Missed Trash Pick-Up",
    "date_created": "2021-10-14T21:56:03.000",
    "date_modified": "2021-10-14T21:56:04.000",
    "request_status": "Pending",
    "responsible_agency": "Department of Sanitation",
    "final_address": "1221 Sister St",
    "address_councildis": "E",
    "status": "Assigned to Contractor",
    "contractor": "Metro Disposal",
    "rowid": "833480",
    "final_x": "3694908.66019",
    "final_y": "535215.574534",
    "longitude": "-90.02559762560611",
    "latitude": "29.96524328038723",
    "geocoded_column": {
      "latitude": "29.96524328038723",
      "longitude": "-90.02559762560611"
    }
  },
  {
    "service_request": "2021-833478",
    "request_type": "Trash/Recycling",
    "request_reason": "Missed Trash Pick-Up",
    "date_created": "2021-10-14T21:26:02.000",
    "date_modified": "2021-10-14T21:26:03.000",
    "request_status": "Pending",
    "responsible_agency": "Department of Sanitation",
    "final_address": "607 N Saint Patrick St, New Orleans, Louisiana, 70119",
    "status": "Assigned to Contractor",
    "rowid": "833478",
    "longitude": "0.0",
    "latitude": "0.0",
    "geocoded_column": {
      "latitude": "0.0",
      "longitude": "0.0"
    }
  },
  {
    "service_request": "2021-833477",
    "request_type": "COVID-19",
    "request_reason": "COVID-19 Business Non-Compliance",
    "date_created": "2021-10-14T21:20:49.000",
    "date_modified": "2021-10-14T21:20:50.000",
    "request_status": "Pending",
    "responsible_agency": "Safety and Permits",
    "final_address": "600 Fulton St",
    "address_councildis": "B",
    "status": "Pending",
    "rowid": "833477",
    "final_x": "3682459.54613",
    "final_y": "528433.442496",
    "longitude": "-90.06514829202501",
    "latitude": "29.946979524716344",
    "geocoded_column": {
      "latitude": "29.946979524716344",
      "longitude": "-90.06514829202501"
    }
  },
  {
    "service_request": "2021-833476",
    "request_type": "Trash/Recycling",
    "request_reason": "Request a Large Item Pick Up",
    "date_created": "2021-10-14T21:02:42.000",
    "date_modified": "2021-10-14T21:02:43.000",
    "request_status": "Pending",
    "responsible_agency": "Department of Sanitation",
    "final_address": "13931 Linden St",
    "address_councildis": "E",
    "status": "Assigned to Contractor",
    "contractor": "Metro Disposal",
    "rowid": "833476",
    "final_x": "3718130.28037",
    "final_y": "572283.198441",
    "longitude": "-89.95085354157808",
    "latitude": "30.066415405507716",
    "geocoded_column": {
      "latitude": "30.066415405507716",
      "longitude": "-89.95085354157808"
    }
  },
  {
    "service_request": "2021-833475",
    "request_type": "Trash/Recycling",
    "request_reason": "Illegal Dumping",
    "date_created": "2021-10-14T21:00:17.000",
    "date_modified": "2021-10-14T21:00:17.000",
    "request_status": "Pending",
    "responsible_agency": "Department of Sanitation",
    "final_address": "11215 King Richard Dr",
    "address_councildis": "E",
    "status": "Pending",
    "rowid": "833475",
    "final_x": "3716928.84869",
    "final_y": "556508.803354",
    "longitude": "-89.9552511249035",
    "latitude": "30.023082052848796",
    "geocoded_column": {
      "latitude": "30.023082052848796",
      "longitude": "-89.9552511249035"
    }
  },
  {
    "service_request": "2021-833474",
    "request_type": "Trash/Recycling",
    "request_reason": "Missed Trash Pick-Up",
    "date_created": "2021-10-14T20:57:20.000",
    "date_modified": "2021-10-14T20:57:20.000",
    "request_status": "Pending",
    "responsible_agency": "Department of Sanitation",
    "final_address": "902 Stewart Ct",
    "address_councildis": "A",
    "status": "Assigned to Contractor",
    "contractor": "Richards Disposal",
    "rowid": "833474",
    "final_x": "3673066.12801",
    "final_y": "540708.791883",
    "longitude": "-90.09438777562833",
    "latitude": "29.981015140424745",
    "geocoded_column": {
      "latitude": "29.981015140424745",
      "longitude": "-90.09438777562833"
    }
  },
  {
    "service_request": "2021-833473",
    "request_type": "Trash/Recycling",
    "request_reason": "Illegal Dumping",
    "date_created": "2021-10-14T20:37:54.000",
    "date_modified": "2021-10-14T20:37:54.000",
    "request_status": "Pending",
    "responsible_agency": "Department of Sanitation",
    "final_address": "1708 Bayou Rd",
    "address_councildis": "D",
    "status": "Pending",
    "rowid": "833473",
    "final_x": "3680829.84847",
    "final_y": "536278.164295",
    "longitude": "-90.0700207687551",
    "latitude": "29.968599342180728",
    "geocoded_column": {
      "latitude": "29.968599342180728",
      "longitude": "-90.0700207687551"
    }
  },
  {
    "service_request": "2021-833472",
    "request_type": "Trash/Recycling",
    "request_reason": "Order Recycling Cart",
    "date_created": "2021-10-14T20:27:58.000",
    "date_modified": "2021-10-14T20:27:58.000",
    "request_status": "Pending",
    "responsible_agency": "Department of Sanitation",
    "final_address": "13118 Dwyer Blvd",
    "address_councildis": "E",
    "status": "Pending",
    "rowid": "833472",
    "final_x": "3724198.54828",
    "final_y": "561238.55683",
    "longitude": "-89.93209804600616",
    "latitude": "30.035844541176957",
    "geocoded_column": {
      "latitude": "30.035844541176957",
      "longitude": "-89.93209804600616"
    }
  },
  {
    "service_request": "2021-833470",
    "request_type": "Traffic Signals/Signs/Striping/Streetlights",
    "request_reason": "Street Light Outage/Malfunction",
    "date_created": "2021-10-14T20:10:43.000",
    "date_modified": "2021-10-14T20:10:44.000",
    "request_status": "Pending",
    "responsible_agency": "Department of Public Works",
    "final_address": "6325 General Haig St",
    "address_councildis": "A",
    "status": "Pending",
    "contractor": "Royal Engineering",
    "rowid": "833470",
    "final_x": "3670801.5787",
    "final_y": "549307.423379",
    "longitude": "-90.10124822878299",
    "latitude": "30.00472554137156",
    "geocoded_column": {
      "latitude": "30.00472554137156",
      "longitude": "-90.10124822878299"
    }
  },
  {
    "service_request": "2021-833469",
    "request_type": "Roads/Drainage",
    "request_reason": "Catch Basin - Broken/Damage",
    "date_created": "2021-10-14T20:06:26.000",
    "date_modified": "2021-10-14T20:06:26.000",
    "request_status": "Pending",
    "responsible_agency": "Department of Public Works",
    "final_address": "1010 Eleonore St",
    "address_councildis": "A",
    "status": "Pending",
    "rowid": "833469",
    "final_x": "3665362.17562",
    "final_y": "519858.304184",
    "longitude": "-90.11941808481672",
    "latitude": "29.923909867886067",
    "geocoded_column": {
      "latitude": "29.923909867886067",
      "longitude": "-90.11941808481672"
    }
  },
  {
    "service_request": "2021-833467",
    "request_type": "Traffic Signals/Signs/Striping/Streetlights",
    "request_reason": "Street Light Outage/Malfunction",
    "date_created": "2021-10-14T19:33:40.000",
    "date_modified": "2021-10-14T19:33:41.000",
    "request_status": "Pending",
    "responsible_agency": "Department of Public Works",
    "final_address": "7709 Oak St",
    "address_councildis": "A",
    "status": "Pending",
    "contractor": "Royal Engineering",
    "rowid": "833467",
    "final_x": "3663006.42208",
    "final_y": "527477.806655",
    "longitude": "-90.12660108574067",
    "latitude": "29.944929504901474",
    "geocoded_column": {
      "latitude": "29.944929504901474",
      "longitude": "-90.12660108574067"
    }
  },
  {
    "service_request": "2021-833466",
    "request_type": "Traffic Signals/Signs/Striping/Streetlights",
    "request_reason": "Additional signage",
    "date_created": "2021-10-14T19:06:41.000",
    "date_modified": "2021-10-14T19:06:41.000",
    "request_status": "Pending",
    "responsible_agency": "Department of Public Works",
    "final_address": "6068 Canal Blvd",
    "address_councildis": "A",
    "status": "Pending",
    "rowid": "833466",
    "final_x": "3668403.33185",
    "final_y": "547897.583826",
    "longitude": "-90.10887238651094",
    "latitude": "30.000919661027034",
    "geocoded_column": {
      "latitude": "30.000919661027034",
      "longitude": "-90.10887238651094"
    }
  },
  {
    "service_request": "2021-833465",
    "request_type": "Traffic Signals/Signs/Striping/Streetlights",
    "request_reason": "Street Light Knocked Down/Leaning",
    "date_created": "2021-10-14T18:56:44.000",
    "date_modified": "2021-10-14T18:56:45.000",
    "request_status": "Pending",
    "responsible_agency": "Department of Public Works",
    "final_address": "6565 Argonne Blvd",
    "address_councildis": "A",
    "status": "Pending",
    "contractor": "Royal Engineering",
    "rowid": "833465",
    "final_x": "3670573.63246",
    "final_y": "551051.537621",
    "longitude": "-90.10190914248348",
    "latitude": "30.009527980913308",
    "geocoded_column": {
      "latitude": "30.009527980913308",
      "longitude": "-90.10190914248348"
    }
  },
  {
    "service_request": "2021-833464",
    "request_type": "Trash/Recycling",
    "request_reason": "Missed Trash Pick-Up",
    "date_created": "2021-10-14T18:28:33.000",
    "date_modified": "2021-10-14T18:28:34.000",
    "request_status": "Pending",
    "responsible_agency": "Department of Sanitation",
    "final_address": "309 Jewel St",
    "address_councildis": "D",
    "status": "Assigned to Contractor",
    "contractor": "Metro Disposal",
    "rowid": "833464",
    "final_x": "3667524.67175",
    "final_y": "555897.405273",
    "longitude": "-90.11137864349452",
    "latitude": "30.022942154021866",
    "geocoded_column": {
      "latitude": "30.022942154021866",
      "longitude": "-90.11137864349452"
    }
  },
  {
    "service_request": "2021-833462",
    "request_type": "Traffic Signals/Signs/Striping/Streetlights",
    "request_reason": "Street Light Outage/Malfunction",
    "date_created": "2021-10-14T18:26:25.000",
    "date_modified": "2021-10-14T18:26:26.000",
    "request_status": "Pending",
    "responsible_agency": "Department of Public Works",
    "final_address": "3106 Music St",
    "address_councildis": "D",
    "status": "Pending",
    "contractor": "Royal Engineering",
    "rowid": "833462",
    "final_x": "3686139.78217",
    "final_y": "544260.039311",
    "longitude": "-90.05297007899564",
    "latitude": "29.990384643767914",
    "geocoded_column": {
      "latitude": "29.990384643767914",
      "longitude": "-90.05297007899564"
    }
  },
  {
    "service_request": "2021-833460",
    "request_type": "Trash/Recycling",
    "request_reason": "Request a Large Item Pick Up",
    "date_created": "2021-10-14T18:22:23.000",
    "date_modified": "2021-10-14T18:22:23.000",
    "request_status": "Pending",
    "responsible_agency": "Department of Sanitation",
    "final_address": "2126 Amelia St",
    "address_councildis": "B",
    "status": "Assigned to Contractor",
    "contractor": "Richards Disposal",
    "rowid": "833460",
    "final_x": "3672604.381",
    "final_y": "523122.238715",
    "longitude": "-90.09644578114124",
    "latitude": "29.932671683627404",
    "geocoded_column": {
      "latitude": "29.932671683627404",
      "longitude": "-90.09644578114124"
    }
  },
  {
    "service_request": "2021-833459",
    "request_type": "Traffic Signals/Signs/Striping/Streetlights",
    "request_reason": "Street Light Outage/Malfunction",
    "date_created": "2021-10-14T18:20:09.000",
    "date_modified": "2021-10-14T18:20:09.000",
    "request_status": "Pending",
    "responsible_agency": "Department of Public Works",
    "final_address": "2311 Seventh St",
    "address_councildis": "B",
    "status": "Pending",
    "contractor": "Royal Engineering",
    "rowid": "833459",
    "final_x": "3673840.26932",
    "final_y": "524268.098492",
    "longitude": "-90.09250500430664",
    "latitude": "29.93578568489232",
    "geocoded_column": {
      "latitude": "29.93578568489232",
      "longitude": "-90.09250500430664"
    }
  },
  {
    "service_request": "2021-833458",
    "request_type": "Abandoned Vehicles",
    "request_reason": "Abandoned/Junk Vehicles",
    "date_created": "2021-10-14T18:17:13.000",
    "date_modified": "2021-10-14T18:17:13.000",
    "request_status": "Pending",
    "responsible_agency": "Department of Public Works",
    "final_address": "910 N Dorgenois St",
    "address_councildis": "D",
    "status": "Pending",
    "rowid": "833458",
    "final_x": "3677673.56347",
    "final_y": "537234.38676",
    "longitude": "-90.07995546149222",
    "latitude": "29.97132393436578",
    "geocoded_column": {
      "latitude": "29.97132393436578",
      "longitude": "-90.07995546149222"
    }
  },
  {
    "service_request": "2021-833457",
    "request_type": "Traffic Signals/Signs/Striping/Streetlights",
    "request_reason": "Street Light Outage/Malfunction",
    "date_created": "2021-10-14T18:14:39.000",
    "date_modified": "2021-10-14T18:14:40.000",
    "request_status": "Pending",
    "responsible_agency": "Department of Public Works",
    "final_address": "6625 Maumus Ave",
    "address_councildis": "C",
    "status": "Pending",
    "contractor": "Royal Engineering",
    "rowid": "833457",
    "final_x": "3708384.825",
    "final_y": "516592.279285",
    "longitude": "-89.98373367207317",
    "latitude": "29.91360607035133",
    "geocoded_column": {
      "latitude": "29.91360607035133",
      "longitude": "-89.98373367207317"
    }
  },
  {
    "service_request": "2021-833456",
    "request_type": "Traffic Signals/Signs/Striping/Streetlights",
    "request_reason": "Street Light Outage/Malfunction",
    "date_created": "2021-10-14T17:59:26.000",
    "date_modified": "2021-10-14T17:59:26.000",
    "request_status": "Pending",
    "responsible_agency": "Department of Public Works",
    "final_address": "6012 Warwick Ct",
    "address_councildis": "C",
    "status": "Pending",
    "contractor": "Royal Engineering",
    "rowid": "833456",
    "final_x": "3706001.39147",
    "final_y": "515949.394228",
    "longitude": "-89.99128024227298",
    "latitude": "29.911915333448068",
    "geocoded_column": {
      "latitude": "29.911915333448068",
      "longitude": "-89.99128024227298"
    }
  },
  {
    "service_request": "2021-833455",
    "request_type": "Traffic Signals/Signs/Striping/Streetlights",
    "request_reason": "Street Light Outage/Malfunction",
    "date_created": "2021-10-14T17:50:25.000",
    "date_modified": "2021-10-14T17:50:26.000",
    "request_status": "Pending",
    "responsible_agency": "Department of Public Works",
    "final_address": "825 Jackson Ave",
    "address_councildis": "B",
    "status": "Pending",
    "contractor": "Royal Engineering",
    "rowid": "833455",
    "final_x": "3679439.63234",
    "final_y": "521394.856633",
    "longitude": "-90.07492734434364",
    "latitude": "29.927717298563948",
    "geocoded_column": {
      "latitude": "29.927717298563948",
      "longitude": "-90.07492734434364"
    }
  },
  {
    "service_request": "2021-833453",
    "request_type": "Roads/Drainage",
    "request_reason": "Catch Basin - Clogged",
    "date_created": "2021-10-14T17:43:54.000",
    "date_modified": "2021-10-14T17:43:54.000",
    "request_status": "Pending",
    "responsible_agency": "Department of Public Works",
    "final_address": "4500 S Carrollton Ave",
    "address_councildis": "A",
    "status": "Pending",
    "rowid": "833453",
    "final_x": "3670434.98375",
    "final_y": "537435.177224",
    "longitude": "-90.10280916571821",
    "latitude": "29.972091770927403",
    "geocoded_column": {
      "latitude": "29.972091770927403",
      "longitude": "-90.10280916571821"
    }
  },
  {
    "service_request": "2021-833452",
    "request_type": "Roads/Drainage",
    "request_reason": "Damaged Sidewalk",
    "date_created": "2021-10-14T17:42:08.000",
    "date_modified": "2021-10-14T17:42:08.000",
    "request_status": "Pending",
    "responsible_agency": "Department of Public Works",
    "final_address": "919 Touro St",
    "address_councildis": "C",
    "status": "Pending",
    "rowid": "833452",
    "final_x": "3684307.38325",
    "final_y": "535689.772039",
    "longitude": "-90.059059205684",
    "latitude": "29.966875585621363",
    "geocoded_column": {
      "latitude": "29.966875585621363",
      "longitude": "-90.059059205684"
    }
  },
  {
    "service_request": "2021-833451",
    "request_type": "Trash/Recycling",
    "request_reason": "Order Recycling Cart",
    "date_created": "2021-10-14T17:32:41.000",
    "date_modified": "2021-10-14T17:32:41.000",
    "request_status": "Pending",
    "responsible_agency": "Department of Sanitation",
    "final_address": "2414 Dreux Ave",
    "address_councildis": "D",
    "status": "Pending",
    "rowid": "833451",
    "final_x": "3685344.43881",
    "final_y": "552045.663894",
    "longitude": "-90.0552080408048",
    "latitude": "30.011816715788026",
    "geocoded_column": {
      "latitude": "30.011816715788026",
      "longitude": "-90.0552080408048"
    }
  },
  {
    "service_request": "2021-833450",
    "request_type": "Property Maintenance",
    "request_reason": "Property Maintenance",
    "date_created": "2021-10-14T17:28:23.000",
    "date_modified": "2021-10-14T17:28:23.000",
    "request_status": "Pending",
    "responsible_agency": "Department of Code Enforcement",
    "final_address": "1000 Aline St",
    "address_councildis": "B",
    "status": "Pending",
    "rowid": "833450",
    "final_x": "3674498.80936",
    "final_y": "519141.643511",
    "longitude": "-90.09060150805863",
    "latitude": "29.921669965991597",
    "geocoded_column": {
      "latitude": "29.921669965991597",
      "longitude": "-90.09060150805863"
    }
  },
  {
    "service_request": "2021-833449",
    "request_type": "Trash/Recycling",
    "request_reason": "Repair Trash Cart",
    "date_created": "2021-10-14T17:27:12.000",
    "date_modified": "2021-10-14T17:27:13.000",
    "request_status": "Pending",
    "responsible_agency": "Department of Sanitation",
    "final_address": "420 S St Patrick St",
    "address_councildis": "A",
    "status": "Assigned to Contractor",
    "contractor": "Richards Disposal",
    "rowid": "833449",
    "final_x": "3668308.85441",
    "final_y": "538711.515273",
    "longitude": "-90.10948080178234",
    "latitude": "29.975663883068",
    "geocoded_column": {
      "latitude": "29.975663883068",
      "longitude": "-90.10948080178234"
    }
  },
  {
    "service_request": "2021-833448",
    "request_type": "Trash/Recycling",
    "request_reason": "Missed Trash Pick-Up",
    "date_created": "2021-10-14T17:25:02.000",
    "date_modified": "2021-10-14T17:25:03.000",
    "request_status": "Pending",
    "responsible_agency": "Department of Sanitation",
    "final_address": "1014 Aline St",
    "address_councildis": "B",
    "status": "Assigned to Contractor",
    "contractor": "Richards Disposal",
    "rowid": "833448",
    "final_x": "3674493.55937",
    "final_y": "519166.814519",
    "longitude": "-90.09061721832725",
    "latitude": "29.92173933475211",
    "geocoded_column": {
      "latitude": "29.92173933475211",
      "longitude": "-90.09061721832725"
    }
  },
  {
    "service_request": "2021-833445",
    "request_type": "Trash/Recycling",
    "request_reason": "Missed Trash Pick-Up",
    "date_created": "2021-10-14T17:01:57.000",
    "date_modified": "2021-10-14T17:01:58.000",
    "request_status": "Pending",
    "responsible_agency": "Department of Sanitation",
    "final_address": "3200 Albert St",
    "address_councildis": "C",
    "status": "Assigned to Contractor",
    "contractor": "Richards Disposal",
    "rowid": "833445",
    "final_x": "3712053.25067",
    "final_y": "518679.332151",
    "longitude": "-89.97207682692103",
    "latitude": "29.919225416313246",
    "geocoded_column": {
      "latitude": "29.919225416313246",
      "longitude": "-89.97207682692103"
    }
  },
  {
    "service_request": "2021-833443",
    "request_type": "Trash/Recycling",
    "request_reason": "Missed Trash Pick-Up",
    "date_created": "2021-10-14T16:58:25.000",
    "date_modified": "2021-10-14T16:59:21.000",
    "request_status": "Pending",
    "responsible_agency": "Department of Sanitation",
    "final_address": "5423 Seminary Pl",
    "address_councildis": "D",
    "status": "Assigned to Contractor",
    "contractor": "Metro Disposal",
    "rowid": "833443",
    "final_x": "3688754.94915",
    "final_y": "553247.344599",
    "longitude": "-90.04439011996148",
    "latitude": "30.015015850618077",
    "geocoded_column": {
      "latitude": "30.015015850618077",
      "longitude": "-90.04439011996148"
    }
  },
  {
    "service_request": "2021-833441",
    "request_type": "Abandoned Vehicles",
    "request_reason": "Vehicle Blocking Your Driveway",
    "date_created": "2021-10-14T16:57:56.000",
    "date_modified": "2021-10-14T16:57:56.000",
    "request_status": "Pending",
    "responsible_agency": "Department of Public Works",
    "final_address": "3114 Banks St",
    "address_councildis": "B",
    "status": "Pending",
    "rowid": "833441",
    "final_x": "3673190.21755",
    "final_y": "535148.30183",
    "longitude": "-90.09418577124566",
    "latitude": "29.96572198897491",
    "geocoded_column": {
      "latitude": "29.96572198897491",
      "longitude": "-90.09418577124566"
    }
  },
  {
    "service_request": "2021-833439",
    "request_type": "Tax and Revenue",
    "request_reason": "Sales Tax Question",
    "date_created": "2021-10-14T16:54:04.000",
    "date_modified": "2021-10-14T16:54:05.000",
    "request_status": "Pending",
    "responsible_agency": "Bureau of Revenue",
    "status": "Pending",
    "rowid": "833439",
    "longitude": "0.0",
    "latitude": "0.0",
    "geocoded_column": {
      "latitude": "0.0",
      "longitude": "0.0"
    }
  },
  {
    "service_request": "2021-833438",
    "request_type": "Trash/Recycling",
    "request_reason": "Replace Trash Cart",
    "date_created": "2021-10-14T16:52:58.000",
    "date_modified": "2021-10-14T16:52:58.000",
    "request_status": "Pending",
    "responsible_agency": "Department of Sanitation",
    "final_address": "10220 Deerfield Dr",
    "address_councildis": "E",
    "status": "Assigned to Contractor",
    "contractor": "Metro Disposal",
    "rowid": "833438",
    "final_x": "3709990.47512",
    "final_y": "563389.776288",
    "longitude": "-89.97691726561213",
    "latitude": "30.042229625686183",
    "geocoded_column": {
      "latitude": "30.042229625686183",
      "longitude": "-89.97691726561213"
    }
  },
  {
    "service_request": "2021-833437",
    "request_type": "Traffic Signals/Signs/Striping/Streetlights",
    "request_reason": "Street Light Outage/Malfunction",
    "date_created": "2021-10-14T16:51:58.000",
    "date_modified": "2021-10-14T16:51:59.000",
    "request_status": "Pending",
    "responsible_agency": "Department of Public Works",
    "final_address": "4801 Chantilly Dr",
    "address_councildis": "E",
    "status": "Pending",
    "contractor": "Royal Engineering",
    "rowid": "833437",
    "final_x": "3700942.30135",
    "final_y": "554416.157464",
    "longitude": "-90.00584136099698",
    "latitude": "30.01784705165993",
    "geocoded_column": {
      "latitude": "30.01784705165993",
      "longitude": "-90.00584136099698"
    }
  },
  {
    "service_request": "2021-833436",
    "request_type": "Abandoned Vehicles",
    "request_reason": "Vehicle Blocking Your Driveway",
    "date_created": "2021-10-14T16:51:45.000",
    "date_modified": "2021-10-14T16:51:45.000",
    "request_status": "Pending",
    "responsible_agency": "Department of Public Works",
    "final_address": "3114 Banks St",
    "address_councildis": "B",
    "status": "Pending",
    "rowid": "833436",
    "final_x": "3673190.21755",
    "final_y": "535148.30183",
    "longitude": "-90.09418577124566",
    "latitude": "29.96572198897491",
    "geocoded_column": {
      "latitude": "29.96572198897491",
      "longitude": "-90.09418577124566"
    }
  },
  {
    "service_request": "2021-833434",
    "request_type": "Property Maintenance",
    "request_reason": "Property Maintenance",
    "date_created": "2021-10-14T16:46:00.000",
    "date_modified": "2021-10-14T16:48:09.000",
    "request_status": "Pending",
    "responsible_agency": "Department of Code Enforcement",
    "final_address": "2527 Perdido St",
    "address_councildis": "B",
    "status": "Pending",
    "rowid": "833434",
    "final_x": "3674419.56033",
    "final_y": "532631.612356",
    "longitude": "-90.09038975729115",
    "latitude": "29.958765325434236",
    "geocoded_column": {
      "latitude": "29.958765325434236",
      "longitude": "-90.09038975729115"
    }
  },
  {
    "service_request": "2021-833433",
    "request_type": "Tax and Revenue",
    "request_reason": "Sales Tax Question",
    "date_created": "2021-10-14T16:44:31.000",
    "date_modified": "2021-10-14T16:44:31.000",
    "request_status": "Pending",
    "responsible_agency": "Bureau of Revenue",
    "status": "Pending",
    "rowid": "833433",
    "longitude": "0.0",
    "latitude": "0.0",
    "geocoded_column": {
      "latitude": "0.0",
      "longitude": "0.0"
    }
  },
  {
    "service_request": "2021-833431",
    "request_type": "Trash/Recycling",
    "request_reason": "Order Trash Cart",
    "date_created": "2021-10-14T16:43:43.000",
    "date_modified": "2021-10-14T16:43:43.000",
    "request_status": "Pending",
    "responsible_agency": "Department of Sanitation",
    "final_address": "4020 Eden St Apt 1B",
    "address_councildis": "B",
    "status": "Assigned to Contractor",
    "contractor": "Richards Disposal",
    "rowid": "833431",
    "final_x": "3670891.85691",
    "final_y": "530002.608321",
    "longitude": "-90.10161860612533",
    "latitude": "29.951641181147302",
    "geocoded_column": {
      "latitude": "29.951641181147302",
      "longitude": "-90.10161860612533"
    }
  },
  {
    "service_request": "2021-833430",
    "request_type": "Trash/Recycling",
    "request_reason": "Start Trash Service",
    "date_created": "2021-10-14T16:43:02.000",
    "date_modified": "2021-10-14T16:43:02.000",
    "request_status": "Pending",
    "responsible_agency": "Department of Sanitation",
    "final_address": "4020 Eden St Apt 1B",
    "address_councildis": "B",
    "status": "Assigned to Contractor",
    "contractor": "Richards Disposal",
    "rowid": "833430",
    "final_x": "3670891.85691",
    "final_y": "530002.608321",
    "longitude": "-90.10161860612533",
    "latitude": "29.951641181147302",
    "geocoded_column": {
      "latitude": "29.951641181147302",
      "longitude": "-90.10161860612533"
    }
  },
  {
    "service_request": "2021-833429",
    "request_type": "Trash/Recycling",
    "request_reason": "Illegal Dumping",
    "date_created": "2021-10-14T16:42:28.000",
    "date_modified": "2021-10-14T16:42:28.000",
    "request_status": "Pending",
    "responsible_agency": "Department of Sanitation",
    "final_address": "4020 Eden St Apt 1B",
    "address_councildis": "B",
    "status": "Pending",
    "rowid": "833429",
    "final_x": "3670891.85691",
    "final_y": "530002.608321",
    "longitude": "-90.10161860612533",
    "latitude": "29.951641181147302",
    "geocoded_column": {
      "latitude": "29.951641181147302",
      "longitude": "-90.10161860612533"
    }
  },
  {
    "service_request": "2021-833428",
    "request_type": "Property Maintenance",
    "request_reason": "Property Maintenance",
    "date_created": "2021-10-14T16:41:43.000",
    "date_modified": "2021-10-14T16:41:43.000",
    "request_status": "Pending",
    "responsible_agency": "Department of Code Enforcement",
    "final_address": "4020 Eden St Apt 1B",
    "address_councildis": "B",
    "status": "Pending",
    "rowid": "833428",
    "final_x": "3670891.85691",
    "final_y": "530002.608321",
    "longitude": "-90.10161860612533",
    "latitude": "29.951641181147302",
    "geocoded_column": {
      "latitude": "29.951641181147302",
      "longitude": "-90.10161860612533"
    }
  },
  {
    "service_request": "2021-833427",
    "request_type": "Trash/Recycling",
    "request_reason": "Order Trash Cart",
    "date_created": "2021-10-14T16:34:14.000",
    "date_modified": "2021-10-14T16:34:15.000",
    "request_status": "Pending",
    "responsible_agency": "Department of Sanitation",
    "final_address": "4320 Sybil St",
    "address_councildis": "D",
    "status": "Assigned to Contractor",
    "contractor": "Metro Disposal",
    "rowid": "833427",
    "final_x": "3679019.14101",
    "final_y": "548268.91253",
    "longitude": "-90.07532333794931",
    "latitude": "30.00162448603925",
    "geocoded_column": {
      "latitude": "30.00162448603925",
      "longitude": "-90.07532333794931"
    }
  },
  {
    "service_request": "2021-833426",
    "request_type": "Property Maintenance",
    "request_reason": "Property Maintenance",
    "date_created": "2021-10-14T16:33:53.000",
    "date_modified": "2021-10-14T16:33:53.000",
    "request_status": "Pending",
    "responsible_agency": "Department of Code Enforcement",
    "final_address": "1301 S Derbigny St",
    "address_councildis": "B",
    "status": "Pending",
    "rowid": "833426",
    "final_x": "3675024.21384",
    "final_y": "528848.295616",
    "longitude": "-90.08861019143582",
    "latitude": "29.948344415377107",
    "geocoded_column": {
      "latitude": "29.948344415377107",
      "longitude": "-90.08861019143582"
    }
  },
  {
    "service_request": "2021-833425",
    "request_type": "Parks & Parkways",
    "request_reason": "Request Tree Service (Right of Way/Public Property)",
    "date_created": "2021-10-14T16:33:39.000",
    "date_modified": "2021-10-14T16:33:39.000",
    "request_status": "Pending",
    "responsible_agency": "Department of Parks & Parkway",
    "final_address": "3711 Rue Andree",
    "address_councildis": "C",
    "status": "Pending",
    "rowid": "833425",
    "final_x": "3704965.83211",
    "final_y": "516816.719413",
    "longitude": "-89.9945167268832",
    "latitude": "29.91433348932955",
    "geocoded_column": {
      "latitude": "29.91433348932955",
      "longitude": "-89.9945167268832"
    }
  },
  {
    "service_request": "2021-833424",
    "request_type": "Trash/Recycling",
    "request_reason": "Order Trash Cart",
    "date_created": "2021-10-14T16:31:50.000",
    "date_modified": "2021-10-14T16:31:51.000",
    "request_status": "Pending",
    "responsible_agency": "Department of Sanitation",
    "final_address": "920 Philip St",
    "address_councildis": "B",
    "status": "Assigned to Contractor",
    "contractor": "Richards Disposal",
    "rowid": "833424",
    "final_x": "3678837.28898",
    "final_y": "521377.558137",
    "longitude": "-90.07682939751926",
    "latitude": "29.92768790915037",
    "geocoded_column": {
      "latitude": "29.92768790915037",
      "longitude": "-90.07682939751926"
    }
  },
  {
    "service_request": "2021-833423",
    "request_type": "Trash/Recycling",
    "request_reason": "Illegal Dumping",
    "date_created": "2021-10-14T16:30:30.000",
    "date_modified": "2021-10-14T16:30:30.000",
    "request_status": "Pending",
    "responsible_agency": "Department of Sanitation",
    "final_address": "739 Mandeville St",
    "address_councildis": "C",
    "status": "Pending",
    "rowid": "833423",
    "final_x": "3685920.94562",
    "final_y": "535253.942214",
    "longitude": "-90.0539789533553",
    "latitude": "29.96562776573422",
    "geocoded_column": {
      "latitude": "29.96562776573422",
      "longitude": "-90.0539789533553"
    }
  },
  {
    "service_request": "2021-833422",
    "request_type": "Trash/Recycling",
    "request_reason": "Repair Trash Cart",
    "date_created": "2021-10-14T16:29:46.000",
    "date_modified": "2021-10-14T16:29:47.000",
    "request_status": "Pending",
    "responsible_agency": "Department of Sanitation",
    "final_address": "21 Cypress Point Ct",
    "address_councildis": "E",
    "status": "Assigned to Contractor",
    "contractor": "Metro Disposal",
    "rowid": "833422",
    "final_x": "3719630.53452",
    "final_y": "563196.980576",
    "longitude": "-89.9464587170647",
    "latitude": "30.04138221584489",
    "geocoded_column": {
      "latitude": "30.04138221584489",
      "longitude": "-89.9464587170647"
    }
  },
  {
    "service_request": "2021-833421",
    "request_type": "Trash/Recycling",
    "request_reason": "Repair Trash Cart",
    "date_created": "2021-10-14T16:28:18.000",
    "date_modified": "2021-10-14T16:28:19.000",
    "request_status": "Pending",
    "responsible_agency": "Department of Sanitation",
    "final_address": "2231 Fourth St",
    "address_councildis": "B",
    "status": "Assigned to Contractor",
    "contractor": "Richards Disposal",
    "rowid": "833421",
    "final_x": "3674899.09966",
    "final_y": "524705.699836",
    "longitude": "-90.08914725437113",
    "latitude": "29.936957375399533",
    "geocoded_column": {
      "latitude": "29.936957375399533",
      "longitude": "-90.08914725437113"
    }
  },
  {
    "service_request": "2021-833418",
    "request_type": "Trash/Recycling",
    "request_reason": "Dead Animal Pick Up",
    "date_created": "2021-10-14T16:18:00.000",
    "date_modified": "2021-10-14T16:18:00.000",
    "request_status": "Pending",
    "responsible_agency": "Department of Sanitation",
    "final_address": "7535 Lehigh St",
    "address_councildis": "E",
    "status": "Assigned to Contractor",
    "contractor": "Metro Disposal",
    "rowid": "833418",
    "final_x": "3710866.24293",
    "final_y": "565251.147234",
    "longitude": "-89.97407974559238",
    "latitude": "30.047319112536815",
    "geocoded_column": {
      "latitude": "30.047319112536815",
      "longitude": "-89.97407974559238"
    }
  },
  {
    "service_request": "2021-833416",
    "request_type": "Trash/Recycling",
    "request_reason": "Request a Large Item Pick Up",
    "date_created": "2021-10-14T16:04:11.000",
    "date_modified": "2021-10-14T16:04:11.000",
    "request_status": "Pending",
    "responsible_agency": "Department of Sanitation",
    "final_address": "2528 Franklin Ave",
    "address_councildis": "D",
    "status": "Assigned to Contractor",
    "contractor": "Metro Disposal",
    "rowid": "833416",
    "final_x": "3687407.31375",
    "final_y": "541920.15374",
    "longitude": "-90.0490491220344",
    "latitude": "29.98391178760512",
    "geocoded_column": {
      "latitude": "29.98391178760512",
      "longitude": "-90.0490491220344"
    }
  },
  {
    "service_request": "2021-833415",
    "request_type": "Trash/Recycling",
    "request_reason": "Missed Trash Pick-Up",
    "date_created": "2021-10-14T16:03:20.000",
    "date_modified": "2021-10-14T16:03:21.000",
    "request_status": "Pending",
    "responsible_agency": "Department of Sanitation",
    "final_address": "1567 Mandolin St, New Orleans, Louisiana, 70122",
    "address_councildis": "D",
    "status": "Assigned to Contractor",
    "contractor": "Metro Disposal",
    "rowid": "833415",
    "final_x": "3679264.93941",
    "final_y": "548157.444178",
    "longitude": "-90.0745507046921",
    "latitude": "30.00131056523442",
    "geocoded_column": {
      "latitude": "30.00131056523442",
      "longitude": "-90.0745507046921"
    }
  },
  {
    "service_request": "2021-833414",
    "request_type": "Property Maintenance",
    "request_reason": "Property Maintenance",
    "date_created": "2021-10-14T16:03:04.000",
    "date_modified": "2021-10-14T16:03:04.000",
    "request_status": "Pending",
    "responsible_agency": "Department of Code Enforcement",
    "final_address": "1631 Foucher St",
    "address_councildis": "B",
    "status": "Pending",
    "rowid": "833414",
    "final_x": "3673470.09294",
    "final_y": "521518.975417",
    "longitude": "-90.09376754865048",
    "latitude": "29.928237503473405",
    "geocoded_column": {
      "latitude": "29.928237503473405",
      "longitude": "-90.09376754865048"
    }
  },
  {
    "service_request": "2021-833413",
    "request_type": "Trash/Recycling",
    "request_reason": "Illegal Dumping",
    "date_created": "2021-10-14T16:00:03.000",
    "date_modified": "2021-10-14T16:00:03.000",
    "request_status": "Pending",
    "responsible_agency": "Department of Sanitation",
    "final_address": "2239 S Liberty St",
    "address_councildis": "B",
    "status": "Pending",
    "rowid": "833413",
    "final_x": "3675734.82145",
    "final_y": "525632.939005",
    "longitude": "-90.08647697911417",
    "latitude": "29.93948200081498",
    "geocoded_column": {
      "latitude": "29.93948200081498",
      "longitude": "-90.08647697911417"
    }
  },
  {
    "service_request": "2021-833412",
    "request_type": "Trash/Recycling",
    "request_reason": "Missed Trash Pick-Up",
    "date_created": "2021-10-14T15:57:24.000",
    "date_modified": "2021-10-14T15:57:25.000",
    "request_status": "Pending",
    "responsible_agency": "Department of Sanitation",
    "final_address": "331 Calhoun St",
    "address_councildis": "A",
    "status": "Assigned to Contractor",
    "contractor": "Richards Disposal",
    "rowid": "833412",
    "final_x": "3662903.2377",
    "final_y": "518354.343094",
    "longitude": "-90.12723007766911",
    "latitude": "29.91984584415235",
    "geocoded_column": {
      "latitude": "29.91984584415235",
      "longitude": "-90.12723007766911"
    }
  },
  {
    "service_request": "2021-833411",
    "request_type": "Trash/Recycling",
    "request_reason": "Order Recycling Cart",
    "date_created": "2021-10-14T15:56:38.000",
    "date_modified": "2021-10-14T15:56:38.000",
    "request_status": "Pending",
    "responsible_agency": "Department of Sanitation",
    "final_address": "6954 Deanne St",
    "address_councildis": "D",
    "status": "Pending",
    "rowid": "833411",
    "final_x": "3695568.26966",
    "final_y": "556387.614298",
    "longitude": "-90.02274989474917",
    "latitude": "30.02343790979589",
    "geocoded_column": {
      "latitude": "30.02343790979589",
      "longitude": "-90.02274989474917"
    }
  },
  {
    "service_request": "2021-833409",
    "request_type": "Property Maintenance",
    "request_reason": "Property Maintenance",
    "date_created": "2021-10-14T15:54:23.000",
    "date_modified": "2021-10-14T15:54:23.000",
    "request_status": "Pending",
    "responsible_agency": "Department of Code Enforcement",
    "final_address": "1637 Foucher St",
    "address_councildis": "B",
    "status": "Pending",
    "rowid": "833409",
    "final_x": "3673462.31444",
    "final_y": "521577.417785",
    "longitude": "-90.09379010792213",
    "latitude": "29.928398432524123",
    "geocoded_column": {
      "latitude": "29.928398432524123",
      "longitude": "-90.09379010792213"
    }
  },
  {
    "service_request": "2021-833408",
    "request_type": "Traffic Signals/Signs/Striping/Streetlights",
    "request_reason": "Additional signage",
    "date_created": "2021-10-14T15:54:07.000",
    "date_modified": "2021-10-14T15:54:55.000",
    "request_status": "Pending",
    "responsible_agency": "Department of Public Works",
    "final_address": "2500 BLK Bayou Rd",
    "address_councildis": "D",
    "status": "Pending",
    "rowid": "833408",
    "final_x": "3678730.63725",
    "final_y": "539163.226251",
    "longitude": "-90.07655025976511",
    "latitude": "29.97659574338685",
    "geocoded_column": {
      "latitude": "29.97659574338685",
      "longitude": "-90.07655025976511"
    }
  },
  {
    "service_request": "2021-833406",
    "request_type": "Roads/Drainage",
    "request_reason": "Street Flooding / Drainage",
    "date_created": "2021-10-14T15:49:41.000",
    "date_modified": "2021-10-14T15:49:42.000",
    "request_status": "Pending",
    "responsible_agency": "Department of Public Works",
    "final_address": "5045 Madrid St",
    "address_councildis": "D",
    "status": "Pending",
    "rowid": "833406",
    "final_x": "3691446.57763",
    "final_y": "556382.069274",
    "longitude": "-90.03577373011468",
    "latitude": "30.023551644505094",
    "geocoded_column": {
      "latitude": "30.023551644505094",
      "longitude": "-90.03577373011468"
    }
  },
  {
    "service_request": "2021-833405",
    "request_type": "Property Maintenance",
    "request_reason": "Property Maintenance",
    "date_created": "2021-10-14T15:48:06.000",
    "date_modified": "2021-10-14T15:48:06.000",
    "request_status": "Pending",
    "responsible_agency": "Department of Code Enforcement",
    "final_address": "235 S White St",
    "address_councildis": "B",
    "status": "Pending",
    "rowid": "833405",
    "final_x": "3674398.04174",
    "final_y": "534920.345478",
    "longitude": "-90.09037930991327",
    "latitude": "29.965059215077513",
    "geocoded_column": {
      "latitude": "29.965059215077513",
      "longitude": "-90.09037930991327"
    }
  },
  {
    "service_request": "2021-833404",
    "request_type": "Trash/Recycling",
    "request_reason": "Order Trash Cart",
    "date_created": "2021-10-14T15:47:53.000",
    "date_modified": "2021-10-14T15:47:54.000",
    "request_status": "Pending",
    "responsible_agency": "Department of Sanitation",
    "final_address": "2414 Dreux Ave",
    "address_councildis": "D",
    "status": "Assigned to Contractor",
    "contractor": "Metro Disposal",
    "rowid": "833404",
    "final_x": "3685344.43881",
    "final_y": "552045.663894",
    "longitude": "-90.0552080408048",
    "latitude": "30.011816715788026",
    "geocoded_column": {
      "latitude": "30.011816715788026",
      "longitude": "-90.0552080408048"
    }
  },
  {
    "service_request": "2021-833403",
    "request_type": "Trash/Recycling",
    "request_reason": "Missed Trash Pick-Up",
    "date_created": "2021-10-14T15:47:29.000",
    "date_modified": "2021-10-14T15:47:30.000",
    "request_status": "Pending",
    "responsible_agency": "Department of Sanitation",
    "final_address": "5736 Mandeville St, New Orleans, Louisiana, 70122",
    "address_councildis": "D",
    "status": "Assigned to Contractor",
    "contractor": "Metro Disposal",
    "rowid": "833403",
    "final_x": "3684261.15401",
    "final_y": "554231.129496",
    "longitude": "-90.05855377248209",
    "latitude": "30.017859127818387",
    "geocoded_column": {
      "latitude": "30.017859127818387",
      "longitude": "-90.05855377248209"
    }
  },
  {
    "service_request": "2021-833402",
    "request_type": "Property Maintenance",
    "request_reason": "Property Maintenance",
    "date_created": "2021-10-14T15:45:58.000",
    "date_modified": "2021-10-14T15:45:58.000",
    "request_status": "Pending",
    "responsible_agency": "Department of Code Enforcement",
    "final_address": "1633 Foucher St",
    "address_councildis": "B",
    "status": "Pending",
    "rowid": "833402",
    "final_x": "3673462.80123",
    "final_y": "521537.204601",
    "longitude": "-90.09378994448352",
    "latitude": "29.92828784475034",
    "geocoded_column": {
      "latitude": "29.92828784475034",
      "longitude": "-90.09378994448352"
    }
  },
  {
    "service_request": "2021-833401",
    "request_type": "Traffic Signals/Signs/Striping/Streetlights",
    "request_reason": "Street Light Outage/Malfunction",
    "date_created": "2021-10-14T15:37:46.000",
    "date_modified": "2021-10-14T15:37:47.000",
    "request_status": "Pending",
    "responsible_agency": "Department of Public Works",
    "final_address": "4618 Herschel St",
    "address_councildis": "C",
    "status": "Pending",
    "contractor": "Royal Engineering",
    "rowid": "833401",
    "final_x": "3702059.22167",
    "final_y": "520876.690809",
    "longitude": "-90.00354218819567",
    "latitude": "29.925590077799242",
    "geocoded_column": {
      "latitude": "29.925590077799242",
      "longitude": "-90.00354218819567"
    }
  },
  {
    "service_request": "2021-833400",
    "request_type": "Trash/Recycling",
    "request_reason": "Missed Trash Pick-Up",
    "date_created": "2021-10-14T15:37:25.000",
    "date_modified": "2021-10-14T15:37:28.000",
    "request_status": "Pending",
    "responsible_agency": "Department of Sanitation",
    "final_address": "2805 Ap Tureaud Ave",
    "address_councildis": "D",
    "status": "Assigned to Contractor",
    "contractor": "Metro Disposal",
    "rowid": "833400",
    "final_x": "3681579.98152",
    "final_y": "542770.952717",
    "longitude": "-90.06742527781144",
    "latitude": "29.986429490161242",
    "geocoded_column": {
      "latitude": "29.986429490161242",
      "longitude": "-90.06742527781144"
    }
  },
  {
    "service_request": "2021-833399",
    "request_type": "Mosquito, Termite & Rodent Control",
    "request_reason": "Mosquito Complaint",
    "date_created": "2021-10-14T15:37:13.000",
    "date_modified": "2021-10-14T15:37:13.000",
    "request_status": "Pending",
    "responsible_agency": "Mosquito, Termite & Rodent Control Board",
    "final_address": "1228 St Anthony St",
    "address_councildis": "C",
    "status": "Pending",
    "rowid": "833399",
    "final_x": "3683460.00124",
    "final_y": "536413.862407",
    "longitude": "-90.06170985768324",
    "latitude": "29.96889246845573",
    "geocoded_column": {
      "latitude": "29.96889246845573",
      "longitude": "-90.06170985768324"
    }
  },
  {
    "service_request": "2021-833398",
    "request_type": "Traffic Signals/Signs/Striping/Streetlights",
    "request_reason": "Street Light Outage/Malfunction",
    "date_created": "2021-10-14T15:31:07.000",
    "date_modified": "2021-10-14T15:31:07.000",
    "request_status": "Pending",
    "responsible_agency": "Department of Public Works",
    "final_address": "7500 Morrison Rd",
    "address_councildis": "E",
    "status": "Pending",
    "contractor": "Royal Engineering",
    "rowid": "833398",
    "final_x": "3700932.26692",
    "final_y": "559447.322717",
    "longitude": "-90.00568887857709",
    "latitude": "30.031681142115612",
    "geocoded_column": {
      "latitude": "30.031681142115612",
      "longitude": "-90.00568887857709"
    }
  },
  {
    "service_request": "2021-833397",
    "request_type": "Abandoned Vehicles",
    "request_reason": "Abandoned/Junk Vehicles",
    "date_created": "2021-10-14T15:30:25.000",
    "date_modified": "2021-10-14T15:30:25.000",
    "request_status": "Pending",
    "responsible_agency": "Department of Public Works",
    "final_address": "1225 Marais St",
    "address_councildis": "C",
    "status": "Pending",
    "rowid": "833397",
    "final_x": "3681823.32463",
    "final_y": "535683.052295",
    "longitude": "-90.06690409115626",
    "latitude": "29.966932833807675",
    "geocoded_column": {
      "latitude": "29.966932833807675",
      "longitude": "-90.06690409115626"
    }
  },
  {
    "service_request": "2021-833396",
    "request_type": "Traffic Signals/Signs/Striping/Streetlights",
    "request_reason": "Street Light Outage/Malfunction",
    "date_created": "2021-10-14T15:28:16.000",
    "date_modified": "2021-10-14T15:28:17.000",
    "request_status": "Pending",
    "responsible_agency": "Department of Public Works",
    "final_address": "5014 Willow St",
    "address_councildis": "B",
    "status": "Pending",
    "contractor": "Royal Engineering",
    "rowid": "833396",
    "final_x": "3668712.81191",
    "final_y": "525276.655037",
    "longitude": "-90.10865849106823",
    "latitude": "29.938710570943467",
    "geocoded_column": {
      "latitude": "29.938710570943467",
      "longitude": "-90.10865849106823"
    }
  },
  {
    "service_request": "2021-833395",
    "request_type": "Property Maintenance",
    "request_reason": "Property Maintenance",
    "date_created": "2021-10-14T15:26:11.000",
    "date_modified": "2021-10-14T15:44:10.000",
    "request_status": "Pending",
    "responsible_agency": "Department of Code Enforcement",
    "final_address": "8339 Cohn St",
    "address_councildis": "A",
    "status": "Pending",
    "rowid": "833395",
    "final_x": "3662884.23648",
    "final_y": "530922.392898",
    "longitude": "-90.12687235485991",
    "latitude": "29.954404546788002",
    "geocoded_column": {
      "latitude": "29.954404546788002",
      "longitude": "-90.12687235485991"
    }
  },
  {
    "service_request": "2021-833394",
    "request_type": "Abandoned Vehicles",
    "request_reason": "Abandoned/Junk Vehicles",
    "date_created": "2021-10-14T15:24:31.000",
    "date_modified": "2021-10-14T15:24:31.000",
    "request_status": "Pending",
    "responsible_agency": "Department of Public Works",
    "final_address": "LOUISIANA AVE & S LIBERTY ST",
    "address_councildis": "B",
    "status": "Pending",
    "rowid": "833394",
    "final_x": "3673193.5",
    "final_y": "523825.08",
    "longitude": "-90.09456198982343",
    "latitude": "29.934586770290995",
    "geocoded_column": {
      "latitude": "29.934586770290995",
      "longitude": "-90.09456198982343"
    }
  },
  {
    "service_request": "2021-833393",
    "request_type": "Property Maintenance",
    "request_reason": "Property Maintenance",
    "date_created": "2021-10-14T15:23:56.000",
    "date_modified": "2021-10-14T15:23:56.000",
    "request_status": "Pending",
    "responsible_agency": "Department of Code Enforcement",
    "final_address": "2778 Mendez St",
    "address_councildis": "D",
    "status": "Pending",
    "rowid": "833393",
    "final_x": "3687887.31459",
    "final_y": "553701.336855",
    "longitude": "-90.04711532388707",
    "latitude": "30.01629096947616",
    "geocoded_column": {
      "latitude": "30.01629096947616",
      "longitude": "-90.04711532388707"
    }
  },
  {
    "service_request": "2021-833392",
    "request_type": "Trash/Recycling",
    "request_reason": "Order Recycling Cart",
    "date_created": "2021-10-14T15:13:53.000",
    "date_modified": "2021-10-14T15:13:54.000",
    "request_status": "Pending",
    "responsible_agency": "Department of Sanitation",
    "final_address": "1515 Pauger St",
    "address_councildis": "C",
    "status": "Pending",
    "contractor": "Metro Disposal",
    "rowid": "833392",
    "final_x": "3684006.7069",
    "final_y": "535267.566726",
    "longitude": "-90.06002355671197",
    "latitude": "29.965723857659448",
    "geocoded_column": {
      "latitude": "29.965723857659448",
      "longitude": "-90.06002355671197"
    }
  },
  {
    "service_request": "2021-833391",
    "request_type": "Property Maintenance",
    "request_reason": "Property Maintenance",
    "date_created": "2021-10-14T15:13:47.000",
    "date_modified": "2021-10-14T15:13:47.000",
    "request_status": "Pending",
    "responsible_agency": "Department of Code Enforcement",
    "final_address": "3746 Somerset Dr, New Orleans, Louisiana, 70131",
    "address_councildis": "C",
    "status": "Pending",
    "rowid": "833391",
    "final_x": "3702461.68516",
    "final_y": "516687.182709",
    "longitude": "-90.00242535290029",
    "latitude": "29.91405752232244",
    "geocoded_column": {
      "latitude": "29.91405752232244",
      "longitude": "-90.00242535290029"
    }
  },
  {
    "service_request": "2021-833390",
    "request_type": "Traffic Signals/Signs/Striping/Streetlights",
    "request_reason": "Street Light Outage/Malfunction",
    "date_created": "2021-10-14T15:04:47.000",
    "date_modified": "2021-10-14T15:04:48.000",
    "request_status": "Pending",
    "responsible_agency": "Department of Public Works",
    "final_address": "7020 Pinebrook Dr",
    "address_councildis": "E",
    "status": "Pending",
    "contractor": "Royal Engineering",
    "rowid": "833390",
    "final_x": "3719577.57125",
    "final_y": "569626.829094",
    "longitude": "-89.94638013302657",
    "latitude": "30.059063408752213",
    "geocoded_column": {
      "latitude": "30.059063408752213",
      "longitude": "-89.94638013302657"
    }
  },
  {
    "service_request": "2021-833389",
    "request_type": "Parks & Parkways",
    "request_reason": "Request Tree Service (Right of Way/Public Property)",
    "date_created": "2021-10-14T15:04:08.000",
    "date_modified": "2021-10-14T15:04:08.000",
    "request_status": "Pending",
    "responsible_agency": "Department of Parks & Parkway",
    "final_address": "9701 W Wheaton Cir",
    "address_councildis": "E",
    "status": "Pending",
    "rowid": "833389",
    "final_x": "3708544.50398",
    "final_y": "562225.718175",
    "longitude": "-89.98153045271161",
    "latitude": "30.03907591542858",
    "geocoded_column": {
      "latitude": "30.03907591542858",
      "longitude": "-89.98153045271161"
    }
  },
  {
    "service_request": "2021-833388",
    "request_type": "Traffic Signals/Signs/Striping/Streetlights",
    "request_reason": "Additional signage",
    "date_created": "2021-10-14T15:03:56.000",
    "date_modified": "2021-10-14T15:03:56.000",
    "request_status": "Pending",
    "responsible_agency": "Department of Public Works",
    "final_address": "1201 Decatur St",
    "address_councildis": "C",
    "status": "Pending",
    "rowid": "833388",
    "final_x": "3684255.01967",
    "final_y": "533483.27322",
    "longitude": "-90.05930204639428",
    "latitude": "29.96081007538317",
    "geocoded_column": {
      "latitude": "29.96081007538317",
      "longitude": "-90.05930204639428"
    }
  },
  {
    "service_request": "2021-833387",
    "request_type": "Trash/Recycling",
    "request_reason": "Replace Trash Cart",
    "date_created": "2021-10-14T15:01:12.000",
    "date_modified": "2021-10-14T15:01:12.000",
    "request_status": "Pending",
    "responsible_agency": "Department of Sanitation",
    "final_address": "1719 Toledano St",
    "address_councildis": "B",
    "status": "Assigned to Contractor",
    "contractor": "Richards Disposal",
    "rowid": "833387",
    "final_x": "3674403.64788",
    "final_y": "522246.697082",
    "longitude": "-90.09079560780958",
    "latitude": "29.930210700280217",
    "geocoded_column": {
      "latitude": "29.930210700280217",
      "longitude": "-90.09079560780958"
    }
  },
  {
    "service_request": "2021-833385",
    "request_type": "Traffic Signals/Signs/Striping/Streetlights",
    "request_reason": "Striping/Road Surface Markings",
    "date_created": "2021-10-14T14:57:09.000",
    "date_modified": "2021-10-14T14:57:10.000",
    "request_status": "Pending",
    "responsible_agency": "Department of Public Works",
    "final_address": "WILLOW ST & ROBERT ST",
    "address_councildis": "B",
    "status": "Pending",
    "rowid": "833385",
    "final_x": "3668862.6",
    "final_y": "525314.88",
    "longitude": "-90.10818430196419",
    "latitude": "29.938811274370476",
    "geocoded_column": {
      "latitude": "29.938811274370476",
      "longitude": "-90.10818430196419"
    }
  },
  {
    "service_request": "2021-833384",
    "request_type": "Trash/Recycling",
    "request_reason": "Illegal Dumping",
    "date_created": "2021-10-14T14:52:40.000",
    "date_modified": "2021-10-14T14:52:40.000",
    "request_status": "Pending",
    "responsible_agency": "Department of Sanitation",
    "final_address": "2904 Philip St, New Orleans, Louisiana, 70113",
    "address_councildis": "B",
    "status": "Pending",
    "rowid": "833384",
    "final_x": "3674541.63604",
    "final_y": "527204.175679",
    "longitude": "-90.09019021124693",
    "latitude": "29.943838033252515",
    "geocoded_column": {
      "latitude": "29.943838033252515",
      "longitude": "-90.09019021124693"
    }
  },
  {
    "service_request": "2021-833383",
    "request_type": "Trash/Recycling",
    "request_reason": "Illegal Dumping",
    "date_created": "2021-10-14T14:52:32.000",
    "date_modified": "2021-10-14T14:52:32.000",
    "request_status": "Pending",
    "responsible_agency": "Department of Sanitation",
    "final_address": "2212 S Claiborne Ave",
    "address_councildis": "B",
    "status": "Pending",
    "rowid": "833383",
    "final_x": "3674550.47995",
    "final_y": "527503.112511",
    "longitude": "-90.09015204854299",
    "latitude": "29.94465974734072",
    "geocoded_column": {
      "latitude": "29.94465974734072",
      "longitude": "-90.09015204854299"
    }
  },
  {
    "service_request": "2021-833382",
    "request_type": "Property Maintenance",
    "request_reason": "Property Maintenance",
    "date_created": "2021-10-14T14:51:28.000",
    "date_modified": "2021-10-14T14:51:29.000",
    "request_status": "Pending",
    "responsible_agency": "Department of Code Enforcement",
    "final_address": "1341 Mazant St",
    "address_councildis": "D",
    "status": "Pending",
    "rowid": "833382",
    "final_x": "3692403.39606",
    "final_y": "536285.796039",
    "longitude": "-90.03347074826222",
    "latitude": "29.968264393236705",
    "geocoded_column": {
      "latitude": "29.968264393236705",
      "longitude": "-90.03347074826222"
    }
  },
  {
    "service_request": "2021-833381",
    "request_type": "Abandoned Vehicles",
    "request_reason": "Abandoned/Junk Vehicles",
    "date_created": "2021-10-14T14:50:43.000",
    "date_modified": "2021-10-14T14:50:43.000",
    "request_status": "Pending",
    "responsible_agency": "Department of Public Works",
    "final_address": "2005 Lafitte Ave",
    "address_councildis": "D",
    "status": "Pending",
    "rowid": "833381",
    "final_x": "3678617.3435",
    "final_y": "535028.922566",
    "longitude": "-90.07705123574998",
    "latitude": "29.965231241361433",
    "geocoded_column": {
      "latitude": "29.965231241361433",
      "longitude": "-90.07705123574998"
    }
  },
  {
    "service_request": "2021-833380",
    "request_type": "Property Maintenance",
    "request_reason": "Property Maintenance",
    "date_created": "2021-10-14T14:49:56.000",
    "date_modified": "2021-10-14T14:49:57.000",
    "request_status": "Pending",
    "responsible_agency": "Department of Code Enforcement",
    "final_address": "1335 Mazant St",
    "address_councildis": "D",
    "status": "Pending",
    "rowid": "833380",
    "final_x": "3692401.16336",
    "final_y": "536235.089927",
    "longitude": "-90.033479615752",
    "latitude": "29.968125038984855",
    "geocoded_column": {
      "latitude": "29.968125038984855",
      "longitude": "-90.033479615752"
    }
  },
  {
    "service_request": "2021-833379",
    "request_type": "Trash/Recycling",
    "request_reason": "Missed Trash Pick-Up",
    "date_created": "2021-10-14T14:42:01.000",
    "date_modified": "2021-10-14T14:42:01.000",
    "request_status": "Pending",
    "responsible_agency": "Department of Sanitation",
    "final_address": "6931 Camberley Ct",
    "address_councildis": "E",
    "status": "Assigned to Contractor",
    "contractor": "Metro Disposal",
    "rowid": "833379",
    "final_x": "3713549.83109",
    "final_y": "564277.919201",
    "longitude": "-89.9656349433286",
    "latitude": "30.044555325180863",
    "geocoded_column": {
      "latitude": "30.044555325180863",
      "longitude": "-89.9656349433286"
    }
  },
  {
    "service_request": "2021-833378",
    "request_type": "Trash/Recycling",
    "request_reason": "Missed Trash Pick-Up",
    "date_created": "2021-10-14T14:41:57.000",
    "date_modified": "2021-10-14T14:41:58.000",
    "request_status": "Pending",
    "responsible_agency": "Department of Sanitation",
    "final_address": "2121 Josephine St",
    "address_councildis": "B",
    "status": "Assigned to Contractor",
    "contractor": "Richards Disposal",
    "rowid": "833378",
    "final_x": "3676676.93518",
    "final_y": "525611.222845",
    "longitude": "-90.08350334605383",
    "latitude": "29.9393940661282",
    "geocoded_column": {
      "latitude": "29.9393940661282",
      "longitude": "-90.08350334605383"
    }
  },
  {
    "service_request": "2021-833377",
    "request_type": "Trash/Recycling",
    "request_reason": "Missed Trash Pick-Up",
    "date_created": "2021-10-14T14:39:59.000",
    "date_modified": "2021-10-14T14:39:59.000",
    "request_status": "Pending",
    "responsible_agency": "Department of Sanitation",
    "final_address": "6065 General Meyer Ave",
    "address_councildis": "C",
    "status": "Assigned to Contractor",
    "contractor": "Richards Disposal",
    "rowid": "833377",
    "final_x": "3706429.86993",
    "final_y": "520953.953593",
    "longitude": "-89.98974264689541",
    "latitude": "29.925662328529434",
    "geocoded_column": {
      "latitude": "29.925662328529434",
      "longitude": "-89.98974264689541"
    }
  },
  {
    "service_request": "2021-833376",
    "request_type": "Property Maintenance",
    "request_reason": "Property Maintenance",
    "date_created": "2021-10-14T14:39:42.000",
    "date_modified": "2021-10-14T14:39:42.000",
    "request_status": "Pending",
    "responsible_agency": "Department of Code Enforcement",
    "final_address": "1621 Charbonnet St",
    "address_councildis": "E",
    "status": "Pending",
    "rowid": "833376",
    "final_x": "3699223.09335",
    "final_y": "535609.435206",
    "longitude": "-90.01195860981527",
    "latitude": "29.96619015742269",
    "geocoded_column": {
      "latitude": "29.96619015742269",
      "longitude": "-90.01195860981527"
    }
  },
  {
    "service_request": "2021-833375",
    "request_type": "Property Maintenance",
    "request_reason": "Property Maintenance",
    "date_created": "2021-10-14T14:39:07.000",
    "date_modified": "2021-10-14T14:39:07.000",
    "request_status": "Pending",
    "responsible_agency": "Department of Code Enforcement",
    "final_address": "1648 Alabo St",
    "address_councildis": "E",
    "status": "Pending",
    "rowid": "833375",
    "final_x": "3699434.35946",
    "final_y": "535743.868807",
    "longitude": "-90.01128654198298",
    "latitude": "29.966553100926838",
    "geocoded_column": {
      "latitude": "29.966553100926838",
      "longitude": "-90.01128654198298"
    }
  },
  {
    "service_request": "2021-833373",
    "request_type": "Mayor's Request",
    "request_reason": "Requests to the Mayor",
    "date_created": "2021-10-14T14:35:42.000",
    "date_modified": "2021-10-14T14:35:42.000",
    "request_status": "Pending",
    "responsible_agency": "Executive Office of the Mayor",
    "status": "Pending",
    "rowid": "833373",
    "longitude": "0.0",
    "latitude": "0.0",
    "geocoded_column": {
      "latitude": "0.0",
      "longitude": "0.0"
    }
  },
  {
    "service_request": "2021-833371",
    "request_type": "Trash/Recycling",
    "request_reason": "Request a Large Item Pick Up",
    "date_created": "2021-10-14T14:32:12.000",
    "date_modified": "2021-10-14T14:32:13.000",
    "request_status": "Pending",
    "responsible_agency": "Department of Sanitation",
    "final_address": "8602 Spruce St",
    "address_councildis": "A",
    "status": "Assigned to Contractor",
    "contractor": "Richards Disposal",
    "rowid": "833371",
    "final_x": "3662471.60275",
    "final_y": "531654.266883",
    "longitude": "-90.12815098924078",
    "latitude": "29.956428903345866",
    "geocoded_column": {
      "latitude": "29.956428903345866",
      "longitude": "-90.12815098924078"
    }
  },
  {
    "service_request": "2021-833370",
    "request_type": "Trash/Recycling",
    "request_reason": "Missed Trash Pick-Up",
    "date_created": "2021-10-14T14:29:27.000",
    "date_modified": "2021-10-14T14:29:27.000",
    "request_status": "Pending",
    "responsible_agency": "Department of Sanitation",
    "final_address": "908 Josephine St",
    "address_councildis": "B",
    "status": "Assigned to Contractor",
    "contractor": "Richards Disposal",
    "rowid": "833370",
    "final_x": "3679529.87439",
    "final_y": "521781.274874",
    "longitude": "-90.07462907195203",
    "latitude": "29.928777096814667",
    "geocoded_column": {
      "latitude": "29.928777096814667",
      "longitude": "-90.07462907195203"
    }
  },
  {
    "service_request": "2021-833369",
    "request_type": "Trash/Recycling",
    "request_reason": "Order Trash Cart",
    "date_created": "2021-10-14T14:28:22.000",
    "date_modified": "2021-10-14T14:28:23.000",
    "request_status": "Pending",
    "responsible_agency": "Department of Sanitation",
    "final_address": "614 N Carrollton Ave",
    "address_councildis": "A",
    "status": "Assigned to Contractor",
    "contractor": "Richards Disposal",
    "rowid": "833369",
    "final_x": "3672507.13275",
    "final_y": "539708.86881",
    "longitude": "-90.09618743506746",
    "latitude": "29.978282300610196",
    "geocoded_column": {
      "latitude": "29.978282300610196",
      "longitude": "-90.09618743506746"
    }
  },
  {
    "service_request": "2021-833368",
    "request_type": "Trash/Recycling",
    "request_reason": "Request a Large Item Pick Up",
    "date_created": "2021-10-14T14:25:50.000",
    "date_modified": "2021-10-14T14:25:53.000",
    "request_status": "Pending",
    "responsible_agency": "Department of Sanitation",
    "final_address": "1411 Dauphine St",
    "address_councildis": "C",
    "status": "Assigned to Contractor",
    "contractor": "Metro Disposal",
    "rowid": "833368",
    "final_x": "3683502.50972",
    "final_y": "535009.138374",
    "longitude": "-90.06162484850074",
    "latitude": "29.96502866507802",
    "geocoded_column": {
      "latitude": "29.96502866507802",
      "longitude": "-90.06162484850074"
    }
  },
  {
    "service_request": "2021-833367",
    "request_type": "Abandoned Vehicles",
    "request_reason": "Abandoned/Junk Vehicles",
    "date_created": "2021-10-14T14:24:52.000",
    "date_modified": "2021-10-14T14:24:52.000",
    "request_status": "Pending",
    "responsible_agency": "Department of Public Works",
    "final_address": "1000 S Rendon St",
    "address_councildis": "B",
    "status": "Pending",
    "rowid": "833367",
    "final_x": "3671097.52558",
    "final_y": "532983.198404",
    "longitude": "-90.10086797442628",
    "latitude": "29.95983073791246",
    "geocoded_column": {
      "latitude": "29.95983073791246",
      "longitude": "-90.10086797442628"
    }
  },
  {
    "service_request": "2021-833366",
    "request_type": "COVID-19",
    "request_reason": "COVID-19 Business Non-Compliance",
    "date_created": "2021-10-14T14:23:51.000",
    "date_modified": "2021-10-14T14:23:52.000",
    "request_status": "Pending",
    "responsible_agency": "Safety and Permits",
    "final_address": "3500 General De Gaulle Dr",
    "address_councildis": "C",
    "status": "Pending",
    "rowid": "833366",
    "final_x": "3696226.37693",
    "final_y": "520903.798713",
    "longitude": "-90.02195361777919",
    "latitude": "29.92584945824911",
    "geocoded_column": {
      "latitude": "29.92584945824911",
      "longitude": "-90.02195361777919"
    }
  },
  {
    "service_request": "2021-833365",
    "request_type": "Traffic Signals/Signs/Striping/Streetlights",
    "request_reason": "Additional signage",
    "date_created": "2021-10-14T14:21:12.000",
    "date_modified": "2021-10-14T14:21:12.000",
    "request_status": "Pending",
    "responsible_agency": "Department of Public Works",
    "final_address": "631 Washington Ave",
    "address_councildis": "B",
    "status": "Pending",
    "rowid": "833365",
    "final_x": "3677961.87323",
    "final_y": "519538.908855",
    "longitude": "-90.07965638037957",
    "latitude": "29.922658587808193",
    "geocoded_column": {
      "latitude": "29.922658587808193",
      "longitude": "-90.07965638037957"
    }
  },
  {
    "service_request": "2021-833364",
    "request_type": "COVID-19",
    "request_reason": "COVID-19 Business Non-Compliance",
    "date_created": "2021-10-14T14:20:29.000",
    "date_modified": "2021-10-14T14:20:31.000",
    "request_status": "Pending",
    "responsible_agency": "Safety and Permits",
    "final_address": "500 Port St",
    "address_councildis": "C",
    "status": "Pending",
    "rowid": "833364",
    "final_x": "3686868.4351",
    "final_y": "534364.623557",
    "longitude": "-90.05101825525108",
    "latitude": "29.96315332565695",
    "geocoded_column": {
      "latitude": "29.96315332565695",
      "longitude": "-90.05101825525108"
    }
  },
  {
    "service_request": "2021-833363",
    "request_type": "Property Maintenance",
    "request_reason": "Property Maintenance",
    "date_created": "2021-10-14T14:19:21.000",
    "date_modified": "2021-10-14T14:19:21.000",
    "request_status": "Pending",
    "responsible_agency": "Department of Code Enforcement",
    "final_address": "1312 Short St",
    "address_councildis": "A",
    "status": "Pending",
    "rowid": "833363",
    "final_x": "3662611.44378",
    "final_y": "528484.059968",
    "longitude": "-90.127814733839",
    "latitude": "29.947707811182493",
    "geocoded_column": {
      "latitude": "29.947707811182493",
      "longitude": "-90.127814733839"
    }
  },
  {
    "service_request": "2021-833362",
    "request_type": "Traffic Signals/Signs/Striping/Streetlights",
    "request_reason": "Street Light Knocked Down/Leaning",
    "date_created": "2021-10-14T14:18:59.000",
    "date_modified": "2021-10-14T14:19:00.000",
    "request_status": "Pending",
    "responsible_agency": "Department of Public Works",
    "final_address": "1800 Washington Ave",
    "address_councildis": "B",
    "status": "Pending",
    "contractor": "Royal Engineering",
    "rowid": "833362",
    "final_x": "3675454.9819",
    "final_y": "523156.067003",
    "longitude": "-90.08744549681617",
    "latitude": "29.9326797822616",
    "geocoded_column": {
      "latitude": "29.9326797822616",
      "longitude": "-90.08744549681617"
    }
  },
  {
    "service_request": "2021-833359",
    "request_type": "Trash/Recycling",
    "request_reason": "Replace Trash Cart",
    "date_created": "2021-10-14T14:13:17.000",
    "date_modified": "2021-10-14T14:13:22.000",
    "request_status": "Pending",
    "responsible_agency": "Department of Sanitation",
    "final_address": "3205 Baronne St",
    "address_councildis": "B",
    "status": "Assigned to Contractor",
    "contractor": "Richards Disposal",
    "rowid": "833359",
    "final_x": "3674457.877",
    "final_y": "522495.439738",
    "longitude": "-90.09061589860055",
    "latitude": "29.93089304493442",
    "geocoded_column": {
      "latitude": "29.93089304493442",
      "longitude": "-90.09061589860055"
    }
  },
  {
    "service_request": "2021-833358",
    "request_type": "Abandoned Vehicles",
    "request_reason": "Abandoned/Junk Vehicles",
    "date_created": "2021-10-14T14:13:09.000",
    "date_modified": "2021-10-14T14:13:09.000",
    "request_status": "Pending",
    "responsible_agency": "Department of Public Works",
    "final_address": "913 Eighth St",
    "address_councildis": "B",
    "status": "Pending",
    "rowid": "833358",
    "final_x": "3676477.1739",
    "final_y": "519717.380472",
    "longitude": "-90.08433684716569",
    "latitude": "29.923193910091346",
    "geocoded_column": {
      "latitude": "29.923193910091346",
      "longitude": "-90.08433684716569"
    }
  },
  {
    "service_request": "2021-833356",
    "request_type": "Trash/Recycling",
    "request_reason": "Repair Trash Cart",
    "date_created": "2021-10-14T14:05:59.000",
    "date_modified": "2021-10-14T14:06:25.000",
    "request_status": "Pending",
    "responsible_agency": "Department of Sanitation",
    "final_address": "1913 Alvar St",
    "address_councildis": "D",
    "status": "Assigned to Contractor",
    "contractor": "Metro Disposal",
    "rowid": "833356",
    "final_x": "3692312.18288",
    "final_y": "538501.263497",
    "longitude": "-90.03367944509785",
    "latitude": "29.974358988395075",
    "geocoded_column": {
      "latitude": "29.974358988395075",
      "longitude": "-90.03367944509785"
    }
  },
  {
    "service_request": "2021-833355",
    "request_type": "Trash/Recycling",
    "request_reason": "Missed Trash Pick-Up",
    "date_created": "2021-10-14T13:52:58.000",
    "date_modified": "2021-10-14T13:52:58.000",
    "request_status": "Pending",
    "responsible_agency": "Department of Sanitation",
    "final_address": "2618 Baronne St",
    "address_councildis": "B",
    "status": "Assigned to Contractor",
    "contractor": "Richards Disposal",
    "rowid": "833355",
    "final_x": "3675899.79726",
    "final_y": "523363.569851",
    "longitude": "-90.0860341190068",
    "latitude": "29.933237041058934",
    "geocoded_column": {
      "latitude": "29.933237041058934",
      "longitude": "-90.0860341190068"
    }
  },
  {
    "service_request": "2021-833354",
    "request_type": "Traffic Signals/Signs/Striping/Streetlights",
    "request_reason": "Street Light Outage/Malfunction",
    "date_created": "2021-10-14T13:51:14.000",
    "date_modified": "2021-10-14T13:51:28.000",
    "request_status": "Pending",
    "responsible_agency": "Department of Public Works",
    "final_address": "6620 General Diaz St",
    "address_councildis": "A",
    "status": "Pending",
    "contractor": "Royal Engineering",
    "rowid": "833354",
    "final_x": "3669827.85198",
    "final_y": "551478.684629",
    "longitude": "-90.10425085554571",
    "latitude": "30.010724501834563",
    "geocoded_column": {
      "latitude": "30.010724501834563",
      "longitude": "-90.10425085554571"
    }
  },
  {
    "service_request": "2021-833353",
    "request_type": "Trash/Recycling",
    "request_reason": "Order Trash Cart",
    "date_created": "2021-10-14T13:47:05.000",
    "date_modified": "2021-10-14T13:47:06.000",
    "request_status": "Pending",
    "responsible_agency": "Department of Sanitation",
    "final_address": "2439 Nashville Ave, New Orleans, Louisiana, 70115",
    "address_councildis": "A",
    "status": "Assigned to Contractor",
    "contractor": "Richards Disposal",
    "rowid": "833353",
    "final_x": "3667243.03393",
    "final_y": "525118.766461",
    "longitude": "-90.11330406420005",
    "latitude": "29.93831954079217",
    "geocoded_column": {
      "latitude": "29.93831954079217",
      "longitude": "-90.11330406420005"
    }
  },
  {
    "service_request": "2021-833352",
    "request_type": "Trash/Recycling",
    "request_reason": "Illegal Dumping",
    "date_created": "2021-10-14T13:47:03.000",
    "date_modified": "2021-10-14T13:47:03.000",
    "request_status": "Pending",
    "responsible_agency": "Department of Sanitation",
    "final_address": "3637 Magazine St",
    "address_councildis": "B",
    "status": "Pending",
    "rowid": "833352",
    "final_x": "3673802.2539",
    "final_y": "519243.578103",
    "longitude": "-90.09279675412732",
    "latitude": "29.92197100768267",
    "geocoded_column": {
      "latitude": "29.92197100768267",
      "longitude": "-90.09279675412732"
    }
  },
  {
    "service_request": "2021-833349",
    "request_type": "Trash/Recycling",
    "request_reason": "Missed Trash Pick-Up",
    "date_created": "2021-10-14T13:44:52.000",
    "date_modified": "2021-10-14T13:44:53.000",
    "request_status": "Pending",
    "responsible_agency": "Department of Sanitation",
    "final_address": "318 Bragg St",
    "address_councildis": "A",
    "status": "Assigned to Contractor",
    "contractor": "Metro Disposal",
    "rowid": "833349",
    "final_x": "3667459.27527",
    "final_y": "550078.674708",
    "longitude": "-90.11178128997172",
    "latitude": "30.006944609471674",
    "geocoded_column": {
      "latitude": "30.006944609471674",
      "longitude": "-90.11178128997172"
    }
  },
  {
    "service_request": "2021-833348",
    "request_type": "Trash/Recycling",
    "request_reason": "Replace Trash Cart",
    "date_created": "2021-10-14T13:42:54.000",
    "date_modified": "2021-10-14T13:42:55.000",
    "request_status": "Pending",
    "responsible_agency": "Department of Sanitation",
    "final_address": "3637 Magazine St, New Orleans, Louisiana, 70115",
    "address_councildis": "B",
    "status": "Assigned to Contractor",
    "contractor": "Richards Disposal",
    "rowid": "833348",
    "final_x": "3673802.2539",
    "final_y": "519243.578103",
    "longitude": "-90.09279675412732",
    "latitude": "29.92197100768267",
    "geocoded_column": {
      "latitude": "29.92197100768267",
      "longitude": "-90.09279675412732"
    }
  },
  {
    "service_request": "2021-833347",
    "request_type": "Roads/Drainage",
    "request_reason": "Pothole",
    "date_created": "2021-10-14T13:42:50.000",
    "date_modified": "2021-10-14T13:42:50.000",
    "request_status": "Pending",
    "responsible_agency": "Department of Public Works",
    "final_address": "6500 Press Dr",
    "address_councildis": "D",
    "status": "Pending",
    "rowid": "833347",
    "final_x": "3688512.95907",
    "final_y": "557984.971099",
    "longitude": "-90.04498638871938",
    "latitude": "30.02805004295675",
    "geocoded_column": {
      "latitude": "30.02805004295675",
      "longitude": "-90.04498638871938"
    }
  },
  {
    "service_request": "2021-833346",
    "request_type": "Trash/Recycling",
    "request_reason": "Illegal Dumping",
    "date_created": "2021-10-14T13:41:33.000",
    "date_modified": "2021-10-14T13:41:33.000",
    "request_status": "Pending",
    "responsible_agency": "Department of Sanitation",
    "final_address": "929 Kentucky St",
    "address_councildis": "C",
    "status": "Pending",
    "rowid": "833346",
    "final_x": "3693204.62077",
    "final_y": "534367.887173",
    "longitude": "-90.03100929622012",
    "latitude": "29.962965804164526",
    "geocoded_column": {
      "latitude": "29.962965804164526",
      "longitude": "-90.03100929622012"
    }
  },
  {
    "service_request": "2021-833345",
    "request_type": "Traffic Signals/Signs/Striping/Streetlights",
    "request_reason": "Street Name Sign Damaged or Missing",
    "date_created": "2021-10-14T13:40:38.000",
    "date_modified": "2021-10-14T13:40:38.000",
    "request_status": "Pending",
    "responsible_agency": "Department of Public Works",
    "final_address": "CHELSEA DR & DURBRIDGE DR",
    "address_councildis": "C",
    "status": "Pending",
    "rowid": "833345",
    "final_x": "3704386.6",
    "final_y": "521890.28",
    "longitude": "-89.99615808630809",
    "latitude": "29.92830262123496",
    "geocoded_column": {
      "latitude": "29.92830262123496",
      "longitude": "-89.99615808630809"
    }
  },
  {
    "service_request": "2021-833343",
    "request_type": "Trash/Recycling",
    "request_reason": "Request a Large Item Pick Up",
    "date_created": "2021-10-14T13:39:28.000",
    "date_modified": "2021-10-14T13:39:28.000",
    "request_status": "Pending",
    "responsible_agency": "Department of Sanitation",
    "final_address": "929 Kentucky St",
    "address_councildis": "C",
    "status": "Assigned to Contractor",
    "contractor": "Metro Disposal",
    "rowid": "833343",
    "final_x": "3693204.62077",
    "final_y": "534367.887173",
    "longitude": "-90.03100929622012",
    "latitude": "29.962965804164526",
    "geocoded_column": {
      "latitude": "29.962965804164526",
      "longitude": "-90.03100929622012"
    }
  },
  {
    "service_request": "2021-833342",
    "request_type": "Property Maintenance",
    "request_reason": "Property Maintenance",
    "date_created": "2021-10-14T13:30:45.000",
    "date_modified": "2021-10-14T13:30:45.000",
    "request_status": "Pending",
    "responsible_agency": "Department of Code Enforcement",
    "final_address": "2501 Gravier St",
    "address_councildis": "B",
    "status": "Pending",
    "rowid": "833342",
    "final_x": "3674902.39278",
    "final_y": "532927.285124",
    "longitude": "-90.0888549540379",
    "latitude": "29.959563916310575",
    "geocoded_column": {
      "latitude": "29.959563916310575",
      "longitude": "-90.0888549540379"
    }
  },
  {
    "service_request": "2021-833339",
    "request_type": "Trash/Recycling",
    "request_reason": "Replace Trash Cart",
    "date_created": "2021-10-14T13:24:38.000",
    "date_modified": "2021-10-14T13:24:42.000",
    "request_status": "Pending",
    "responsible_agency": "Department of Sanitation",
    "final_address": "2120 S Liberty St",
    "address_councildis": "B",
    "status": "Assigned to Contractor",
    "contractor": "Richards Disposal",
    "rowid": "833339",
    "final_x": "3676182.86881",
    "final_y": "525902.790909",
    "longitude": "-90.08505315134076",
    "latitude": "29.94021059130542",
    "geocoded_column": {
      "latitude": "29.94021059130542",
      "longitude": "-90.08505315134076"
    }
  },
  {
    "service_request": "2021-833337",
    "request_type": "Traffic Signals/Signs/Striping/Streetlights",
    "request_reason": "Street Light Outage/Malfunction",
    "date_created": "2021-10-14T13:20:48.000",
    "date_modified": "2021-10-14T13:20:48.000",
    "request_status": "Pending",
    "responsible_agency": "Department of Public Works",
    "final_address": "5421 Constance St",
    "address_councildis": "A",
    "status": "Pending",
    "contractor": "Royal Engineering",
    "rowid": "833337",
    "final_x": "3666502.20205",
    "final_y": "518534.904567",
    "longitude": "-90.11586380372046",
    "latitude": "29.920237676435452",
    "geocoded_column": {
      "latitude": "29.920237676435452",
      "longitude": "-90.11586380372046"
    }
  },
  {
    "service_request": "2021-833336",
    "request_type": "Trash/Recycling",
    "request_reason": "Missed Trash Pick-Up",
    "date_created": "2021-10-14T13:19:51.000",
    "date_modified": "2021-10-14T13:51:50.000",
    "case_close_date": "2021-10-14T08:51:50.000",
    "request_status": "Closed",
    "responsible_agency": "Department of Sanitation",
    "final_address": "1441 Touro St",
    "address_councildis": "C",
    "status": "Invalid Case",
    "contractor": "Metro Disposal",
    "rowid": "833336",
    "final_x": "3684145.27708",
    "final_y": "537669.9826",
    "longitude": "-90.05950161597002",
    "latitude": "29.972325433918815",
    "geocoded_column": {
      "latitude": "29.972325433918815",
      "longitude": "-90.05950161597002"
    }
  },
  {
    "service_request": "2021-833335",
    "request_type": "Trash/Recycling",
    "request_reason": "Repair Trash Cart",
    "date_created": "2021-10-14T13:19:33.000",
    "date_modified": "2021-10-14T13:19:33.000",
    "request_status": "Pending",
    "responsible_agency": "Department of Sanitation",
    "final_address": "15 Neron Pl",
    "address_councildis": "A",
    "status": "Assigned to Contractor",
    "contractor": "Richards Disposal",
    "rowid": "833335",
    "final_x": "3664971.9529",
    "final_y": "530921.682178",
    "longitude": "-90.12028016613827",
    "latitude": "29.954341985133834",
    "geocoded_column": {
      "latitude": "29.954341985133834",
      "longitude": "-90.12028016613827"
    }
  },
  {
    "service_request": "2021-833334",
    "request_type": "Property Maintenance",
    "request_reason": "Property Maintenance",
    "date_created": "2021-10-14T13:18:35.000",
    "date_modified": "2021-10-14T13:18:36.000",
    "request_status": "Pending",
    "responsible_agency": "Department of Code Enforcement",
    "final_address": "3424 Camphor St",
    "address_councildis": "A",
    "status": "Pending",
    "rowid": "833334",
    "final_x": "3663591.35405",
    "final_y": "537934.015241",
    "longitude": "-90.12440595694639",
    "latitude": "29.973663719264934",
    "geocoded_column": {
      "latitude": "29.973663719264934",
      "longitude": "-90.12440595694639"
    }
  },
  {
    "service_request": "2021-833331",
    "request_type": "Trash/Recycling",
    "request_reason": "Request a Large Item Pick Up",
    "date_created": "2021-10-14T13:06:23.000",
    "date_modified": "2021-10-14T13:06:26.000",
    "request_status": "Pending",
    "responsible_agency": "Department of Sanitation",
    "final_address": "707 Milan St",
    "address_councildis": "B",
    "status": "Assigned to Contractor",
    "contractor": "Richards Disposal",
    "rowid": "833331",
    "final_x": "3671902.80187",
    "final_y": "518202.571318",
    "longitude": "-90.09882794155808",
    "latitude": "29.919164978874694",
    "geocoded_column": {
      "latitude": "29.919164978874694",
      "longitude": "-90.09882794155808"
    }
  },
  {
    "service_request": "2021-833330",
    "request_type": "Roads/Drainage",
    "request_reason": "Pothole",
    "date_created": "2021-10-14T13:05:10.000",
    "date_modified": "2021-10-14T13:05:10.000",
    "request_status": "Pending",
    "responsible_agency": "Department of Public Works",
    "final_address": "3944 Clermont Dr",
    "address_councildis": "D",
    "status": "Pending",
    "rowid": "833330",
    "final_x": "3685023.71234",
    "final_y": "547044.128657",
    "longitude": "-90.05639744816116",
    "latitude": "29.998074137647837",
    "geocoded_column": {
      "latitude": "29.998074137647837",
      "longitude": "-90.05639744816116"
    }
  },
  {
    "service_request": "2021-833329",
    "request_type": "Trash/Recycling",
    "request_reason": "Missed Trash Pick-Up",
    "date_created": "2021-10-14T13:03:33.000",
    "date_modified": "2021-10-14T13:03:40.000",
    "request_status": "Pending",
    "responsible_agency": "Department of Sanitation",
    "final_address": "4009 State Street Dr",
    "address_councildis": "B",
    "status": "Assigned to Contractor",
    "contractor": "Richards Disposal",
    "rowid": "833329",
    "final_x": "3668266.12922",
    "final_y": "530331.459906",
    "longitude": "-90.10989832876923",
    "latitude": "29.952622763952217",
    "geocoded_column": {
      "latitude": "29.952622763952217",
      "longitude": "-90.10989832876923"
    }
  },
  {
    "service_request": "2021-833328",
    "request_type": "Trash/Recycling",
    "request_reason": "Missed Trash Pick-Up",
    "date_created": "2021-10-14T13:03:28.000",
    "date_modified": "2021-10-14T16:59:20.000",
    "request_status": "Pending",
    "responsible_agency": "Department of Sanitation",
    "final_address": "New Orleans,LA",
    "address_councildis": "B",
    "status": "Assigned to Contractor",
    "contractor": "Richards Disposal",
    "rowid": "833328",
    "final_x": "3676043.77665",
    "final_y": "522866.967739",
    "longitude": "-90.08559665644712",
    "latitude": "29.931867236838222",
    "geocoded_column": {
      "latitude": "29.931867236838222",
      "longitude": "-90.08559665644712"
    }
  },
  {
    "service_request": "2021-833324",
    "request_type": "Abandoned Vehicles",
    "request_reason": "Abandoned/Junk Vehicles",
    "date_created": "2021-10-14T12:59:53.000",
    "date_modified": "2021-10-14T12:59:53.000",
    "request_status": "Pending",
    "responsible_agency": "Department of Public Works",
    "final_address": "3650 Fairmont Dr",
    "address_councildis": "D",
    "status": "Pending",
    "rowid": "833324",
    "final_x": "3685366.73756",
    "final_y": "545961.625488",
    "longitude": "-90.05535197743548",
    "latitude": "29.99508712678012",
    "geocoded_column": {
      "latitude": "29.99508712678012",
      "longitude": "-90.05535197743548"
    }
  },
  {
    "service_request": "2021-833323",
    "request_type": "Safety & Permits",
    "request_reason": "Construction permit",
    "date_created": "2021-10-14T12:58:54.000",
    "date_modified": "2021-10-14T12:58:54.000",
    "request_status": "Pending",
    "responsible_agency": "Department of Code Enforcement",
    "final_address": "2207 Louisiana Ave",
    "address_councildis": "B",
    "status": "Pending",
    "rowid": "833323",
    "final_x": "3673381.48692",
    "final_y": "523604.550587",
    "longitude": "-90.09397604840174",
    "latitude": "29.933974796363703",
    "geocoded_column": {
      "latitude": "29.933974796363703",
      "longitude": "-90.09397604840174"
    }
  },
  {
    "service_request": "2021-833321",
    "request_type": "Abandoned Vehicles",
    "request_reason": "Abandoned/Junk Vehicles",
    "date_created": "2021-10-14T12:58:08.000",
    "date_modified": "2021-10-14T13:07:25.000",
    "request_status": "Pending",
    "responsible_agency": "Department of Public Works",
    "status": "Inspected",
    "rowid": "833321",
    "longitude": "0.0",
    "latitude": "0.0",
    "geocoded_column": {
      "latitude": "0.0",
      "longitude": "0.0"
    }
  },
  {
    "service_request": "2021-833319",
    "request_type": "Traffic Signals/Signs/Striping/Streetlights",
    "request_reason": "Street Light Outage/Malfunction",
    "date_created": "2021-10-14T12:54:40.000",
    "date_modified": "2021-10-14T12:54:45.000",
    "request_status": "Pending",
    "responsible_agency": "Department of Public Works",
    "final_address": "7530 Devine Ave",
    "address_councildis": "E",
    "status": "Pending",
    "contractor": "Royal Engineering",
    "rowid": "833319",
    "final_x": "3705707.36196",
    "final_y": "562823.029984",
    "longitude": "-89.99047443807233",
    "latitude": "30.040810014400314",
    "geocoded_column": {
      "latitude": "30.040810014400314",
      "longitude": "-89.99047443807233"
    }
  },
  {
    "service_request": "2021-833317",
    "request_type": "Trash/Recycling",
    "request_reason": "Replace Trash Cart",
    "date_created": "2021-10-14T12:47:40.000",
    "date_modified": "2021-10-14T12:47:41.000",
    "request_status": "Pending",
    "responsible_agency": "Department of Sanitation",
    "final_address": "8830 Gervais St",
    "address_councildis": "E",
    "status": "Assigned to Contractor",
    "contractor": "Metro Disposal",
    "rowid": "833317",
    "final_x": "3704725.43786",
    "final_y": "563091.29392",
    "longitude": "-89.99356771606493",
    "latitude": "30.041579239165383",
    "geocoded_column": {
      "latitude": "30.041579239165383",
      "longitude": "-89.99356771606493"
    }
  },
  {
    "service_request": "2021-833316",
    "request_type": "Traffic Signals/Signs/Striping/Streetlights",
    "request_reason": "Street Light Outage/Malfunction",
    "date_created": "2021-10-14T12:46:28.000",
    "date_modified": "2021-10-14T12:46:29.000",
    "request_status": "Pending",
    "responsible_agency": "Department of Public Works",
    "final_address": "5058 Van Chu Dr",
    "address_councildis": "E",
    "status": "Pending",
    "contractor": "Royal Engineering",
    "rowid": "833316",
    "final_x": "3727609.52205",
    "final_y": "563070.450336",
    "longitude": "-89.92124756574168",
    "latitude": "30.0407663546611",
    "geocoded_column": {
      "latitude": "30.0407663546611",
      "longitude": "-89.92124756574168"
    }
  },
  {
    "service_request": "2021-833314",
    "request_type": "Trash/Recycling",
    "request_reason": "Request a Large Item Pick Up",
    "date_created": "2021-10-14T12:42:46.000",
    "date_modified": "2021-10-14T12:42:47.000",
    "request_status": "Pending",
    "responsible_agency": "Department of Sanitation",
    "final_address": "2228 Annunciation St",
    "address_councildis": "B",
    "status": "Assigned to Contractor",
    "contractor": "Richards Disposal",
    "rowid": "833314",
    "final_x": "3679336.25736",
    "final_y": "521026.825465",
    "longitude": "-90.07526643020485",
    "latitude": "29.926708454424453",
    "geocoded_column": {
      "latitude": "29.926708454424453",
      "longitude": "-90.07526643020485"
    }
  },
  {
    "service_request": "2021-833311",
    "request_type": "Traffic Signals/Signs/Striping/Streetlights",
    "request_reason": "Disabled Parking Sign ",
    "date_created": "2021-10-14T12:34:30.000",
    "date_modified": "2021-10-14T12:34:31.000",
    "request_status": "Pending",
    "responsible_agency": "Department of Public Works",
    "final_address": "2500 New York St",
    "address_councildis": "D",
    "status": "Pending",
    "rowid": "833311",
    "final_x": "3685637.90774",
    "final_y": "556626.138266",
    "longitude": "-90.0541192889779",
    "latitude": "30.024402329522047",
    "geocoded_column": {
      "latitude": "30.024402329522047",
      "longitude": "-90.0541192889779"
    }
  },
  {
    "service_request": "2021-833310",
    "request_type": "Trash/Recycling",
    "request_reason": "Repair Trash Cart",
    "date_created": "2021-10-14T12:34:07.000",
    "date_modified": "2021-10-14T12:34:08.000",
    "request_status": "Pending",
    "responsible_agency": "Department of Sanitation",
    "final_address": "917 Seventh St",
    "address_councildis": "B",
    "status": "Assigned to Contractor",
    "contractor": "Richards Disposal",
    "rowid": "833310",
    "final_x": "3676723.41729",
    "final_y": "519913.963512",
    "longitude": "-90.08355278195359",
    "latitude": "29.92372706715264",
    "geocoded_column": {
      "latitude": "29.92372706715264",
      "longitude": "-90.08355278195359"
    }
  },
  {
    "service_request": "2021-833309",
    "request_type": "Traffic Signals/Signs/Striping/Streetlights",
    "request_reason": "Street Light Outage/Malfunction",
    "date_created": "2021-10-14T12:33:27.000",
    "date_modified": "2021-10-14T12:33:29.000",
    "request_status": "Pending",
    "responsible_agency": "Department of Public Works",
    "final_address": "7307 St Charles Ave",
    "address_councildis": "A",
    "status": "Pending",
    "contractor": "Royal Engineering",
    "rowid": "833309",
    "final_x": "3662758.65069",
    "final_y": "525035.526397",
    "longitude": "-90.12746452959588",
    "latitude": "29.938221184727414",
    "geocoded_column": {
      "latitude": "29.938221184727414",
      "longitude": "-90.12746452959588"
    }
  },
  {
    "service_request": "2021-833308",
    "request_type": "Parks & Parkways",
    "request_reason": "Request Tree Service (Right of Way/Public Property)",
    "date_created": "2021-10-14T12:33:03.000",
    "date_modified": "2021-10-14T12:33:03.000",
    "request_status": "Pending",
    "responsible_agency": "Department of Parks & Parkway",
    "final_address": "75 Allard Blvd",
    "address_councildis": "A",
    "status": "Pending",
    "rowid": "833308",
    "final_x": "3672767.69723",
    "final_y": "540407.782411",
    "longitude": "-90.09534062725967",
    "latitude": "29.98019633644665",
    "geocoded_column": {
      "latitude": "29.98019633644665",
      "longitude": "-90.09534062725967"
    }
  },
  {
    "service_request": "2021-833307",
    "request_type": "Traffic Signals/Signs/Striping/Streetlights",
    "request_reason": "Traffic Signal Malfunctioning/Damaged",
    "date_created": "2021-10-14T12:32:53.000",
    "date_modified": "2021-10-14T12:32:53.000",
    "request_status": "Pending",
    "responsible_agency": "Department of Public Works",
    "status": "Pending",
    "rowid": "833307",
    "longitude": "0.0",
    "latitude": "0.0",
    "geocoded_column": {
      "latitude": "0.0",
      "longitude": "0.0"
    }
  },
  {
    "service_request": "2021-833306",
    "request_type": "Traffic Signals/Signs/Striping/Streetlights",
    "request_reason": "Street Light Outage/Malfunction",
    "date_created": "2021-10-14T12:31:07.000",
    "date_modified": "2021-10-14T12:31:07.000",
    "request_status": "Pending",
    "responsible_agency": "Department of Public Works",
    "final_address": "3541 Kent Dr",
    "address_councildis": "C",
    "status": "Pending",
    "contractor": "Royal Engineering",
    "rowid": "833306",
    "final_x": "3708710.62366",
    "final_y": "517692.945974",
    "longitude": "-89.98266440785031",
    "latitude": "29.916621965486833",
    "geocoded_column": {
      "latitude": "29.916621965486833",
      "longitude": "-89.98266440785031"
    }
  },
  {
    "service_request": "2021-833305",
    "request_type": "Parks & Parkways",
    "request_reason": "Request Tree Service (Right of Way/Public Property)",
    "date_created": "2021-10-14T12:30:14.000",
    "date_modified": "2021-10-14T12:30:14.000",
    "request_status": "Pending",
    "responsible_agency": "Department of Parks & Parkway",
    "final_address": "7307 St Charles Ave",
    "address_councildis": "A",
    "status": "Pending",
    "rowid": "833305",
    "final_x": "3662758.65069",
    "final_y": "525035.526397",
    "longitude": "-90.12746452959588",
    "latitude": "29.938221184727414",
    "geocoded_column": {
      "latitude": "29.938221184727414",
      "longitude": "-90.12746452959588"
    }
  },