[
  {
    "service_request": "2026-1251915",
    "request_type": "Trash/Recycling",
    "request_reason": "Request a Large Item Pick Up",
    "date_created": "2026-01-13T23:52:05.000",
    "date_modified": "2026-01-13T23:52:07.000",
    "request_status": "Pending",
    "responsible_agency": "Department of Sanitation",
    "final_address": "927 Pine St",
    "address_councildis": "A",
    "status": "Assigned to Contractor",
    "contractor": "IV Waste",
    "rowid": "1251915",
    "final_x": "3663480.7625",
    "final_y": "525941.303805",
    "longitude": "-90.12515459250058",
    "latitude": "29.940690868613327",
    "geocoded_column": {
      "latitude": "29.940690868613327",
      "longitude": "-90.12515459250058"
    }
  },
  {
    "service_request": "2026-1251914",
    "request_type": "Trash/Recycling",
    "request_reason": "Request a Large Item Pick Up",
    "date_created": "2026-01-13T23:17:07.000",
    "date_modified": "2026-01-13T23:17:09.000",
    "request_status": "Pending",
    "responsible_agency": "Department of Sanitation",
    "final_address": "232 Nashville Ave",
    "address_councildis": "A",
    "status": "Assigned to Contractor",
    "contractor": "IV Waste",
    "rowid": "1251914",
    "final_x": "3665058.90682",
    "final_y": "517146.973557",
    "longitude": "-90.12046599309042",
    "latitude": "29.916463387106205",
    "geocoded_column": {
      "latitude": "29.916463387106205",
      "longitude": "-90.12046599309042"
    }
  },
  {
    "service_request": "2026-1251913",
    "request_type": "Trash/Recycling",
    "request_reason": "Replace Trash Cart",
    "date_created": "2026-01-13T22:02:29.000",
    "date_modified": "2026-01-13T22:02:30.000",
    "request_status": "Pending",
    "responsible_agency": "Department of Sanitation",
    "final_address": "2036 Spain St",
    "address_councildis": "D",
    "status": "Assigned to Contractor",
    "contractor": "IV Waste",
    "rowid": "1251913",
    "final_x": "3685806.7469",
    "final_y": "540027.690891",
    "longitude": "-90.0541712941648",
    "latitude": "29.978757412928044",
    "geocoded_column": {
      "latitude": "29.978757412928044",
      "longitude": "-90.0541712941648"
    }
  },
  {
    "service_request": "2026-1251912",
    "request_type": "Streetlights",
    "request_reason": "Streetlight Outage/Malfunction",
    "date_created": "2026-01-13T21:39:39.000",
    "date_modified": "2026-01-13T21:39:41.000",
    "request_status": "Pending",
    "responsible_agency": "Department of Public Works",
    "final_address": "1541 N Rocheblave St",
    "address_councildis": "D",
    "status": "Pending",
    "rowid": "1251912",
    "final_x": "3679663.54869",
    "final_y": "539195.932874",
    "longitude": "-90.07360270316711",
    "latitude": "29.976657506802617",
    "geocoded_column": {
      "latitude": "29.976657506802617",
      "longitude": "-90.07360270316711"
    }
  },
  {
    "service_request": "2026-1251911",
    "request_type": "Streetlights",
    "request_reason": "Streetlight Outage/Malfunction",
    "date_created": "2026-01-13T21:25:10.000",
    "date_modified": "2026-01-13T21:25:13.000",
    "request_status": "Pending",
    "responsible_agency": "Department of Public Works",
    "final_address": "3500 Baudin St",
    "address_councildis": "B",
    "status": "Pending",
    "rowid": "1251911",
    "final_x": "3671843.10139",
    "final_y": "535710.454599",
    "longitude": "-90.0984207917091",
    "latitude": "29.967307709219465",
    "geocoded_column": {
      "latitude": "29.967307709219465",
      "longitude": "-90.0984207917091"
    }
  },
  {
    "service_request": "2026-1251910",
    "request_type": "Streetlights",
    "request_reason": "Streetlight Outage/Malfunction",
    "date_created": "2026-01-13T21:11:51.000",
    "date_modified": "2026-01-13T21:11:53.000",
    "request_status": "Pending",
    "responsible_agency": "Department of Public Works",
    "final_address": "5892 Tullis Dr",
    "address_councildis": "C",
    "status": "Pending",
    "rowid": "1251910",
    "final_x": "3705742.93438",
    "final_y": "513313.998002",
    "longitude": "-89.9921933508048",
    "latitude": "29.904677218412843",
    "geocoded_column": {
      "latitude": "29.904677218412843",
      "longitude": "-89.9921933508048"
    }
  },
  {
    "service_request": "2026-1251909",
    "request_type": "Trash/Recycling",
    "request_reason": "Repair Recycling Cart",
    "date_created": "2026-01-13T20:27:53.000",
    "date_modified": "2026-01-13T20:27:55.000",
    "request_status": "Pending",
    "responsible_agency": "Department of Sanitation",
    "final_address": "1627 Frankfort St",
    "address_councildis": "D",
    "status": "Pending",
    "rowid": "1251909",
    "final_x": "3679204.67298",
    "final_y": "556561.271386",
    "longitude": "-90.07444941578507",
    "latitude": "30.02441988033004",
    "geocoded_column": {
      "latitude": "30.02441988033004",
      "longitude": "-90.07444941578507"
    }
  },
  {
    "service_request": "2026-1251908",
    "request_type": "Trash/Recycling",
    "request_reason": "Order Recycling Cart",
    "date_created": "2026-01-13T20:26:47.000",
    "date_modified": "2026-01-13T20:26:48.000",
    "request_status": "Pending",
    "responsible_agency": "Department of Sanitation",
    "final_address": "4930 Coliseum St",
    "address_councildis": "B",
    "status": "Pending",
    "rowid": "1251908",
    "final_x": "3668768.12154",
    "final_y": "519597.554296",
    "longitude": "-90.10867550053558",
    "latitude": "29.9230932324508",
    "geocoded_column": {
      "latitude": "29.9230932324508",
      "longitude": "-90.10867550053558"
    }
  },
  {
    "service_request": "2026-1251907",
    "request_type": "Drainage",
    "request_reason": "Drainage Manhole Cover Missing or Damaged",
    "date_created": "2026-01-13T20:25:59.000",
    "date_modified": "2026-01-13T20:26:01.000",
    "request_status": "Pending",
    "responsible_agency": "Sewerage & Water Board",
    "final_address": "3364 Belfort St",
    "address_councildis": "A",
    "status": "Pending",
    "rowid": "1251907",
    "final_x": "3676913.94741",
    "final_y": "542519.304141",
    "longitude": "-90.08217219121542",
    "latitude": "29.98587846248016",
    "geocoded_column": {
      "latitude": "29.98587846248016",
      "longitude": "-90.08217219121542"
    }
  },
  {
    "service_request": "2026-1251906",
    "request_type": "Trash/Recycling",
    "request_reason": "Request a Large Item Pick Up",
    "date_created": "2026-01-13T20:09:19.000",
    "date_modified": "2026-01-13T20:09:21.000",
    "request_status": "Pending",
    "responsible_agency": "Department of Sanitation",
    "final_address": "2836 Octavia St",
    "address_councildis": "A",
    "status": "Assigned to Contractor",
    "contractor": "IV Waste",
    "rowid": "1251906",
    "final_x": "3667970.57748",
    "final_y": "525998.136701",
    "longitude": "-90.1109775148086",
    "latitude": "29.940716205485018",
    "geocoded_column": {
      "latitude": "29.940716205485018",
      "longitude": "-90.1109775148086"
    }
  },
  {
    "service_request": "2026-1251905",
    "request_type": "Trash/Recycling",
    "request_reason": "Order Recycling Cart",
    "date_created": "2026-01-13T20:05:32.000",
    "date_modified": "2026-01-13T20:05:34.000",
    "request_status": "Pending",
    "responsible_agency": "Department of Sanitation",
    "final_address": "351 Lowerline St",
    "address_councildis": "A",
    "status": "Pending",
    "rowid": "1251905",
    "final_x": "3661638.81069",
    "final_y": "523711.027771",
    "longitude": "-90.13104386322036",
    "latitude": "29.934611589260776",
    "geocoded_column": {
      "latitude": "29.934611589260776",
      "longitude": "-90.13104386322036"
    }
  },
  {
    "service_request": "2026-1251904",
    "request_type": "Streetlights",
    "request_reason": "Streetlight Outage/Malfunction",
    "date_created": "2026-01-13T19:54:49.000",
    "date_modified": "2026-01-13T19:54:50.000",
    "request_status": "Pending",
    "responsible_agency": "Department of Public Works",
    "final_address": "2219 General Meyer Ave",
    "address_councildis": "C",
    "status": "Pending",
    "rowid": "1251904",
    "final_x": "3692309.42653",
    "final_y": "527680.907839",
    "longitude": "-90.03407563697299",
    "latitude": "29.94460688142151",
    "geocoded_column": {
      "latitude": "29.94460688142151",
      "longitude": "-90.03407563697299"
    }
  },
  {
    "service_request": "2026-1251903",
    "request_type": "Abandoned Vehicles",
    "request_reason": "Abandoned/Junk Vehicles",
    "date_created": "2026-01-13T19:52:08.000",
    "date_modified": "2026-01-13T19:52:09.000",
    "request_status": "Pending",
    "responsible_agency": "Department of Public Works",
    "final_address": "3620 Earhart Blvd",
    "address_councildis": "B",
    "status": "Pending",
    "rowid": "1251903",
    "final_x": "3673424.50619",
    "final_y": "530640.76461",
    "longitude": "-90.09359990565527",
    "latitude": "29.95332079807715",
    "geocoded_column": {
      "latitude": "29.95332079807715",
      "longitude": "-90.09359990565527"
    }
  },
  {
    "service_request": "2026-1251902",
    "request_type": "General Services",
    "request_reason": "General Service Request",
    "date_created": "2026-01-13T19:43:58.000",
    "date_modified": "2026-01-13T19:44:01.000",
    "request_status": "Pending",
    "responsible_agency": "Orleans Parish Communication District",
    "final_address": "8638 Belfast St",
    "address_councildis": "A",
    "status": "Pending",
    "rowid": "1251902",
    "final_x": "3664020.07738",
    "final_y": "533736.297221",
    "longitude": "-90.1231919631682",
    "latitude": "29.96210893377865",
    "geocoded_column": {
      "latitude": "29.96210893377865",
      "longitude": "-90.1231919631682"
    }
  },
  {
    "service_request": "2026-1251901",
    "request_type": "Safety & Permits",
    "request_reason": "Zoning Enforcement",
    "date_created": "2026-01-13T19:39:42.000",
    "date_modified": "2026-01-13T19:39:44.000",
    "request_status": "Pending",
    "responsible_agency": "Safety and Permits",
    "final_address": "8638 Belfast St",
    "address_councildis": "A",
    "status": "Pending",
    "rowid": "1251901",
    "final_x": "3664020.07738",
    "final_y": "533736.297221",
    "longitude": "-90.1231919631682",
    "latitude": "29.96210893377865",
    "geocoded_column": {
      "latitude": "29.96210893377865",
      "longitude": "-90.1231919631682"
    }
  },
  {
    "service_request": "2026-1251900",
    "request_type": "General Services",
    "request_reason": "General Service Request",
    "date_created": "2026-01-13T19:33:32.000",
    "date_modified": "2026-01-13T19:33:34.000",
    "request_status": "Pending",
    "responsible_agency": "Orleans Parish Communication District",
    "final_address": "8721 Belfast St",
    "address_councildis": "A",
    "status": "Pending",
    "rowid": "1251900",
    "final_x": "3663905.61197",
    "final_y": "533948.355909",
    "longitude": "-90.12354635908999",
    "latitude": "29.9626953492948",
    "geocoded_column": {
      "latitude": "29.9626953492948",
      "longitude": "-90.12354635908999"
    }
  },
  {
    "service_request": "2026-1251899",
    "request_type": "Streetlights",
    "request_reason": "Streetlight Outage/Malfunction",
    "date_created": "2026-01-13T19:20:08.000",
    "date_modified": "2026-01-13T19:20:11.000",
    "request_status": "Pending",
    "responsible_agency": "Department of Public Works",
    "final_address": "10901 N Hardy St",
    "address_councildis": "E",
    "status": "Pending",
    "rowid": "1251899",
    "final_x": "3712355.88702",
    "final_y": "562005.562399",
    "longitude": "-89.96949379680007",
    "latitude": "30.038346388623403",
    "geocoded_column": {
      "latitude": "30.038346388623403",
      "longitude": "-89.96949379680007"
    }
  },
  {
    "service_request": "2026-1251898",
    "request_type": "Streetlights",
    "request_reason": "Streetlight Outage/Malfunction",
    "date_created": "2026-01-13T19:11:31.000",
    "date_modified": "2026-01-13T19:11:32.000",
    "request_status": "Pending",
    "responsible_agency": "Department of Public Works",
    "final_address": "3912 Bienville Ave",
    "address_councildis": "A",
    "status": "Pending",
    "rowid": "1251898",
    "final_x": "3672100.67476",
    "final_y": "538475.341257",
    "longitude": "-90.09751319754385",
    "latitude": "29.974902579223116",
    "geocoded_column": {
      "latitude": "29.974902579223116",
      "longitude": "-90.09751319754385"
    }
  },
  {
    "service_request": "2026-1251897",
    "request_type": "Streetlights",
    "request_reason": "Streetlight Outage/Malfunction",
    "date_created": "2026-01-13T19:11:29.000",
    "date_modified": "2026-01-13T19:11:30.000",
    "request_status": "Pending",
    "responsible_agency": "Department of Public Works",
    "final_address": "1501 Napoleon Ave",
    "address_councildis": "B",
    "status": "Pending",
    "rowid": "1251897",
    "final_x": "3670970.04583",
    "final_y": "520612.199864",
    "longitude": "-90.10169042938571",
    "latitude": "29.925818290073597",
    "geocoded_column": {
      "latitude": "29.925818290073597",
      "longitude": "-90.10169042938571"
    }
  },
  {
    "service_request": "2026-1251896",
    "request_type": "Streetlights",
    "request_reason": "Streetlight Outage/Malfunction",
    "date_created": "2026-01-13T19:06:50.000",
    "date_modified": "2026-01-13T19:06:52.000",
    "request_status": "Pending",
    "responsible_agency": "Department of Public Works",
    "final_address": "53 Crane St",
    "address_councildis": "D",
    "status": "Pending",
    "rowid": "1251896",
    "final_x": "3672985.3108",
    "final_y": "555182.694617",
    "longitude": "-90.09414864096532",
    "latitude": "30.020815704425274",
    "geocoded_column": {
      "latitude": "30.020815704425274",
      "longitude": "-90.09414864096532"
    }
  },
  {
    "service_request": "2026-1251895",
    "request_type": "Streetlights",
    "request_reason": "Streetlight Outage/Malfunction",
    "date_created": "2026-01-13T19:04:23.000",
    "date_modified": "2026-01-13T19:04:25.000",
    "request_status": "Pending",
    "responsible_agency": "Department of Public Works",
    "final_address": "53 Crane St",
    "address_councildis": "D",
    "status": "Pending",
    "rowid": "1251895",
    "final_x": "3672985.3108",
    "final_y": "555182.694617",
    "longitude": "-90.09414864096532",
    "latitude": "30.020815704425274",
    "geocoded_column": {
      "latitude": "30.020815704425274",
      "longitude": "-90.09414864096532"
    }
  },
  {
    "service_request": "2026-1251894",
    "request_type": "Trash/Recycling",
    "request_reason": "Request a Large Item Pick Up",
    "date_created": "2026-01-13T19:00:22.000",
    "date_modified": "2026-01-13T19:00:38.000",
    "request_status": "Pending",
    "responsible_agency": "Department of Sanitation",
    "final_address": "3601 Elaine Pl",
    "address_councildis": "A",
    "status": "Assigned to Contractor",
    "contractor": "IV Waste",
    "rowid": "1251894",
    "final_x": "3674336.14926",
    "final_y": "539434.929994",
    "longitude": "-90.09042011702726",
    "latitude": "29.977474636652616",
    "geocoded_column": {
      "latitude": "29.977474636652616",
      "longitude": "-90.09042011702726"
    }
  },
  {
    "service_request": "2026-1251893",
    "request_type": "Roads and Streets",
    "request_reason": "Pothole",
    "date_created": "2026-01-13T18:57:39.000",
    "date_modified": "2026-01-13T18:57:41.000",
    "request_status": "Pending",
    "responsible_agency": "Department of Public Works",
    "final_address": "5500 Canal Blvd",
    "address_councildis": "A",
    "status": "Pending",
    "rowid": "1251893",
    "final_x": "3668033.61556",
    "final_y": "543841.005774",
    "longitude": "-90.1101771505373",
    "latitude": "29.98977632484482",
    "geocoded_column": {
      "latitude": "29.98977632484482",
      "longitude": "-90.1101771505373"
    }
  },
  {
    "service_request": "2026-1251892",
    "request_type": "Roads and Streets",
    "request_reason": "Street Subsidence (Sinking)",
    "date_created": "2026-01-13T18:50:42.000",
    "date_modified": "2026-01-13T18:50:44.000",
    "request_status": "Pending",
    "responsible_agency": "Sewerage & Water Board",
    "final_address": "8700 BLK Palm St",
    "address_councildis": "A",
    "status": "Pending",
    "rowid": "1251892",
    "final_x": "3666015.63086",
    "final_y": "536242.134324",
    "longitude": "-90.11680626937613",
    "latitude": "29.96894105717322",
    "geocoded_column": {
      "latitude": "29.96894105717322",
      "longitude": "-90.11680626937613"
    }
  },
  {
    "service_request": "2026-1251891",
    "request_type": "Streetlights",
    "request_reason": "Streetlight Outage/Malfunction",
    "date_created": "2026-01-13T18:44:25.000",
    "date_modified": "2026-01-13T18:44:27.000",
    "request_status": "Pending",
    "responsible_agency": "Department of Public Works",
    "final_address": "1540 St Roch Ave",
    "address_councildis": "C",
    "status": "Pending",
    "rowid": "1251891",
    "final_x": "3686247.89218",
    "final_y": "538209.580169",
    "longitude": "-90.05284216507283",
    "latitude": "29.973744698300056",
    "geocoded_column": {
      "latitude": "29.973744698300056",
      "longitude": "-90.05284216507283"
    }
  },
  {
    "service_request": "2026-1251890",
    "request_type": "Streetlights",
    "request_reason": "Streetlight Outage/Malfunction",
    "date_created": "2026-01-13T18:41:38.000",
    "date_modified": "2026-01-13T18:41:39.000",
    "request_status": "Pending",
    "responsible_agency": "Department of Public Works",
    "final_address": "1540 St Roch Ave",
    "address_councildis": "C",
    "status": "Pending",
    "rowid": "1251890",
    "final_x": "3686247.89218",
    "final_y": "538209.580169",
    "longitude": "-90.05284216507283",
    "latitude": "29.973744698300056",
    "geocoded_column": {
      "latitude": "29.973744698300056",
      "longitude": "-90.05284216507283"
    }
  },
  {
    "service_request": "2026-1251889",
    "request_type": "Trash/Recycling",
    "request_reason": "MIssed Recycling Pick-Up",
    "date_created": "2026-01-13T18:41:01.000",
    "date_modified": "2026-01-13T18:41:03.000",
    "request_status": "Pending",
    "responsible_agency": "Department of Sanitation",
    "final_address": "928 Burgundy St",
    "address_councildis": "C",
    "status": "Assigned to Contractor",
    "contractor": "IV Waste",
    "rowid": "1251889",
    "final_x": "3682303.54882",
    "final_y": "533871.850629",
    "longitude": "-90.06545083353141",
    "latitude": "29.961938047943615",
    "geocoded_column": {
      "latitude": "29.961938047943615",
      "longitude": "-90.06545083353141"
    }
  },
  {
    "service_request": "2026-1251888",
    "request_type": "Streetlights",
    "request_reason": "Streetlight Knocked Down/Leaning",
    "date_created": "2026-01-13T18:40:06.000",
    "date_modified": "2026-01-13T18:40:08.000",
    "request_status": "Pending",
    "responsible_agency": "Department of Public Works",
    "final_address": "1540 St Roch Ave",
    "address_councildis": "C",
    "status": "Pending",
    "rowid": "1251888",
    "final_x": "3686247.89218",
    "final_y": "538209.580169",
    "longitude": "-90.05284216507283",
    "latitude": "29.973744698300056",
    "geocoded_column": {
      "latitude": "29.973744698300056",
      "longitude": "-90.05284216507283"
    }
  },
  {
    "service_request": "2026-1251887",
    "request_type": "Streetlights",
    "request_reason": "Streetlight Outage/Malfunction",
    "date_created": "2026-01-13T18:38:09.000",
    "date_modified": "2026-01-13T18:38:11.000",
    "request_status": "Pending",
    "responsible_agency": "Department of Public Works",
    "final_address": "1540 St Roch Ave",
    "address_councildis": "C",
    "status": "Pending",
    "rowid": "1251887",
    "final_x": "3686247.89218",
    "final_y": "538209.580169",
    "longitude": "-90.05284216507283",
    "latitude": "29.973744698300056",
    "geocoded_column": {
      "latitude": "29.973744698300056",
      "longitude": "-90.05284216507283"
    }
  },
  {
    "service_request": "2026-1251886",
    "request_type": "Streetlights",
    "request_reason": "Streetlight Knocked Down/Leaning",
    "date_created": "2026-01-13T18:36:07.000",
    "date_modified": "2026-01-13T18:36:09.000",
    "request_status": "Pending",
    "responsible_agency": "Department of Public Works",
    "final_address": "1540 St Roch Ave",
    "address_councildis": "C",
    "status": "Pending",
    "rowid": "1251886",
    "final_x": "3686247.89218",
    "final_y": "538209.580169",
    "longitude": "-90.05284216507283",
    "latitude": "29.973744698300056",
    "geocoded_column": {
      "latitude": "29.973744698300056",
      "longitude": "-90.05284216507283"
    }
  },
  {
    "service_request": "2026-1251885",
    "request_type": "Streetlights",
    "request_reason": "Streetlight Outage/Malfunction",
    "date_created": "2026-01-13T18:33:35.000",
    "date_modified": "2026-01-13T18:33:37.000",
    "request_status": "Pending",
    "responsible_agency": "Department of Public Works",
    "final_address": "1900 Spain St",
    "address_councildis": "D",
    "status": "Pending",
    "rowid": "1251885",
    "final_x": "3685854.47273",
    "final_y": "539369.87073",
    "longitude": "-90.05404375447469",
    "latitude": "29.97694717365585",
    "geocoded_column": {
      "latitude": "29.97694717365585",
      "longitude": "-90.05404375447469"
    }
  },
  {
    "service_request": "2026-1251884",
    "request_type": "Streetlights",
    "request_reason": "Streetlight Outage/Malfunction",
    "date_created": "2026-01-13T18:31:28.000",
    "date_modified": "2026-01-13T18:31:30.000",
    "request_status": "Pending",
    "responsible_agency": "Department of Public Works",
    "final_address": "5852 Catina St",
    "address_councildis": "A",
    "status": "Pending",
    "rowid": "1251884",
    "final_x": "3666688.75335",
    "final_y": "546875.106705",
    "longitude": "-90.1143232571773",
    "latitude": "29.99815846953292",
    "geocoded_column": {
      "latitude": "29.99815846953292",
      "longitude": "-90.1143232571773"
    }
  },
  {
    "service_request": "2026-1251883",
    "request_type": "Trash/Recycling",
    "request_reason": "Request a Large Item Pick Up",
    "date_created": "2026-01-13T18:28:23.000",
    "date_modified": "2026-01-13T18:28:26.000",
    "request_status": "Pending",
    "responsible_agency": "Department of Sanitation",
    "final_address": "7700 Burthe St",
    "address_councildis": "A",
    "status": "Assigned to Contractor",
    "contractor": "IV Waste",
    "rowid": "1251883",
    "final_x": "3662295.15315",
    "final_y": "526597.159166",
    "longitude": "-90.12887601754022",
    "latitude": "29.942528582903783",
    "geocoded_column": {
      "latitude": "29.942528582903783",
      "longitude": "-90.12887601754022"
    }
  },
  {
    "service_request": "2026-1251882",
    "request_type": "Trash/Recycling",
    "request_reason": "Missed Trash Pick-Up",
    "date_created": "2026-01-13T18:24:20.000",
    "date_modified": "2026-01-13T18:24:22.000",
    "request_status": "Pending",
    "responsible_agency": "Department of Sanitation",
    "final_address": "418 Belleville St",
    "address_councildis": "C",
    "status": "Assigned to Contractor",
    "contractor": "Richards Disposal",
    "rowid": "1251882",
    "final_x": "3687908.99574",
    "final_y": "530176.185857",
    "longitude": "-90.04788067743664",
    "latitude": "29.951604507191174",
    "geocoded_column": {
      "latitude": "29.951604507191174",
      "longitude": "-90.04788067743664"
    }
  },
  {
    "service_request": "2026-1251881",
    "request_type": "Streetlights",
    "request_reason": "Streetlight Outage/Malfunction",
    "date_created": "2026-01-13T18:23:48.000",
    "date_modified": "2026-01-13T18:23:49.000",
    "request_status": "Pending",
    "responsible_agency": "Department of Public Works",
    "final_address": "0 BLK Crescent City Connection",
    "status": "Pending",
    "rowid": "1251881",
    "final_x": "3685262.17635",
    "final_y": "525097.252743",
    "longitude": "-90.05641675185699",
    "latitude": "29.93772053935159",
    "geocoded_column": {
      "latitude": "29.93772053935159",
      "longitude": "-90.05641675185699"
    }
  },
  {
    "service_request": "2026-1251880",
    "request_type": "Streetlights",
    "request_reason": "Streetlight Outage/Malfunction",
    "date_created": "2026-01-13T18:23:37.000",
    "date_modified": "2026-01-13T18:23:40.000",
    "request_status": "Pending",
    "responsible_agency": "Department of Public Works",
    "final_address": "4211 State Street Dr",
    "address_councildis": "B",
    "status": "Pending",
    "rowid": "1251880",
    "final_x": "3668529.99521",
    "final_y": "531143.419714",
    "longitude": "-90.1090377628428",
    "latitude": "29.954847637920505",
    "geocoded_column": {
      "latitude": "29.954847637920505",
      "longitude": "-90.1090377628428"
    }
  },
  {
    "service_request": "2026-1251879",
    "request_type": "Streetlights",
    "request_reason": "Streetlight Outage/Malfunction",
    "date_created": "2026-01-13T18:13:02.000",
    "date_modified": "2026-01-13T18:13:04.000",
    "request_status": "Pending",
    "responsible_agency": "Department of Public Works",
    "final_address": "427 Pacific Ave",
    "address_councildis": "C",
    "status": "Pending",
    "rowid": "1251879",
    "final_x": "3688476.98755",
    "final_y": "530091.380801",
    "longitude": "-90.04609024702889",
    "latitude": "29.95135378941608",
    "geocoded_column": {
      "latitude": "29.95135378941608",
      "longitude": "-90.04609024702889"
    }
  },
  {
    "service_request": "2026-1251878",
    "request_type": "Streetlights",
    "request_reason": "Streetlight Outage/Malfunction",
    "date_created": "2026-01-13T18:06:01.000",
    "date_modified": "2026-01-13T18:06:03.000",
    "request_status": "Pending",
    "responsible_agency": "Department of Public Works",
    "final_address": "3141 Ponce De Leon St",
    "address_councildis": "A",
    "status": "Pending",
    "rowid": "1251878",
    "final_x": "3676280.52334",
    "final_y": "540562.560011",
    "longitude": "-90.08424030237236",
    "latitude": "29.9805170951782",
    "geocoded_column": {
      "latitude": "29.9805170951782",
      "longitude": "-90.08424030237236"
    }
  },
  {
    "service_request": "2026-1251877",
    "request_type": "Trash/Recycling",
    "request_reason": "Order Second Trash Cart",
    "date_created": "2026-01-13T18:01:48.000",
    "date_modified": "2026-01-13T18:01:50.000",
    "request_status": "Pending",
    "responsible_agency": "Department of Sanitation",
    "final_address": "7141 Foch Rd",
    "address_councildis": "D",
    "status": "Assigned to Contractor",
    "contractor": "Waste Pro",
    "rowid": "1251877",
    "final_x": "3696480.85072",
    "final_y": "557201.470107",
    "longitude": "-90.01983686582311",
    "latitude": "30.025646971874373",
    "geocoded_column": {
      "latitude": "30.025646971874373",
      "longitude": "-90.01983686582311"
    }
  },
  {
    "service_request": "2026-1251876",
    "request_type": "Healthy Homes",
    "request_reason": "Healthy Homes",
    "date_created": "2026-01-13T18:00:32.000",
    "date_modified": "2026-01-13T18:00:34.000",
    "request_status": "Pending",
    "responsible_agency": "Department of Code Enforcement",
    "final_address": "1738 Philip St",
    "address_councildis": "B",
    "status": "Pending",
    "rowid": "1251876",
    "final_x": "3676751.5796",
    "final_y": "523878.61766",
    "longitude": "-90.0833273570193",
    "latitude": "29.934627731542204",
    "geocoded_column": {
      "latitude": "29.934627731542204",
      "longitude": "-90.0833273570193"
    }
  },
  {
    "service_request": "2026-1251875",
    "request_type": "Trash/Recycling",
    "request_reason": "Request a Large Item Pick Up",
    "date_created": "2026-01-13T17:56:57.000",
    "date_modified": "2026-01-13T17:57:05.000",
    "request_status": "Pending",
    "responsible_agency": "Department of Sanitation",
    "final_address": "821 Hillary St",
    "address_councildis": "A",
    "status": "Assigned to Contractor",
    "contractor": "IV Waste",
    "rowid": "1251875",
    "final_x": "3662502.18835",
    "final_y": "526233.932414",
    "longitude": "-90.12823441762981",
    "latitude": "29.941523839381038",
    "geocoded_column": {
      "latitude": "29.941523839381038",
      "longitude": "-90.12823441762981"
    }
  },
  {
    "service_request": "2026-1251874",
    "request_type": "Streetlights",
    "request_reason": "Streetlight Outage/Malfunction",
    "date_created": "2026-01-13T17:54:56.000",
    "date_modified": "2026-01-13T17:54:57.000",
    "request_status": "Pending",
    "responsible_agency": "Department of Public Works",
    "final_address": "4138 Vincennes Pl",
    "address_councildis": "B",
    "status": "Pending",
    "rowid": "1251874",
    "final_x": "3668606.06734",
    "final_y": "530875.098498",
    "longitude": "-90.10880660964273",
    "latitude": "29.954107607437816",
    "geocoded_column": {
      "latitude": "29.954107607437816",
      "longitude": "-90.10880660964273"
    }
  },
  {
    "service_request": "2026-1251873",
    "request_type": "Trash/Recycling",
    "request_reason": "Request a Large Item Pick Up",
    "date_created": "2026-01-13T17:52:34.000",
    "date_modified": "2026-01-13T17:52:35.000",
    "request_status": "Pending",
    "responsible_agency": "Department of Sanitation",
    "final_address": "4603 Arts St",
    "address_councildis": "D",
    "status": "Assigned to Contractor",
    "contractor": "IV Waste",
    "rowid": "1251873",
    "final_x": "3686075.61398",
    "final_y": "549639.599188",
    "longitude": "-90.05298289541811",
    "latitude": "30.00517846870325",
    "geocoded_column": {
      "latitude": "30.00517846870325",
      "longitude": "-90.05298289541811"
    }
  },
  {
    "service_request": "2026-1251872",
    "request_type": "Roads and Streets",
    "request_reason": "Street Subsidence (Sinking)",
    "date_created": "2026-01-13T17:26:34.000",
    "date_modified": "2026-01-13T17:26:35.000",
    "request_status": "Pending",
    "responsible_agency": "Sewerage & Water Board",
    "final_address": "5624 Freret St",
    "address_councildis": "A",
    "status": "Pending",
    "rowid": "1251872",
    "final_x": "3667043.85537",
    "final_y": "524082.031356",
    "longitude": "-90.11396772342115",
    "latitude": "29.93547468109809",
    "geocoded_column": {
      "latitude": "29.93547468109809",
      "longitude": "-90.11396772342115"
    }
  },
  {
    "service_request": "2026-1251871",
    "request_type": "Streetlights",
    "request_reason": "Streetlight Outage/Malfunction",
    "date_created": "2026-01-13T17:26:24.000",
    "date_modified": "2026-01-13T17:26:26.000",
    "request_status": "Pending",
    "responsible_agency": "Department of Public Works",
    "final_address": "7828 Devine Ave",
    "address_councildis": "E",
    "status": "Pending",
    "rowid": "1251871",
    "final_x": "3705269.12049",
    "final_y": "563611.331361",
    "longitude": "-89.99183025248533",
    "latitude": "30.042991645724985",
    "geocoded_column": {
      "latitude": "30.042991645724985",
      "longitude": "-89.99183025248533"
    }
  },
  {
    "service_request": "2026-1251870",
    "request_type": "Parks & Parkways",
    "request_reason": "Park Maintenance/Clean Up",
    "date_created": "2026-01-13T17:21:42.000",
    "date_modified": "2026-01-13T17:21:44.000",
    "request_status": "Pending",
    "responsible_agency": "Department of Parks & Parkway",
    "final_address": "6718 Virgilian St",
    "address_councildis": "D",
    "status": "Pending",
    "rowid": "1251870",
    "final_x": "3696977.8129",
    "final_y": "556099.774874",
    "longitude": "-90.0183064950397",
    "latitude": "30.02260205592213",
    "geocoded_column": {
      "latitude": "30.02260205592213",
      "longitude": "-90.0183064950397"
    }
  },
  {
    "service_request": "2026-1251869",
    "request_type": "Trash/Recycling",
    "request_reason": "Request a Large Item Pick Up",
    "date_created": "2026-01-13T17:01:39.000",
    "date_modified": "2026-01-13T17:01:42.000",
    "request_status": "Pending",
    "responsible_agency": "Department of Sanitation",
    "final_address": "715 Egania St",
    "address_councildis": "E",
    "status": "Assigned to Contractor",
    "contractor": "Waste Pro",
    "rowid": "1251869",
    "final_x": "3696463.95971",
    "final_y": "532712.769476",
    "longitude": "-90.02077663301776",
    "latitude": "29.95831255379426",
    "geocoded_column": {
      "latitude": "29.95831255379426",
      "longitude": "-90.02077663301776"
    }
  },
  {
    "service_request": "2026-1251868",
    "request_type": "Trash/Recycling",
    "request_reason": "Repair Trash Cart",
    "date_created": "2026-01-13T16:58:33.000",
    "date_modified": "2026-01-13T16:58:35.000",
    "request_status": "Pending",
    "responsible_agency": "Department of Sanitation",
    "final_address": "38 Lark St",
    "address_councildis": "D",
    "status": "Assigned to Contractor",
    "contractor": "IV Waste",
    "rowid": "1251868",
    "final_x": "3675663.16309",
    "final_y": "556475.194906",
    "longitude": "-90.08564293116294",
    "latitude": "30.024289711242716",
    "geocoded_column": {
      "latitude": "30.024289711242716",
      "longitude": "-90.08564293116294"
    }
  },
  {
    "service_request": "2026-1251867",
    "request_type": "Trash/Recycling",
    "request_reason": "Request a Large Item Pick Up",
    "date_created": "2026-01-13T16:56:31.000",
    "date_modified": "2026-01-13T16:56:33.000",
    "request_status": "Pending",
    "responsible_agency": "Department of Sanitation",
    "final_address": "4939 Major Dr",
    "address_councildis": "E",
    "status": "Assigned to Contractor",
    "contractor": "Waste Pro",
    "rowid": "1251867",
    "final_x": "3718225.06329",
    "final_y": "558110.459035",
    "longitude": "-89.95109437327208",
    "latitude": "30.027443036705463",
    "geocoded_column": {
      "latitude": "30.027443036705463",
      "longitude": "-89.95109437327208"
    }
  },
  {
    "service_request": "2026-1251866",
    "request_type": "Trash/Recycling",
    "request_reason": "Request a Large Item Pick Up",
    "date_created": "2026-01-13T16:52:14.000",
    "date_modified": "2026-01-13T16:52:16.000",
    "request_status": "Pending",
    "responsible_agency": "Department of Sanitation",
    "final_address": "5470 Stillwater Dr",
    "address_councildis": "E",
    "status": "Assigned to Contractor",
    "contractor": "Waste Pro",
    "rowid": "1251866",
    "final_x": "3716601.62776",
    "final_y": "560582.610014",
    "longitude": "-89.956130344825",
    "latitude": "30.034294208137506",
    "geocoded_column": {
      "latitude": "30.034294208137506",
      "longitude": "-89.956130344825"
    }
  },
  {
    "service_request": "2026-1251865",
    "request_type": "Streetlights",
    "request_reason": "Streetlight Outage/Malfunction",
    "date_created": "2026-01-13T16:46:04.000",
    "date_modified": "2026-01-13T16:46:06.000",
    "request_status": "Pending",
    "responsible_agency": "Department of Public Works",
    "final_address": "5080 Pontchartrain Blvd",
    "address_councildis": "A",
    "status": "Pending",
    "rowid": "1251865",
    "final_x": "3666841.38119",
    "final_y": "540528.132811",
    "longitude": "-90.1140544564024",
    "latitude": "29.980701987063558",
    "geocoded_column": {
      "latitude": "29.980701987063558",
      "longitude": "-90.1140544564024"
    }
  },
  {
    "service_request": "2026-1251864",
    "request_type": "Trash/Recycling",
    "request_reason": "Request a Large Item Pick Up",
    "date_created": "2026-01-13T16:40:13.000",
    "date_modified": "2026-01-13T16:40:15.000",
    "request_status": "Pending",
    "responsible_agency": "Department of Sanitation",
    "final_address": "4954 Warren Dr",
    "address_councildis": "E",
    "status": "Assigned to Contractor",
    "contractor": "Waste Pro",
    "rowid": "1251864",
    "final_x": "3713273.37861",
    "final_y": "557391.219995",
    "longitude": "-89.96676822799627",
    "latitude": "30.025628726979832",
    "geocoded_column": {
      "latitude": "30.025628726979832",
      "longitude": "-89.96676822799627"
    }
  },
  {
    "service_request": "2026-1251863",
    "request_type": "Streetlights",
    "request_reason": "Streetlight Outage/Malfunction",
    "date_created": "2026-01-13T16:38:24.000",
    "date_modified": "2026-01-13T16:38:26.000",
    "request_status": "Pending",
    "responsible_agency": "Department of Public Works",
    "final_address": "5201 Timber Crest Dr",
    "address_councildis": "C",
    "status": "Pending",
    "rowid": "1251863",
    "final_x": "3703355.9075",
    "final_y": "511143.643504",
    "longitude": "-89.99980654585038",
    "latitude": "29.89878608488984",
    "geocoded_column": {
      "latitude": "29.89878608488984",
      "longitude": "-89.99980654585038"
    }
  },
  {
    "service_request": "2026-1251862",
    "request_type": "Trash/Recycling",
    "request_reason": "Request a Large Item Pick Up",
    "date_created": "2026-01-13T16:37:37.000",
    "date_modified": "2026-01-13T16:37:39.000",
    "request_status": "Pending",
    "responsible_agency": "Department of Sanitation",
    "final_address": "5201 Timber Crest Dr",
    "address_councildis": "C",
    "status": "Assigned to Contractor",
    "contractor": "Richards Disposal",
    "rowid": "1251862",
    "final_x": "3703355.9075",
    "final_y": "511143.643504",
    "longitude": "-89.99980654585038",
    "latitude": "29.89878608488984",
    "geocoded_column": {
      "latitude": "29.89878608488984",
      "longitude": "-89.99980654585038"
    }
  },
  {
    "service_request": "2026-1251861",
    "request_type": "Roads and Streets",
    "request_reason": "Pothole",
    "date_created": "2026-01-13T16:36:23.000",
    "date_modified": "2026-01-13T16:36:25.000",
    "request_status": "Pending",
    "responsible_agency": "Department of Public Works",
    "final_address": "5555 Canal Blvd",
    "address_councildis": "A",
    "status": "Pending",
    "rowid": "1251861",
    "final_x": "3668365.99425",
    "final_y": "544308.835535",
    "longitude": "-90.10911146595056",
    "latitude": "29.99105293649849",
    "geocoded_column": {
      "latitude": "29.99105293649849",
      "longitude": "-90.10911146595056"
    }
  },
  {
    "service_request": "2026-1251860",
    "request_type": "Trash/Recycling",
    "request_reason": "Request a Large Item Pick Up",
    "date_created": "2026-01-13T16:36:15.000",
    "date_modified": "2026-01-13T16:36:17.000",
    "request_status": "Pending",
    "responsible_agency": "Department of Sanitation",
    "final_address": "5025 S Robertson St",
    "address_councildis": "B",
    "status": "Assigned to Contractor",
    "contractor": "IV Waste",
    "rowid": "1251860",
    "final_x": "3668635.32775",
    "final_y": "524304.533308",
    "longitude": "-90.10893591286758",
    "latitude": "29.93603982582444",
    "geocoded_column": {
      "latitude": "29.93603982582444",
      "longitude": "-90.10893591286758"
    }
  },
  {
    "service_request": "2026-1251859",
    "request_type": "Roads and Streets",
    "request_reason": "Pothole",
    "date_created": "2026-01-13T16:34:55.000",
    "date_modified": "2026-01-13T16:34:56.000",
    "request_status": "Pending",
    "responsible_agency": "Department of Public Works",
    "final_address": "1031 Lamanche St",
    "address_councildis": "E",
    "status": "Pending",
    "rowid": "1251859",
    "final_x": "3698349.2008",
    "final_y": "533486.820228",
    "longitude": "-90.01479546156801",
    "latitude": "29.960381404082295",
    "geocoded_column": {
      "latitude": "29.960381404082295",
      "longitude": "-90.01479546156801"
    }
  },
  {
    "service_request": "2026-1251858",
    "request_type": "General Services",
    "request_reason": "General Service Request",
    "date_created": "2026-01-13T16:34:47.000",
    "date_modified": "2026-01-13T16:38:55.000",
    "request_status": "Pending",
    "responsible_agency": "Orleans Parish Communication District",
    "final_address": "5555 Canal Blvd",
    "address_councildis": "A",
    "status": "Pending",
    "rowid": "1251858",
    "final_x": "3668365.99425",
    "final_y": "544308.835535",
    "longitude": "-90.10911146595056",
    "latitude": "29.99105293649849",
    "geocoded_column": {
      "latitude": "29.99105293649849",
      "longitude": "-90.10911146595056"
    }
  },
  {
    "service_request": "2026-1251857",
    "request_type": "Trash/Recycling",
    "request_reason": "Request a Large Item Pick Up",
    "date_created": "2026-01-13T16:33:51.000",
    "date_modified": "2026-01-13T16:33:53.000",
    "request_status": "Pending",
    "responsible_agency": "Department of Sanitation",
    "final_address": "1035 Lamanche St",
    "address_councildis": "E",
    "status": "Assigned to Contractor",
    "contractor": "Waste Pro",
    "rowid": "1251857",
    "final_x": "3698358.31453",
    "final_y": "533508.521284",
    "longitude": "-90.01476589387907",
    "latitude": "29.960440785905803",
    "geocoded_column": {
      "latitude": "29.960440785905803",
      "longitude": "-90.01476589387907"
    }
  },
  {
    "service_request": "2026-1251856",
    "request_type": "Streetlights",
    "request_reason": "Streetlight Outage/Malfunction",
    "date_created": "2026-01-13T16:31:55.000",
    "date_modified": "2026-01-13T16:31:56.000",
    "request_status": "Pending",
    "responsible_agency": "Department of Public Works",
    "final_address": "9933 E Wheaton Cir",
    "address_councildis": "E",
    "status": "Pending",
    "rowid": "1251856",
    "final_x": "3708933.22328",
    "final_y": "562402.814687",
    "longitude": "-89.98029539098256",
    "latitude": "30.03955024513202",
    "geocoded_column": {
      "latitude": "30.03955024513202",
      "longitude": "-89.98029539098256"
    }
  },
  {
    "service_request": "2026-1251855",
    "request_type": "Mosquito, Termite & Rodent Control",
    "request_reason": "Rodent Complaint (Mice & Rats)",
    "date_created": "2026-01-13T16:30:39.000",
    "date_modified": "2026-01-13T16:30:41.000",
    "request_status": "Pending",
    "responsible_agency": "Mosquito, Termite & Rodent Control Board",
    "final_address": "10921 Kinneil Rd",
    "address_councildis": "E",
    "status": "Pending",
    "rowid": "1251855",
    "final_x": "3711338.14629",
    "final_y": "564312.724769",
    "longitude": "-89.97262350840509",
    "latitude": "30.04472342843068",
    "geocoded_column": {
      "latitude": "30.04472342843068",
      "longitude": "-89.97262350840509"
    }
  },
  {
    "service_request": "2026-1251854",
    "request_type": "Streetlights",
    "request_reason": "Streetlight Outage/Malfunction",
    "date_created": "2026-01-13T16:29:30.000",
    "date_modified": "2026-01-13T16:29:32.000",
    "request_status": "Pending",
    "responsible_agency": "Department of Public Works",
    "final_address": "1218 Sixth St",
    "address_councildis": "B",
    "status": "Pending",
    "rowid": "1251854",
    "final_x": "3676251.90491",
    "final_y": "520943.700985",
    "longitude": "-90.08500576336402",
    "latitude": "29.926572644811525",
    "geocoded_column": {
      "latitude": "29.926572644811525",
      "longitude": "-90.08500576336402"
    }
  },
  {
    "service_request": "2026-1251853",
    "request_type": "Trash/Recycling",
    "request_reason": "Request a Large Item Pick Up",
    "date_created": "2026-01-13T16:25:52.000",
    "date_modified": "2026-01-13T16:25:53.000",
    "request_status": "Pending",
    "responsible_agency": "Department of Sanitation",
    "final_address": "4827 Citrus Dr",
    "address_councildis": "E",
    "status": "Assigned to Contractor",
    "contractor": "Waste Pro",
    "rowid": "1251853",
    "final_x": "3710777.17137",
    "final_y": "556476.750042",
    "longitude": "-89.97469007874844",
    "latitude": "30.02319591553002",
    "geocoded_column": {
      "latitude": "30.02319591553002",
      "longitude": "-89.97469007874844"
    }
  },
  {
    "service_request": "2026-1251852",
    "request_type": "Trash/Recycling",
    "request_reason": "Request a Large Item Pick Up",
    "date_created": "2026-01-13T16:25:11.000",
    "date_modified": "2026-01-13T16:25:12.000",
    "request_status": "Pending",
    "responsible_agency": "Department of Sanitation",
    "final_address": "6167 Catina St",
    "address_councildis": "A",
    "status": "Assigned to Contractor",
    "contractor": "IV Waste",
    "rowid": "1251852",
    "final_x": "3666934.58433",
    "final_y": "548888.354771",
    "longitude": "-90.11347897020205",
    "latitude": "30.003687012956757",
    "geocoded_column": {
      "latitude": "30.003687012956757",
      "longitude": "-90.11347897020205"
    }
  },
  {
    "service_request": "2026-1251851",
    "request_type": "Trash/Recycling",
    "request_reason": "Repair Trash Cart",
    "date_created": "2026-01-13T16:20:04.000",
    "date_modified": "2026-01-13T16:20:06.000",
    "request_status": "Pending",
    "responsible_agency": "Department of Sanitation",
    "final_address": "1541 Steeple Chase Ln",
    "address_councildis": "C",
    "status": "Assigned to Contractor",
    "contractor": "Richards Disposal",
    "rowid": "1251851",
    "final_x": "3699941.63076",
    "final_y": "525435.651517",
    "longitude": "-90.01006053469055",
    "latitude": "29.938193046500064",
    "geocoded_column": {
      "latitude": "29.938193046500064",
      "longitude": "-90.01006053469055"
    }
  },
  {
    "service_request": "2026-1251850",
    "request_type": "Streetlights",
    "request_reason": "Streetlight Outage/Malfunction",
    "date_created": "2026-01-13T16:17:35.000",
    "date_modified": "2026-01-13T16:17:37.000",
    "request_status": "Pending",
    "responsible_agency": "Department of Public Works",
    "final_address": "10931 Kinneil Rd",
    "address_councildis": "E",
    "status": "Pending",
    "rowid": "1251850",
    "final_x": "3711385.83154",
    "final_y": "564347.671393",
    "longitude": "-89.9724714906061",
    "latitude": "30.0448179604578",
    "geocoded_column": {
      "latitude": "30.0448179604578",
      "longitude": "-89.9724714906061"
    }
  },
  {
    "service_request": "2026-1251849",
    "request_type": "Trash/Recycling",
    "request_reason": "Illegal Dumping",
    "date_created": "2026-01-13T16:17:04.000",
    "date_modified": "2026-01-13T16:17:05.000",
    "request_status": "Pending",
    "responsible_agency": "Department of Sanitation",
    "final_address": "4558 St Claude Ave",
    "address_councildis": "C",
    "status": "Pending",
    "rowid": "1251849",
    "final_x": "3693716.26365",
    "final_y": "534766.926726",
    "longitude": "-90.0293792585509",
    "latitude": "29.964047022637896",
    "geocoded_column": {
      "latitude": "29.964047022637896",
      "longitude": "-90.0293792585509"
    }
  },
  {
    "service_request": "2026-1251848",
    "request_type": "Streetlights",
    "request_reason": "Streetlight Outage/Malfunction",
    "date_created": "2026-01-13T16:16:21.000",
    "date_modified": "2026-01-13T16:16:23.000",
    "request_status": "Pending",
    "responsible_agency": "Department of Public Works",
    "final_address": "186 Pinewood Ct",
    "address_councildis": "C",
    "status": "Pending",
    "rowid": "1251848",
    "final_x": "3696022.78525",
    "final_y": "523526.620731",
    "longitude": "-90.02250157648594",
    "latitude": "29.93306772771306",
    "geocoded_column": {
      "latitude": "29.93306772771306",
      "longitude": "-90.02250157648594"
    }
  },
  {
    "service_request": "2026-1251847",
    "request_type": "Street and Traffic Signs",
    "request_reason": "Additional Signage Request",
    "date_created": "2026-01-13T16:15:12.000",
    "date_modified": "2026-01-13T16:17:10.000",
    "request_status": "Pending",
    "responsible_agency": "Department of Public Works",
    "final_address": "828 St Charles Ave",
    "address_councildis": "B",
    "status": "Pending",
    "rowid": "1251847",
    "final_x": "3680368.34683",
    "final_y": "527787.469759",
    "longitude": "-90.07177343615366",
    "latitude": "29.94526679068212",
    "geocoded_column": {
      "latitude": "29.94526679068212",
      "longitude": "-90.07177343615366"
    }
  },
  {
    "service_request": "2026-1251846",
    "request_type": "Trash/Recycling",
    "request_reason": "Request a Large Item Pick Up",
    "date_created": "2026-01-13T16:14:33.000",
    "date_modified": "2026-01-13T16:49:57.000",
    "request_status": "Pending",
    "responsible_agency": "Department of Sanitation",
    "final_address": "4423 Arts St",
    "address_councildis": "D",
    "status": "Assigned to Contractor",
    "contractor": "IV Waste",
    "rowid": "1251846",
    "final_x": "3686088.0861",
    "final_y": "549046.049491",
    "longitude": "-90.0529644464407",
    "latitude": "30.003546039102535",
    "geocoded_column": {
      "latitude": "30.003546039102535",
      "longitude": "-90.0529644464407"
    }
  },
  {
    "service_request": "2026-1251845",
    "request_type": "Trash/Recycling",
    "request_reason": "Request a Large Item Pick Up",
    "date_created": "2026-01-13T16:09:15.000",
    "date_modified": "2026-01-13T16:50:32.000",
    "request_status": "Pending",
    "responsible_agency": "Department of Sanitation",
    "final_address": "4616 Arts St",
    "address_councildis": "D",
    "status": "Assigned to Contractor",
    "contractor": "IV Waste",
    "rowid": "1251845",
    "final_x": "3685899.63087",
    "final_y": "549727.58786",
    "longitude": "-90.05353575763854",
    "latitude": "30.00542581138603",
    "geocoded_column": {
      "latitude": "30.00542581138603",
      "longitude": "-90.05353575763854"
    }
  },
  {
    "service_request": "2026-1251844",
    "request_type": "Trash/Recycling",
    "request_reason": "Request a Large Item Pick Up",
    "date_created": "2026-01-13T15:55:20.000",
    "date_modified": "2026-01-13T15:55:21.000",
    "request_status": "Pending",
    "responsible_agency": "Department of Sanitation",
    "final_address": "4667 Lurline St",
    "address_councildis": "E",
    "status": "Assigned to Contractor",
    "contractor": "Waste Pro",
    "rowid": "1251844",
    "final_x": "3712093.73816",
    "final_y": "555705.472025",
    "longitude": "-89.97055904046204",
    "latitude": "30.021032214684656",
    "geocoded_column": {
      "latitude": "30.021032214684656",
      "longitude": "-89.97055904046204"
    }
  },
  {
    "service_request": "2026-1251843",
    "request_type": "Trash/Recycling",
    "request_reason": "Request a Large Item Pick Up",
    "date_created": "2026-01-13T15:48:29.000",
    "date_modified": "2026-01-13T16:51:00.000",
    "request_status": "Pending",
    "responsible_agency": "Department of Sanitation",
    "final_address": "4971 Marigny St",
    "address_councildis": "D",
    "status": "Assigned to Contractor",
    "contractor": "IV Waste",
    "rowid": "1251843",
    "final_x": "3684392.93148",
    "final_y": "551300.085205",
    "longitude": "-90.05824046329683",
    "latitude": "30.0097957949418",
    "geocoded_column": {
      "latitude": "30.0097957949418",
      "longitude": "-90.05824046329683"
    }
  },
  {
    "service_request": "2026-1251842",
    "request_type": "Parks & Parkways",
    "request_reason": "Park Maintenance/Clean Up",
    "date_created": "2026-01-13T15:44:29.000",
    "date_modified": "2026-01-13T15:44:31.000",
    "request_status": "Pending",
    "responsible_agency": "Department of Parks & Parkway",
    "final_address": "1033 Austerlitz St",
    "address_councildis": "B",
    "status": "Pending",
    "rowid": "1251842",
    "final_x": "3672838.42491",
    "final_y": "519630.144888",
    "longitude": "-90.09582598429195",
    "latitude": "29.92306259996741",
    "geocoded_column": {
      "latitude": "29.92306259996741",
      "longitude": "-90.09582598429195"
    }
  },
  {
    "service_request": "2026-1251841",
    "request_type": "Safety & Permits",
    "request_reason": "Zoning Enforcement",
    "date_created": "2026-01-13T15:42:49.000",
    "date_modified": "2026-01-13T15:42:51.000",
    "request_status": "Pending",
    "responsible_agency": "Safety and Permits",
    "final_address": "600 BLK N Scott St",
    "address_councildis": "A",
    "status": "Pending",
    "rowid": "1251841",
    "final_x": "3673026.44033",
    "final_y": "539466.796182",
    "longitude": "-90.09455553683237",
    "latitude": "29.977601256184403",
    "geocoded_column": {
      "latitude": "29.977601256184403",
      "longitude": "-90.09455553683237"
    }
  },
  {
    "service_request": "2026-1251839",
    "request_type": "Trash/Recycling",
    "request_reason": "Missed Trash Pick-Up",
    "date_created": "2026-01-13T15:40:39.000",
    "date_modified": "2026-01-13T17:31:34.000",
    "case_close_date": "2026-01-13T11:31:33.000",
    "request_status": "Closed",
    "responsible_agency": "Department of Sanitation",
    "final_address": "1317 Governor Nicholls St",
    "address_councildis": "C",
    "status": "Invalid Request",
    "contractor": "IV Waste",
    "contractor_action": "Invalid Request",
    "rowid": "1251839",
    "final_x": "3681848.89135",
    "final_y": "535423.225862",
    "longitude": "-90.06683242083888",
    "latitude": "29.966217623405953",
    "geocoded_column": {
      "latitude": "29.966217623405953",
      "longitude": "-90.06683242083888"
    }
  },
  {
    "service_request": "2026-1251840",
    "request_type": "Property Maintenance",
    "request_reason": "Property Maintenance",
    "date_created": "2026-01-13T15:40:39.000",
    "date_modified": "2026-01-13T15:40:42.000",
    "request_status": "Pending",
    "responsible_agency": "Department of Code Enforcement",
    "final_address": "228 N Clark St",
    "address_councildis": "B",
    "status": "Pending",
    "rowid": "1251840",
    "final_x": "3673294.2674",
    "final_y": "537514.146376",
    "longitude": "-90.09377636186073",
    "latitude": "29.972224168538926",
    "geocoded_column": {
      "latitude": "29.972224168538926",
      "longitude": "-90.09377636186073"
    }
  },
  {
    "service_request": "2026-1251838",
    "request_type": "Abandoned Vehicles",
    "request_reason": "Abandoned/Junk Vehicles",
    "date_created": "2026-01-13T15:37:41.000",
    "date_modified": "2026-01-13T15:37:42.000",
    "request_status": "Pending",
    "responsible_agency": "Department of Public Works",
    "final_address": "228 N Clark St",
    "address_councildis": "B",
    "status": "Pending",
    "rowid": "1251838",
    "final_x": "3673294.2674",
    "final_y": "537514.146376",
    "longitude": "-90.09377636186073",
    "latitude": "29.972224168538926",
    "geocoded_column": {
      "latitude": "29.972224168538926",
      "longitude": "-90.09377636186073"
    }
  },
  {
    "service_request": "2026-1251837",
    "request_type": "Property Maintenance",
    "request_reason": "Property Maintenance",
    "date_created": "2026-01-13T15:33:25.000",
    "date_modified": "2026-01-13T15:33:38.000",
    "request_status": "Pending",
    "responsible_agency": "Department of Code Enforcement",
    "final_address": "325 S Rocheblave St",
    "address_councildis": "B",
    "status": "Pending",
    "rowid": "1251837",
    "final_x": "3675482.90075",
    "final_y": "533713.620549",
    "longitude": "-90.08699483364892",
    "latitude": "29.96170872562992",
    "geocoded_column": {
      "latitude": "29.96170872562992",
      "longitude": "-90.08699483364892"
    }
  },
  {
    "service_request": "2026-1251836",
    "request_type": "Trash/Recycling",
    "request_reason": "Request a Large Item Pick Up",
    "date_created": "2026-01-13T15:31:43.000",
    "date_modified": "2026-01-13T15:31:44.000",
    "request_status": "Pending",
    "responsible_agency": "Department of Sanitation",
    "final_address": "13625 Explorers Ave",
    "address_councildis": "E",
    "status": "Assigned to Contractor",
    "contractor": "Waste Pro",
    "rowid": "1251836",
    "final_x": "3725975.91801",
    "final_y": "568903.124069",
    "longitude": "-89.92618386456962",
    "latitude": "30.056859023647142",
    "geocoded_column": {
      "latitude": "30.056859023647142",
      "longitude": "-89.92618386456962"
    }
  },
  {
    "service_request": "2026-1251835",
    "request_type": "Trash/Recycling",
    "request_reason": "Request a Large Item Pick Up",
    "date_created": "2026-01-13T15:29:02.000",
    "date_modified": "2026-01-13T15:29:05.000",
    "request_status": "Pending",
    "responsible_agency": "Department of Sanitation",
    "final_address": "13135 Cherbourg St",
    "address_councildis": "E",
    "status": "Assigned to Contractor",
    "contractor": "Waste Pro",
    "rowid": "1251835",
    "final_x": "3724712.84761",
    "final_y": "561284.82275",
    "longitude": "-89.93047099899937",
    "latitude": "30.03595445023929",
    "geocoded_column": {
      "latitude": "30.03595445023929",
      "longitude": "-89.93047099899937"
    }
  },
  {
    "service_request": "2026-1251834",
    "request_type": "Trash/Recycling",
    "request_reason": "Request a Large Item Pick Up",
    "date_created": "2026-01-13T15:26:59.000",
    "date_modified": "2026-01-13T15:27:01.000",
    "request_status": "Pending",
    "responsible_agency": "Department of Sanitation",
    "final_address": "920 Royal St",
    "address_councildis": "C",
    "status": "Assigned to Contractor",
    "contractor": "IV Waste",
    "rowid": "1251834",
    "final_x": "3683134.99772",
    "final_y": "533167.384708",
    "longitude": "-90.06284991674887",
    "latitude": "29.959975684767798",
    "geocoded_column": {
      "latitude": "29.959975684767798",
      "longitude": "-90.06284991674887"
    }
  },
  {
    "service_request": "2026-1251833",
    "request_type": "Health Related Request",
    "request_reason": "Noise Ordinance Complaint",
    "date_created": "2026-01-13T15:25:22.000",
    "date_modified": "2026-01-13T15:29:14.000",
    "case_close_date": "2026-01-13T09:29:13.000",
    "request_status": "Closed",
    "responsible_agency": "Health Department",
    "final_address": "1737 Feliciana St",
    "address_councildis": "D",
    "status": "Invalid Request",
    "rowid": "1251833",
    "final_x": "3689401.22364",
    "final_y": "538550.002313",
    "longitude": "-90.04287118160441",
    "latitude": "29.97458346752421",
    "geocoded_column": {
      "latitude": "29.97458346752421",
      "longitude": "-90.04287118160441"
    }
  },
  {
    "service_request": "2026-1251832",
    "request_type": "Streetlights",
    "request_reason": "Streetlight Outage/Malfunction",
    "date_created": "2026-01-13T15:23:10.000",
    "date_modified": "2026-01-13T15:23:12.000",
    "request_status": "Pending",
    "responsible_agency": "Department of Public Works",
    "final_address": "13949 My-Viet Dr",
    "address_councildis": "E",
    "status": "Pending",
    "rowid": "1251832",
    "final_x": "3727910.51385",
    "final_y": "563341.316768",
    "longitude": "-89.9202857876459",
    "latitude": "30.041500922064827",
    "geocoded_column": {
      "latitude": "30.041500922064827",
      "longitude": "-89.9202857876459"
    }
  },
  {
    "service_request": "2026-1251831",
    "request_type": "Trash/Recycling",
    "request_reason": "Missed Trash Pick-Up",
    "date_created": "2026-01-13T15:20:33.000",
    "date_modified": "2026-01-13T16:16:45.000",
    "case_close_date": "2026-01-13T10:16:44.000",
    "request_status": "Closed",
    "responsible_agency": "Department of Sanitation",
    "final_address": "1735 Feliciana St",
    "address_councildis": "D",
    "status": "Invalid Request",
    "contractor": "IV Waste",
    "contractor_action": "Invalid",
    "rowid": "1251831",
    "final_x": "3689393.39516",
    "final_y": "538520.101641",
    "longitude": "-90.04289696927974",
    "latitude": "29.974501493659407",
    "geocoded_column": {
      "latitude": "29.974501493659407",
      "longitude": "-90.04289696927974"
    }
  },
  {
    "service_request": "2026-1251830",
    "request_type": "Streetlights",
    "request_reason": "Streetlight Outage/Malfunction",
    "date_created": "2026-01-13T15:17:28.000",
    "date_modified": "2026-01-13T15:17:29.000",
    "request_status": "Pending",
    "responsible_agency": "Department of Public Works",
    "final_address": "6615 Argonne Blvd",
    "address_councildis": "A",
    "status": "Pending",
    "rowid": "1251830",
    "final_x": "3670604.76263",
    "final_y": "551357.605205",
    "longitude": "-90.10180039819696",
    "latitude": "30.010368639035526",
    "geocoded_column": {
      "latitude": "30.010368639035526",
      "longitude": "-90.10180039819696"
    }
  },
  {
    "service_request": "2026-1251829",
    "request_type": "Streetlights",
    "request_reason": "Streetlight Outage/Malfunction",
    "date_created": "2026-01-13T15:16:58.000",
    "date_modified": "2026-01-13T15:17:00.000",
    "request_status": "Pending",
    "responsible_agency": "Department of Public Works",
    "final_address": "6615 Argonne Blvd",
    "address_councildis": "A",
    "status": "Pending",
    "rowid": "1251829",
    "final_x": "3670604.76263",
    "final_y": "551357.605205",
    "longitude": "-90.10180039819696",
    "latitude": "30.010368639035526",
    "geocoded_column": {
      "latitude": "30.010368639035526",
      "longitude": "-90.10180039819696"
    }
  },
  {
    "service_request": "2026-1251828",
    "request_type": "Streetlights",
    "request_reason": "Streetlight Outage/Malfunction",
    "date_created": "2026-01-13T15:16:05.000",
    "date_modified": "2026-01-13T15:16:07.000",
    "request_status": "Pending",
    "responsible_agency": "Department of Public Works",
    "final_address": "6615 Argonne Blvd",
    "address_councildis": "A",
    "status": "Pending",
    "rowid": "1251828",
    "final_x": "3670604.76263",
    "final_y": "551357.605205",
    "longitude": "-90.10180039819696",
    "latitude": "30.010368639035526",
    "geocoded_column": {
      "latitude": "30.010368639035526",
      "longitude": "-90.10180039819696"
    }
  },
  {
    "service_request": "2026-1251827",
    "request_type": "Trash/Recycling",
    "request_reason": "Replace Recycling Cart",
    "date_created": "2026-01-13T15:15:56.000",
    "date_modified": "2026-01-13T15:15:57.000",
    "request_status": "Pending",
    "responsible_agency": "Department of Sanitation",
    "final_address": "1520 Dante St",
    "address_councildis": "A",
    "status": "Pending",
    "rowid": "1251827",
    "final_x": "3662226.39904",
    "final_y": "529809.743425",
    "longitude": "-90.12898648337769",
    "latitude": "29.951364148307604",
    "geocoded_column": {
      "latitude": "29.951364148307604",
      "longitude": "-90.12898648337769"
    }
  },
  {
    "service_request": "2026-1251826",
    "request_type": "Streetlights",
    "request_reason": "Streetlight Outage/Malfunction",
    "date_created": "2026-01-13T15:15:30.000",
    "date_modified": "2026-01-13T15:15:31.000",
    "request_status": "Pending",
    "responsible_agency": "Department of Public Works",
    "final_address": "6615 Argonne Blvd",
    "address_councildis": "A",
    "status": "Pending",
    "rowid": "1251826",
    "final_x": "3670604.76263",
    "final_y": "551357.605205",
    "longitude": "-90.10180039819696",
    "latitude": "30.010368639035526",
    "geocoded_column": {
      "latitude": "30.010368639035526",
      "longitude": "-90.10180039819696"
    }
  },
  {
    "service_request": "2026-1251825",
    "request_type": "Drainage",
    "request_reason": "Catch Basin Not Draining",
    "date_created": "2026-01-13T15:13:06.000",
    "date_modified": "2026-01-13T15:13:08.000",
    "request_status": "Pending",
    "responsible_agency": "Sewerage & Water Board",
    "final_address": "2209 Sixth St",
    "address_councildis": "B",
    "status": "Pending",
    "rowid": "1251825",
    "final_x": "3674168.2514",
    "final_y": "524150.755388",
    "longitude": "-90.09147357291678",
    "latitude": "29.93545325944303",
    "geocoded_column": {
      "latitude": "29.93545325944303",
      "longitude": "-90.09147357291678"
    }
  },
  {
    "service_request": "2026-1251824",
    "request_type": "Safety & Permits",
    "request_reason": "Zoning Enforcement",
    "date_created": "2026-01-13T15:11:56.000",
    "date_modified": "2026-01-13T15:11:57.000",
    "request_status": "Pending",
    "responsible_agency": "Safety and Permits",
    "final_address": "3618 Clematis St",
    "address_councildis": "D",
    "status": "Pending",
    "rowid": "1251824",
    "final_x": "3686273.66633",
    "final_y": "546154.716752",
    "longitude": "-90.05248027433014",
    "latitude": "29.99559021410322",
    "geocoded_column": {
      "latitude": "29.99559021410322",
      "longitude": "-90.05248027433014"
    }
  },
  {
    "service_request": "2026-1251823",
    "request_type": "Trash/Recycling",
    "request_reason": "Repair Trash Cart",
    "date_created": "2026-01-13T15:11:36.000",
    "date_modified": "2026-01-13T15:11:47.000",
    "request_status": "Pending",
    "responsible_agency": "Department of Sanitation",
    "final_address": "1321 Terry St",
    "address_councildis": "C",
    "status": "Assigned to Contractor",
    "contractor": "Richards Disposal",
    "rowid": "1251823",
    "final_x": "3696905.81213",
    "final_y": "526351.740158",
    "longitude": "-90.01961168337353",
    "latitude": "29.940808024794965",
    "geocoded_column": {
      "latitude": "29.940808024794965",
      "longitude": "-90.01961168337353"
    }
  },
  {
    "service_request": "2026-1251822",
    "request_type": "Roads and Streets",
    "request_reason": "Street Subsidence (Sinking)",
    "date_created": "2026-01-13T15:10:54.000",
    "date_modified": "2026-01-13T15:10:56.000",
    "request_status": "Pending",
    "responsible_agency": "Sewerage & Water Board",
    "final_address": "329 Royal St",
    "address_councildis": "C",
    "status": "Pending",
    "rowid": "1251822",
    "final_x": "3681790.1501",
    "final_y": "531509.762115",
    "longitude": "-90.06715448995647",
    "latitude": "29.95545871924804",
    "geocoded_column": {
      "latitude": "29.95545871924804",
      "longitude": "-90.06715448995647"
    }
  },
  {
    "service_request": "2026-1251821",
    "request_type": "Trash/Recycling",
    "request_reason": "Illegal Dumping",
    "date_created": "2026-01-13T15:09:07.000",
    "date_modified": "2026-01-13T15:09:09.000",
    "request_status": "Pending",
    "responsible_agency": "Department of Sanitation",
    "final_address": "2039 Sixth St",
    "address_councildis": "B",
    "status": "Pending",
    "rowid": "1251821",
    "final_x": "3674559.11304",
    "final_y": "523729.005499",
    "longitude": "-90.09025406329164",
    "latitude": "29.934281930757383",
    "geocoded_column": {
      "latitude": "29.934281930757383",
      "longitude": "-90.09025406329164"
    }
  },
  {
    "service_request": "2026-1251820",
    "request_type": "Trash/Recycling",
    "request_reason": "Illegal Dumping",
    "date_created": "2026-01-13T15:05:58.000",
    "date_modified": "2026-01-13T15:09:34.000",
    "request_status": "Pending",
    "responsible_agency": "Department of Sanitation",
    "final_address": "13125 Wales St",
    "address_councildis": "E",
    "status": "Pending",
    "rowid": "1251820",
    "final_x": "3715976.23493",
    "final_y": "570804.825447",
    "longitude": "-89.95771883524901",
    "latitude": "30.06242177823964",
    "geocoded_column": {
      "latitude": "30.06242177823964",
      "longitude": "-89.95771883524901"
    }
  },
  {
    "service_request": "2026-1251819",
    "request_type": "Property Maintenance",
    "request_reason": "Property Maintenance",
    "date_created": "2026-01-13T15:04:45.000",
    "date_modified": "2026-01-13T15:04:46.000",
    "request_status": "Pending",
    "responsible_agency": "Department of Code Enforcement",
    "final_address": "1532 Tulane Ave",
    "address_councildis": "B",
    "status": "Pending",
    "rowid": "1251819",
    "final_x": "3678292.39464",
    "final_y": "531588.875331",
    "longitude": "-90.0781964047379",
    "latitude": "29.955782067566325",
    "geocoded_column": {
      "latitude": "29.955782067566325",
      "longitude": "-90.0781964047379"
    }
  },
  {
    "service_request": "2026-1251818",
    "request_type": "Streetlights",
    "request_reason": "Streetlight Outage/Malfunction",
    "date_created": "2026-01-13T15:04:23.000",
    "date_modified": "2026-01-13T15:04:24.000",
    "request_status": "Pending",
    "responsible_agency": "Department of Public Works",
    "final_address": "13132 Wales St",
    "address_councildis": "E",
    "status": "Pending",
    "rowid": "1251818",
    "final_x": "3716150.53087",
    "final_y": "570805.678887",
    "longitude": "-89.95716785516677",
    "latitude": "30.062418370215706",
    "geocoded_column": {
      "latitude": "30.062418370215706",
      "longitude": "-89.95716785516677"
    }
  },
  {
    "service_request": "2026-1251817",
    "request_type": "Trash/Recycling",
    "request_reason": "Illegal Dumping",
    "date_created": "2026-01-13T15:03:12.000",
    "date_modified": "2026-01-13T15:03:13.000",
    "request_status": "Pending",
    "responsible_agency": "Department of Sanitation",
    "final_address": "2138 Seventh St",
    "address_councildis": "B",
    "status": "Pending",
    "rowid": "1251817",
    "final_x": "3674059.43227",
    "final_y": "523825.928251",
    "longitude": "-90.09182822705733",
    "latitude": "29.934563332921876",
    "geocoded_column": {
      "latitude": "29.934563332921876",
      "longitude": "-90.09182822705733"
    }
  },
  {
    "service_request": "2026-1251816",
    "request_type": "Graffiti Removal",
    "request_reason": "Graffiti Removal",
    "date_created": "2026-01-13T15:02:39.000",
    "date_modified": "2026-01-13T15:02:41.000",
    "request_status": "Pending",
    "responsible_agency": "Department of Code Enforcement",
    "final_address": "1001 Howard Ave",
    "address_councildis": "B",
    "status": "Pending",
    "rowid": "1251816",
    "final_x": "3678909.42094",
    "final_y": "528062.176767",
    "longitude": "-90.07637021252258",
    "latitude": "29.94606622969476",
    "geocoded_column": {
      "latitude": "29.94606622969476",
      "longitude": "-90.07637021252258"
    }
  },
  {
    "service_request": "2026-1251815",
    "request_type": "Healthy Homes",
    "request_reason": "Healthy Homes",
    "date_created": "2026-01-13T15:01:43.000",
    "date_modified": "2026-01-13T15:01:44.000",
    "request_status": "Pending",
    "responsible_agency": "Department of Code Enforcement",
    "final_address": "705 Herald St",
    "address_councildis": "C",
    "status": "Pending",
    "rowid": "1251815",
    "final_x": "3702225.15229",
    "final_y": "520023.148408",
    "longitude": "-90.00304968047473",
    "latitude": "29.923237834928894",
    "geocoded_column": {
      "latitude": "29.923237834928894",
      "longitude": "-90.00304968047473"
    }
  },
  {
    "service_request": "2026-1251814",
    "request_type": "Drainage",
    "request_reason": "Drainage Manhole Cover Missing or Damaged",
    "date_created": "2026-01-13T15:00:44.000",
    "date_modified": "2026-01-13T15:00:46.000",
    "request_status": "Pending",
    "responsible_agency": "Sewerage & Water Board",
    "final_address": "7136 Ransom St",
    "address_councildis": "E",
    "status": "Pending",
    "rowid": "1251814",
    "final_x": "3701642.30321",
    "final_y": "553295.976791",
    "longitude": "-90.00367071205814",
    "latitude": "30.01474466448886",
    "geocoded_column": {
      "latitude": "30.01474466448886",
      "longitude": "-90.00367071205814"
    }
  },
  {
    "service_request": "2026-1251813",
    "request_type": "Trash/Recycling",
    "request_reason": "Request a Large Item Pick Up",
    "date_created": "2026-01-13T15:00:40.000",
    "date_modified": "2026-01-13T16:51:29.000",
    "request_status": "Pending",
    "responsible_agency": "Department of Sanitation",
    "final_address": "2257 Odin St",
    "address_councildis": "D",
    "status": "Assigned to Contractor",
    "contractor": "IV Waste",
    "rowid": "1251813",
    "final_x": "3684270.46735",
    "final_y": "553132.264023",
    "longitude": "-90.0585629725401",
    "latitude": "30.014837365368642",
    "geocoded_column": {
      "latitude": "30.014837365368642",
      "longitude": "-90.0585629725401"
    }
  },
  {
    "service_request": "2026-1251812",
    "request_type": "Traffic Signals",
    "request_reason": "Traffic Signal Malfunctioning or Damaged",
    "date_created": "2026-01-13T15:00:07.000",
    "date_modified": "2026-01-13T15:00:09.000",
    "request_status": "Pending",
    "responsible_agency": "Department of Public Works",
    "final_address": "WASHINGTON AVE & PINE ST",
    "address_councildis": "B",
    "status": "Pending",
    "rowid": "1251812",
    "final_x": "3669059.4",
    "final_y": "534199.78",
    "longitude": "-90.10726283326873",
    "latitude": "29.963236055326554",
    "geocoded_column": {
      "latitude": "29.963236055326554",
      "longitude": "-90.10726283326873"
    }
  },
  {
    "service_request": "2026-1251811",
    "request_type": "Streetlights",
    "request_reason": "Streetlight Outage/Malfunction",
    "date_created": "2026-01-13T14:59:05.000",
    "date_modified": "2026-01-13T14:59:06.000",
    "request_status": "Pending",
    "responsible_agency": "Department of Public Works",
    "final_address": "4133 Palmyra St",
    "address_councildis": "A",
    "status": "Pending",
    "rowid": "1251811",
    "final_x": "3670311.33838",
    "final_y": "537984.989449",
    "longitude": "-90.10318101760049",
    "latitude": "29.973607219977474",
    "geocoded_column": {
      "latitude": "29.973607219977474",
      "longitude": "-90.10318101760049"
    }
  },
  {
    "service_request": "2026-1251810",
    "request_type": "Traffic Signals",
    "request_reason": "Traffic Signal Malfunctioning or Damaged",
    "date_created": "2026-01-13T14:58:52.000",
    "date_modified": "2026-01-13T14:58:53.000",
    "request_status": "Pending",
    "responsible_agency": "Department of Public Works",
    "final_address": "CANAL ST & ELK PL & BASIN ST",
    "address_councildis": "B",
    "status": "Pending",
    "rowid": "1251810",
    "final_x": "3679735.6",
    "final_y": "531724.58",
    "longitude": "-90.07363455869165",
    "latitude": "29.956111662169793",
    "geocoded_column": {
      "latitude": "29.956111662169793",
      "longitude": "-90.07363455869165"
    }
  },
  {
    "service_request": "2026-1251809",
    "request_type": "City-Owned Cemeteries",
    "request_reason": "Property Maintenance",
    "date_created": "2026-01-13T14:58:01.000",
    "date_modified": "2026-01-13T14:58:03.000",
    "request_status": "Pending",
    "responsible_agency": "Department of Property Management",
    "final_address": "2000 BLK Valence St",
    "address_councildis": "B",
    "status": "Pending",
    "rowid": "1251809",
    "final_x": "3669581.49774",
    "final_y": "522357.491818",
    "longitude": "-90.10601466203087",
    "latitude": "29.930658252535014",
    "geocoded_column": {
      "latitude": "29.930658252535014",
      "longitude": "-90.10601466203087"
    }
  },
  {
    "service_request": "2026-1251808",
    "request_type": "Roads and Streets",
    "request_reason": "Sidewalk Damaged or Missing",
    "date_created": "2026-01-13T14:56:10.000",
    "date_modified": "2026-01-13T14:56:11.000",
    "request_status": "Pending",
    "responsible_agency": "Department of Public Works",
    "final_address": "1200 S Carrollton Ave",
    "address_councildis": "A",
    "status": "Pending",
    "rowid": "1251808",
    "final_x": "3661996.144",
    "final_y": "528420.17184",
    "longitude": "-90.12975960610349",
    "latitude": "29.94754992482628",
    "geocoded_column": {
      "latitude": "29.94754992482628",
      "longitude": "-90.12975960610349"
    }
  },
  {
    "service_request": "2026-1251807",
    "request_type": "Roads and Streets",
    "request_reason": "Pothole",
    "date_created": "2026-01-13T14:55:10.000",
    "date_modified": "2026-01-13T14:55:11.000",
    "request_status": "Pending",
    "responsible_agency": "Department of Public Works",
    "final_address": "9235 Lake Forest Blvd",
    "address_councildis": "E",
    "status": "Pending",
    "rowid": "1251807",
    "final_x": "3708042.09848",
    "final_y": "558669.1903",
    "longitude": "-89.98325061416197",
    "latitude": "30.029313155771835",
    "geocoded_column": {
      "latitude": "30.029313155771835",
      "longitude": "-89.98325061416197"
    }
  },
  {
    "service_request": "2026-1251806",
    "request_type": "Trash/Recycling",
    "request_reason": "Request a Large Item Pick Up",
    "date_created": "2026-01-13T14:53:16.000",
    "date_modified": "2026-01-13T16:51:51.000",
    "request_status": "Pending",
    "responsible_agency": "Department of Sanitation",
    "final_address": "819 Hillary St",
    "address_councildis": "A",
    "status": "Assigned to Contractor",
    "contractor": "IV Waste",
    "rowid": "1251806",
    "final_x": "3662490.87315",
    "final_y": "526221.16339",
    "longitude": "-90.12827056611243",
    "latitude": "29.941489055845725",
    "geocoded_column": {
      "latitude": "29.941489055845725",
      "longitude": "-90.12827056611243"
    }
  },
  {
    "service_request": "2026-1251805",
    "request_type": "Streetlights",
    "request_reason": "Streetlight Outage/Malfunction",
    "date_created": "2026-01-13T14:51:50.000",
    "date_modified": "2026-01-13T14:51:52.000",
    "request_status": "Pending",
    "responsible_agency": "Department of Public Works",
    "final_address": "1 Jay St",
    "address_councildis": "D",
    "status": "Pending",
    "rowid": "1251805",
    "final_x": "3676060.95265",
    "final_y": "555656.431385",
    "longitude": "-90.08441418611949",
    "latitude": "30.022026492304622",
    "geocoded_column": {
      "latitude": "30.022026492304622",
      "longitude": "-90.08441418611949"
    }
  },
  {
    "service_request": "2026-1251804",
    "request_type": "Streetlights",
    "request_reason": "Streetlight Knocked Down/Leaning",
    "date_created": "2026-01-13T14:49:39.000",
    "date_modified": "2026-01-13T14:49:41.000",
    "request_status": "Pending",
    "responsible_agency": "Department of Public Works",
    "final_address": "5701 Crowder Blvd",
    "address_councildis": "E",
    "status": "Pending",
    "rowid": "1251804",
    "final_x": "3705377.62999",
    "final_y": "558023.320475",
    "longitude": "-89.99169410197185",
    "latitude": "30.02762331816234",
    "geocoded_column": {
      "latitude": "30.02762331816234",
      "longitude": "-89.99169410197185"
    }
  },
  {
    "service_request": "2026-1251803",
    "request_type": "Trash/Recycling",
    "request_reason": "Order Trash Cart",
    "date_created": "2026-01-13T14:46:18.000",
    "date_modified": "2026-01-13T14:46:19.000",
    "request_status": "Pending",
    "responsible_agency": "Department of Sanitation",
    "final_address": "4508 Dreux Ave",
    "address_councildis": "D",
    "status": "Assigned to Contractor",
    "contractor": "IV Waste",
    "rowid": "1251803",
    "final_x": "3690395.61148",
    "final_y": "552832.05999",
    "longitude": "-90.03922124410262",
    "latitude": "30.013823123570408",
    "geocoded_column": {
      "latitude": "30.013823123570408",
      "longitude": "-90.03922124410262"
    }
  },
  {
    "service_request": "2026-1251802",
    "request_type": "Trash/Recycling",
    "request_reason": "Request a Large Item Pick Up",
    "date_created": "2026-01-13T14:45:50.000",
    "date_modified": "2026-01-13T14:45:52.000",
    "request_status": "Pending",
    "responsible_agency": "Department of Sanitation",
    "final_address": "5129 Willowbrook Dr",
    "address_councildis": "E",
    "status": "Assigned to Contractor",
    "contractor": "Waste Pro",
    "rowid": "1251802",
    "final_x": "3727986.52544",
    "final_y": "563670.061985",
    "longitude": "-89.92003275256842",
    "latitude": "30.04240225682905",
    "geocoded_column": {
      "latitude": "30.04240225682905",
      "longitude": "-89.92003275256842"
    }
  },
  {
    "service_request": "2026-1251801",
    "request_type": "Property Maintenance",
    "request_reason": "Property Maintenance",
    "date_created": "2026-01-13T14:44:50.000",
    "date_modified": "2026-01-13T15:10:19.000",
    "case_close_date": "2026-01-13T09:10:19.000",
    "request_status": "Closed",
    "responsible_agency": "Department of Code Enforcement",
    "final_address": "6701 Tara Ln",
    "address_councildis": "E",
    "status": "Referred to Code Enforcement",
    "rowid": "1251801",
    "final_x": "3707806.59332",
    "final_y": "558659.944924",
    "longitude": "-89.98399514247859",
    "latitude": "30.029295362257457",
    "geocoded_column": {
      "latitude": "30.029295362257457",
      "longitude": "-89.98399514247859"
    }
  },
  {
    "service_request": "2026-1251800",
    "request_type": "Property Maintenance",
    "request_reason": "Property Maintenance",
    "date_created": "2026-01-13T14:41:05.000",
    "date_modified": "2026-01-13T14:59:51.000",
    "case_close_date": "2026-01-13T08:59:50.000",
    "request_status": "Closed",
    "responsible_agency": "Department of Code Enforcement",
    "final_address": "9235 Lake Forest Blvd",
    "address_councildis": "E",
    "status": "Referred to Code Enforcement",
    "rowid": "1251800",
    "final_x": "3708042.09848",
    "final_y": "558669.1903",
    "longitude": "-89.98325061416197",
    "latitude": "30.029313155771835",
    "geocoded_column": {
      "latitude": "30.029313155771835",
      "longitude": "-89.98325061416197"
    }
  },
  {
    "service_request": "2026-1251799",
    "request_type": "Trash/Recycling",
    "request_reason": "Request a Large Item Pick Up",
    "date_created": "2026-01-13T14:39:48.000",
    "date_modified": "2026-01-13T14:39:49.000",
    "request_status": "Pending",
    "responsible_agency": "Department of Sanitation",
    "final_address": "4927 Michoud Blvd",
    "address_councildis": "E",
    "status": "Assigned to Contractor",
    "contractor": "Waste Pro",
    "rowid": "1251799",
    "final_x": "3725047.27776",
    "final_y": "561331.327774",
    "longitude": "-89.92941235180632",
    "latitude": "30.036071057509417",
    "geocoded_column": {
      "latitude": "30.036071057509417",
      "longitude": "-89.92941235180632"
    }
  },
  {
    "service_request": "2026-1251798",
    "request_type": "Drainage",
    "request_reason": "Catch Basin Not Draining",
    "date_created": "2026-01-13T14:38:27.000",
    "date_modified": "2026-01-13T14:38:29.000",
    "request_status": "Pending",
    "responsible_agency": "Sewerage & Water Board",
    "final_address": "9029 Forshey St",
    "address_councildis": "A",
    "status": "Pending",
    "rowid": "1251798",
    "final_x": "3664500.05549",
    "final_y": "536249.548871",
    "longitude": "-90.12159232877778",
    "latitude": "29.969005601690263",
    "geocoded_column": {
      "latitude": "29.969005601690263",
      "longitude": "-90.12159232877778"
    }
  },
  {
    "service_request": "2026-1251797",
    "request_type": "Trash/Recycling",
    "request_reason": "Order Trash Cart",
    "date_created": "2026-01-13T14:37:42.000",
    "date_modified": "2026-01-13T14:37:43.000",
    "request_status": "Pending",
    "responsible_agency": "Department of Sanitation",
    "final_address": "3109 Industrial Ct",
    "address_councildis": "D",
    "status": "Assigned to Contractor",
    "contractor": "IV Waste",
    "rowid": "1251797",
    "final_x": "3689741.85871",
    "final_y": "538432.750665",
    "longitude": "-90.04179955035845",
    "latitude": "29.974250514096937",
    "geocoded_column": {
      "latitude": "29.974250514096937",
      "longitude": "-90.04179955035845"
    }
  },
  {
    "service_request": "2026-1251796",
    "request_type": "Roads and Streets",
    "request_reason": "Debris in Driving Lanes",
    "date_created": "2026-01-13T14:37:09.000",
    "date_modified": "2026-01-13T14:42:18.000",
    "request_status": "Pending",
    "responsible_agency": "Department of Public Works",
    "final_address": "7800 Brevard Ave",
    "address_councildis": "E",
    "status": "Pending",
    "rowid": "1251796",
    "final_x": "3706072.97175",
    "final_y": "563885.438433",
    "longitude": "-89.98927961222097",
    "latitude": "30.043719429683406",
    "geocoded_column": {
      "latitude": "30.043719429683406",
      "longitude": "-89.98927961222097"
    }
  },
  {
    "service_request": "2026-1251795",
    "request_type": "General Services",
    "request_reason": "General Service Request",
    "date_created": "2026-01-13T14:36:19.000",
    "date_modified": "2026-01-13T14:36:20.000",
    "request_status": "Pending",
    "responsible_agency": "Orleans Parish Communication District",
    "final_address": "5724 Campus Blvd",
    "address_councildis": "D",
    "status": "Pending",
    "rowid": "1251795",
    "final_x": "3688731.66467",
    "final_y": "554520.60444",
    "longitude": "-90.04441843555948",
    "latitude": "30.018517563924334",
    "geocoded_column": {
      "latitude": "30.018517563924334",
      "longitude": "-90.04441843555948"
    }
  },
  {
    "service_request": "2026-1251794",
    "request_type": "Trash/Recycling",
    "request_reason": "Request a Large Item Pick Up",
    "date_created": "2026-01-13T14:36:03.000",
    "date_modified": "2026-01-13T14:36:05.000",
    "request_status": "Pending",
    "responsible_agency": "Department of Sanitation",
    "final_address": "11120 Woodvine Ln",
    "address_councildis": "E",
    "status": "Assigned to Contractor",
    "contractor": "Waste Pro",
    "rowid": "1251794",
    "final_x": "3716118.27116",
    "final_y": "559522.635933",
    "longitude": "-89.9576980132425",
    "latitude": "30.031395670162258",
    "geocoded_column": {
      "latitude": "30.031395670162258",
      "longitude": "-89.9576980132425"
    }
  },
  {
    "service_request": "2026-1251793",
    "request_type": "Trash/Recycling",
    "request_reason": "Repair Trash Cart",
    "date_created": "2026-01-13T14:33:33.000",
    "date_modified": "2026-01-13T14:33:36.000",
    "request_status": "Pending",
    "responsible_agency": "Department of Sanitation",
    "final_address": "9 Stilt St",
    "address_councildis": "D",
    "status": "Assigned to Contractor",
    "contractor": "IV Waste",
    "rowid": "1251793",
    "final_x": "3672705.67067",
    "final_y": "557221.275291",
    "longitude": "-90.09496260904191",
    "latitude": "30.02642938018504",
    "geocoded_column": {
      "latitude": "30.02642938018504",
      "longitude": "-90.09496260904191"
    }
  },
  {
    "service_request": "2026-1251792",
    "request_type": "Trash/Recycling",
    "request_reason": "Repair Trash Cart",
    "date_created": "2026-01-13T14:26:10.000",
    "date_modified": "2026-01-13T14:26:11.000",
    "request_status": "Pending",
    "responsible_agency": "Department of Sanitation",
    "final_address": "5621 Eads St",
    "address_councildis": "D",
    "status": "Assigned to Contractor",
    "contractor": "IV Waste",
    "rowid": "1251792",
    "final_x": "3686938.37756",
    "final_y": "553851.690071",
    "longitude": "-90.05010822466613",
    "latitude": "30.016733640155074",
    "geocoded_column": {
      "latitude": "30.016733640155074",
      "longitude": "-90.05010822466613"
    }
  },
  {
    "service_request": "2026-1251791",
    "request_type": "Trash/Recycling",
    "request_reason": "Order Recycling Cart",
    "date_created": "2026-01-13T14:25:18.000",
    "date_modified": "2026-01-13T14:25:20.000",
    "request_status": "Pending",
    "responsible_agency": "Department of Sanitation",
    "final_address": "2120 Annunciation St",
    "address_councildis": "B",
    "status": "Pending",
    "rowid": "1251791",
    "final_x": "3679717.10184",
    "final_y": "521325.479289",
    "longitude": "-90.07405384642104",
    "latitude": "29.92751815164053",
    "geocoded_column": {
      "latitude": "29.92751815164053",
      "longitude": "-90.07405384642104"
    }
  },
  {
    "service_request": "2026-1251790",
    "request_type": "Graffiti Removal",
    "request_reason": "Graffiti Removal",
    "date_created": "2026-01-13T14:24:14.000",
    "date_modified": "2026-01-13T14:34:54.000",
    "case_close_date": "2026-01-13T08:34:53.000",
    "request_status": "Closed",
    "responsible_agency": "Department of Code Enforcement",
    "final_address": "4645 Freret St",
    "address_councildis": "B",
    "status": "Closed",
    "rowid": "1251790",
    "final_x": "3669522.96263",
    "final_y": "524037.168764",
    "longitude": "-90.10614265980237",
    "latitude": "29.935278549150258",
    "geocoded_column": {
      "latitude": "29.935278549150258",
      "longitude": "-90.10614265980237"
    }
  },
  {
    "service_request": "2026-1251789",
    "request_type": "Trash/Recycling",
    "request_reason": "Request a Large Item Pick Up",
    "date_created": "2026-01-13T14:24:13.000",
    "date_modified": "2026-01-13T14:24:59.000",
    "request_status": "Pending",
    "responsible_agency": "Department of Sanitation",
    "final_address": "4818 Deanne St",
    "address_councildis": "D",
    "status": "Assigned to Contractor",
    "contractor": "Waste Pro",
    "rowid": "1251789",
    "final_x": "3696261.86986",
    "final_y": "554542.063128",
    "longitude": "-90.02062508242828",
    "latitude": "30.01834151101226",
    "geocoded_column": {
      "latitude": "30.01834151101226",
      "longitude": "-90.02062508242828"
    }
  },
  {
    "service_request": "2026-1251788",
    "request_type": "Trash/Recycling",
    "request_reason": "Illegal Dumping",
    "date_created": "2026-01-13T14:20:06.000",
    "date_modified": "2026-01-13T14:47:08.000",
    "request_status": "Pending",
    "responsible_agency": "Department of Sanitation",
    "final_address": "1451 N Rampart St",
    "address_councildis": "C",
    "status": "Pending",
    "rowid": "1251788",
    "final_x": "3683135.43042",
    "final_y": "535765.688647",
    "longitude": "-90.06275756988525",
    "latitude": "29.967120114714405",
    "geocoded_column": {
      "latitude": "29.967120114714405",
      "longitude": "-90.06275756988525"
    }
  },
  {
    "service_request": "2026-1251787",
    "request_type": "Trash/Recycling",
    "request_reason": "Request a Large Item Pick Up",
    "date_created": "2026-01-13T14:15:58.000",
    "date_modified": "2026-01-13T14:16:00.000",
    "request_status": "Pending",
    "responsible_agency": "Department of Sanitation",
    "final_address": "1364 Moss St",
    "address_councildis": "A",
    "status": "Assigned to Contractor",
    "contractor": "IV Waste",
    "rowid": "1251787",
    "final_x": "3675127.1364",
    "final_y": "540730.461707",
    "longitude": "-90.08787743674895",
    "latitude": "29.981013288649258",
    "geocoded_column": {
      "latitude": "29.981013288649258",
      "longitude": "-90.08787743674895"
    }
  },
  {
    "service_request": "2026-1251786",
    "request_type": "Trash/Recycling",
    "request_reason": "Repair Trash Cart",
    "date_created": "2026-01-13T14:14:07.000",
    "date_modified": "2026-01-13T14:14:08.000",
    "request_status": "Pending",
    "responsible_agency": "Department of Sanitation",
    "final_address": "943 N Rendon St",
    "address_councildis": "A",
    "status": "Assigned to Contractor",
    "contractor": "IV Waste",
    "rowid": "1251786",
    "final_x": "3675597.21409",
    "final_y": "539141.537418",
    "longitude": "-90.08644733035209",
    "latitude": "29.97663023481669",
    "geocoded_column": {
      "latitude": "29.97663023481669",
      "longitude": "-90.08644733035209"
    }
  },
  {
    "service_request": "2026-1251785",
    "request_type": "Trash/Recycling",
    "request_reason": "Request a Large Item Pick Up",
    "date_created": "2026-01-13T14:13:48.000",
    "date_modified": "2026-01-13T14:13:49.000",
    "request_status": "Pending",
    "responsible_agency": "Department of Sanitation",
    "final_address": "4306 Burgundy St",
    "address_councildis": "C",
    "status": "Assigned to Contractor",
    "contractor": "IV Waste",
    "rowid": "1251785",
    "final_x": "3692551.67837",
    "final_y": "534222.254277",
    "longitude": "-90.03307641773254",
    "latitude": "29.962585754246863",
    "geocoded_column": {
      "latitude": "29.962585754246863",
      "longitude": "-90.03307641773254"
    }
  },
  {
    "service_request": "2026-1251784",
    "request_type": "Trash/Recycling",
    "request_reason": "Request a Large Item Pick Up",
    "date_created": "2026-01-13T14:12:04.000",
    "date_modified": "2026-01-13T14:12:06.000",
    "request_status": "Pending",
    "responsible_agency": "Department of Sanitation",
    "final_address": "4860 Metropolitan Dr",
    "address_councildis": "D",
    "status": "Assigned to Contractor",
    "contractor": "IV Waste",
    "rowid": "1251784",
    "final_x": "3690503.99587",
    "final_y": "551305.769109",
    "longitude": "-90.03893328132679",
    "latitude": "30.009623021490295",
    "geocoded_column": {
      "latitude": "30.009623021490295",
      "longitude": "-90.03893328132679"
    }
  },
  {
    "service_request": "2026-1251783",
    "request_type": "Trash/Recycling",
    "request_reason": "Request a Large Item Pick Up",
    "date_created": "2026-01-13T14:11:36.000",
    "date_modified": "2026-01-13T14:11:38.000",
    "request_status": "Pending",
    "responsible_agency": "Department of Sanitation",
    "final_address": "4420 Iberville St",
    "address_councildis": "A",
    "status": "Assigned to Contractor",
    "contractor": "IV Waste",
    "rowid": "1251783",
    "final_x": "3670080.03201",
    "final_y": "539611.01153",
    "longitude": "-90.10385643275877",
    "latitude": "29.978085057792235",
    "geocoded_column": {
      "latitude": "29.978085057792235",
      "longitude": "-90.10385643275877"
    }
  },
  {
    "service_request": "2026-1251782",
    "request_type": "Drainage",
    "request_reason": "Catch Basin Frame and Cover Missing or Damaged",
    "date_created": "2026-01-13T14:09:22.000",
    "date_modified": "2026-01-13T14:11:11.000",
    "request_status": "Pending",
    "responsible_agency": "Sewerage & Water Board",
    "final_address": "8901 Colapissa St",
    "address_councildis": "A",
    "status": "Pending",
    "rowid": "1251782",
    "final_x": "3664450.27949",
    "final_y": "535355.973702",
    "longitude": "-90.12177936357087",
    "latitude": "29.966550012047",
    "geocoded_column": {
      "latitude": "29.966550012047",
      "longitude": "-90.12177936357087"
    }
  },
  {
    "service_request": "2026-1251781",
    "request_type": "Trash/Recycling",
    "request_reason": "Request a Large Item Pick Up",
    "date_created": "2026-01-13T14:07:19.000",
    "date_modified": "2026-01-13T16:52:31.000",
    "request_status": "Pending",
    "responsible_agency": "Department of Sanitation",
    "final_address": "5514 Seminary Pl",
    "address_councildis": "D",
    "status": "Assigned to Contractor",
    "contractor": "IV Waste",
    "rowid": "1251781",
    "final_x": "3688505.0214",
    "final_y": "553365.089559",
    "longitude": "-90.04517558827841",
    "latitude": "30.015347333750718",
    "geocoded_column": {
      "latitude": "30.015347333750718",
      "longitude": "-90.04517558827841"
    }
  },
  {
    "service_request": "2026-1251780",
    "request_type": "Trash/Recycling",
    "request_reason": "Request a Large Item Pick Up",
    "date_created": "2026-01-13T14:06:01.000",
    "date_modified": "2026-01-13T16:53:38.000",
    "request_status": "Pending",
    "responsible_agency": "Department of Sanitation",
    "final_address": "3003 Pine St",
    "address_councildis": "B",
    "status": "Assigned to Contractor",
    "contractor": "IV Waste",
    "rowid": "1251780",
    "final_x": "3667555.245",
    "final_y": "532077.748611",
    "longitude": "-90.11208421952237",
    "latitude": "29.95744533757146",
    "geocoded_column": {
      "latitude": "29.95744533757146",
      "longitude": "-90.11208421952237"
    }
  },
  {
    "service_request": "2026-1251779",
    "request_type": "Trash/Recycling",
    "request_reason": "Request a Large Item Pick Up",
    "date_created": "2026-01-13T14:04:16.000",
    "date_modified": "2026-01-13T14:04:17.000",
    "request_status": "Pending",
    "responsible_agency": "Department of Sanitation",
    "final_address": "0 BLK Admiralty Ct",
    "address_councildis": "C",
    "status": "Assigned to Contractor",
    "contractor": "Richards Disposal",
    "rowid": "1251779",
    "final_x": "3704031.03777",
    "final_y": "523040.620373",
    "longitude": "-89.99723816614093",
    "latitude": "29.931477060413563",
    "geocoded_column": {
      "latitude": "29.931477060413563",
      "longitude": "-89.99723816614093"
    }
  },
  {
    "service_request": "2026-1251778",
    "request_type": "Trash/Recycling",
    "request_reason": "Request a Large Item Pick Up",
    "date_created": "2026-01-13T14:03:06.000",
    "date_modified": "2026-01-13T16:54:09.000",
    "request_status": "Pending",
    "responsible_agency": "Department of Sanitation",
    "final_address": "5939 Eads St",
    "address_councildis": "D",
    "status": "Assigned to Contractor",
    "contractor": "IV Waste",
    "rowid": "1251778",
    "final_x": "3686830.81295",
    "final_y": "555164.228825",
    "longitude": "-90.0504016504076",
    "latitude": "30.02034594867321",
    "geocoded_column": {
      "latitude": "30.02034594867321",
      "longitude": "-90.0504016504076"
    }
  },
  {
    "service_request": "2026-1251777",
    "request_type": "Streetlights",
    "request_reason": "Streetlight Outage/Malfunction",
    "date_created": "2026-01-13T14:00:24.000",
    "date_modified": "2026-01-13T14:00:25.000",
    "request_status": "Pending",
    "responsible_agency": "Department of Public Works",
    "final_address": "2312 Oriole St",
    "address_councildis": "D",
    "status": "Pending",
    "rowid": "1251777",
    "final_x": "3684165.39676",
    "final_y": "558010.785243",
    "longitude": "-90.05872348483226",
    "latitude": "30.02825471481307",
    "geocoded_column": {
      "latitude": "30.02825471481307",
      "longitude": "-90.05872348483226"
    }
  },
  {
    "service_request": "2026-1251776",
    "request_type": "Streetlights",
    "request_reason": "Streetlight Outage/Malfunction",
    "date_created": "2026-01-13T13:57:58.000",
    "date_modified": "2026-01-13T13:58:00.000",
    "request_status": "Pending",
    "responsible_agency": "Department of Public Works",
    "final_address": "3130 Maurepas St",
    "address_councildis": "A",
    "status": "Pending",
    "rowid": "1251776",
    "final_x": "3676350.96245",
    "final_y": "540714.880075",
    "longitude": "-90.08401257965623",
    "latitude": "29.980933811295067",
    "geocoded_column": {
      "latitude": "29.980933811295067",
      "longitude": "-90.08401257965623"
    }
  },