[
  {
    "service_request": "2021-829502",
    "request_type": "Trash/Recycling",
    "request_reason": "Order Recycling Cart",
    "date_created": "2021-10-05T00:02:40.000",
    "date_modified": "2021-10-05T00:02:41.000",
    "request_status": "Pending",
    "responsible_agency": "Department of Sanitation",
    "final_address": "7527 Willow St",
    "address_councildis": "A",
    "status": "Pending",
    "contractor": "Richards Disposal",
    "rowid": "829502",
    "final_x": "3663947.44384",
    "final_y": "527635.945663",
    "longitude": "-90.12362470776621",
    "latitude": "29.945337052856257",
    "geocoded_column": {
      "latitude": "29.945337052856257",
      "longitude": "-90.12362470776621"
    }
  },
  {
    "service_request": "2021-829501",
    "request_type": "Health Related Questions",
    "request_reason": "Noise Ordinance Complaint",
    "date_created": "2021-10-04T23:34:43.000",
    "date_modified": "2021-10-04T23:34:43.000",
    "request_status": "Pending",
    "responsible_agency": "Health Department",
    "final_address": "1355 St Bernard Ave",
    "address_councildis": "C",
    "status": "Pending",
    "rowid": "829501",
    "final_x": "3682740.64648",
    "final_y": "536936.85716",
    "longitude": "-90.06396332640323",
    "latitude": "29.970352454742336",
    "geocoded_column": {
      "latitude": "29.970352454742336",
      "longitude": "-90.06396332640323"
    }
  },
  {
    "service_request": "2021-829500",
    "request_type": "Trash/Recycling",
    "request_reason": "Missed Trash Pick-Up",
    "date_created": "2021-10-04T22:55:58.000",
    "date_modified": "2021-10-04T22:55:59.000",
    "request_status": "Pending",
    "responsible_agency": "Department of Sanitation",
    "final_address": "3630 Octavia St",
    "address_councildis": "A",
    "status": "Assigned to Contractor",
    "contractor": "Richards Disposal",
    "rowid": "829500",
    "final_x": "3668595.75086",
    "final_y": "528893.859648",
    "longitude": "-90.1089060352204",
    "latitude": "29.948660151393092",
    "geocoded_column": {
      "latitude": "29.948660151393092",
      "longitude": "-90.1089060352204"
    }
  },
  {
    "service_request": "2021-829499",
    "request_type": "Roads/Drainage",
    "request_reason": "Pothole",
    "date_created": "2021-10-04T22:39:20.000",
    "date_modified": "2021-10-04T22:39:20.000",
    "request_status": "Pending",
    "responsible_agency": "Department of Public Works",
    "final_address": "531 Girod St",
    "address_councildis": "B",
    "status": "Pending",
    "rowid": "829499",
    "final_x": "3681200.6077",
    "final_y": "528421.607616",
    "longitude": "-90.0691236369072",
    "latitude": "29.94698523542866",
    "geocoded_column": {
      "latitude": "29.94698523542866",
      "longitude": "-90.0691236369072"
    }
  },
  {
    "service_request": "2021-829497",
    "request_type": "Roads/Drainage",
    "request_reason": "Accessibility Ramps, Curbs and Sidewalk Repair",
    "date_created": "2021-10-04T22:35:00.000",
    "date_modified": "2021-10-04T22:35:00.000",
    "request_status": "Pending",
    "responsible_agency": "Department of Public Works",
    "final_address": "724 Camp St",
    "address_councildis": "B",
    "status": "Pending",
    "rowid": "829497",
    "final_x": "3680922.6756",
    "final_y": "528288.551808",
    "longitude": "-90.0700058029185",
    "latitude": "29.946627805312936",
    "geocoded_column": {
      "latitude": "29.946627805312936",
      "longitude": "-90.0700058029185"
    }
  },
  {
    "service_request": "2021-829496",
    "request_type": "Trash/Recycling",
    "request_reason": "Request a Large Item Pick Up",
    "date_created": "2021-10-04T22:21:23.000",
    "date_modified": "2021-10-04T22:21:23.000",
    "request_status": "Pending",
    "responsible_agency": "Department of Sanitation",
    "final_address": "3608 Havana St",
    "address_councildis": "D",
    "status": "Assigned to Contractor",
    "contractor": "Metro Disposal",
    "rowid": "829496",
    "final_x": "3680776.54184",
    "final_y": "545679.799504",
    "longitude": "-90.06986172476225",
    "latitude": "29.994452175994443",
    "geocoded_column": {
      "latitude": "29.994452175994443",
      "longitude": "-90.06986172476225"
    }
  },
  {
    "service_request": "2021-829494",
    "request_type": "Traffic Signals/Signs/Striping/Streetlights",
    "request_reason": "Street Light Outage/Malfunction",
    "date_created": "2021-10-04T21:56:40.000",
    "date_modified": "2021-10-04T21:56:41.000",
    "request_status": "Pending",
    "responsible_agency": "Department of Public Works",
    "final_address": "1460 Athis St",
    "address_councildis": "D",
    "status": "Pending",
    "contractor": "Royal Engineering",
    "rowid": "829494",
    "final_x": "3677977.50094",
    "final_y": "553660.911127",
    "longitude": "-90.07842743227152",
    "latitude": "30.016481956494907",
    "geocoded_column": {
      "latitude": "30.016481956494907",
      "longitude": "-90.07842743227152"
    }
  },
  {
    "service_request": "2021-829492",
    "request_type": "Trash/Recycling",
    "request_reason": "Repair Recycling Cart",
    "date_created": "2021-10-04T21:41:04.000",
    "date_modified": "2021-10-04T21:41:04.000",
    "request_status": "Pending",
    "responsible_agency": "Department of Sanitation",
    "final_address": "4403 Joycelyn Dr",
    "address_councildis": "C",
    "status": "Pending",
    "rowid": "829492",
    "final_x": "3707955.58168",
    "final_y": "514515.925555",
    "longitude": "-89.98516559514876",
    "latitude": "29.90791070986875",
    "geocoded_column": {
      "latitude": "29.90791070986875",
      "longitude": "-89.98516559514876"
    }
  },
  {
    "service_request": "2021-829491",
    "request_type": "Trash/Recycling",
    "request_reason": "Missed Trash Pick-Up",
    "date_created": "2021-10-04T21:35:53.000",
    "date_modified": "2021-10-04T21:35:54.000",
    "request_status": "Pending",
    "responsible_agency": "Department of Sanitation",
    "final_address": "6818 Milne Blvd",
    "address_councildis": "A",
    "status": "Assigned to Contractor",
    "contractor": "Metro Disposal",
    "rowid": "829491",
    "final_x": "3667470.43175",
    "final_y": "552919.128791",
    "longitude": "-90.11165036616391",
    "latitude": "30.01475453688969",
    "geocoded_column": {
      "latitude": "30.01475453688969",
      "longitude": "-90.11165036616391"
    }
  },
  {
    "service_request": "2021-829490",
    "request_type": "Trash/Recycling",
    "request_reason": "Missed Trash Pick-Up",
    "date_created": "2021-10-04T21:17:06.000",
    "date_modified": "2021-10-04T21:17:07.000",
    "request_status": "Pending",
    "responsible_agency": "Department of Sanitation",
    "final_address": "3315 Chestnut St",
    "address_councildis": "B",
    "status": "Assigned to Contractor",
    "contractor": "Richards Disposal",
    "rowid": "829490",
    "final_x": "3674957.27086",
    "final_y": "520448.399736",
    "longitude": "-90.08910955005064",
    "latitude": "29.92524944494753",
    "geocoded_column": {
      "latitude": "29.92524944494753",
      "longitude": "-90.08910955005064"
    }
  },
  {
    "service_request": "2021-829489",
    "request_type": "Trash/Recycling",
    "request_reason": "Missed Trash Pick-Up",
    "date_created": "2021-10-04T21:03:22.000",
    "date_modified": "2021-10-04T21:03:22.000",
    "request_status": "Pending",
    "responsible_agency": "Department of Sanitation",
    "final_address": "212 N Lopez St",
    "address_councildis": "B",
    "status": "Assigned to Contractor",
    "contractor": "Richards Disposal",
    "rowid": "829489",
    "final_x": "3674233.30043",
    "final_y": "536646.874567",
    "longitude": "-90.09084043241627",
    "latitude": "29.96981149975265",
    "geocoded_column": {
      "latitude": "29.96981149975265",
      "longitude": "-90.09084043241627"
    }
  },
  {
    "service_request": "2021-829488",
    "request_type": "Abandoned Vehicles",
    "request_reason": "Abandoned/Junk Vehicles",
    "date_created": "2021-10-04T21:02:17.000",
    "date_modified": "2021-10-04T21:02:17.000",
    "request_status": "Pending",
    "responsible_agency": "Department of Public Works",
    "final_address": "1620 General Collins Ave",
    "address_councildis": "C",
    "status": "Pending",
    "rowid": "829488",
    "final_x": "3698612.88426",
    "final_y": "525186.553021",
    "longitude": "-90.01426453828161",
    "latitude": "29.937550238848196",
    "geocoded_column": {
      "latitude": "29.937550238848196",
      "longitude": "-90.01426453828161"
    }
  },
  {
    "service_request": "2021-829487",
    "request_type": "Trash/Recycling",
    "request_reason": "Missed Trash Pick-Up",
    "date_created": "2021-10-04T21:00:05.000",
    "date_modified": "2021-10-04T21:00:05.000",
    "request_status": "Pending",
    "responsible_agency": "Department of Sanitation",
    "final_address": "411 Fairway Dr",
    "address_councildis": "A",
    "status": "Assigned to Contractor",
    "contractor": "Metro Disposal",
    "rowid": "829487",
    "final_x": "3664344.38279",
    "final_y": "542361.449357",
    "longitude": "-90.1218798850125",
    "latitude": "29.98581581459609",
    "geocoded_column": {
      "latitude": "29.98581581459609",
      "longitude": "-90.1218798850125"
    }
  },
  {
    "service_request": "2021-829486",
    "request_type": "COVID-19",
    "request_reason": "COVID-19 Business Non-Compliance",
    "date_created": "2021-10-04T20:50:44.000",
    "date_modified": "2021-10-04T20:50:45.000",
    "request_status": "Pending",
    "responsible_agency": "Safety and Permits",
    "final_address": "541 Dumaine St",
    "address_councildis": "C",
    "status": "Pending",
    "rowid": "829486",
    "final_x": "3683357.14812",
    "final_y": "532804.13114",
    "longitude": "-90.06216114059237",
    "latitude": "29.958970087038086",
    "geocoded_column": {
      "latitude": "29.958970087038086",
      "longitude": "-90.06216114059237"
    }
  },
  {
    "service_request": "2021-829485",
    "request_type": "Traffic Signals/Signs/Striping/Streetlights",
    "request_reason": "Street Name Sign Damaged or Missing",
    "date_created": "2021-10-04T20:45:04.000",
    "date_modified": "2021-10-04T20:45:04.000",
    "request_status": "Pending",
    "responsible_agency": "Department of Public Works",
    "final_address": "7228 Ring St",
    "address_councildis": "D",
    "status": "Pending",
    "rowid": "829485",
    "final_x": "3668743.8651",
    "final_y": "554996.385112",
    "longitude": "-90.1075567106195",
    "latitude": "30.02042886252689",
    "geocoded_column": {
      "latitude": "30.02042886252689",
      "longitude": "-90.1075567106195"
    }
  },
  {
    "service_request": "2021-829484",
    "request_type": "COVID-19",
    "request_reason": "COVID-19 Business Non-Compliance",
    "date_created": "2021-10-04T20:36:32.000",
    "date_modified": "2021-10-04T20:36:33.000",
    "request_status": "Pending",
    "responsible_agency": "Safety and Permits",
    "final_address": "541 Dumaine St",
    "address_councildis": "C",
    "status": "Pending",
    "rowid": "829484",
    "final_x": "3683357.14812",
    "final_y": "532804.13114",
    "longitude": "-90.06216114059237",
    "latitude": "29.958970087038086",
    "geocoded_column": {
      "latitude": "29.958970087038086",
      "longitude": "-90.06216114059237"
    }
  },
  {
    "service_request": "2021-829483",
    "request_type": "Traffic Signals/Signs/Striping/Streetlights",
    "request_reason": "Street Light Outage/Malfunction",
    "date_created": "2021-10-04T20:18:43.000",
    "date_modified": "2021-10-04T20:18:43.000",
    "request_status": "Pending",
    "responsible_agency": "Department of Public Works",
    "final_address": "FLEUR DE LIS DR & VETERANS BLVD & VETERANS HWY",
    "address_councildis": "A",
    "status": "Pending",
    "contractor": "Royal Engineering",
    "rowid": "829483",
    "final_x": "3665115.5",
    "final_y": "547476.48",
    "longitude": "-90.11927304180386",
    "latitude": "29.99985796726132",
    "geocoded_column": {
      "latitude": "29.99985796726132",
      "longitude": "-90.11927304180386"
    }
  },
  {
    "service_request": "2021-829481",
    "request_type": "Trash/Recycling",
    "request_reason": "Request a Large Item Pick Up",
    "date_created": "2021-10-04T19:35:57.000",
    "date_modified": "2021-10-04T19:35:58.000",
    "request_status": "Pending",
    "responsible_agency": "Department of Sanitation",
    "final_address": "2354 Odin St",
    "address_councildis": "D",
    "status": "Assigned to Contractor",
    "contractor": "Metro Disposal",
    "rowid": "829481",
    "final_x": "3684931.01449",
    "final_y": "553102.187991",
    "longitude": "-90.05647702407892",
    "latitude": "30.01473444444264",
    "geocoded_column": {
      "latitude": "30.01473444444264",
      "longitude": "-90.05647702407892"
    }
  },
  {
    "service_request": "2021-829479",
    "request_type": "Trash/Recycling",
    "request_reason": "Replace Trash Cart",
    "date_created": "2021-10-04T19:17:35.000",
    "date_modified": "2021-10-04T19:17:36.000",
    "request_status": "Pending",
    "responsible_agency": "Department of Sanitation",
    "final_address": "7231 Briarheath Dr",
    "address_councildis": "E",
    "status": "Assigned to Contractor",
    "contractor": "Metro Disposal",
    "rowid": "829479",
    "final_x": "3714487.69336",
    "final_y": "566210.415779",
    "longitude": "-89.96259783698973",
    "latitude": "30.049838091150825",
    "geocoded_column": {
      "latitude": "30.049838091150825",
      "longitude": "-89.96259783698973"
    }
  },
  {
    "service_request": "2021-829478",
    "request_type": "Property Maintenance",
    "request_reason": "Property Maintenance",
    "date_created": "2021-10-04T19:17:34.000",
    "date_modified": "2021-10-04T19:17:34.000",
    "request_status": "Pending",
    "responsible_agency": "Department of Code Enforcement",
    "final_address": "7409 Dogwood Dr",
    "address_councildis": "E",
    "status": "Pending",
    "rowid": "829478",
    "final_x": "3701590.96471",
    "final_y": "560435.921886",
    "longitude": "-90.00357111898242",
    "latitude": "30.034378403825855",
    "geocoded_column": {
      "latitude": "30.034378403825855",
      "longitude": "-90.00357111898242"
    }
  },
  {
    "service_request": "2021-829477",
    "request_type": "Trash/Recycling",
    "request_reason": "Missed Trash Pick-Up",
    "date_created": "2021-10-04T19:14:06.000",
    "date_modified": "2021-10-04T19:14:06.000",
    "request_status": "Pending",
    "responsible_agency": "Department of Sanitation",
    "final_address": "6186 Bellaire Dr",
    "address_councildis": "A",
    "status": "Assigned to Contractor",
    "contractor": "Metro Disposal",
    "rowid": "829477",
    "final_x": "3664268.93152",
    "final_y": "548865.582163",
    "longitude": "-90.12190100651284",
    "latitude": "30.003702157284927",
    "geocoded_column": {
      "latitude": "30.003702157284927",
      "longitude": "-90.12190100651284"
    }
  },
  {
    "service_request": "2021-829476",
    "request_type": "Trash/Recycling",
    "request_reason": "Missed Trash Pick-Up",
    "date_created": "2021-10-04T18:58:29.000",
    "date_modified": "2021-10-04T18:58:30.000",
    "request_status": "Pending",
    "responsible_agency": "Department of Sanitation",
    "final_address": "3601 Burgundy St",
    "address_councildis": "C",
    "status": "Assigned to Contractor",
    "contractor": "Metro Disposal",
    "rowid": "829476",
    "final_x": "3690573.62851",
    "final_y": "534800.938886",
    "longitude": "-90.03930217145104",
    "latitude": "29.96423850548984",
    "geocoded_column": {
      "latitude": "29.96423850548984",
      "longitude": "-90.03930217145104"
    }
  },
  {
    "service_request": "2021-829475",
    "request_type": "Trash/Recycling",
    "request_reason": "MIssed Recycling Pick-Up",
    "date_created": "2021-10-04T18:53:55.000",
    "date_modified": "2021-10-04T18:53:55.000",
    "request_status": "Pending",
    "responsible_agency": "Department of Sanitation",
    "final_address": "8318 Palm St",
    "address_councildis": "A",
    "status": "Assigned to Contractor",
    "contractor": "Richards Disposal",
    "rowid": "829475",
    "final_x": "3667020.76321",
    "final_y": "535247.406022",
    "longitude": "-90.11366542240818",
    "latitude": "29.966176503473932",
    "geocoded_column": {
      "latitude": "29.966176503473932",
      "longitude": "-90.11366542240818"
    }
  },
  {
    "service_request": "2021-829474",
    "request_type": "Roads/Drainage",
    "request_reason": "Street Flooding / Drainage",
    "date_created": "2021-10-04T18:51:50.000",
    "date_modified": "2021-10-04T18:53:50.000",
    "request_status": "Pending",
    "responsible_agency": "Department of Public Works",
    "final_address": "2200 BLK Odin St",
    "address_councildis": "D",
    "status": "Pending",
    "rowid": "829474",
    "final_x": "3683899.07278",
    "final_y": "553054.456015",
    "longitude": "-90.05973913138578",
    "latitude": "30.01463477759728",
    "geocoded_column": {
      "latitude": "30.01463477759728",
      "longitude": "-90.05973913138578"
    }
  },
  {
    "service_request": "2021-829473",
    "request_type": "Trash/Recycling",
    "request_reason": "Missed Trash Pick-Up",
    "date_created": "2021-10-04T18:45:40.000",
    "date_modified": "2021-10-04T18:45:41.000",
    "request_status": "Pending",
    "responsible_agency": "Department of Sanitation",
    "final_address": "1014 Desire St",
    "address_councildis": "C",
    "status": "Assigned to Contractor",
    "contractor": "Metro Disposal",
    "rowid": "829473",
    "final_x": "3690078.27043",
    "final_y": "535408.076614",
    "longitude": "-90.04084483903002",
    "latitude": "29.96592329460682",
    "geocoded_column": {
      "latitude": "29.96592329460682",
      "longitude": "-90.04084483903002"
    }
  },
  {
    "service_request": "2021-829472",
    "request_type": "Roads/Drainage",
    "request_reason": "Street Subsidence (Sinking)",
    "date_created": "2021-10-04T18:23:59.000",
    "date_modified": "2021-10-04T18:23:59.000",
    "request_status": "Pending",
    "responsible_agency": "Department of Public Works",
    "final_address": "710 Pauline St",
    "address_councildis": "C",
    "status": "Pending",
    "rowid": "829472",
    "final_x": "3690826.67977",
    "final_y": "534068.464261",
    "longitude": "-90.03852919755374",
    "latitude": "29.962216596267215",
    "geocoded_column": {
      "latitude": "29.962216596267215",
      "longitude": "-90.03852919755374"
    }
  },
  {
    "service_request": "2021-829471",
    "request_type": "Trash/Recycling",
    "request_reason": "Missed Trash Pick-Up",
    "date_created": "2021-10-04T18:18:29.000",
    "date_modified": "2021-10-04T18:18:30.000",
    "request_status": "Pending",
    "responsible_agency": "Department of Sanitation",
    "final_address": "4924 Copernicus St",
    "address_councildis": "C",
    "status": "Assigned to Contractor",
    "contractor": "Richards Disposal",
    "rowid": "829471",
    "final_x": "3702250.41796",
    "final_y": "522701.175738",
    "longitude": "-90.0028717714998",
    "latitude": "29.930600676170442",
    "geocoded_column": {
      "latitude": "29.930600676170442",
      "longitude": "-90.0028717714998"
    }
  },
  {
    "service_request": "2021-829470",
    "request_type": "Trash/Recycling",
    "request_reason": "Replace Trash Cart",
    "date_created": "2021-10-04T18:14:20.000",
    "date_modified": "2021-10-04T18:14:21.000",
    "request_status": "Pending",
    "responsible_agency": "Department of Sanitation",
    "final_address": "542 Jefferson Ave, New Orleans, Louisiana, 70115",
    "address_councildis": "A",
    "status": "Assigned to Contractor",
    "contractor": "Richards Disposal",
    "rowid": "829470",
    "final_x": "3666402.34497",
    "final_y": "517486.041398",
    "longitude": "-90.11621417343814",
    "latitude": "29.917356548237287",
    "geocoded_column": {
      "latitude": "29.917356548237287",
      "longitude": "-90.11621417343814"
    }
  },
  {
    "service_request": "2021-829469",
    "request_type": "Traffic Signals/Signs/Striping/Streetlights",
    "request_reason": "Street Light Outage/Malfunction",
    "date_created": "2021-10-04T18:13:51.000",
    "date_modified": "2021-10-04T18:13:52.000",
    "request_status": "Pending",
    "responsible_agency": "Department of Public Works",
    "final_address": "2724 Octavia St",
    "address_councildis": "A",
    "status": "Pending",
    "contractor": "Royal Engineering",
    "rowid": "829469",
    "final_x": "3667879.03162",
    "final_y": "525583.159933",
    "longitude": "-90.11128051480009",
    "latitude": "29.93957783801998",
    "geocoded_column": {
      "latitude": "29.93957783801998",
      "longitude": "-90.11128051480009"
    }
  },
  {
    "service_request": "2021-829467",
    "request_type": "Mosquito, Termite & Rodent Control",
    "request_reason": "Mosquito Complaint",
    "date_created": "2021-10-04T17:53:16.000",
    "date_modified": "2021-10-04T17:53:16.000",
    "request_status": "Pending",
    "responsible_agency": "Mosquito, Termite & Rodent Control Board",
    "final_address": "2528 Cambronne St",
    "address_councildis": "A",
    "status": "Pending",
    "rowid": "829467",
    "final_x": "3664457.78944",
    "final_y": "532781.833796",
    "longitude": "-90.12184159591777",
    "latitude": "29.959471753351487",
    "geocoded_column": {
      "latitude": "29.959471753351487",
      "longitude": "-90.12184159591777"
    }
  },
  {
    "service_request": "2021-829466",
    "request_type": "Trash/Recycling",
    "request_reason": "Illegal Dumping",
    "date_created": "2021-10-04T17:51:20.000",
    "date_modified": "2021-10-04T17:51:21.000",
    "request_status": "Pending",
    "responsible_agency": "Department of Sanitation",
    "final_address": "4606 Annette St",
    "address_councildis": "D",
    "status": "Pending",
    "rowid": "829466",
    "final_x": "3682036.14133",
    "final_y": "549469.430547",
    "longitude": "-90.06575038497355",
    "latitude": "30.004834057231204",
    "geocoded_column": {
      "latitude": "30.004834057231204",
      "longitude": "-90.06575038497355"
    }
  },
  {
    "service_request": "2021-829465",
    "request_type": "Abandoned Vehicles",
    "request_reason": "Abandoned/Junk Vehicles",
    "date_created": "2021-10-04T17:49:51.000",
    "date_modified": "2021-10-04T17:49:51.000",
    "request_status": "Pending",
    "responsible_agency": "Department of Public Works",
    "final_address": "4606 Annette St",
    "address_councildis": "D",
    "status": "Pending",
    "rowid": "829465",
    "final_x": "3682036.14133",
    "final_y": "549469.430547",
    "longitude": "-90.06575038497355",
    "latitude": "30.004834057231204",
    "geocoded_column": {
      "latitude": "30.004834057231204",
      "longitude": "-90.06575038497355"
    }
  },
  {
    "service_request": "2021-829464",
    "request_type": "Trash/Recycling",
    "request_reason": "Missed Trash Pick-Up",
    "date_created": "2021-10-04T17:48:29.000",
    "date_modified": "2021-10-04T17:48:30.000",
    "request_status": "Pending",
    "responsible_agency": "Department of Sanitation",
    "final_address": "3117 N Villere St",
    "address_councildis": "C",
    "status": "Assigned to Contractor",
    "contractor": "Metro Disposal",
    "rowid": "829464",
    "final_x": "3689429.97321",
    "final_y": "537103.568072",
    "longitude": "-90.04283183289137",
    "latitude": "29.97060539285459",
    "geocoded_column": {
      "latitude": "29.97060539285459",
      "longitude": "-90.04283183289137"
    }
  },
  {
    "service_request": "2021-829462",
    "request_type": "COVID-19",
    "request_reason": "COVID-19 Business Non-Compliance",
    "date_created": "2021-10-04T17:44:13.000",
    "date_modified": "2021-10-04T17:44:14.000",
    "request_status": "Pending",
    "responsible_agency": "Safety and Permits",
    "final_address": "3016 S Carrollton Ave",
    "address_councildis": "A",
    "status": "Pending",
    "rowid": "829462",
    "final_x": "3666405.92231",
    "final_y": "533298.800132",
    "longitude": "-90.11567247747831",
    "latitude": "29.9608364608981",
    "geocoded_column": {
      "latitude": "29.9608364608981",
      "longitude": "-90.11567247747831"
    }
  },
  {
    "service_request": "2021-829461",
    "request_type": "Traffic Signals/Signs/Striping/Streetlights",
    "request_reason": "Street Light Outage/Malfunction",
    "date_created": "2021-10-04T17:43:58.000",
    "date_modified": "2021-10-04T17:43:59.000",
    "request_status": "Pending",
    "responsible_agency": "Department of Public Works",
    "final_address": "4534 Annette St",
    "address_councildis": "D",
    "status": "Pending",
    "contractor": "Royal Engineering",
    "rowid": "829461",
    "final_x": "3682035.96898",
    "final_y": "549364.569619",
    "longitude": "-90.06575459418951",
    "latitude": "30.004545732608978",
    "geocoded_column": {
      "latitude": "30.004545732608978",
      "longitude": "-90.06575459418951"
    }
  },
  {
    "service_request": "2021-829460",
    "request_type": "Trash/Recycling",
    "request_reason": "Illegal Dumping",
    "date_created": "2021-10-04T17:40:35.000",
    "date_modified": "2021-10-04T17:40:35.000",
    "request_status": "Pending",
    "responsible_agency": "Department of Sanitation",
    "final_address": "1821 N Villere St",
    "address_councildis": "C",
    "status": "Pending",
    "rowid": "829460",
    "final_x": "3683598.38793",
    "final_y": "537405.146952",
    "longitude": "-90.06123806948737",
    "latitude": "29.971613933796043",
    "geocoded_column": {
      "latitude": "29.971613933796043",
      "longitude": "-90.06123806948737"
    }
  },
  {
    "service_request": "2021-829459",
    "request_type": "Trash/Recycling",
    "request_reason": "Missed Trash Pick-Up",
    "date_created": "2021-10-04T17:36:44.000",
    "date_modified": "2021-10-04T17:36:45.000",
    "case_close_date": "2021-08-24T19:00:00.000",
    "request_status": "Pending",
    "responsible_agency": "Department of Sanitation",
    "final_address": "14807 S Little Woods Dr",
    "address_councildis": "E",
    "status": "Assigned to Contractor",
    "contractor": "Metro Disposal",
    "rowid": "829459",
    "final_x": "3720130.81695",
    "final_y": "574872.348907",
    "longitude": "-89.9444304125577",
    "latitude": "30.07346795697943",
    "geocoded_column": {
      "latitude": "30.07346795697943",
      "longitude": "-89.9444304125577"
    }
  },
  {
    "service_request": "2021-829458",
    "request_type": "Property Maintenance",
    "request_reason": "Property Maintenance",
    "date_created": "2021-10-04T17:34:31.000",
    "date_modified": "2021-10-04T17:34:31.000",
    "request_status": "Pending",
    "responsible_agency": "Department of Code Enforcement",
    "final_address": "2401 Valence St",
    "address_councildis": "B",
    "status": "Pending",
    "rowid": "829458",
    "final_x": "3669502.13991",
    "final_y": "523622.903355",
    "longitude": "-90.10622240330319",
    "latitude": "29.93414006561495",
    "geocoded_column": {
      "latitude": "29.93414006561495",
      "longitude": "-90.10622240330319"
    }
  },
  {
    "service_request": "2021-829457",
    "request_type": "Roads/Drainage",
    "request_reason": "Pothole",
    "date_created": "2021-10-04T17:34:01.000",
    "date_modified": "2021-10-04T17:34:02.000",
    "case_close_date": "2021-05-03T19:00:00.000",
    "request_status": "Pending",
    "responsible_agency": "Department of Public Works",
    "final_address": "MARTIN DR & WALES ST",
    "address_councildis": "E",
    "status": "Pending",
    "rowid": "829457",
    "final_x": "3698076.7",
    "final_y": "560516.38",
    "longitude": "-90.01467368875949",
    "latitude": "30.034711303552157",
    "geocoded_column": {
      "latitude": "30.034711303552157",
      "longitude": "-90.01467368875949"
    }
  },
  {
    "service_request": "2021-829456",
    "request_type": "Trash/Recycling",
    "request_reason": "Request a Large Item Pick Up",
    "date_created": "2021-10-04T17:31:00.000",
    "date_modified": "2021-10-04T17:31:01.000",
    "request_status": "Pending",
    "responsible_agency": "Department of Sanitation",
    "final_address": "1215 N Dupre St",
    "address_councildis": "A",
    "status": "Assigned to Contractor",
    "contractor": "Richards Disposal",
    "rowid": "829456",
    "final_x": "3676948.56034",
    "final_y": "539403.262218",
    "longitude": "-90.08217033286698",
    "latitude": "29.97730938478441",
    "geocoded_column": {
      "latitude": "29.97730938478441",
      "longitude": "-90.08217033286698"
    }
  },
  {
    "service_request": "2021-829455",
    "request_type": "Trash/Recycling",
    "request_reason": "Missed Trash Pick-Up",
    "date_created": "2021-10-04T17:29:40.000",
    "date_modified": "2021-10-04T17:29:41.000",
    "request_status": "Pending",
    "responsible_agency": "Department of Sanitation",
    "final_address": "1309 Mystery St",
    "address_councildis": "A",
    "status": "Assigned to Contractor",
    "contractor": "Richards Disposal",
    "rowid": "829455",
    "final_x": "3676059.43451",
    "final_y": "540426.566667",
    "longitude": "-90.08494327670016",
    "latitude": "29.98014978543431",
    "geocoded_column": {
      "latitude": "29.98014978543431",
      "longitude": "-90.08494327670016"
    }
  },
  {
    "service_request": "2021-829454",
    "request_type": "Trash/Recycling",
    "request_reason": "Missed Trash Pick-Up",
    "date_created": "2021-10-04T17:28:14.000",
    "date_modified": "2021-10-04T17:28:15.000",
    "request_status": "Pending",
    "responsible_agency": "Department of Sanitation",
    "final_address": "1633 Third St",
    "address_councildis": "B",
    "status": "Assigned to Contractor",
    "contractor": "Richards Disposal",
    "rowid": "829454",
    "final_x": "3676298.84629",
    "final_y": "523147.287867",
    "longitude": "-90.08478178566985",
    "latitude": "29.932630386043655",
    "geocoded_column": {
      "latitude": "29.932630386043655",
      "longitude": "-90.08478178566985"
    }
  },
  {
    "service_request": "2021-829452",
    "request_type": "Trash/Recycling",
    "request_reason": "Repair Trash Cart",
    "date_created": "2021-10-04T17:25:38.000",
    "date_modified": "2021-10-04T17:28:30.000",
    "case_close_date": "2021-01-06T18:00:00.000",
    "request_status": "Closed",
    "responsible_agency": "Department of Sanitation",
    "final_address": "5046 Stephen Girard Ave",
    "address_councildis": "D",
    "status": "Resolved",
    "contractor": "Metro Disposal",
    "rowid": "829452",
    "final_x": "3692920.09462",
    "final_y": "551144.124565",
    "longitude": "-90.03130580659118",
    "latitude": "30.00910329042457",
    "geocoded_column": {
      "latitude": "30.00910329042457",
      "longitude": "-90.03130580659118"
    }
  },
  {
    "service_request": "2021-829451",
    "request_type": "Trash/Recycling",
    "request_reason": "Missed Trash Pick-Up",
    "date_created": "2021-10-04T17:25:36.000",
    "date_modified": "2021-10-04T17:25:37.000",
    "request_status": "Pending",
    "responsible_agency": "Department of Sanitation",
    "final_address": "2132 Philip St",
    "address_councildis": "B",
    "status": "Assigned to Contractor",
    "contractor": "Richards Disposal",
    "rowid": "829451",
    "final_x": "3675981.68321",
    "final_y": "525043.206013",
    "longitude": "-90.08571787527005",
    "latitude": "29.937853040014065",
    "geocoded_column": {
      "latitude": "29.937853040014065",
      "longitude": "-90.08571787527005"
    }
  },
  {
    "service_request": "2021-829450",
    "request_type": "Parks & Parkways",
    "request_reason": "Request Tree Service (Right of Way/Public Property)",
    "date_created": "2021-10-04T17:21:43.000",
    "date_modified": "2021-10-04T17:21:43.000",
    "request_status": "Pending",
    "responsible_agency": "Department of Parks & Parkway",
    "final_address": "7181 Whitmore Pl",
    "address_councildis": "E",
    "status": "Pending",
    "rowid": "829450",
    "final_x": "3718555.05234",
    "final_y": "569924.66071",
    "longitude": "-89.94960082467185",
    "latitude": "30.05991631353245",
    "geocoded_column": {
      "latitude": "30.05991631353245",
      "longitude": "-89.94960082467185"
    }
  },
  {
    "service_request": "2021-829448",
    "request_type": "Property Maintenance",
    "request_reason": "Property Maintenance",
    "date_created": "2021-10-04T17:14:32.000",
    "date_modified": "2021-10-04T17:14:32.000",
    "request_status": "Pending",
    "responsible_agency": "Department of Code Enforcement",
    "final_address": "1827 St Anthony St",
    "address_councildis": "D",
    "status": "Pending",
    "rowid": "829448",
    "final_x": "3683346.32521",
    "final_y": "538985.58625",
    "longitude": "-90.06197874035759",
    "latitude": "29.97596728433996",
    "geocoded_column": {
      "latitude": "29.97596728433996",
      "longitude": "-90.06197874035759"
    }
  },
  {
    "service_request": "2021-829446",
    "request_type": "Trash/Recycling",
    "request_reason": "Order Recycling Cart",
    "date_created": "2021-10-04T17:11:22.000",
    "date_modified": "2021-10-04T17:11:22.000",
    "request_status": "Pending",
    "responsible_agency": "Department of Sanitation",
    "final_address": "1126 Euterpe St",
    "address_councildis": "B",
    "status": "Pending",
    "rowid": "829446",
    "final_x": "3680064.51663",
    "final_y": "524228.904828",
    "longitude": "-90.0728563197537",
    "latitude": "29.935491113772937",
    "geocoded_column": {
      "latitude": "29.935491113772937",
      "longitude": "-90.0728563197537"
    }
  },
  {
    "service_request": "2021-829447",
    "request_type": "Property Maintenance",
    "request_reason": "Property Maintenance",
    "date_created": "2021-10-04T17:11:22.000",
    "date_modified": "2021-10-04T17:11:23.000",
    "request_status": "Pending",
    "responsible_agency": "Department of Code Enforcement",
    "final_address": "1822 St Anthony St",
    "address_councildis": "D",
    "status": "Pending",
    "rowid": "829447",
    "final_x": "3683223.12008",
    "final_y": "538965.668746",
    "longitude": "-90.06236855488193",
    "latitude": "29.975916276371795",
    "geocoded_column": {
      "latitude": "29.975916276371795",
      "longitude": "-90.06236855488193"
    }
  },
  {
    "service_request": "2021-829443",
    "request_type": "Trash/Recycling",
    "request_reason": "Missed Trash Pick-Up",
    "date_created": "2021-10-04T17:04:32.000",
    "date_modified": "2021-10-04T17:04:33.000",
    "request_status": "Pending",
    "responsible_agency": "Department of Sanitation",
    "final_address": "1020 Pauline St",
    "address_councildis": "C",
    "status": "Assigned to Contractor",
    "contractor": "Metro Disposal",
    "rowid": "829443",
    "final_x": "3691117.51459",
    "final_y": "535195.48679",
    "longitude": "-90.03757054119713",
    "latitude": "29.965306473488177",
    "geocoded_column": {
      "latitude": "29.965306473488177",
      "longitude": "-90.03757054119713"
    }
  },
  {
    "service_request": "2021-829441",
    "request_type": "Trash/Recycling",
    "request_reason": "Order Recycling Cart",
    "date_created": "2021-10-04T16:59:14.000",
    "date_modified": "2021-10-04T16:59:14.000",
    "request_status": "Pending",
    "responsible_agency": "Department of Sanitation",
    "final_address": "502 Whitney Ave",
    "address_councildis": "C",
    "status": "Pending",
    "rowid": "829441",
    "final_x": "3690319.91036",
    "final_y": "529723.107265",
    "longitude": "-90.04028434393486",
    "latitude": "29.95028410789239",
    "geocoded_column": {
      "latitude": "29.95028410789239",
      "longitude": "-90.04028434393486"
    }
  },
  {
    "service_request": "2021-829439",
    "request_type": "Trash/Recycling",
    "request_reason": "Replace Recycling Cart",
    "date_created": "2021-10-04T16:55:28.000",
    "date_modified": "2021-10-04T16:55:28.000",
    "request_status": "Pending",
    "responsible_agency": "Department of Sanitation",
    "final_address": "711 St Roch Ave",
    "address_councildis": "C",
    "status": "Pending",
    "rowid": "829439",
    "final_x": "3686628.8879",
    "final_y": "535101.31623",
    "longitude": "-90.05174869550882",
    "latitude": "29.965186344115143",
    "geocoded_column": {
      "latitude": "29.965186344115143",
      "longitude": "-90.05174869550882"
    }
  },
  {
    "service_request": "2021-829438",
    "request_type": "Trash/Recycling",
    "request_reason": "Replace Trash Cart",
    "date_created": "2021-10-04T16:54:45.000",
    "date_modified": "2021-10-04T16:54:46.000",
    "request_status": "Pending",
    "responsible_agency": "Department of Sanitation",
    "final_address": "711 St Roch Ave",
    "address_councildis": "C",
    "status": "Assigned to Contractor",
    "contractor": "Metro Disposal",
    "rowid": "829438",
    "final_x": "3686628.8879",
    "final_y": "535101.31623",
    "longitude": "-90.05174869550882",
    "latitude": "29.965186344115143",
    "geocoded_column": {
      "latitude": "29.965186344115143",
      "longitude": "-90.05174869550882"
    }
  },
  {
    "service_request": "2021-829437",
    "request_type": "Roads/Drainage",
    "request_reason": "Culvert Issue",
    "date_created": "2021-10-04T16:53:31.000",
    "date_modified": "2021-10-04T16:53:31.000",
    "request_status": "Pending",
    "responsible_agency": "Department of Public Works",
    "final_address": "6519 Vicksburg St",
    "address_councildis": "A",
    "status": "Pending",
    "rowid": "829437",
    "final_x": "3669282.41306",
    "final_y": "550816.252373",
    "longitude": "-90.1059965314125",
    "latitude": "30.008919121570052",
    "geocoded_column": {
      "latitude": "30.008919121570052",
      "longitude": "-90.1059965314125"
    }
  },
  {
    "service_request": "2021-829436",
    "request_type": "Trash/Recycling",
    "request_reason": "Replace Trash Cart",
    "date_created": "2021-10-04T16:49:44.000",
    "date_modified": "2021-10-04T16:49:45.000",
    "request_status": "Pending",
    "responsible_agency": "Department of Sanitation",
    "final_address": "2013 Frenchmen St",
    "address_councildis": "D",
    "status": "Assigned to Contractor",
    "contractor": "Metro Disposal",
    "rowid": "829436",
    "final_x": "3684355.95919",
    "final_y": "539728.142346",
    "longitude": "-90.05876394395227",
    "latitude": "29.97797821276141",
    "geocoded_column": {
      "latitude": "29.97797821276141",
      "longitude": "-90.05876394395227"
    }
  },
  {
    "service_request": "2021-829435",
    "request_type": "Property Maintenance",
    "request_reason": "Property Maintenance",
    "date_created": "2021-10-04T16:47:14.000",
    "date_modified": "2021-10-04T16:47:14.000",
    "request_status": "Pending",
    "responsible_agency": "Department of Code Enforcement",
    "final_address": "2400 Winthrop St",
    "address_councildis": "E",
    "status": "Pending",
    "rowid": "829435",
    "final_x": "3700493.41482",
    "final_y": "538346.230985",
    "longitude": "-90.00784701136358",
    "latitude": "29.97367501640807",
    "geocoded_column": {
      "latitude": "29.97367501640807",
      "longitude": "-90.00784701136358"
    }
  },
  {
    "service_request": "2021-829434",
    "request_type": "Property Maintenance",
    "request_reason": "Property Maintenance",
    "date_created": "2021-10-04T16:47:08.000",
    "date_modified": "2021-10-04T16:47:08.000",
    "request_status": "Pending",
    "responsible_agency": "Department of Code Enforcement",
    "final_address": "2100 Mirabeau Ave",
    "address_councildis": "D",
    "status": "Pending",
    "rowid": "829434",
    "final_x": "3683132.25295",
    "final_y": "550564.339092",
    "longitude": "-90.06224918013726",
    "latitude": "30.007811273564865",
    "geocoded_column": {
      "latitude": "30.007811273564865",
      "longitude": "-90.06224918013726"
    }
  },
  {
    "service_request": "2021-829433",
    "request_type": "Trash/Recycling",
    "request_reason": "Missed Trash Pick-Up",
    "date_created": "2021-10-04T16:46:36.000",
    "date_modified": "2021-10-04T17:05:16.000",
    "case_close_date": "2021-10-04T12:05:16.000",
    "request_status": "Closed",
    "responsible_agency": "Department of Sanitation",
    "final_address": "2513 Bayou Rd",
    "address_councildis": "D",
    "status": "Invalid Case",
    "contractor": "Metro Disposal",
    "rowid": "829433",
    "final_x": "3678840.26427",
    "final_y": "539049.067082",
    "longitude": "-90.07620797953497",
    "latitude": "29.97627853838834",
    "geocoded_column": {
      "latitude": "29.97627853838834",
      "longitude": "-90.07620797953497"
    }
  },
  {
    "service_request": "2021-829432",
    "request_type": "Property Maintenance",
    "request_reason": "Property Maintenance",
    "date_created": "2021-10-04T16:45:25.000",
    "date_modified": "2021-10-04T16:45:25.000",
    "request_status": "Pending",
    "responsible_agency": "Department of Code Enforcement",
    "final_address": "2100 Mirabeau Ave",
    "address_councildis": "D",
    "status": "Pending",
    "rowid": "829432",
    "final_x": "3683132.25295",
    "final_y": "550564.339092",
    "longitude": "-90.06224918013726",
    "latitude": "30.007811273564865",
    "geocoded_column": {
      "latitude": "30.007811273564865",
      "longitude": "-90.06224918013726"
    }
  },
  {
    "service_request": "2021-829430",
    "request_type": "Trash/Recycling",
    "request_reason": "Order Trash Cart",
    "date_created": "2021-10-04T16:42:41.000",
    "date_modified": "2021-10-04T16:42:42.000",
    "request_status": "Pending",
    "responsible_agency": "Department of Sanitation",
    "final_address": "1221 Lamanche St",
    "address_councildis": "E",
    "status": "Assigned to Contractor",
    "contractor": "Metro Disposal",
    "rowid": "829430",
    "final_x": "3698603.01879",
    "final_y": "534257.784069",
    "longitude": "-90.01396592904581",
    "latitude": "29.96249324675746",
    "geocoded_column": {
      "latitude": "29.96249324675746",
      "longitude": "-90.01396592904581"
    }
  },
  {
    "service_request": "2021-829429",
    "request_type": "Roads/Drainage",
    "request_reason": "Pothole",
    "date_created": "2021-10-04T16:41:57.000",
    "date_modified": "2021-10-04T16:41:57.000",
    "request_status": "Pending",
    "responsible_agency": "Department of Public Works",
    "final_address": "517 S Solomon St",
    "address_councildis": "A",
    "status": "Pending",
    "rowid": "829429",
    "final_x": "3669499.22734",
    "final_y": "537341.169032",
    "longitude": "-90.10576762823064",
    "latitude": "29.971860878471258",
    "geocoded_column": {
      "latitude": "29.971860878471258",
      "longitude": "-90.10576762823064"
    }
  },
  {
    "service_request": "2021-829428",
    "request_type": "Property Maintenance",
    "request_reason": "Property Maintenance",
    "date_created": "2021-10-04T16:40:53.000",
    "date_modified": "2021-10-04T16:40:53.000",
    "request_status": "Pending",
    "responsible_agency": "Department of Code Enforcement",
    "final_address": "2427 Winthrop St",
    "address_councildis": "E",
    "status": "Pending",
    "rowid": "829428",
    "final_x": "3700660.46871",
    "final_y": "538490.186185",
    "longitude": "-90.0073141614358",
    "latitude": "29.974065526386518",
    "geocoded_column": {
      "latitude": "29.974065526386518",
      "longitude": "-90.0073141614358"
    }
  },
  {
    "service_request": "2021-829427",
    "request_type": "COVID-19",
    "request_reason": "COVID-19 Business Non-Compliance",
    "date_created": "2021-10-04T16:40:51.000",
    "date_modified": "2021-10-04T16:40:52.000",
    "request_status": "Pending",
    "responsible_agency": "Safety and Permits",
    "final_address": "1308 S Norman C Francis Prkwy",
    "address_councildis": "B",
    "status": "Pending",
    "rowid": "829427",
    "final_x": "3669913.78234",
    "final_y": "531823.220355",
    "longitude": "-90.10464526007019",
    "latitude": "29.95667613830621",
    "geocoded_column": {
      "latitude": "29.95667613830621",
      "longitude": "-90.10464526007019"
    }
  },
  {
    "service_request": "2021-829426",
    "request_type": "Property Maintenance",
    "request_reason": "Property Maintenance",
    "date_created": "2021-10-04T16:40:36.000",
    "date_modified": "2021-10-04T16:40:36.000",
    "request_status": "Pending",
    "responsible_agency": "Department of Code Enforcement",
    "final_address": "5817 Clara St",
    "address_councildis": "A",
    "status": "Pending",
    "rowid": "829426",
    "final_x": "3667045.24385",
    "final_y": "525276.136957",
    "longitude": "-90.11392322149422",
    "latitude": "29.938758048391602",
    "geocoded_column": {
      "latitude": "29.938758048391602",
      "longitude": "-90.11392322149422"
    }
  },
  {
    "service_request": "2021-829425",
    "request_type": "Property Maintenance",
    "request_reason": "Property Maintenance",
    "date_created": "2021-10-04T16:40:14.000",
    "date_modified": "2021-10-04T16:40:14.000",
    "request_status": "Pending",
    "responsible_agency": "Department of Code Enforcement",
    "final_address": "2423 Winthrop St",
    "address_councildis": "E",
    "status": "Pending",
    "rowid": "829425",
    "final_x": "3700643.37188",
    "final_y": "538448.713161",
    "longitude": "-90.00736967246438",
    "latitude": "29.973952034627533",
    "geocoded_column": {
      "latitude": "29.973952034627533",
      "longitude": "-90.00736967246438"
    }
  },
  {
    "service_request": "2021-829424",
    "request_type": "Property Maintenance",
    "request_reason": "Property Maintenance",
    "date_created": "2021-10-04T16:39:38.000",
    "date_modified": "2021-10-04T16:39:38.000",
    "request_status": "Pending",
    "responsible_agency": "Department of Code Enforcement",
    "final_address": "2419 Winthrop St",
    "address_councildis": "E",
    "status": "Pending",
    "rowid": "829424",
    "final_x": "3700631.25137",
    "final_y": "538421.562057",
    "longitude": "-90.00740894375164",
    "latitude": "29.973877764594103",
    "geocoded_column": {
      "latitude": "29.973877764594103",
      "longitude": "-90.00740894375164"
    }
  },
  {
    "service_request": "2021-829423",
    "request_type": "Trash/Recycling",
    "request_reason": "Missed Trash Pick-Up",
    "date_created": "2021-10-04T16:39:33.000",
    "date_modified": "2021-10-04T16:39:34.000",
    "request_status": "Pending",
    "responsible_agency": "Department of Sanitation",
    "final_address": "1808 Moss St",
    "address_councildis": "A",
    "status": "Assigned to Contractor",
    "contractor": "Metro Disposal",
    "rowid": "829423",
    "final_x": "3675363.60782",
    "final_y": "543021.905293",
    "longitude": "-90.08705183514938",
    "latitude": "29.98730689770418",
    "geocoded_column": {
      "latitude": "29.98730689770418",
      "longitude": "-90.08705183514938"
    }
  },
  {
    "service_request": "2021-829421",
    "request_type": "Property Maintenance",
    "request_reason": "Property Maintenance",
    "date_created": "2021-10-04T16:38:57.000",
    "date_modified": "2021-10-04T16:38:57.000",
    "request_status": "Pending",
    "responsible_agency": "Department of Code Enforcement",
    "final_address": "2415 Winthrop St",
    "address_councildis": "E",
    "status": "Pending",
    "rowid": "829421",
    "final_x": "3700620.90641",
    "final_y": "538393.360585",
    "longitude": "-90.00744264582694",
    "latitude": "29.973800549924285",
    "geocoded_column": {
      "latitude": "29.973800549924285",
      "longitude": "-90.00744264582694"
    }
  },
  {
    "service_request": "2021-829420",
    "request_type": "Property Maintenance",
    "request_reason": "Property Maintenance",
    "date_created": "2021-10-04T16:38:19.000",
    "date_modified": "2021-10-04T16:38:19.000",
    "request_status": "Pending",
    "responsible_agency": "Department of Code Enforcement",
    "final_address": "2409 Winthrop St",
    "address_councildis": "E",
    "status": "Pending",
    "rowid": "829420",
    "final_x": "3700610.6874",
    "final_y": "538367.971209",
    "longitude": "-90.00747584731066",
    "latitude": "29.973731063482077",
    "geocoded_column": {
      "latitude": "29.973731063482077",
      "longitude": "-90.00747584731066"
    }
  },
  {
    "service_request": "2021-829419",
    "request_type": "Trash/Recycling",
    "request_reason": "Repair Trash Cart",
    "date_created": "2021-10-04T16:38:16.000",
    "date_modified": "2021-10-04T16:38:17.000",
    "request_status": "Pending",
    "responsible_agency": "Department of Sanitation",
    "final_address": "2709 Robert St",
    "address_councildis": "B",
    "status": "Assigned to Contractor",
    "contractor": "Richards Disposal",
    "rowid": "829419",
    "final_x": "3668949.0578",
    "final_y": "525390.411709",
    "longitude": "-90.10790879391735",
    "latitude": "29.93901642007812",
    "geocoded_column": {
      "latitude": "29.93901642007812",
      "longitude": "-90.10790879391735"
    }
  },
  {
    "service_request": "2021-829418",
    "request_type": "Property Maintenance",
    "request_reason": "Property Maintenance",
    "date_created": "2021-10-04T16:37:27.000",
    "date_modified": "2021-10-04T16:37:27.000",
    "request_status": "Pending",
    "responsible_agency": "Department of Code Enforcement",
    "final_address": "2422 Winthrop St",
    "address_councildis": "E",
    "status": "Pending",
    "rowid": "829418",
    "final_x": "3700553.38161",
    "final_y": "538487.104329",
    "longitude": "-90.0076524772328",
    "latitude": "29.974060459499256",
    "geocoded_column": {
      "latitude": "29.974060459499256",
      "longitude": "-90.0076524772328"
    }
  },
  {
    "service_request": "2021-829417",
    "request_type": "Property Maintenance",
    "request_reason": "Property Maintenance",
    "date_created": "2021-10-04T16:36:58.000",
    "date_modified": "2021-10-04T16:36:58.000",
    "request_status": "Pending",
    "responsible_agency": "Department of Code Enforcement",
    "final_address": "2412 Winthrop St",
    "address_councildis": "E",
    "status": "Pending",
    "rowid": "829417",
    "final_x": "3700553.53117",
    "final_y": "538420.249033",
    "longitude": "-90.00765444771693",
    "latitude": "29.973876626921374",
    "geocoded_column": {
      "latitude": "29.973876626921374",
      "longitude": "-90.00765444771693"
    }
  },
  {
    "service_request": "2021-829415",
    "request_type": "Property Maintenance",
    "request_reason": "Property Maintenance",
    "date_created": "2021-10-04T16:36:32.000",
    "date_modified": "2021-10-04T16:36:32.000",
    "request_status": "Pending",
    "responsible_agency": "Department of Code Enforcement",
    "final_address": "2225 St Philip St",
    "address_councildis": "D",
    "status": "Pending",
    "rowid": "829415",
    "final_x": "3678899.54427",
    "final_y": "536749.298631",
    "longitude": "-90.07610045020826",
    "latitude": "29.96995317736456",
    "geocoded_column": {
      "latitude": "29.96995317736456",
      "longitude": "-90.07610045020826"
    }
  },
  {
    "service_request": "2021-829416",
    "request_type": "Property Maintenance",
    "request_reason": "Property Maintenance",
    "date_created": "2021-10-04T16:36:32.000",
    "date_modified": "2021-10-04T16:36:32.000",
    "request_status": "Pending",
    "responsible_agency": "Department of Code Enforcement",
    "final_address": "2410 Winthrop St",
    "address_councildis": "E",
    "status": "Pending",
    "rowid": "829416",
    "final_x": "3700540.00887",
    "final_y": "538393.543241",
    "longitude": "-90.00769812962265",
    "latitude": "29.973803625841136",
    "geocoded_column": {
      "latitude": "29.973803625841136",
      "longitude": "-90.00769812962265"
    }
  },
  {
    "service_request": "2021-829414",
    "request_type": "Property Maintenance",
    "request_reason": "Property Maintenance",
    "date_created": "2021-10-04T16:36:00.000",
    "date_modified": "2021-10-04T16:36:00.000",
    "request_status": "Pending",
    "responsible_agency": "Department of Code Enforcement",
    "final_address": "2404 Winthrop St",
    "address_councildis": "E",
    "status": "Pending",
    "rowid": "829414",
    "final_x": "3700529.59217",
    "final_y": "538372.015497",
    "longitude": "-90.00773181418178",
    "latitude": "29.973744763711153",
    "geocoded_column": {
      "latitude": "29.973744763711153",
      "longitude": "-90.00773181418178"
    }
  },
  {
    "service_request": "2021-829413",
    "request_type": "Trash/Recycling",
    "request_reason": "Start Trash Service",
    "date_created": "2021-10-04T16:35:32.000",
    "date_modified": "2021-10-04T16:35:33.000",
    "request_status": "Pending",
    "responsible_agency": "Department of Sanitation",
    "final_address": "1917 Burdette St, New Orleans, Louisiana, 70118",
    "address_councildis": "A",
    "status": "Assigned to Contractor",
    "contractor": "Richards Disposal",
    "rowid": "829413",
    "final_x": "3664583.54368",
    "final_y": "529521.966721",
    "longitude": "-90.12155335469774",
    "latitude": "29.950504521921964",
    "geocoded_column": {
      "latitude": "29.950504521921964",
      "longitude": "-90.12155335469774"
    }
  },
  {
    "service_request": "2021-829412",
    "request_type": "Trash/Recycling",
    "request_reason": "Order Trash Cart",
    "date_created": "2021-10-04T16:34:44.000",
    "date_modified": "2021-10-04T16:34:45.000",
    "request_status": "Pending",
    "responsible_agency": "Department of Sanitation",
    "final_address": "2623 N Villere St",
    "address_councildis": "C",
    "status": "Assigned to Contractor",
    "contractor": "Metro Disposal",
    "rowid": "829412",
    "final_x": "3687610.69577",
    "final_y": "537554.58228",
    "longitude": "-90.04856134049766",
    "latitude": "29.971901737774164",
    "geocoded_column": {
      "latitude": "29.971901737774164",
      "longitude": "-90.04856134049766"
    }
  },
  {
    "service_request": "2021-829411",
    "request_type": "Trash/Recycling",
    "request_reason": "MIssed Recycling Pick-Up",
    "date_created": "2021-10-04T16:31:00.000",
    "date_modified": "2021-10-04T16:31:01.000",
    "request_status": "Pending",
    "responsible_agency": "Department of Sanitation",
    "final_address": "52 Yellowstone Dr",
    "address_councildis": "C",
    "status": "Assigned to Contractor",
    "contractor": "Richards Disposal",
    "rowid": "829411",
    "final_x": "3700288.09335",
    "final_y": "517015.456309",
    "longitude": "-90.00927390658961",
    "latitude": "29.915029403820903",
    "geocoded_column": {
      "latitude": "29.915029403820903",
      "longitude": "-90.00927390658961"
    }
  },
  {
    "service_request": "2021-829410",
    "request_type": "Trash/Recycling",
    "request_reason": "Missed Trash Pick-Up",
    "date_created": "2021-10-04T16:30:44.000",
    "date_modified": "2021-10-04T16:30:44.000",
    "request_status": "Pending",
    "responsible_agency": "Department of Sanitation",
    "final_address": "1739 First St",
    "address_councildis": "B",
    "status": "Assigned to Contractor",
    "contractor": "Richards Disposal",
    "rowid": "829410",
    "final_x": "3676627.73275",
    "final_y": "523844.196667",
    "longitude": "-90.08371952439937",
    "latitude": "29.93453679944904",
    "geocoded_column": {
      "latitude": "29.93453679944904",
      "longitude": "-90.08371952439937"
    }
  },
  {
    "service_request": "2021-829409",
    "request_type": "Abandoned Vehicles",
    "request_reason": "Abandoned/Junk Vehicles",
    "date_created": "2021-10-04T16:28:52.000",
    "date_modified": "2021-10-04T16:28:52.000",
    "request_status": "Pending",
    "responsible_agency": "Department of Public Works",
    "final_address": "3405 Coliseum St",
    "address_councildis": "B",
    "status": "Pending",
    "rowid": "829409",
    "final_x": "3674488.45704",
    "final_y": "520571.029496",
    "longitude": "-90.09058525042185",
    "latitude": "29.925600626643256",
    "geocoded_column": {
      "latitude": "29.925600626643256",
      "longitude": "-90.09058525042185"
    }
  },
  {
    "service_request": "2021-829408",
    "request_type": "Trash/Recycling",
    "request_reason": "Request a Large Item Pick Up",
    "date_created": "2021-10-04T16:27:51.000",
    "date_modified": "2021-10-04T16:27:52.000",
    "request_status": "Pending",
    "responsible_agency": "Department of Sanitation",
    "final_address": "2124 Seventh St",
    "address_councildis": "B",
    "status": "Assigned to Contractor",
    "contractor": "Richards Disposal",
    "rowid": "829408",
    "final_x": "3674107.4235",
    "final_y": "523751.260987",
    "longitude": "-90.09167927391977",
    "latitude": "29.934356592358267",
    "geocoded_column": {
      "latitude": "29.934356592358267",
      "longitude": "-90.09167927391977"
    }
  },
  {
    "service_request": "2021-829406",
    "request_type": "Abandoned Vehicles",
    "request_reason": "Abandoned/Junk Vehicles",
    "date_created": "2021-10-04T16:27:19.000",
    "date_modified": "2021-10-04T16:27:19.000",
    "request_status": "Pending",
    "responsible_agency": "Department of Public Works",
    "final_address": "1905 Gallier St",
    "address_councildis": "D",
    "status": "Pending",
    "rowid": "829406",
    "final_x": "3691270.5574",
    "final_y": "538698.419721",
    "longitude": "-90.03696208823871",
    "latitude": "29.974933542682226",
    "geocoded_column": {
      "latitude": "29.974933542682226",
      "longitude": "-90.03696208823871"
    }
  },
  {
    "service_request": "2021-829404",
    "request_type": "Abandoned Vehicles",
    "request_reason": "Abandoned/Junk Vehicles",
    "date_created": "2021-10-04T16:22:54.000",
    "date_modified": "2021-10-04T16:22:54.000",
    "request_status": "Pending",
    "responsible_agency": "Department of Public Works",
    "final_address": "4219 N Robertson St",
    "address_councildis": "D",
    "status": "Pending",
    "rowid": "829404",
    "final_x": "3692958.89705",
    "final_y": "536712.602759",
    "longitude": "-90.03170114781112",
    "latitude": "29.969420621424995",
    "geocoded_column": {
      "latitude": "29.969420621424995",
      "longitude": "-90.03170114781112"
    }
  },
  {
    "service_request": "2021-829401",
    "request_type": "Traffic Signals/Signs/Striping/Streetlights",
    "request_reason": "Traffic Sign Missing/Damaged",
    "date_created": "2021-10-04T16:20:14.000",
    "date_modified": "2021-10-04T16:20:14.000",
    "request_status": "Pending",
    "responsible_agency": "Department of Public Works",
    "final_address": "1020 Music St",
    "address_councildis": "C",
    "status": "Pending",
    "rowid": "829401",
    "final_x": "3686824.17468",
    "final_y": "536280.714375",
    "longitude": "-90.05109031332998",
    "latitude": "29.968423271342054",
    "geocoded_column": {
      "latitude": "29.968423271342054",
      "longitude": "-90.05109031332998"
    }
  },
  {
    "service_request": "2021-829400",
    "request_type": "Trash/Recycling",
    "request_reason": "Request a Large Item Pick Up",
    "date_created": "2021-10-04T16:18:23.000",
    "date_modified": "2021-10-04T16:18:24.000",
    "request_status": "Pending",
    "responsible_agency": "Department of Sanitation",
    "final_address": "1020 Music St",
    "address_councildis": "C",
    "status": "Assigned to Contractor",
    "contractor": "Metro Disposal",
    "rowid": "829400",
    "final_x": "3686824.17468",
    "final_y": "536280.714375",
    "longitude": "-90.05109031332998",
    "latitude": "29.968423271342054",
    "geocoded_column": {
      "latitude": "29.968423271342054",
      "longitude": "-90.05109031332998"
    }
  },
  {
    "service_request": "2021-829396",
    "request_type": "Roads/Drainage",
    "request_reason": "Catch Basin - Clogged",
    "date_created": "2021-10-04T16:11:46.000",
    "date_modified": "2021-10-04T16:11:46.000",
    "request_status": "Pending",
    "responsible_agency": "Department of Public Works",
    "final_address": "1 Snipe St",
    "address_councildis": "D",
    "status": "Pending",
    "rowid": "829396",
    "final_x": "3671986.64155",
    "final_y": "556476.96905",
    "longitude": "-90.09726003531594",
    "latitude": "30.02440415364398",
    "geocoded_column": {
      "latitude": "30.02440415364398",
      "longitude": "-90.09726003531594"
    }
  },
  {
    "service_request": "2021-829395",
    "request_type": "Trash/Recycling",
    "request_reason": "Order Recycling Cart",
    "date_created": "2021-10-04T16:10:08.000",
    "date_modified": "2021-10-04T16:10:08.000",
    "request_status": "Pending",
    "responsible_agency": "Department of Sanitation",
    "final_address": "1415 Audubon St",
    "address_councildis": "A",
    "status": "Pending",
    "rowid": "829395",
    "final_x": "3664922.01748",
    "final_y": "527000.199294",
    "longitude": "-90.12056890023997",
    "latitude": "29.94356062739431",
    "geocoded_column": {
      "latitude": "29.94356062739431",
      "longitude": "-90.12056890023997"
    }
  },
  {
    "service_request": "2021-829394",
    "request_type": "Trash/Recycling",
    "request_reason": "Order Trash Cart",
    "date_created": "2021-10-04T16:09:39.000",
    "date_modified": "2021-10-04T16:09:40.000",
    "request_status": "Pending",
    "responsible_agency": "Department of Sanitation",
    "final_address": "1415 Audubon St",
    "address_councildis": "A",
    "status": "Assigned to Contractor",
    "contractor": "Richards Disposal",
    "rowid": "829394",
    "final_x": "3664922.01748",
    "final_y": "527000.199294",
    "longitude": "-90.12056890023997",
    "latitude": "29.94356062739431",
    "geocoded_column": {
      "latitude": "29.94356062739431",
      "longitude": "-90.12056890023997"
    }
  },
  {
    "service_request": "2021-829392",
    "request_type": "Trash/Recycling",
    "request_reason": "Illegal Dumping",
    "date_created": "2021-10-04T16:08:14.000",
    "date_modified": "2021-10-04T16:08:14.000",
    "request_status": "Pending",
    "responsible_agency": "Department of Code Enforcement",
    "final_address": "CHEF MENTEUR HWY & DOWNMAN RD & CHEF MENTEUR BRIDGE",
    "address_councildis": "D",
    "status": "Pending",
    "rowid": "829392",
    "final_x": "3696211.9",
    "final_y": "551507.88",
    "longitude": "-90.02089277553281",
    "latitude": "30.010000220946775",
    "geocoded_column": {
      "latitude": "30.010000220946775",
      "longitude": "-90.02089277553281"
    }
  },
  {
    "service_request": "2021-829391",
    "request_type": "Abandoned Vehicles",
    "request_reason": "Abandoned/Junk Vehicles",
    "date_created": "2021-10-04T16:07:59.000",
    "date_modified": "2021-10-04T16:07:59.000",
    "request_status": "Pending",
    "responsible_agency": "Department of Public Works",
    "final_address": "855 Adele St",
    "address_councildis": "B",
    "status": "Pending",
    "rowid": "829391",
    "final_x": "3679865.87407",
    "final_y": "521863.599546",
    "longitude": "-90.0735655329343",
    "latitude": "29.92899330948948",
    "geocoded_column": {
      "latitude": "29.92899330948948",
      "longitude": "-90.0735655329343"
    }
  },
  {
    "service_request": "2021-829390",
    "request_type": "Traffic Signals/Signs/Striping/Streetlights",
    "request_reason": "Traffic Signal Malfunctioning/Damaged",
    "date_created": "2021-10-04T16:06:20.000",
    "date_modified": "2021-10-04T16:06:20.000",
    "request_status": "Pending",
    "responsible_agency": "Department of Public Works",
    "final_address": "CHEF MENTEUR HWY & HICKERSON DR",
    "address_councildis": "E",
    "status": "Pending",
    "rowid": "829390",
    "final_x": "3710546.4",
    "final_y": "554121.28",
    "longitude": "-89.97550745604218",
    "latitude": "30.016726815107564",
    "geocoded_column": {
      "latitude": "30.016726815107564",
      "longitude": "-89.97550745604218"
    }
  },
  {
    "service_request": "2021-829389",
    "request_type": "Property Maintenance",
    "request_reason": "Property Maintenance",
    "date_created": "2021-10-04T16:05:36.000",
    "date_modified": "2021-10-04T16:05:36.000",
    "request_status": "Pending",
    "responsible_agency": "Department of Code Enforcement",
    "final_address": "MOSS ST & PEDESTRIAN BRIDGE & HARDING DR",
    "address_councildis": "A",
    "status": "Pending",
    "rowid": "829389",
    "final_x": "3674758.1",
    "final_y": "540593.38",
    "longitude": "-90.0890477220495",
    "latitude": "29.980647385265797",
    "geocoded_column": {
      "latitude": "29.980647385265797",
      "longitude": "-90.0890477220495"
    }
  },
  {
    "service_request": "2021-829388",
    "request_type": "Property Maintenance",
    "request_reason": "Property Maintenance",
    "date_created": "2021-10-04T16:04:37.000",
    "date_modified": "2021-10-04T16:04:37.000",
    "request_status": "Pending",
    "responsible_agency": "Department of Code Enforcement",
    "final_address": "3107 N Derbigny St",
    "address_councildis": "D",
    "status": "Pending",
    "rowid": "829388",
    "final_x": "3689694.17667",
    "final_y": "538253.073737",
    "longitude": "-90.04195653624585",
    "latitude": "29.973757943724593",
    "geocoded_column": {
      "latitude": "29.973757943724593",
      "longitude": "-90.04195653624585"
    }
  },
  {
    "service_request": "2021-829387",
    "request_type": "Property Maintenance",
    "request_reason": "Property Maintenance",
    "date_created": "2021-10-04T16:04:32.000",
    "date_modified": "2021-10-04T16:04:32.000",
    "request_status": "Pending",
    "responsible_agency": "Department of Code Enforcement",
    "final_address": "6011 Dorothea St",
    "address_councildis": "D",
    "status": "Pending",
    "rowid": "829387",
    "final_x": "3695470.08746",
    "final_y": "557262.356251",
    "longitude": "-90.02302852124998",
    "latitude": "30.025846205621793",
    "geocoded_column": {
      "latitude": "30.025846205621793",
      "longitude": "-90.02302852124998"
    }
  },
  {
    "service_request": "2021-829386",
    "request_type": "Trash/Recycling",
    "request_reason": "Order Trash Cart",
    "date_created": "2021-10-04T16:04:13.000",
    "date_modified": "2021-10-04T16:04:14.000",
    "request_status": "Pending",
    "responsible_agency": "Department of Sanitation",
    "final_address": "1127 Treme St",
    "address_councildis": "C",
    "status": "Assigned to Contractor",
    "contractor": "Richards Disposal",
    "rowid": "829386",
    "final_x": "3681800.36764",
    "final_y": "535162.06151",
    "longitude": "-90.06699477241797",
    "latitude": "29.965500985754655",
    "geocoded_column": {
      "latitude": "29.965500985754655",
      "longitude": "-90.06699477241797"
    }
  },
  {
    "service_request": "2021-829384",
    "request_type": "Roads/Drainage",
    "request_reason": "Debris in Roadway",
    "date_created": "2021-10-04T16:03:41.000",
    "date_modified": "2021-10-04T16:03:41.000",
    "request_status": "Pending",
    "responsible_agency": "Department of Public Works",
    "final_address": "3018 Maurepas St",
    "address_councildis": "A",
    "status": "Pending",
    "rowid": "829384",
    "final_x": "3676997.1421",
    "final_y": "540691.142667",
    "longitude": "-90.08197247418765",
    "latitude": "29.980849153502696",
    "geocoded_column": {
      "latitude": "29.980849153502696",
      "longitude": "-90.08197247418765"
    }
  },
  {
    "service_request": "2021-829381",
    "request_type": "Roads/Drainage",
    "request_reason": "Unpermitted work in ROW",
    "date_created": "2021-10-04T16:01:30.000",
    "date_modified": "2021-10-04T16:01:30.000",
    "request_status": "Pending",
    "responsible_agency": "Department of Public Works",
    "final_address": "3018 Maurepas St",
    "address_councildis": "A",
    "status": "Pending",
    "rowid": "829381",
    "final_x": "3676997.1421",
    "final_y": "540691.142667",
    "longitude": "-90.08197247418765",
    "latitude": "29.980849153502696",
    "geocoded_column": {
      "latitude": "29.980849153502696",
      "longitude": "-90.08197247418765"
    }
  },
  {
    "service_request": "2021-829378",
    "request_type": "Traffic Signals/Signs/Striping/Streetlights",
    "request_reason": "Street Light Outage/Malfunction",
    "date_created": "2021-10-04T15:57:43.000",
    "date_modified": "2021-10-04T15:57:44.000",
    "request_status": "Pending",
    "responsible_agency": "Department of Public Works",
    "final_address": "MOSS ST & PEDESTRIAN BRIDGE & HARDING DR",
    "address_councildis": "A",
    "status": "Pending",
    "contractor": "Royal Engineering",
    "rowid": "829378",
    "final_x": "3674758.1",
    "final_y": "540593.38",
    "longitude": "-90.0890477220495",
    "latitude": "29.980647385265797",
    "geocoded_column": {
      "latitude": "29.980647385265797",
      "longitude": "-90.0890477220495"
    }
  },
  {
    "service_request": "2021-829375",
    "request_type": "COVID-19",
    "request_reason": "COVID-19 Business Non-Compliance",
    "date_created": "2021-10-04T15:57:13.000",
    "date_modified": "2021-10-04T15:57:14.000",
    "request_status": "Pending",
    "responsible_agency": "Safety and Permits",
    "final_address": "500 Canal St",
    "address_councildis": "B",
    "status": "Pending",
    "rowid": "829375",
    "final_x": "3681620.18831",
    "final_y": "530215.835265",
    "longitude": "-90.06773629521233",
    "latitude": "29.95190602147896",
    "geocoded_column": {
      "latitude": "29.95190602147896",
      "longitude": "-90.06773629521233"
    }
  },
  {
    "service_request": "2021-829373",
    "request_type": "Traffic Signals/Signs/Striping/Streetlights",
    "request_reason": "Street Light Outage/Malfunction",
    "date_created": "2021-10-04T15:54:16.000",
    "date_modified": "2021-10-04T15:54:16.000",
    "request_status": "Pending",
    "responsible_agency": "Department of Public Works",
    "final_address": "POLK ST & COLBERT ST",
    "address_councildis": "A",
    "status": "Pending",
    "contractor": "Royal Engineering",
    "rowid": "829373",
    "final_x": "3667417.2",
    "final_y": "547373.18",
    "longitude": "-90.11200532246365",
    "latitude": "29.999506670442134",
    "geocoded_column": {
      "latitude": "29.999506670442134",
      "longitude": "-90.11200532246365"
    }
  },
  {
    "service_request": "2021-829372",
    "request_type": "Traffic Signals/Signs/Striping/Streetlights",
    "request_reason": "Street Light Outage/Malfunction",
    "date_created": "2021-10-04T15:54:08.000",
    "date_modified": "2021-10-04T15:54:09.000",
    "request_status": "Pending",
    "responsible_agency": "Department of Public Works",
    "final_address": "401 N Roadway St",
    "address_councildis": "A",
    "status": "Pending",
    "contractor": "Royal Engineering",
    "rowid": "829372",
    "final_x": "3665209.3504",
    "final_y": "556742.641434",
    "longitude": "-90.11866625765286",
    "latitude": "30.0253339428865",
    "geocoded_column": {
      "latitude": "30.0253339428865",
      "longitude": "-90.11866625765286"
    }
  },
  {
    "service_request": "2021-829371",
    "request_type": "Traffic Signals/Signs/Striping/Streetlights",
    "request_reason": "Street Light Outage/Malfunction",
    "date_created": "2021-10-04T15:53:22.000",
    "date_modified": "2021-10-04T15:53:22.000",
    "request_status": "Pending",
    "responsible_agency": "Department of Public Works",
    "final_address": "6028 Colbert St",
    "address_councildis": "A",
    "status": "Pending",
    "contractor": "Royal Engineering",
    "rowid": "829371",
    "final_x": "3667372.61978",
    "final_y": "547669.451922",
    "longitude": "-90.11213617848996",
    "latitude": "30.000322622400677",
    "geocoded_column": {
      "latitude": "30.000322622400677",
      "longitude": "-90.11213617848996"
    }
  },
  {
    "service_request": "2021-829365",
    "request_type": "Abandoned Vehicles",
    "request_reason": "Abandoned/Junk Vehicles",
    "date_created": "2021-10-04T15:50:49.000",
    "date_modified": "2021-10-04T15:50:49.000",
    "request_status": "Pending",
    "responsible_agency": "Department of Public Works",
    "final_address": "2740 St Louis St",
    "address_councildis": "B",
    "status": "Pending",
    "rowid": "829365",
    "final_x": "3675791.49045",
    "final_y": "536428.817863",
    "longitude": "-90.08592701529538",
    "latitude": "29.969165367005083",
    "geocoded_column": {
      "latitude": "29.969165367005083",
      "longitude": "-90.08592701529538"
    }
  },
  {
    "service_request": "2021-829364",
    "request_type": "Parks & Parkways",
    "request_reason": "Request Tree Service (Right of Way/Public Property)",
    "date_created": "2021-10-04T15:50:39.000",
    "date_modified": "2021-10-04T16:06:39.000",
    "case_close_date": "2021-10-04T11:06:39.000",
    "request_status": "Closed",
    "responsible_agency": "Department of Parks & Parkway",
    "final_address": "4666 Wright Rd",
    "address_councildis": "E",
    "status": "Duplicate Case",
    "rowid": "829364",
    "final_x": "3716611.17253",
    "final_y": "556591.805594",
    "longitude": "-89.95625174776956",
    "latitude": "30.023320777487026",
    "geocoded_column": {
      "latitude": "30.023320777487026",
      "longitude": "-89.95625174776956"
    }
  },
  {
    "service_request": "2021-829363",
    "request_type": "Abandoned Vehicles",
    "request_reason": "Abandoned/Junk Vehicles",
    "date_created": "2021-10-04T15:49:49.000",
    "date_modified": "2021-10-04T15:49:49.000",
    "request_status": "Pending",
    "responsible_agency": "Department of Public Works",
    "final_address": "2740 St Louis St",
    "address_councildis": "B",
    "status": "Pending",
    "rowid": "829363",
    "final_x": "3675791.49045",
    "final_y": "536428.817863",
    "longitude": "-90.08592701529538",
    "latitude": "29.969165367005083",
    "geocoded_column": {
      "latitude": "29.969165367005083",
      "longitude": "-90.08592701529538"
    }
  },
  {
    "service_request": "2021-829362",
    "request_type": "COVID-19",
    "request_reason": "COVID-19 Business Non-Compliance",
    "date_created": "2021-10-04T15:49:06.000",
    "date_modified": "2021-10-04T15:49:19.000",
    "request_status": "Pending",
    "responsible_agency": "Safety and Permits",
    "final_address": "333 Julia St",
    "address_councildis": "B",
    "status": "Pending",
    "rowid": "829362",
    "final_x": "3681904.3716",
    "final_y": "527685.356095",
    "longitude": "-90.0669272873948",
    "latitude": "29.94493942202408",
    "geocoded_column": {
      "latitude": "29.94493942202408",
      "longitude": "-90.0669272873948"
    }
  },
  {
    "service_request": "2021-829359",
    "request_type": "Property Maintenance",
    "request_reason": "Property Maintenance",
    "date_created": "2021-10-04T15:45:34.000",
    "date_modified": "2021-10-04T15:45:46.000",
    "request_status": "Pending",
    "responsible_agency": "Department of Code Enforcement",
    "final_address": "4527 Francis Dr",
    "address_councildis": "D",
    "status": "Pending",
    "rowid": "829359",
    "final_x": "3698417.72266",
    "final_y": "553219.422615",
    "longitude": "-90.0138615495589",
    "latitude": "30.0146366633723",
    "geocoded_column": {
      "latitude": "30.0146366633723",
      "longitude": "-90.0138615495589"
    }
  },
  {
    "service_request": "2021-829358",
    "request_type": "Trash/Recycling",
    "request_reason": "Replace Trash Cart",
    "date_created": "2021-10-04T15:45:17.000",
    "date_modified": "2021-10-04T15:45:18.000",
    "request_status": "Pending",
    "responsible_agency": "Department of Sanitation",
    "final_address": "2924 Dumaine St",
    "address_councildis": "A",
    "status": "Assigned to Contractor",
    "contractor": "Richards Disposal",
    "rowid": "829358",
    "final_x": "3676230.98683",
    "final_y": "538176.925321",
    "longitude": "-90.08447888290924",
    "latitude": "29.973958903336403",
    "geocoded_column": {
      "latitude": "29.973958903336403",
      "longitude": "-90.08447888290924"
    }
  },
  {
    "service_request": "2021-829357",
    "request_type": "Property Maintenance",
    "request_reason": "Property Maintenance",
    "date_created": "2021-10-04T15:44:25.000",
    "date_modified": "2021-10-04T15:44:25.000",
    "request_status": "Pending",
    "responsible_agency": "Department of Code Enforcement",
    "final_address": "5700 W Louis Prima Dr",
    "address_councildis": "E",
    "status": "Pending",
    "rowid": "829357",
    "final_x": "3715893.42629",
    "final_y": "561568.341727",
    "longitude": "-89.9583309509173",
    "latitude": "30.037027959205663",
    "geocoded_column": {
      "latitude": "30.037027959205663",
      "longitude": "-89.9583309509173"
    }
  },
  {
    "service_request": "2021-829356",
    "request_type": "Trash/Recycling",
    "request_reason": "Replace Trash Cart",
    "date_created": "2021-10-04T15:44:04.000",
    "date_modified": "2021-10-04T15:44:05.000",
    "request_status": "Pending",
    "responsible_agency": "Department of Sanitation",
    "final_address": "5135 Cameron Blvd",
    "address_councildis": "D",
    "status": "Assigned to Contractor",
    "contractor": "Metro Disposal",
    "rowid": "829356",
    "final_x": "3682729.01148",
    "final_y": "551697.643605",
    "longitude": "-90.06348345857552",
    "latitude": "30.010939744179915",
    "geocoded_column": {
      "latitude": "30.010939744179915",
      "longitude": "-90.06348345857552"
    }
  },
  {
    "service_request": "2021-829355",
    "request_type": "Traffic Signals/Signs/Striping/Streetlights",
    "request_reason": "Traffic Signal Malfunctioning/Damaged",
    "date_created": "2021-10-04T15:41:57.000",
    "date_modified": "2021-10-04T15:41:57.000",
    "request_status": "Pending",
    "responsible_agency": "Department of Public Works",
    "final_address": "LAFAYE ST & GENTILLY BLVD",
    "address_councildis": "D",
    "status": "Pending",
    "rowid": "829355",
    "final_x": "3687572.54",
    "final_y": "548888.33",
    "longitude": "-90.04828041753437",
    "latitude": "30.003066674969364",
    "geocoded_column": {
      "latitude": "30.003066674969364",
      "longitude": "-90.04828041753437"
    }
  },
  {
    "service_request": "2021-829354",
    "request_type": "Abandoned Vehicles",
    "request_reason": "Abandoned/Junk Vehicles",
    "date_created": "2021-10-04T15:41:37.000",
    "date_modified": "2021-10-04T15:41:37.000",
    "request_status": "Pending",
    "responsible_agency": "Department of Public Works",
    "final_address": "614 N Lopez St",
    "address_councildis": "A",
    "status": "Pending",
    "rowid": "829354",
    "final_x": "3675101.02267",
    "final_y": "537789.155336",
    "longitude": "-90.08806087685974",
    "latitude": "29.972926483060228",
    "geocoded_column": {
      "latitude": "29.972926483060228",
      "longitude": "-90.08806087685974"
    }
  },
  {
    "service_request": "2021-829352",
    "request_type": "Property Maintenance",
    "request_reason": "Property Maintenance",
    "date_created": "2021-10-04T15:39:12.000",
    "date_modified": "2021-10-04T15:39:12.000",
    "request_status": "Pending",
    "responsible_agency": "Department of Code Enforcement",
    "final_address": "2125 Tennessee St",
    "address_councildis": "E",
    "status": "Pending",
    "rowid": "829352",
    "final_x": "3696839.82179",
    "final_y": "538277.430665",
    "longitude": "-90.01938827318396",
    "latitude": "29.97360154581356",
    "geocoded_column": {
      "latitude": "29.97360154581356",
      "longitude": "-90.01938827318396"
    }
  },
  {
    "service_request": "2021-829351",
    "request_type": "Property Maintenance",
    "request_reason": "Property Maintenance",
    "date_created": "2021-10-04T15:38:42.000",
    "date_modified": "2021-10-04T15:38:42.000",
    "request_status": "Pending",
    "responsible_agency": "Department of Code Enforcement",
    "final_address": "2113 Tennessee St",
    "address_councildis": "E",
    "status": "Pending",
    "rowid": "829351",
    "final_x": "3696816.17642",
    "final_y": "538194.968585",
    "longitude": "-90.0194659361129",
    "latitude": "29.973375550240927",
    "geocoded_column": {
      "latitude": "29.973375550240927",
      "longitude": "-90.0194659361129"
    }
  },
  {
    "service_request": "2021-829350",
    "request_type": "Property Maintenance",
    "request_reason": "Property Maintenance",
    "date_created": "2021-10-04T15:38:04.000",
    "date_modified": "2021-10-04T15:38:04.000",
    "request_status": "Pending",
    "responsible_agency": "Department of Code Enforcement",
    "final_address": "2107 Tennessee St",
    "address_councildis": "E",
    "status": "Pending",
    "rowid": "829350",
    "final_x": "3696818.44023",
    "final_y": "538156.236297",
    "longitude": "-90.0194601892007",
    "latitude": "29.973268978983256",
    "geocoded_column": {
      "latitude": "29.973268978983256",
      "longitude": "-90.0194601892007"
    }
  },
  {
    "service_request": "2021-829349",
    "request_type": "Property Maintenance",
    "request_reason": "Property Maintenance",
    "date_created": "2021-10-04T15:37:28.000",
    "date_modified": "2021-10-04T15:37:28.000",
    "request_status": "Pending",
    "responsible_agency": "Department of Code Enforcement",
    "final_address": "2101 Tennessee St",
    "address_councildis": "E",
    "status": "Pending",
    "rowid": "829349",
    "final_x": "3696775.69757",
    "final_y": "538116.021513",
    "longitude": "-90.01959663459701",
    "latitude": "29.973159750319482",
    "geocoded_column": {
      "latitude": "29.973159750319482",
      "longitude": "-90.01959663459701"
    }
  },
  {
    "service_request": "2021-829347",
    "request_type": "Roads/Drainage",
    "request_reason": "Debris in Roadway",
    "date_created": "2021-10-04T15:36:11.000",
    "date_modified": "2021-10-04T15:36:11.000",
    "request_status": "Pending",
    "responsible_agency": "Department of Public Works",
    "final_address": "4910 Maid Marion Dr",
    "address_councildis": "E",
    "status": "Pending",
    "rowid": "829347",
    "final_x": "3716825.07672",
    "final_y": "557657.768027",
    "longitude": "-89.95553536365651",
    "latitude": "30.02624467907982",
    "geocoded_column": {
      "latitude": "30.02624467907982",
      "longitude": "-89.95553536365651"
    }
  },
  {
    "service_request": "2021-829345",
    "request_type": "Trash/Recycling",
    "request_reason": "Replace Trash Cart",
    "date_created": "2021-10-04T15:35:45.000",
    "date_modified": "2021-10-04T15:35:45.000",
    "request_status": "Pending",
    "responsible_agency": "Department of Sanitation",
    "final_address": "7543 Tricia Ct",
    "address_councildis": "E",
    "status": "Assigned to Contractor",
    "contractor": "Metro Disposal",
    "rowid": "829345",
    "final_x": "3718034.33164",
    "final_y": "570809.062247",
    "longitude": "-89.95121305513993",
    "latitude": "30.06236532963387",
    "geocoded_column": {
      "latitude": "30.06236532963387",
      "longitude": "-89.95121305513993"
    }
  },
  {
    "service_request": "2021-829344",
    "request_type": "Property Maintenance",
    "request_reason": "Property Maintenance",
    "date_created": "2021-10-04T15:33:30.000",
    "date_modified": "2021-10-04T15:33:30.000",
    "request_status": "Pending",
    "responsible_agency": "Department of Code Enforcement",
    "final_address": "6328 Lafaye St",
    "address_councildis": "D",
    "status": "Pending",
    "rowid": "829344",
    "final_x": "3686896.51433",
    "final_y": "556636.526362",
    "longitude": "-90.05014195832587",
    "latitude": "30.024392197614034",
    "geocoded_column": {
      "latitude": "30.024392197614034",
      "longitude": "-90.05014195832587"
    }
  },
  {
    "service_request": "2021-829343",
    "request_type": "Traffic Signals/Signs/Striping/Streetlights",
    "request_reason": "Street Light Outage/Malfunction",
    "date_created": "2021-10-04T15:31:41.000",
    "date_modified": "2021-10-04T15:31:41.000",
    "request_status": "Pending",
    "responsible_agency": "Department of Public Works",
    "final_address": "1900 BLK Alabo St",
    "address_councildis": "E",
    "status": "Pending",
    "contractor": "Royal Engineering",
    "rowid": "829343",
    "final_x": "3699765.47543",
    "final_y": "536714.919468",
    "longitude": "-90.0102054775233",
    "latitude": "29.969212632343346",
    "geocoded_column": {
      "latitude": "29.969212632343346",
      "longitude": "-90.0102054775233"
    }
  },
  {
    "service_request": "2021-829341",
    "request_type": "Traffic Signals/Signs/Striping/Streetlights",
    "request_reason": "Street Light Outage/Malfunction",
    "date_created": "2021-10-04T15:30:20.000",
    "date_modified": "2021-10-04T15:30:28.000",
    "request_status": "Pending",
    "responsible_agency": "Department of Public Works",
    "final_address": "1900 BLK Alabo St",
    "address_councildis": "E",
    "status": "Pending",
    "contractor": "Royal Engineering",
    "rowid": "829341",
    "final_x": "3699765.47543",
    "final_y": "536714.919468",
    "longitude": "-90.0102054775233",
    "latitude": "29.969212632343346",
    "geocoded_column": {
      "latitude": "29.969212632343346",
      "longitude": "-90.0102054775233"
    }
  },
  {
    "service_request": "2021-829340",
    "request_type": "Trash/Recycling",
    "request_reason": "Damaged Caused By Contractor",
    "date_created": "2021-10-04T15:28:28.000",
    "date_modified": "2021-10-04T15:28:28.000",
    "request_status": "Pending",
    "responsible_agency": "Department of Sanitation",
    "final_address": "922 Broadway St",
    "address_councildis": "A",
    "status": "Assigned to Contractor",
    "contractor": "Richards Disposal",
    "rowid": "829340",
    "final_x": "3663638.4832",
    "final_y": "525802.754621",
    "longitude": "-90.12466125299918",
    "latitude": "29.940305328844858",
    "geocoded_column": {
      "latitude": "29.940305328844858",
      "longitude": "-90.12466125299918"
    }
  },
  {
    "service_request": "2021-829339",
    "request_type": "Traffic Signals/Signs/Striping/Streetlights",
    "request_reason": "Traffic Signal Malfunctioning/Damaged",
    "date_created": "2021-10-04T15:28:21.000",
    "date_modified": "2021-10-04T15:28:21.000",
    "request_status": "Pending",
    "responsible_agency": "Department of Public Works",
    "final_address": "2549 Esplanade Ave",
    "address_councildis": "D",
    "status": "Pending",
    "rowid": "829339",
    "final_x": "3678324.98766",
    "final_y": "538921.00961",
    "longitude": "-90.07783980834142",
    "latitude": "29.97594195876407",
    "geocoded_column": {
      "latitude": "29.97594195876407",
      "longitude": "-90.07783980834142"
    }
  },
  {
    "service_request": "2021-829338",
    "request_type": "Roads/Drainage",
    "request_reason": "Street Subsidence (Sinking)",
    "date_created": "2021-10-04T15:28:14.000",
    "date_modified": "2021-10-04T15:28:14.000",
    "request_status": "Pending",
    "responsible_agency": "Department of Public Works",
    "final_address": "623 Gallier St",
    "address_councildis": "C",
    "status": "Pending",
    "rowid": "829338",
    "final_x": "3690085.43952",
    "final_y": "533977.270469",
    "longitude": "-90.04087316542454",
    "latitude": "29.9619888555857",
    "geocoded_column": {
      "latitude": "29.9619888555857",
      "longitude": "-90.04087316542454"
    }
  },
  {
    "service_request": "2021-829337",
    "request_type": "Roads/Drainage",
    "request_reason": "Street Flooding / Drainage",
    "date_created": "2021-10-04T15:28:05.000",
    "date_modified": "2021-10-04T15:31:48.000",
    "request_status": "Pending",
    "responsible_agency": "Department of Public Works",
    "final_address": "3035 St Anthony Ave",
    "address_councildis": "D",
    "rowid": "829337",
    "final_x": "3682989.27887",
    "final_y": "543794.941262",
    "longitude": "-90.06293798985935",
    "latitude": "29.989202210508275",
    "geocoded_column": {
      "latitude": "29.989202210508275",
      "longitude": "-90.06293798985935"
    }
  },
  {
    "service_request": "2021-829336",
    "request_type": "Traffic Signals/Signs/Striping/Streetlights",
    "request_reason": "Street Name Sign Damaged or Missing",
    "date_created": "2021-10-04T15:26:36.000",
    "date_modified": "2021-10-04T15:27:14.000",
    "request_status": "Pending",
    "responsible_agency": "Department of Public Works",
    "final_address": "4401 Dreux Ave",
    "address_councildis": "D",
    "status": "Pending",
    "rowid": "829336",
    "final_x": "3689943.28137",
    "final_y": "552889.109591",
    "longitude": "-90.04064833681478",
    "latitude": "30.01399402793969",
    "geocoded_column": {
      "latitude": "30.01399402793969",
      "longitude": "-90.04064833681478"
    }
  },
  {
    "service_request": "2021-829335",
    "request_type": "Abandoned Vehicles",
    "request_reason": "Abandoned/Junk Vehicles",
    "date_created": "2021-10-04T15:26:33.000",
    "date_modified": "2021-10-04T15:26:33.000",
    "request_status": "Pending",
    "responsible_agency": "Department of Public Works",
    "final_address": "2448 Royal St",
    "address_councildis": "C",
    "status": "Pending",
    "rowid": "829335",
    "final_x": "3686315.2822",
    "final_y": "534926.91015",
    "longitude": "-90.0527451987301",
    "latitude": "29.964716428783504",
    "geocoded_column": {
      "latitude": "29.964716428783504",
      "longitude": "-90.0527451987301"
    }
  },
  {
    "service_request": "2021-829334",
    "request_type": "Trash/Recycling",
    "request_reason": "Request a Large Item Pick Up",
    "date_created": "2021-10-04T15:25:53.000",
    "date_modified": "2021-10-04T15:25:58.000",
    "request_status": "Pending",
    "responsible_agency": "Department of Sanitation",
    "final_address": "4729 Odin St",
    "address_councildis": "D",
    "status": "Assigned to Contractor",
    "contractor": "Metro Disposal",
    "rowid": "829334",
    "final_x": "3691155.94992",
    "final_y": "553894.267479",
    "longitude": "-90.03678099944771",
    "latitude": "30.016720165610412",
    "geocoded_column": {
      "latitude": "30.016720165610412",
      "longitude": "-90.03678099944771"
    }
  },
  {
    "service_request": "2021-829333",
    "request_type": "Trash/Recycling",
    "request_reason": "Missed Trash Pick-Up",
    "date_created": "2021-10-04T15:25:13.000",
    "date_modified": "2021-10-04T15:25:24.000",
    "request_status": "Pending",
    "responsible_agency": "Department of Sanitation",
    "final_address": "4900 Press Dr",
    "address_councildis": "D",
    "status": "Assigned to Contractor",
    "contractor": "Metro Disposal",
    "rowid": "829333",
    "final_x": "3689418.15734",
    "final_y": "551342.994325",
    "longitude": "-90.04236249328909",
    "latitude": "30.009759060024834",
    "geocoded_column": {
      "latitude": "30.009759060024834",
      "longitude": "-90.04236249328909"
    }
  },
  {
    "service_request": "2021-829332",
    "request_type": "Traffic Signals/Signs/Striping/Streetlights",
    "request_reason": "Street Light Outage/Malfunction",
    "date_created": "2021-10-04T15:24:50.000",
    "date_modified": "2021-10-04T15:24:58.000",
    "request_status": "Pending",
    "responsible_agency": "Department of Public Works",
    "final_address": "4401 Dreux Ave",
    "address_councildis": "D",
    "status": "Pending",
    "contractor": "Royal Engineering",
    "rowid": "829332",
    "final_x": "3689943.28137",
    "final_y": "552889.109591",
    "longitude": "-90.04064833681478",
    "latitude": "30.01399402793969",
    "geocoded_column": {
      "latitude": "30.01399402793969",
      "longitude": "-90.04064833681478"
    }
  },
  {
    "service_request": "2021-829330",
    "request_type": "COVID-19",
    "request_reason": "COVID-19 Business Non-Compliance",
    "date_created": "2021-10-04T15:21:44.000",
    "date_modified": "2021-10-04T15:22:18.000",
    "request_status": "Pending",
    "responsible_agency": "Safety and Permits",
    "final_address": "514 City Park Ave",
    "address_councildis": "A",
    "status": "Pending",
    "rowid": "829330",
    "final_x": "3669697.3273",
    "final_y": "541424.52334",
    "longitude": "-90.10500375287299",
    "latitude": "29.98308288568216",
    "geocoded_column": {
      "latitude": "29.98308288568216",
      "longitude": "-90.10500375287299"
    }
  },
  {
    "service_request": "2021-829328",
    "request_type": "Trash/Recycling",
    "request_reason": "Replace Trash Cart",
    "date_created": "2021-10-04T15:19:58.000",
    "date_modified": "2021-10-04T15:20:07.000",
    "request_status": "Pending",
    "responsible_agency": "Department of Sanitation",
    "final_address": "6229 Tchoupitoulas St",
    "address_councildis": "A",
    "status": "Assigned to Contractor",
    "contractor": "Richards Disposal",
    "rowid": "829328",
    "final_x": "3662913.15495",
    "final_y": "518098.946998",
    "longitude": "-90.12720725936089",
    "latitude": "29.91914329718863",
    "geocoded_column": {
      "latitude": "29.91914329718863",
      "longitude": "-90.12720725936089"
    }
  },
  {
    "service_request": "2021-829325",
    "request_type": "Trash/Recycling",
    "request_reason": "Replace Trash Cart",
    "date_created": "2021-10-04T15:07:27.000",
    "date_modified": "2021-10-04T15:07:28.000",
    "request_status": "Pending",
    "responsible_agency": "Department of Sanitation",
    "final_address": "2309 Dreux Ave, New Orleans, Louisiana, 70122",
    "address_councildis": "D",
    "status": "Assigned to Contractor",
    "contractor": "Metro Disposal",
    "rowid": "829325",
    "final_x": "3684648.41455",
    "final_y": "552136.060694",
    "longitude": "-90.05740389192833",
    "latitude": "30.012086603263665",
    "geocoded_column": {
      "latitude": "30.012086603263665",
      "longitude": "-90.05740389192833"
    }
  },
  {
    "service_request": "2021-829324",
    "request_type": "Abandoned Vehicles",
    "request_reason": "Abandoned/Junk Vehicles",
    "date_created": "2021-10-04T15:07:11.000",
    "date_modified": "2021-10-04T15:09:18.000",
    "request_status": "Pending",
    "responsible_agency": "Department of Public Works",
    "final_address": "1634 Casa Calvo St",
    "address_councildis": "C",
    "status": "Pending",
    "rowid": "829324",
    "final_x": "3692075.26237",
    "final_y": "525269.250109",
    "longitude": "-90.03490124251263",
    "latitude": "29.937982947848656",
    "geocoded_column": {
      "latitude": "29.937982947848656",
      "longitude": "-90.03490124251263"
    }
  },
  {
    "service_request": "2021-829323",
    "request_type": "Trash/Recycling",
    "request_reason": "Start Trash Service",
    "date_created": "2021-10-04T15:05:01.000",
    "date_modified": "2021-10-04T15:05:02.000",
    "case_close_date": "2021-09-26T19:00:00.000",
    "request_status": "Pending",
    "responsible_agency": "Department of Sanitation",
    "final_address": "7440 Crestmont Rd",
    "address_councildis": "E",
    "status": "Assigned to Contractor",
    "contractor": "Metro Disposal",
    "rowid": "829323",
    "final_x": "3699753.66647",
    "final_y": "559817.280157",
    "longitude": "-90.00939978602376",
    "latitude": "30.03273587832393",
    "geocoded_column": {
      "latitude": "30.03273587832393",
      "longitude": "-90.00939978602376"
    }
  },
  {
    "service_request": "2021-829320",
    "request_type": "Health Related Questions",
    "request_reason": "Request Information on the Health Marketplace",
    "date_created": "2021-10-04T15:03:03.000",
    "date_modified": "2021-10-04T15:03:03.000",
    "request_status": "Pending",
    "responsible_agency": "Health Department",
    "final_address": "2764 Mendez St",
    "address_councildis": "D",
    "status": "Pending",
    "rowid": "829320",
    "final_x": "3687837.87695",
    "final_y": "553697.344471",
    "longitude": "-90.04727166647531",
    "latitude": "30.016281517692136",
    "geocoded_column": {
      "latitude": "30.016281517692136",
      "longitude": "-90.04727166647531"
    }
  },
  {
    "service_request": "2021-829315",
    "request_type": "Traffic Signals/Signs/Striping/Streetlights",
    "request_reason": "Street Light Outage/Malfunction",
    "date_created": "2021-10-04T14:54:45.000",
    "date_modified": "2021-10-04T14:54:56.000",
    "request_status": "Pending",
    "responsible_agency": "Department of Public Works",
    "final_address": "4417 Ulloa St",
    "address_councildis": "A",
    "status": "Pending",
    "contractor": "Royal Engineering",
    "rowid": "829315",
    "final_x": "3668514.56314",
    "final_y": "537477.579528",
    "longitude": "-90.10887275942592",
    "latitude": "29.97226493090235",
    "geocoded_column": {
      "latitude": "29.97226493090235",
      "longitude": "-90.10887275942592"
    }
  },
  {
    "service_request": "2021-829312",
    "request_type": "Property Maintenance",
    "request_reason": "Property Maintenance",
    "date_created": "2021-10-04T14:46:15.000",
    "date_modified": "2021-10-04T14:47:48.000",
    "request_status": "Pending",
    "responsible_agency": "Department of Code Enforcement",
    "final_address": "3726 Lang St",
    "address_councildis": "C",
    "status": "Pending",
    "rowid": "829312",
    "final_x": "3701994.75165",
    "final_y": "517337.773173",
    "longitude": "-90.00387531301277",
    "latitude": "29.915861328277916",
    "geocoded_column": {
      "latitude": "29.915861328277916",
      "longitude": "-90.00387531301277"
    }
  },
  {
    "service_request": "2021-829310",
    "request_type": "Roads/Drainage",
    "request_reason": "Pothole",
    "date_created": "2021-10-04T14:45:40.000",
    "date_modified": "2021-10-04T14:45:40.000",
    "request_status": "Pending",
    "responsible_agency": "Department of Public Works",
    "final_address": "4815 Conti St",
    "address_councildis": "A",
    "status": "Pending",
    "rowid": "829310",
    "final_x": "3669430.72007",
    "final_y": "541136.787212",
    "longitude": "-90.10585557344139",
    "latitude": "29.98229956494876",
    "geocoded_column": {
      "latitude": "29.98229956494876",
      "longitude": "-90.10585557344139"
    }
  },
  {
    "service_request": "2021-829308",
    "request_type": "Traffic Signals/Signs/Striping/Streetlights",
    "request_reason": "Street Light Outage/Malfunction",
    "date_created": "2021-10-04T14:42:51.000",
    "date_modified": "2021-10-04T14:42:52.000",
    "request_status": "Pending",
    "responsible_agency": "Department of Public Works",
    "final_address": "6400 Argonne Blvd",
    "address_councildis": "A",
    "status": "Pending",
    "contractor": "Royal Engineering",
    "rowid": "829308",
    "final_x": "3670330.50849",
    "final_y": "549956.887316",
    "longitude": "-90.10271440102224",
    "latitude": "30.006525259074426",
    "geocoded_column": {
      "latitude": "30.006525259074426",
      "longitude": "-90.10271440102224"
    }
  },