[
  {
    "service_request": "2022-861618",
    "request_type": "Property Maintenance",
    "request_reason": "Property Maintenance",
    "date_created": "2022-02-16T23:31:22.000",
    "date_modified": "2022-02-16T23:31:22.000",
    "request_status": "Pending",
    "responsible_agency": "Department of Code Enforcement",
    "final_address": "1446 N Prieur St",
    "address_councildis": "D",
    "status": "Pending",
    "rowid": "861618",
    "final_x": "3680759.5444",
    "final_y": "537559.560136",
    "longitude": "-90.07019818311748",
    "latitude": "29.972124870736785",
    "geocoded_column": {
      "latitude": "29.972124870736785",
      "longitude": "-90.07019818311748"
    }
  },
  {
    "service_request": "2022-861617",
    "request_type": "Traffic Signals/Signs/Striping/Streetlights",
    "request_reason": "Traffic Sign Missing/Damaged",
    "date_created": "2022-02-16T22:49:07.000",
    "date_modified": "2022-02-16T22:49:07.000",
    "request_status": "Pending",
    "responsible_agency": "Department of Public Works",
    "final_address": "3708 N Claiborne Ave",
    "address_councildis": "D",
    "status": "Pending",
    "rowid": "861617",
    "final_x": "3691479.57584",
    "final_y": "537301.506248",
    "longitude": "-90.03635189456273",
    "latitude": "29.971086021705187",
    "geocoded_column": {
      "latitude": "29.971086021705187",
      "longitude": "-90.03635189456273"
    }
  },
  {
    "service_request": "2022-861616",
    "request_type": "Traffic Signals/Signs/Striping/Streetlights",
    "request_reason": "Street Light Outage/Malfunction",
    "date_created": "2022-02-16T22:42:21.000",
    "date_modified": "2022-02-16T22:42:22.000",
    "request_status": "Pending",
    "responsible_agency": "Department of Public Works",
    "final_address": "1700 N Rampart St",
    "address_councildis": "C",
    "status": "Pending",
    "contractor": "Royal Engineering",
    "rowid": "861616",
    "final_x": "3683162.43733",
    "final_y": "535610.629126",
    "longitude": "-90.0626777121484",
    "latitude": "29.96669293104856",
    "geocoded_column": {
      "latitude": "29.96669293104856",
      "longitude": "-90.0626777121484"
    }
  },
  {
    "service_request": "2022-861615",
    "request_type": "Traffic Signals/Signs/Striping/Streetlights",
    "request_reason": "Traffic Sign Missing/Damaged",
    "date_created": "2022-02-16T22:31:23.000",
    "date_modified": "2022-02-16T22:31:23.000",
    "request_status": "Pending",
    "responsible_agency": "Department of Public Works",
    "final_address": "BIENVILLE ST & ROYAL ST",
    "address_councildis": "C",
    "status": "Pending",
    "rowid": "861615",
    "final_x": "3681664.8",
    "final_y": "531302.78",
    "longitude": "-90.06755751983562",
    "latitude": "29.954893396707345",
    "geocoded_column": {
      "latitude": "29.954893396707345",
      "longitude": "-90.06755751983562"
    }
  },
  {
    "service_request": "2022-861614",
    "request_type": "Trash/Recycling",
    "request_reason": "Repair Trash Cart",
    "date_created": "2022-02-16T22:30:03.000",
    "date_modified": "2022-02-16T22:30:04.000",
    "request_status": "Pending",
    "responsible_agency": "Department of Sanitation",
    "final_address": "1303 Cadiz St",
    "address_councildis": "B",
    "status": "Assigned to Contractor",
    "contractor": "Richards Disposal",
    "rowid": "861614",
    "final_x": "3670225.21754",
    "final_y": "520045.56716",
    "longitude": "-90.10406082534332",
    "latitude": "29.924282223573574",
    "geocoded_column": {
      "latitude": "29.924282223573574",
      "longitude": "-90.10406082534332"
    }
  },
  {
    "service_request": "2022-861613",
    "request_type": "Traffic Signals/Signs/Striping/Streetlights",
    "request_reason": "Street Light Outage/Malfunction",
    "date_created": "2022-02-16T22:20:32.000",
    "date_modified": "2022-02-16T22:20:33.000",
    "request_status": "Pending",
    "responsible_agency": "Department of Public Works",
    "final_address": "6932 Orleans Ave",
    "address_councildis": "A",
    "status": "Pending",
    "contractor": "Royal Engineering",
    "rowid": "861613",
    "final_x": "3671364.8802",
    "final_y": "553376.538839",
    "longitude": "-90.09933020096534",
    "latitude": "30.01589750597947",
    "geocoded_column": {
      "latitude": "30.01589750597947",
      "longitude": "-90.09933020096534"
    }
  },
  {
    "service_request": "2022-861612",
    "request_type": "Traffic Signals/Signs/Striping/Streetlights",
    "request_reason": "Street Light Outage/Malfunction",
    "date_created": "2022-02-16T22:00:09.000",
    "date_modified": "2022-02-16T22:00:11.000",
    "request_status": "Pending",
    "responsible_agency": "Department of Public Works",
    "final_address": "1316 Frankfort St, New Orleans, Louisiana, 70122",
    "address_councildis": "D",
    "status": "Pending",
    "contractor": "Royal Engineering",
    "rowid": "861612",
    "final_x": "3677296.98773",
    "final_y": "555743.565401",
    "longitude": "-90.08050561615948",
    "latitude": "30.022228977441443",
    "geocoded_column": {
      "latitude": "30.022228977441443",
      "longitude": "-90.08050561615948"
    }
  },
  {
    "service_request": "2022-861611",
    "request_type": "Property Maintenance",
    "request_reason": "Property Maintenance",
    "date_created": "2022-02-16T21:20:03.000",
    "date_modified": "2022-02-16T21:20:03.000",
    "request_status": "Pending",
    "responsible_agency": "Department of Code Enforcement",
    "final_address": "8328 Nelson St",
    "address_councildis": "A",
    "status": "Pending",
    "rowid": "861611",
    "final_x": "3664380.1554",
    "final_y": "532469.375556",
    "longitude": "-90.1220971769362",
    "latitude": "29.958614851940894",
    "geocoded_column": {
      "latitude": "29.958614851940894",
      "longitude": "-90.1220971769362"
    }
  },
  {
    "service_request": "2022-861610",
    "request_type": "Traffic Signals/Signs/Striping/Streetlights",
    "request_reason": "Street Light Outage/Malfunction",
    "date_created": "2022-02-16T21:08:39.000",
    "date_modified": "2022-02-16T21:08:40.000",
    "request_status": "Pending",
    "responsible_agency": "Department of Public Works",
    "final_address": "13101 Calais St",
    "address_councildis": "E",
    "status": "Pending",
    "contractor": "Royal Engineering",
    "rowid": "861610",
    "final_x": "3724385.66323",
    "final_y": "560619.63459",
    "longitude": "-89.9315306649866",
    "latitude": "30.03413646579948",
    "geocoded_column": {
      "latitude": "30.03413646579948",
      "longitude": "-89.9315306649866"
    }
  },
  {
    "service_request": "2022-861608",
    "request_type": "Trash/Recycling",
    "request_reason": "MIssed Recycling Pick-Up",
    "date_created": "2022-02-16T20:14:12.000",
    "date_modified": "2022-02-16T20:14:13.000",
    "request_status": "Pending",
    "responsible_agency": "Department of Sanitation",
    "final_address": "201 Thayer St",
    "address_councildis": "C",
    "status": "Assigned to Contractor",
    "contractor": "Richards Disposal",
    "rowid": "861608",
    "final_x": "3689532.60246",
    "final_y": "531145.412418",
    "longitude": "-90.04271965810122",
    "latitude": "29.954219362909786",
    "geocoded_column": {
      "latitude": "29.954219362909786",
      "longitude": "-90.04271965810122"
    }
  },
  {
    "service_request": "2022-861607",
    "request_type": "Trash/Recycling",
    "request_reason": "Replace Trash Cart",
    "date_created": "2022-02-16T19:55:49.000",
    "date_modified": "2022-02-16T19:55:50.000",
    "request_status": "Pending",
    "responsible_agency": "Department of Sanitation",
    "final_address": "3123 Royal St",
    "address_councildis": "C",
    "status": "Assigned to Contractor",
    "contractor": "Metro Disposal",
    "rowid": "861607",
    "final_x": "3688826.26998",
    "final_y": "534487.408837",
    "longitude": "-90.04483130135513",
    "latitude": "29.96343055159097",
    "geocoded_column": {
      "latitude": "29.96343055159097",
      "longitude": "-90.04483130135513"
    }
  },
  {
    "service_request": "2022-861606",
    "request_type": "Traffic Signals/Signs/Striping/Streetlights",
    "request_reason": "Traffic Sign Missing/Damaged",
    "date_created": "2022-02-16T19:16:09.000",
    "date_modified": "2022-02-16T19:16:09.000",
    "request_status": "Pending",
    "responsible_agency": "Department of Public Works",
    "final_address": "1103 Cambronne St",
    "address_councildis": "A",
    "status": "Pending",
    "rowid": "861606",
    "final_x": "3660992.67238",
    "final_y": "528838.807872",
    "longitude": "-90.13291412532998",
    "latitude": "29.948729984379924",
    "geocoded_column": {
      "latitude": "29.948729984379924",
      "longitude": "-90.13291412532998"
    }
  },
  {
    "service_request": "2022-861605",
    "request_type": "Traffic Signals/Signs/Striping/Streetlights",
    "request_reason": "Street Light Outage/Malfunction",
    "date_created": "2022-02-16T19:04:49.000",
    "date_modified": "2022-02-16T19:04:50.000",
    "request_status": "Pending",
    "responsible_agency": "Department of Public Works",
    "final_address": "515 S Clark St",
    "address_councildis": "B",
    "status": "Pending",
    "contractor": "Royal Engineering",
    "rowid": "861605",
    "final_x": "3671773.15489",
    "final_y": "535622.912518",
    "longitude": "-90.09864466316492",
    "latitude": "29.967069070486975",
    "geocoded_column": {
      "latitude": "29.967069070486975",
      "longitude": "-90.09864466316492"
    }
  },
  {
    "service_request": "2022-861604",
    "request_type": "Property Maintenance",
    "request_reason": "Property Maintenance",
    "date_created": "2022-02-16T18:59:47.000",
    "date_modified": "2022-02-16T18:59:47.000",
    "request_status": "Pending",
    "responsible_agency": "Department of Code Enforcement",
    "final_address": "1315 Elysian Fields Ave",
    "address_councildis": "C",
    "status": "Pending",
    "rowid": "861604",
    "final_x": "3685070.18114",
    "final_y": "537184.084808",
    "longitude": "-90.05659771309077",
    "latitude": "29.970961079444763",
    "geocoded_column": {
      "latitude": "29.970961079444763",
      "longitude": "-90.05659771309077"
    }
  },
  {
    "service_request": "2022-861603",
    "request_type": "Traffic Signals/Signs/Striping/Streetlights",
    "request_reason": "Street Light Outage/Malfunction",
    "date_created": "2022-02-16T18:56:57.000",
    "date_modified": "2022-02-16T18:56:58.000",
    "request_status": "Pending",
    "responsible_agency": "Department of Public Works",
    "final_address": "7513 Burthe St",
    "address_councildis": "A",
    "status": "Pending",
    "contractor": "Royal Engineering",
    "rowid": "861603",
    "final_x": "3662779.98637",
    "final_y": "526263.749438",
    "longitude": "-90.12735635925243",
    "latitude": "29.94159779020456",
    "geocoded_column": {
      "latitude": "29.94159779020456",
      "longitude": "-90.12735635925243"
    }
  },
  {
    "service_request": "2022-861602",
    "request_type": "Traffic Signals/Signs/Striping/Streetlights",
    "request_reason": "Street Light Outage/Malfunction",
    "date_created": "2022-02-16T18:45:02.000",
    "date_modified": "2022-02-16T18:45:03.000",
    "request_status": "Pending",
    "responsible_agency": "Department of Public Works",
    "final_address": "3019 Canal St",
    "address_councildis": "B",
    "status": "Pending",
    "contractor": "Royal Engineering",
    "rowid": "861602",
    "final_x": "3674377.00257",
    "final_y": "536183.248519",
    "longitude": "-90.09040248942972",
    "latitude": "29.96853239965694",
    "geocoded_column": {
      "latitude": "29.96853239965694",
      "longitude": "-90.09040248942972"
    }
  },
  {
    "service_request": "2022-861601",
    "request_type": "Traffic Signals/Signs/Striping/Streetlights",
    "request_reason": "Street Light Outage/Malfunction",
    "date_created": "2022-02-16T18:45:00.000",
    "date_modified": "2022-02-16T18:45:01.000",
    "request_status": "Pending",
    "responsible_agency": "Department of Public Works",
    "final_address": "3019 Canal St",
    "address_councildis": "B",
    "status": "Pending",
    "contractor": "Royal Engineering",
    "rowid": "861601",
    "final_x": "3674377.00257",
    "final_y": "536183.248519",
    "longitude": "-90.09040248942972",
    "latitude": "29.96853239965694",
    "geocoded_column": {
      "latitude": "29.96853239965694",
      "longitude": "-90.09040248942972"
    }
  },
  {
    "service_request": "2022-861600",
    "request_type": "Traffic Signals/Signs/Striping/Streetlights",
    "request_reason": "Traffic Signal Malfunctioning/Damaged",
    "date_created": "2022-02-16T18:37:52.000",
    "date_modified": "2022-02-16T18:37:53.000",
    "request_status": "Pending",
    "responsible_agency": "Department of Public Works",
    "final_address": "BROADWAY ST & ST CHARLES AVE",
    "address_councildis": "A",
    "status": "Pending",
    "rowid": "861600",
    "final_x": "3662980.9",
    "final_y": "524725.38",
    "longitude": "-90.12677317488857",
    "latitude": "29.937361947391178",
    "geocoded_column": {
      "latitude": "29.937361947391178",
      "longitude": "-90.12677317488857"
    }
  },
  {
    "service_request": "2022-861599",
    "request_type": "Property Maintenance",
    "request_reason": "Property Maintenance",
    "date_created": "2022-02-16T18:18:35.000",
    "date_modified": "2022-02-16T18:18:35.000",
    "request_status": "Pending",
    "responsible_agency": "Department of Code Enforcement",
    "final_address": "7831 Jahncke Rd",
    "address_councildis": "E",
    "status": "Pending",
    "rowid": "861599",
    "final_x": "3713698.45919",
    "final_y": "569019.637862",
    "longitude": "-89.9649862549413",
    "latitude": "30.057588239783893",
    "geocoded_column": {
      "latitude": "30.057588239783893",
      "longitude": "-89.9649862549413"
    }
  },
  {
    "service_request": "2022-861598",
    "request_type": "Property Maintenance",
    "request_reason": "Property Maintenance",
    "date_created": "2022-02-16T18:17:15.000",
    "date_modified": "2022-02-16T18:17:15.000",
    "request_status": "Pending",
    "responsible_agency": "Department of Code Enforcement",
    "final_address": "7900 Parry St",
    "address_councildis": "E",
    "status": "Pending",
    "rowid": "861598",
    "final_x": "3713740.28101",
    "final_y": "569211.914022",
    "longitude": "-89.96484680439222",
    "latitude": "30.05811554692433",
    "geocoded_column": {
      "latitude": "30.05811554692433",
      "longitude": "-89.96484680439222"
    }
  },
  {
    "service_request": "2022-861597",
    "request_type": "Trash/Recycling",
    "request_reason": "Replace Trash Cart",
    "date_created": "2022-02-16T18:17:08.000",
    "date_modified": "2022-02-16T18:17:08.000",
    "request_status": "Pending",
    "responsible_agency": "Department of Sanitation",
    "final_address": "3901 S Post Oak Ave",
    "address_councildis": "C",
    "status": "Assigned to Contractor",
    "contractor": "Richards Disposal",
    "rowid": "861597",
    "final_x": "3704495.15799",
    "final_y": "513705.859122",
    "longitude": "-89.99611691013695",
    "latitude": "29.905794801654157",
    "geocoded_column": {
      "latitude": "29.905794801654157",
      "longitude": "-89.99611691013695"
    }
  },
  {
    "service_request": "2022-861596",
    "request_type": "Trash/Recycling",
    "request_reason": "Missed Trash Pick-Up",
    "date_created": "2022-02-16T18:11:57.000",
    "date_modified": "2022-02-16T18:11:58.000",
    "request_status": "Pending",
    "responsible_agency": "Department of Sanitation",
    "final_address": "5946 Memphis St",
    "address_councildis": "A",
    "status": "Assigned to Contractor",
    "contractor": "Metro Disposal",
    "rowid": "861596",
    "final_x": "3669070.47572",
    "final_y": "546945.072465",
    "longitude": "-90.10679703044974",
    "latitude": "29.998280965243257",
    "geocoded_column": {
      "latitude": "29.998280965243257",
      "longitude": "-90.10679703044974"
    }
  },
  {
    "service_request": "2022-861595",
    "request_type": "Trash/Recycling",
    "request_reason": "Request a Large Item Pick Up",
    "date_created": "2022-02-16T17:53:38.000",
    "date_modified": "2022-02-16T17:53:39.000",
    "request_status": "Pending",
    "responsible_agency": "Department of Sanitation",
    "final_address": "626 St Maurice Ave",
    "address_councildis": "E",
    "status": "Assigned to Contractor",
    "contractor": "Metro Disposal",
    "rowid": "861595",
    "final_x": "3699138.41469",
    "final_y": "531658.896515",
    "longitude": "-90.01236984549455",
    "latitude": "29.955330267995333",
    "geocoded_column": {
      "latitude": "29.955330267995333",
      "longitude": "-90.01236984549455"
    }
  },
  {
    "service_request": "2022-861594",
    "request_type": "Trash/Recycling",
    "request_reason": "Missed Trash Pick-Up",
    "date_created": "2022-02-16T17:51:18.000",
    "date_modified": "2022-02-16T17:51:18.000",
    "request_status": "Pending",
    "responsible_agency": "Department of Sanitation",
    "final_address": "7432 Hurst St",
    "address_councildis": "A",
    "status": "Assigned to Contractor",
    "contractor": "Richards Disposal",
    "rowid": "861594",
    "final_x": "3661462.61306",
    "final_y": "524033.978172",
    "longitude": "-90.13158942548503",
    "latitude": "29.935504683472388",
    "geocoded_column": {
      "latitude": "29.935504683472388",
      "longitude": "-90.13158942548503"
    }
  },
  {
    "service_request": "2022-861593",
    "request_type": "Trash/Recycling",
    "request_reason": "Repair Recycling Cart",
    "date_created": "2022-02-16T17:37:44.000",
    "date_modified": "2022-02-16T17:37:44.000",
    "request_status": "Pending",
    "responsible_agency": "Department of Sanitation",
    "final_address": "3932 Dumaine St",
    "address_councildis": "A",
    "status": "Pending",
    "rowid": "861593",
    "final_x": "3673425.6964",
    "final_y": "540299.326475",
    "longitude": "-90.09326609201264",
    "latitude": "29.979878555531144",
    "geocoded_column": {
      "latitude": "29.979878555531144",
      "longitude": "-90.09326609201264"
    }
  },
  {
    "service_request": "2022-861592",
    "request_type": "Trash/Recycling",
    "request_reason": "MIssed Recycling Pick-Up",
    "date_created": "2022-02-16T17:23:57.000",
    "date_modified": "2022-02-16T17:23:58.000",
    "request_status": "Pending",
    "responsible_agency": "Department of Sanitation",
    "final_address": "1618 S Liberty St",
    "address_councildis": "B",
    "status": "Assigned to Contractor",
    "contractor": "Richards Disposal",
    "rowid": "861592",
    "final_x": "3676745.19873",
    "final_y": "526531.537982",
    "longitude": "-90.08325613022687",
    "latitude": "29.941922581934552",
    "geocoded_column": {
      "latitude": "29.941922581934552",
      "longitude": "-90.08325613022687"
    }
  },
  {
    "service_request": "2022-861591",
    "request_type": "Abandoned Vehicles",
    "request_reason": "Abandoned/Junk Vehicles",
    "date_created": "2022-02-16T17:20:22.000",
    "date_modified": "2022-02-16T17:20:22.000",
    "request_status": "Pending",
    "responsible_agency": "Department of Public Works",
    "final_address": "1704 Spain St",
    "address_councildis": "D",
    "status": "Pending",
    "rowid": "861591",
    "final_x": "3685917.19996",
    "final_y": "538715.802953",
    "longitude": "-90.05386870883589",
    "latitude": "29.97514679094592",
    "geocoded_column": {
      "latitude": "29.97514679094592",
      "longitude": "-90.05386870883589"
    }
  },
  {
    "service_request": "2022-861590",
    "request_type": "Roads/Drainage",
    "request_reason": "Debris in Roadway",
    "date_created": "2022-02-16T17:18:34.000",
    "date_modified": "2022-02-16T17:18:34.000",
    "request_status": "Pending",
    "responsible_agency": "Department of Public Works",
    "final_address": "6301 Freret St",
    "address_councildis": "A",
    "status": "Pending",
    "rowid": "861590",
    "final_x": "3665602.03488",
    "final_y": "524819.089852",
    "longitude": "-90.11849490835618",
    "latitude": "29.93754346743004",
    "geocoded_column": {
      "latitude": "29.93754346743004",
      "longitude": "-90.11849490835618"
    }
  },
  {
    "service_request": "2022-861589",
    "request_type": "Trash/Recycling",
    "request_reason": "Change Size of Trash Cart",
    "date_created": "2022-02-16T17:11:42.000",
    "date_modified": "2022-02-16T17:11:43.000",
    "request_status": "Pending",
    "responsible_agency": "Department of Sanitation",
    "final_address": "2824 Baronne St",
    "address_councildis": "B",
    "status": "Assigned to Contractor",
    "contractor": "Richards Disposal",
    "rowid": "861589",
    "final_x": "3675349.40712",
    "final_y": "523000.205691",
    "longitude": "-90.08778413672246",
    "latitude": "29.932254370372988",
    "geocoded_column": {
      "latitude": "29.932254370372988",
      "longitude": "-90.08778413672246"
    }
  },
  {
    "service_request": "2022-861588",
    "request_type": "Mayor's Request",
    "request_reason": "Requests to the Mayor",
    "date_created": "2022-02-16T17:09:57.000",
    "date_modified": "2022-02-16T17:09:57.000",
    "request_status": "Pending",
    "responsible_agency": "Executive Office of the Mayor",
    "status": "Pending",
    "rowid": "861588",
    "longitude": "0.0",
    "latitude": "0.0",
    "geocoded_column": {
      "latitude": "0.0",
      "longitude": "0.0"
    }
  },
  {
    "service_request": "2022-861586",
    "request_type": "Trash/Recycling",
    "request_reason": "Order Trash Cart",
    "date_created": "2022-02-16T16:56:44.000",
    "date_modified": "2022-02-16T16:56:44.000",
    "request_status": "Pending",
    "responsible_agency": "Department of Sanitation",
    "final_address": "New Orleans,LA",
    "status": "Assigned to Contractor",
    "rowid": "861586",
    "longitude": "0.0",
    "latitude": "0.0",
    "geocoded_column": {
      "latitude": "0.0",
      "longitude": "0.0"
    }
  },
  {
    "service_request": "2022-861585",
    "request_type": "Abandoned Vehicles",
    "request_reason": "Abandoned/Junk Vehicles",
    "date_created": "2022-02-16T16:53:45.000",
    "date_modified": "2022-02-16T16:53:45.000",
    "request_status": "Pending",
    "responsible_agency": "Department of Public Works",
    "final_address": "1036 Annunciation St, New Orleans, Louisiana, 70130",
    "address_councildis": "B",
    "status": "Pending",
    "rowid": "861585",
    "final_x": "3681664.56348",
    "final_y": "526254.118526",
    "longitude": "-90.06773434588793",
    "latitude": "29.941011282999824",
    "geocoded_column": {
      "latitude": "29.941011282999824",
      "longitude": "-90.06773434588793"
    }
  },
  {
    "service_request": "2022-861584",
    "request_type": "Abandoned Vehicles",
    "request_reason": "Vehicle Blocking Your Driveway",
    "date_created": "2022-02-16T16:48:49.000",
    "date_modified": "2022-02-16T16:48:49.000",
    "request_status": "Pending",
    "responsible_agency": "Department of Public Works",
    "final_address": "2013 Dumaine St",
    "address_councildis": "D",
    "status": "Pending",
    "rowid": "861584",
    "final_x": "3679275.46517",
    "final_y": "535941.554887",
    "longitude": "-90.0749412704264",
    "latitude": "29.967720811895013",
    "geocoded_column": {
      "latitude": "29.967720811895013",
      "longitude": "-90.0749412704264"
    }
  },
  {
    "service_request": "2022-861583",
    "request_type": "Trash/Recycling",
    "request_reason": "Missed Trash Pick-Up",
    "date_created": "2022-02-16T16:44:37.000",
    "date_modified": "2022-02-16T16:44:38.000",
    "request_status": "Pending",
    "responsible_agency": "Department of Sanitation",
    "final_address": "5946 Memphis St",
    "address_councildis": "A",
    "status": "Assigned to Contractor",
    "contractor": "Metro Disposal",
    "rowid": "861583",
    "final_x": "3669070.47572",
    "final_y": "546945.072465",
    "longitude": "-90.10679703044974",
    "latitude": "29.998280965243257",
    "geocoded_column": {
      "latitude": "29.998280965243257",
      "longitude": "-90.10679703044974"
    }
  },
  {
    "service_request": "2022-861582",
    "request_type": "Trash/Recycling",
    "request_reason": "Order Trash Cart",
    "date_created": "2022-02-16T16:34:28.000",
    "date_modified": "2022-02-16T16:34:29.000",
    "request_status": "Pending",
    "responsible_agency": "Department of Sanitation",
    "final_address": "7573 Patterson St",
    "address_councildis": "C",
    "status": "Assigned to Contractor",
    "contractor": "Richards Disposal",
    "rowid": "861582",
    "final_x": "3712230.74251",
    "final_y": "518967.892535",
    "longitude": "-89.97150575580237",
    "latitude": "29.920013056495883",
    "geocoded_column": {
      "latitude": "29.920013056495883",
      "longitude": "-89.97150575580237"
    }
  },
  {
    "service_request": "2022-861581",
    "request_type": "Trash/Recycling",
    "request_reason": "Order Trash Cart",
    "date_created": "2022-02-16T16:23:39.000",
    "date_modified": "2022-02-16T16:23:40.000",
    "request_status": "Pending",
    "responsible_agency": "Department of Sanitation",
    "final_address": "1713 Desire St",
    "address_councildis": "D",
    "status": "Assigned to Contractor",
    "contractor": "Metro Disposal",
    "rowid": "861581",
    "final_x": "3690800.1935",
    "final_y": "538057.822217",
    "longitude": "-90.03847047503073",
    "latitude": "29.973186750520828",
    "geocoded_column": {
      "latitude": "29.973186750520828",
      "longitude": "-90.03847047503073"
    }
  },
  {
    "service_request": "2022-861580",
    "request_type": "Trash/Recycling",
    "request_reason": "Start Trash Service",
    "date_created": "2022-02-16T16:21:22.000",
    "date_modified": "2022-02-16T16:21:51.000",
    "request_status": "Pending",
    "responsible_agency": "Department of Sanitation",
    "final_address": "1713 Desire St",
    "address_councildis": "D",
    "status": "Assigned to Contractor",
    "contractor": "Metro Disposal",
    "rowid": "861580",
    "final_x": "3690800.1935",
    "final_y": "538057.822217",
    "longitude": "-90.03847047503073",
    "latitude": "29.973186750520828",
    "geocoded_column": {
      "latitude": "29.973186750520828",
      "longitude": "-90.03847047503073"
    }
  },
  {
    "service_request": "2022-861579",
    "request_type": "Trash/Recycling",
    "request_reason": "Replace Recycling Cart",
    "date_created": "2022-02-16T16:19:28.000",
    "date_modified": "2022-02-16T16:19:28.000",
    "request_status": "Pending",
    "responsible_agency": "Department of Sanitation",
    "final_address": "3816 Annunciation St",
    "address_councildis": "B",
    "status": "Pending",
    "rowid": "861579",
    "final_x": "3673526.10452",
    "final_y": "517931.319798",
    "longitude": "-90.09371325575144",
    "latitude": "29.91837093442539",
    "geocoded_column": {
      "latitude": "29.91837093442539",
      "longitude": "-90.09371325575144"
    }
  },
  {
    "service_request": "2022-861578",
    "request_type": "Traffic Signals/Signs/Striping/Streetlights",
    "request_reason": "Street Light Outage/Malfunction",
    "date_created": "2022-02-16T16:15:22.000",
    "date_modified": "2022-02-16T16:15:23.000",
    "request_status": "Pending",
    "responsible_agency": "Department of Public Works",
    "final_address": "3832 Annunciation St",
    "address_councildis": "B",
    "status": "Pending",
    "contractor": "Royal Engineering",
    "rowid": "861578",
    "final_x": "3673397.70747",
    "final_y": "517941.932918",
    "longitude": "-90.09411817503981",
    "latitude": "29.918403935952618",
    "geocoded_column": {
      "latitude": "29.918403935952618",
      "longitude": "-90.09411817503981"
    }
  },
  {
    "service_request": "2022-861577",
    "request_type": "Abandoned Vehicles",
    "request_reason": "Abandoned/Junk Vehicles",
    "date_created": "2022-02-16T16:14:33.000",
    "date_modified": "2022-02-16T16:14:33.000",
    "request_status": "Pending",
    "responsible_agency": "Department of Public Works",
    "final_address": "1918 Filmore Ave",
    "address_councildis": "D",
    "status": "Pending",
    "rowid": "861577",
    "final_x": "3681790.36373",
    "final_y": "551965.346262",
    "longitude": "-90.0664396641228",
    "latitude": "30.0117043988434",
    "geocoded_column": {
      "latitude": "30.0117043988434",
      "longitude": "-90.0664396641228"
    }
  },
  {
    "service_request": "2022-861576",
    "request_type": "Trash/Recycling",
    "request_reason": "Request a Large Item Pick Up",
    "date_created": "2022-02-16T16:12:36.000",
    "date_modified": "2022-02-16T16:12:37.000",
    "request_status": "Pending",
    "responsible_agency": "Department of Sanitation",
    "final_address": "5100 St Bernard Ave",
    "address_councildis": "D",
    "status": "Assigned to Contractor",
    "contractor": "Metro Disposal",
    "rowid": "861576",
    "final_x": "3676575.84008",
    "final_y": "550946.432981",
    "longitude": "-90.08294967341932",
    "latitude": "30.009060248823484",
    "geocoded_column": {
      "latitude": "30.009060248823484",
      "longitude": "-90.08294967341932"
    }
  },
  {
    "service_request": "2022-861575",
    "request_type": "Trash/Recycling",
    "request_reason": "Missed Trash Pick-Up",
    "date_created": "2022-02-16T16:11:16.000",
    "date_modified": "2022-02-16T16:11:16.000",
    "request_status": "Pending",
    "responsible_agency": "Department of Sanitation",
    "final_address": "7608 Hurst St",
    "address_councildis": "A",
    "status": "Assigned to Contractor",
    "contractor": "Richards Disposal",
    "rowid": "861575",
    "final_x": "3660834.77946",
    "final_y": "524607.729084",
    "longitude": "-90.13355254554136",
    "latitude": "29.937100408425398",
    "geocoded_column": {
      "latitude": "29.937100408425398",
      "longitude": "-90.13355254554136"
    }
  },
  {
    "service_request": "2022-861574",
    "request_type": "Trash/Recycling",
    "request_reason": "Request a Large Item Pick Up",
    "date_created": "2022-02-16T16:05:13.000",
    "date_modified": "2022-02-16T16:05:13.000",
    "request_status": "Pending",
    "responsible_agency": "Department of Sanitation",
    "final_address": "7372 Beaconfield Dr",
    "address_councildis": "E",
    "status": "Assigned to Contractor",
    "contractor": "Metro Disposal",
    "rowid": "861574",
    "final_x": "3713287.7171",
    "final_y": "565976.212259",
    "longitude": "-89.96639930508073",
    "latitude": "30.049233542684647",
    "geocoded_column": {
      "latitude": "30.049233542684647",
      "longitude": "-89.96639930508073"
    }
  },
  {
    "service_request": "2022-861573",
    "request_type": "Trash/Recycling",
    "request_reason": "Request a Large Item Pick Up",
    "date_created": "2022-02-16T16:04:28.000",
    "date_modified": "2022-02-16T16:04:28.000",
    "request_status": "Pending",
    "responsible_agency": "Department of Sanitation",
    "final_address": "5431 St Ferdinand Dr",
    "address_councildis": "D",
    "status": "Assigned to Contractor",
    "contractor": "Metro Disposal",
    "rowid": "861573",
    "final_x": "3689060.33897",
    "final_y": "553341.303127",
    "longitude": "-90.0434218944171",
    "latitude": "30.01526475247227",
    "geocoded_column": {
      "latitude": "30.01526475247227",
      "longitude": "-90.0434218944171"
    }
  },
  {
    "service_request": "2022-861572",
    "request_type": "Property Maintenance",
    "request_reason": "Property Maintenance",
    "date_created": "2022-02-16T16:02:15.000",
    "date_modified": "2022-02-16T16:02:15.000",
    "request_status": "Pending",
    "responsible_agency": "Department of Code Enforcement",
    "final_address": "4209 Hollygrove St",
    "address_councildis": "A",
    "status": "Pending",
    "rowid": "861572",
    "final_x": "3666882.07937",
    "final_y": "538436.547849",
    "longitude": "-90.11399621207929",
    "latitude": "29.974949640002226",
    "geocoded_column": {
      "latitude": "29.974949640002226",
      "longitude": "-90.11399621207929"
    }
  },
  {
    "service_request": "2022-861571",
    "request_type": "Property Maintenance",
    "request_reason": "Property Maintenance",
    "date_created": "2022-02-16T16:02:15.000",
    "date_modified": "2022-02-16T16:02:15.000",
    "request_status": "Pending",
    "responsible_agency": "Department of Code Enforcement",
    "final_address": "2020 N Villere St",
    "address_councildis": "C",
    "status": "Pending",
    "rowid": "861571",
    "final_x": "3684336.05295",
    "final_y": "537333.284488",
    "longitude": "-90.05891094055751",
    "latitude": "29.97139379822669",
    "geocoded_column": {
      "latitude": "29.97139379822669",
      "longitude": "-90.05891094055751"
    }
  },
  {
    "service_request": "2022-861570",
    "request_type": "Property Maintenance",
    "request_reason": "Property Maintenance",
    "date_created": "2022-02-16T16:01:26.000",
    "date_modified": "2022-02-16T16:01:26.000",
    "request_status": "Pending",
    "responsible_agency": "Department of Code Enforcement",
    "final_address": "4207 Hollygrove St",
    "address_councildis": "A",
    "status": "Pending",
    "rowid": "861570",
    "final_x": "3666859.96071",
    "final_y": "538417.018057",
    "longitude": "-90.11406672504388",
    "latitude": "29.974896586789516",
    "geocoded_column": {
      "latitude": "29.974896586789516",
      "longitude": "-90.11406672504388"
    }
  },
  {
    "service_request": "2022-861569",
    "request_type": "Roads/Drainage",
    "request_reason": "Catch Basin - Clogged",
    "date_created": "2022-02-16T16:00:59.000",
    "date_modified": "2022-02-16T16:00:59.000",
    "request_status": "Pending",
    "responsible_agency": "Department of Public Works",
    "final_address": "1505 Audubon St",
    "address_councildis": "A",
    "status": "Pending",
    "rowid": "861569",
    "final_x": "3665078.08564",
    "final_y": "527216.385983",
    "longitude": "-90.12006892282871",
    "latitude": "29.944150528420412",
    "geocoded_column": {
      "latitude": "29.944150528420412",
      "longitude": "-90.12006892282871"
    }
  },
  {
    "service_request": "2022-861568",
    "request_type": "Property Maintenance",
    "request_reason": "Property Maintenance",
    "date_created": "2022-02-16T16:00:32.000",
    "date_modified": "2022-02-16T16:00:32.000",
    "request_status": "Pending",
    "responsible_agency": "Department of Code Enforcement",
    "final_address": "2026 N Robertson St",
    "address_councildis": "C",
    "status": "Pending",
    "rowid": "861568",
    "final_x": "3684349.61468",
    "final_y": "537705.543688",
    "longitude": "-90.05885503442906",
    "latitude": "29.97241696677288",
    "geocoded_column": {
      "latitude": "29.97241696677288",
      "longitude": "-90.05885503442906"
    }
  },
  {
    "service_request": "2022-861567",
    "request_type": "Property Maintenance",
    "request_reason": "Property Maintenance",
    "date_created": "2022-02-16T15:59:01.000",
    "date_modified": "2022-02-16T15:59:01.000",
    "request_status": "Pending",
    "responsible_agency": "Department of Code Enforcement",
    "final_address": "1510 Touro St",
    "address_councildis": "C",
    "status": "Pending",
    "rowid": "861567",
    "final_x": "3684061.27356",
    "final_y": "537820.408713",
    "longitude": "-90.05976163289051",
    "latitude": "29.97274162094537",
    "geocoded_column": {
      "latitude": "29.97274162094537",
      "longitude": "-90.05976163289051"
    }
  },
  {
    "service_request": "2022-861566",
    "request_type": "Property Maintenance",
    "request_reason": "Property Maintenance",
    "date_created": "2022-02-16T15:57:49.000",
    "date_modified": "2022-02-16T15:57:49.000",
    "request_status": "Pending",
    "responsible_agency": "Department of Code Enforcement",
    "final_address": "1432 Touro St",
    "address_councildis": "C",
    "status": "Pending",
    "rowid": "861566",
    "final_x": "3684097.95157",
    "final_y": "537611.196104",
    "longitude": "-90.05965314158549",
    "latitude": "29.972165238059002",
    "geocoded_column": {
      "latitude": "29.972165238059002",
      "longitude": "-90.05965314158549"
    }
  },
  {
    "service_request": "2022-861565",
    "request_type": "Abandoned Vehicles",
    "request_reason": "Abandoned/Junk Vehicles",
    "date_created": "2022-02-16T15:53:31.000",
    "date_modified": "2022-02-16T15:53:31.000",
    "request_status": "Pending",
    "responsible_agency": "Department of Public Works",
    "final_address": "BEAUCAIRE ST & LAVAL ST",
    "address_councildis": "E",
    "status": "Pending",
    "rowid": "861565",
    "final_x": "3724474.5",
    "final_y": "562595.68",
    "longitude": "-89.93117351926011",
    "latitude": "30.03956678990601",
    "geocoded_column": {
      "latitude": "30.03956678990601",
      "longitude": "-89.93117351926011"
    }
  },
  {
    "service_request": "2022-861564",
    "request_type": "Traffic Signals/Signs/Striping/Streetlights",
    "request_reason": "Street Name Sign Damaged or Missing",
    "date_created": "2022-02-16T15:52:16.000",
    "date_modified": "2022-02-16T15:52:16.000",
    "request_status": "Pending",
    "responsible_agency": "Department of Public Works",
    "final_address": "7001 Argonne Blvd",
    "address_councildis": "A",
    "status": "Pending",
    "rowid": "861564",
    "final_x": "3670831.58932",
    "final_y": "553889.032535",
    "longitude": "-90.10099775075899",
    "latitude": "30.0173224626137",
    "geocoded_column": {
      "latitude": "30.0173224626137",
      "longitude": "-90.10099775075899"
    }
  },
  {
    "service_request": "2022-861563",
    "request_type": "Safety & Permits",
    "request_reason": "Licenses & Permits",
    "date_created": "2022-02-16T15:51:34.000",
    "date_modified": "2022-02-16T15:51:34.000",
    "request_status": "Pending",
    "responsible_agency": "Safety and Permits",
    "status": "Pending",
    "rowid": "861563",
    "longitude": "0.0",
    "latitude": "0.0",
    "geocoded_column": {
      "latitude": "0.0",
      "longitude": "0.0"
    }
  },
  {
    "service_request": "2022-861562",
    "request_type": "Trash/Recycling",
    "request_reason": "Illegal Dumping",
    "date_created": "2022-02-16T15:48:57.000",
    "date_modified": "2022-02-16T15:48:58.000",
    "request_status": "Pending",
    "responsible_agency": "Department of Sanitation",
    "final_address": "7200 Florita Ct",
    "address_councildis": "D",
    "status": "Pending",
    "rowid": "861562",
    "final_x": "3694846.13942",
    "final_y": "556905.027162",
    "longitude": "-90.02501299701262",
    "latitude": "30.024883290121775",
    "geocoded_column": {
      "latitude": "30.024883290121775",
      "longitude": "-90.02501299701262"
    }
  },
  {
    "service_request": "2022-861561",
    "request_type": "Trash/Recycling",
    "request_reason": "Replace Trash Cart",
    "date_created": "2022-02-16T15:48:40.000",
    "date_modified": "2022-02-16T15:48:41.000",
    "request_status": "Pending",
    "responsible_agency": "Department of Sanitation",
    "final_address": "3936 Toledano St",
    "address_councildis": "B",
    "status": "Assigned to Contractor",
    "contractor": "Richards Disposal",
    "rowid": "861561",
    "final_x": "3671267.69659",
    "final_y": "529300.959553",
    "longitude": "-90.10045572032408",
    "latitude": "29.949700763539546",
    "geocoded_column": {
      "latitude": "29.949700763539546",
      "longitude": "-90.10045572032408"
    }
  },
  {
    "service_request": "2022-861559",
    "request_type": "Parks & Parkways",
    "request_reason": "Request Tree Service (Right of Way/Public Property)",
    "date_created": "2022-02-16T15:48:31.000",
    "date_modified": "2022-02-16T15:48:31.000",
    "request_status": "Pending",
    "responsible_agency": "Department of Parks & Parkway",
    "final_address": "2105 Pine St",
    "address_councildis": "A",
    "status": "Pending",
    "rowid": "861559",
    "final_x": "3665817.5225",
    "final_y": "529343.973313",
    "longitude": "-90.11766303590497",
    "latitude": "29.949979157158154",
    "geocoded_column": {
      "latitude": "29.949979157158154",
      "longitude": "-90.11766303590497"
    }
  },
  {
    "service_request": "2022-861558",
    "request_type": "Property Maintenance",
    "request_reason": "Property Maintenance",
    "date_created": "2022-02-16T15:47:47.000",
    "date_modified": "2022-02-16T15:47:47.000",
    "request_status": "Pending",
    "responsible_agency": "Department of Code Enforcement",
    "final_address": "2931 Banks St",
    "address_councildis": "B",
    "status": "Pending",
    "rowid": "861558",
    "final_x": "3673700.87092",
    "final_y": "534929.388806",
    "longitude": "-90.09258062970083",
    "latitude": "29.965104857305484",
    "geocoded_column": {
      "latitude": "29.965104857305484",
      "longitude": "-90.09258062970083"
    }
  },
  {
    "service_request": "2022-861557",
    "request_type": "Abandoned Vehicles",
    "request_reason": "Abandoned/Junk Vehicles",
    "date_created": "2022-02-16T15:46:41.000",
    "date_modified": "2022-02-16T15:46:41.000",
    "request_status": "Pending",
    "responsible_agency": "Department of Public Works",
    "final_address": "2377 Leon C Simon Dr",
    "address_councildis": "D",
    "status": "Pending",
    "rowid": "861557",
    "final_x": "3684726.47298",
    "final_y": "557168.089691",
    "longitude": "-90.05698018024192",
    "latitude": "30.02592044180379",
    "geocoded_column": {
      "latitude": "30.02592044180379",
      "longitude": "-90.05698018024192"
    }
  },
  {
    "service_request": "2022-861556",
    "request_type": "Trash/Recycling",
    "request_reason": "Illegal Dumping",
    "date_created": "2022-02-16T15:41:21.000",
    "date_modified": "2022-02-16T15:41:21.000",
    "request_status": "Pending",
    "responsible_agency": "Department of Sanitation",
    "final_address": "7356 Shubrick Ave",
    "address_councildis": "E",
    "status": "Pending",
    "rowid": "861556",
    "final_x": "3707033.22417",
    "final_y": "563114.444256",
    "longitude": "-89.98627347010783",
    "latitude": "30.04156849675257",
    "geocoded_column": {
      "latitude": "30.04156849675257",
      "longitude": "-89.98627347010783"
    }
  },
  {
    "service_request": "2022-861555",
    "request_type": "Property Maintenance",
    "request_reason": "Property Maintenance",
    "date_created": "2022-02-16T15:40:36.000",
    "date_modified": "2022-02-16T15:40:36.000",
    "request_status": "Pending",
    "responsible_agency": "Department of Code Enforcement",
    "final_address": "6333 Kingston Ct",
    "address_councildis": "C",
    "status": "Pending",
    "rowid": "861555",
    "final_x": "3707395.71729",
    "final_y": "517735.109558",
    "longitude": "-89.98681319139953",
    "latitude": "29.91678045389977",
    "geocoded_column": {
      "latitude": "29.91678045389977",
      "longitude": "-89.98681319139953"
    }
  },
  {
    "service_request": "2022-861554",
    "request_type": "Roads/Drainage",
    "request_reason": "Pothole",
    "date_created": "2022-02-16T15:40:26.000",
    "date_modified": "2022-02-16T15:40:26.000",
    "request_status": "Pending",
    "responsible_agency": "Department of Public Works",
    "final_address": "822 Delery St",
    "address_councildis": "E",
    "status": "Pending",
    "rowid": "861554",
    "final_x": "3700015.13271",
    "final_y": "532024.484931",
    "longitude": "-90.00958817192482",
    "latitude": "29.956307686154886",
    "geocoded_column": {
      "latitude": "29.956307686154886",
      "longitude": "-90.00958817192482"
    }
  },
  {
    "service_request": "2022-861553",
    "request_type": "Safety & Permits",
    "request_reason": "Licenses & Permits",
    "date_created": "2022-02-16T15:39:47.000",
    "date_modified": "2022-02-16T15:39:47.000",
    "request_status": "Pending",
    "responsible_agency": "Safety and Permits",
    "final_address": "809 Cherokee St",
    "address_councildis": "A",
    "status": "Pending",
    "rowid": "861553",
    "final_x": "3662704.33568",
    "final_y": "525974.968829",
    "longitude": "-90.12760479871827",
    "latitude": "29.94080592455942",
    "geocoded_column": {
      "latitude": "29.94080592455942",
      "longitude": "-90.12760479871827"
    }
  },
  {
    "service_request": "2022-861552",
    "request_type": "Trash/Recycling",
    "request_reason": "Request a Large Item Pick Up",
    "date_created": "2022-02-16T15:39:34.000",
    "date_modified": "2022-02-16T15:39:35.000",
    "request_status": "Pending",
    "responsible_agency": "Department of Sanitation",
    "final_address": "2122 Octavia St",
    "address_councildis": "A",
    "status": "Assigned to Contractor",
    "contractor": "Richards Disposal",
    "rowid": "861552",
    "final_x": "3667432.71815",
    "final_y": "523587.738491",
    "longitude": "-90.11275669945873",
    "latitude": "29.93410414948882",
    "geocoded_column": {
      "latitude": "29.93410414948882",
      "longitude": "-90.11275669945873"
    }
  },
  {
    "service_request": "2022-861551",
    "request_type": "Abandoned Vehicles",
    "request_reason": "Abandoned/Junk Vehicles",
    "date_created": "2022-02-16T15:38:34.000",
    "date_modified": "2022-02-16T15:41:02.000",
    "case_close_date": "2022-02-16T09:41:02.000",
    "request_status": "Closed",
    "responsible_agency": "Department of Public Works",
    "final_address": "10200 Almonaster Ave",
    "address_councildis": "E",
    "status": "Pending",
    "rowid": "861551",
    "final_x": "3713684.56383",
    "final_y": "551626.395989",
    "longitude": "-89.96568637555853",
    "latitude": "30.00976423388402",
    "geocoded_column": {
      "latitude": "30.00976423388402",
      "longitude": "-89.96568637555853"
    }
  },
  {
    "service_request": "2022-861550",
    "request_type": "Roads/Drainage",
    "request_reason": "Damaged Sidewalk",
    "date_created": "2022-02-16T15:37:38.000",
    "date_modified": "2022-02-16T15:37:38.000",
    "request_status": "Pending",
    "responsible_agency": "Department of Public Works",
    "final_address": "2320 Clouet St",
    "address_councildis": "D",
    "status": "Pending",
    "rowid": "861550",
    "final_x": "3690113.30518",
    "final_y": "540722.123979",
    "longitude": "-90.04054486339376",
    "latitude": "29.98053396071247",
    "geocoded_column": {
      "latitude": "29.98053396071247",
      "longitude": "-90.04054486339376"
    }
  },
  {
    "service_request": "2022-861549",
    "request_type": "Trash/Recycling",
    "request_reason": "Request a Large Item Pick Up",
    "date_created": "2022-02-16T15:34:10.000",
    "date_modified": "2022-02-16T15:34:11.000",
    "request_status": "Pending",
    "responsible_agency": "Department of Sanitation",
    "final_address": "5048 Dreux Ave",
    "address_councildis": "D",
    "status": "Assigned to Contractor",
    "contractor": "Metro Disposal",
    "rowid": "861549",
    "final_x": "3692266.01622",
    "final_y": "553342.009751",
    "longitude": "-90.03329346930046",
    "latitude": "30.015167078681657",
    "geocoded_column": {
      "latitude": "30.015167078681657",
      "longitude": "-90.03329346930046"
    }
  },
  {
    "service_request": "2022-861548",
    "request_type": "Traffic Signals/Signs/Striping/Streetlights",
    "request_reason": "Street Light Outage/Malfunction",
    "date_created": "2022-02-16T15:33:46.000",
    "date_modified": "2022-02-16T15:33:47.000",
    "request_status": "Pending",
    "responsible_agency": "Department of Public Works",
    "final_address": "1017 Robert E Lee Blvd",
    "address_councildis": "D",
    "status": "Pending",
    "contractor": "Royal Engineering",
    "rowid": "861548",
    "final_x": "3672830.88526",
    "final_y": "554482.413848",
    "longitude": "-90.094660501015",
    "latitude": "30.018894774370303",
    "geocoded_column": {
      "latitude": "30.018894774370303",
      "longitude": "-90.094660501015"
    }
  },
  {
    "service_request": "2022-861547",
    "request_type": "Safety & Permits",
    "request_reason": "Safety & Permits Request (Cyber Incident Back Up)",
    "date_created": "2022-02-16T15:24:52.000",
    "date_modified": "2022-02-16T15:24:52.000",
    "request_status": "Pending",
    "responsible_agency": "Safety and Permits",
    "final_address": "7949 Alabama St",
    "address_councildis": "D",
    "status": "Pending",
    "rowid": "861547",
    "final_x": "3694601.55818",
    "final_y": "559747.458717",
    "longitude": "-90.02568333075267",
    "latitude": "30.032706571504775",
    "geocoded_column": {
      "latitude": "30.032706571504775",
      "longitude": "-90.02568333075267"
    }
  },
  {
    "service_request": "2022-861546",
    "request_type": "Trash/Recycling",
    "request_reason": "Request a Large Item Pick Up",
    "date_created": "2022-02-16T15:24:04.000",
    "date_modified": "2022-02-16T15:24:05.000",
    "request_status": "Pending",
    "responsible_agency": "Department of Sanitation",
    "final_address": "32 Tennyson Pl",
    "address_councildis": "C",
    "status": "Assigned to Contractor",
    "contractor": "Richards Disposal",
    "rowid": "861546",
    "final_x": "3704903.23787",
    "final_y": "517728.950646",
    "longitude": "-89.99468065581154",
    "latitude": "29.91684382171903",
    "geocoded_column": {
      "latitude": "29.91684382171903",
      "longitude": "-89.99468065581154"
    }
  },
  {
    "service_request": "2022-861545",
    "request_type": "Parks & Parkways",
    "request_reason": "Request Tree Service (Right of Way/Public Property)",
    "date_created": "2022-02-16T15:21:15.000",
    "date_modified": "2022-02-16T15:21:15.000",
    "request_status": "Pending",
    "responsible_agency": "Department of Parks & Parkway",
    "final_address": "1512 Mithra St",
    "address_councildis": "D",
    "status": "Pending",
    "rowid": "861545",
    "final_x": "3678724.11534",
    "final_y": "552116.300246",
    "longitude": "-90.07612199741799",
    "latitude": "30.01221232944989",
    "geocoded_column": {
      "latitude": "30.01221232944989",
      "longitude": "-90.07612199741799"
    }
  },
  {
    "service_request": "2022-861544",
    "request_type": "Abandoned Vehicles",
    "request_reason": "Vehicle Blocking Your Driveway",
    "date_created": "2022-02-16T15:20:28.000",
    "date_modified": "2022-02-16T16:46:14.000",
    "request_status": "Pending",
    "responsible_agency": "Department of Public Works",
    "final_address": "New Orleans,LA",
    "address_councildis": "D",
    "rowid": "861544",
    "final_x": "3679275.46517",
    "final_y": "535941.554887",
    "longitude": "-90.0749412704264",
    "latitude": "29.967720811895013",
    "geocoded_column": {
      "latitude": "29.967720811895013",
      "longitude": "-90.0749412704264"
    }
  },
  {
    "service_request": "2022-861543",
    "request_type": "Property Maintenance",
    "request_reason": "Property Maintenance",
    "date_created": "2022-02-16T15:19:33.000",
    "date_modified": "2022-02-16T15:19:33.000",
    "request_status": "Pending",
    "responsible_agency": "Department of Code Enforcement",
    "final_address": "4709 Eastview Dr",
    "address_councildis": "E",
    "status": "Pending",
    "rowid": "861543",
    "final_x": "3705235.34641",
    "final_y": "555100.456409",
    "longitude": "-89.99225180094207",
    "latitude": "30.019591154951843",
    "geocoded_column": {
      "latitude": "30.019591154951843",
      "longitude": "-89.99225180094207"
    }
  },
  {
    "service_request": "2022-861542",
    "request_type": "Trash/Recycling",
    "request_reason": "Request a Large Item Pick Up",
    "date_created": "2022-02-16T15:18:17.000",
    "date_modified": "2022-02-16T15:19:14.000",
    "request_status": "Pending",
    "responsible_agency": "Department of Sanitation",
    "final_address": "1236 Alvar St",
    "address_councildis": "D",
    "status": "Assigned to Contractor",
    "contractor": "Metro Disposal",
    "rowid": "861542",
    "final_x": "3691615.8047",
    "final_y": "536049.223623",
    "longitude": "-90.03596644594789",
    "latitude": "29.967638445991263",
    "geocoded_column": {
      "latitude": "29.967638445991263",
      "longitude": "-90.03596644594789"
    }
  },
  {
    "service_request": "2022-861541",
    "request_type": "Trash/Recycling",
    "request_reason": "Missed Trash Pick-Up",
    "date_created": "2022-02-16T15:17:56.000",
    "date_modified": "2022-02-16T15:18:47.000",
    "request_status": "Pending",
    "responsible_agency": "Department of Sanitation",
    "final_address": "4011 Vincennes Pl",
    "address_councildis": "B",
    "status": "Assigned to Contractor",
    "contractor": "Richards Disposal",
    "rowid": "861541",
    "final_x": "3668500.42439",
    "final_y": "529984.979649",
    "longitude": "-90.10917021603164",
    "latitude": "29.95166317589749",
    "geocoded_column": {
      "latitude": "29.95166317589749",
      "longitude": "-90.10917021603164"
    }
  },
  {
    "service_request": "2022-861540",
    "request_type": "Traffic Signals/Signs/Striping/Streetlights",
    "request_reason": "Traffic Sign Missing/Damaged",
    "date_created": "2022-02-16T15:14:01.000",
    "date_modified": "2022-02-16T15:14:01.000",
    "request_status": "Pending",
    "responsible_agency": "Department of Public Works",
    "final_address": "N CLAIBORNE AVE & ST BERNARD AVE",
    "address_councildis": "C",
    "status": "Pending",
    "rowid": "861540",
    "final_x": "3682234.31",
    "final_y": "537715.64",
    "longitude": "-90.06553517869295",
    "latitude": "29.972509251901485",
    "geocoded_column": {
      "latitude": "29.972509251901485",
      "longitude": "-90.06553517869295"
    }
  },
  {
    "service_request": "2022-861539",
    "request_type": "Trash/Recycling",
    "request_reason": "Replace Recycling Cart",
    "date_created": "2022-02-16T15:09:36.000",
    "date_modified": "2022-02-16T15:09:36.000",
    "request_status": "Pending",
    "responsible_agency": "Department of Sanitation",
    "final_address": "317 Delaronde St",
    "address_councildis": "C",
    "status": "Pending",
    "rowid": "861539",
    "final_x": "3686409.18204",
    "final_y": "530836.54253",
    "longitude": "-90.05259304831472",
    "latitude": "29.953466441492537",
    "geocoded_column": {
      "latitude": "29.953466441492537",
      "longitude": "-90.05259304831472"
    }
  },
  {
    "service_request": "2022-861538",
    "request_type": "Abandoned Vehicles",
    "request_reason": "Vehicle Blocking Your Driveway",
    "date_created": "2022-02-16T15:09:31.000",
    "date_modified": "2022-02-16T15:10:33.000",
    "request_status": "Pending",
    "responsible_agency": "Department of Public Works",
    "final_address": "2032 Dumaine St",
    "address_councildis": "D",
    "status": "Pending",
    "rowid": "861538",
    "final_x": "3679114.54159",
    "final_y": "535972.444551",
    "longitude": "-90.07544840052097",
    "latitude": "29.96781060641436",
    "geocoded_column": {
      "latitude": "29.96781060641436",
      "longitude": "-90.07544840052097"
    }
  },
  {
    "service_request": "2022-861537",
    "request_type": "Abandoned Vehicles",
    "request_reason": "Abandoned/Junk Vehicles",
    "date_created": "2022-02-16T15:08:10.000",
    "date_modified": "2022-02-16T15:09:29.000",
    "request_status": "Pending",
    "responsible_agency": "Department of Public Works",
    "final_address": "3057 Orleans Ave",
    "address_councildis": "A",
    "status": "Pending",
    "rowid": "861537",
    "final_x": "3675401.59278",
    "final_y": "538119.525385",
    "longitude": "-90.08710026992637",
    "latitude": "29.973825902790754",
    "geocoded_column": {
      "latitude": "29.973825902790754",
      "longitude": "-90.08710026992637"
    }
  },
  {
    "service_request": "2022-861536",
    "request_type": "Trash/Recycling",
    "request_reason": "Repair Trash Cart",
    "date_created": "2022-02-16T15:06:25.000",
    "date_modified": "2022-02-16T15:06:27.000",
    "request_status": "Pending",
    "responsible_agency": "Department of Sanitation",
    "final_address": "2514 Baronne St",
    "address_councildis": "B",
    "status": "Assigned to Contractor",
    "contractor": "Richards Disposal",
    "rowid": "861536",
    "final_x": "3676190.23221",
    "final_y": "523555.296827",
    "longitude": "-90.08511064017645",
    "latitude": "29.93375553132869",
    "geocoded_column": {
      "latitude": "29.93375553132869",
      "longitude": "-90.08511064017645"
    }
  },
  {
    "service_request": "2022-861535",
    "request_type": "Abandoned Vehicles",
    "request_reason": "Abandoned/Junk Vehicles",
    "date_created": "2022-02-16T15:04:48.000",
    "date_modified": "2022-02-16T15:04:48.000",
    "request_status": "Pending",
    "responsible_agency": "Department of Public Works",
    "final_address": "831 Third St",
    "address_councildis": "B",
    "status": "Pending",
    "rowid": "861535",
    "final_x": "3678067.34875",
    "final_y": "520473.358264",
    "longitude": "-90.07929115387763",
    "latitude": "29.9252248468082",
    "geocoded_column": {
      "latitude": "29.9252248468082",
      "longitude": "-90.07929115387763"
    }
  },
  {
    "service_request": "2022-861534",
    "request_type": "Trash/Recycling",
    "request_reason": "Repair Trash Cart",
    "date_created": "2022-02-16T15:00:25.000",
    "date_modified": "2022-02-16T15:00:26.000",
    "request_status": "Pending",
    "responsible_agency": "Department of Sanitation",
    "final_address": "7826 Doyle Ct",
    "address_councildis": "E",
    "status": "Assigned to Contractor",
    "contractor": "Metro Disposal",
    "rowid": "861534",
    "final_x": "3700259.28637",
    "final_y": "561352.387422",
    "longitude": "-90.0077458738245",
    "latitude": "30.036940754161435",
    "geocoded_column": {
      "latitude": "30.036940754161435",
      "longitude": "-90.0077458738245"
    }
  },
  {
    "service_request": "2022-861533",
    "request_type": "Parks & Parkways",
    "request_reason": "Request Tree Service (Right of Way/Public Property)",
    "date_created": "2022-02-16T14:58:36.000",
    "date_modified": "2022-02-16T14:58:37.000",
    "request_status": "Pending",
    "responsible_agency": "Department of Parks & Parkway",
    "final_address": "2458 Lake Oaks Prkwy",
    "address_councildis": "D",
    "status": "Pending",
    "rowid": "861533",
    "final_x": "3685009.59413",
    "final_y": "558436.69814",
    "longitude": "-90.05604087075645",
    "latitude": "30.029399968738936",
    "geocoded_column": {
      "latitude": "30.029399968738936",
      "longitude": "-90.05604087075645"
    }
  },
  {
    "service_request": "2022-861532",
    "request_type": "Trash/Recycling",
    "request_reason": "Request a Large Item Pick Up",
    "date_created": "2022-02-16T14:57:57.000",
    "date_modified": "2022-02-16T14:57:57.000",
    "request_status": "Pending",
    "responsible_agency": "Department of Sanitation",
    "final_address": "2130 Rev. John Raphael, Jr. Way",
    "address_councildis": "B",
    "status": "Assigned to Contractor",
    "contractor": "Richards Disposal",
    "rowid": "861532",
    "final_x": "3675932.83118",
    "final_y": "526100.186366",
    "longitude": "-90.08583577502132",
    "latitude": "29.940760851401496",
    "geocoded_column": {
      "latitude": "29.940760851401496",
      "longitude": "-90.08583577502132"
    }
  },
  {
    "service_request": "2022-861530",
    "request_type": "Abandoned Vehicles",
    "request_reason": "Abandoned/Junk Vehicles",
    "date_created": "2022-02-16T14:56:03.000",
    "date_modified": "2022-02-16T14:56:03.000",
    "request_status": "Pending",
    "responsible_agency": "Department of Public Works",
    "final_address": "2444 Mazant St",
    "address_councildis": "D",
    "status": "Pending",
    "rowid": "861530",
    "final_x": "3693361.12144",
    "final_y": "540466.630283",
    "longitude": "-90.030296076841",
    "latitude": "29.979730288714705",
    "geocoded_column": {
      "latitude": "29.979730288714705",
      "longitude": "-90.030296076841"
    }
  },
  {
    "service_request": "2022-861531",
    "request_type": "Abandoned Vehicles",
    "request_reason": "Abandoned/Junk Vehicles",
    "date_created": "2022-02-16T14:56:03.000",
    "date_modified": "2022-02-16T14:56:03.000",
    "request_status": "Pending",
    "responsible_agency": "Department of Public Works",
    "final_address": "2444 Mazant St",
    "address_councildis": "D",
    "status": "Pending",
    "rowid": "861531",
    "final_x": "3693361.12144",
    "final_y": "540466.630283",
    "longitude": "-90.030296076841",
    "latitude": "29.979730288714705",
    "geocoded_column": {
      "latitude": "29.979730288714705",
      "longitude": "-90.030296076841"
    }
  },
  {
    "service_request": "2022-861529",
    "request_type": "Traffic Signals/Signs/Striping/Streetlights",
    "request_reason": "Street Light Outage/Malfunction",
    "date_created": "2022-02-16T14:55:35.000",
    "date_modified": "2022-02-16T14:55:36.000",
    "request_status": "Pending",
    "responsible_agency": "Department of Public Works",
    "final_address": "1461 Magazine St",
    "address_councildis": "B",
    "status": "Pending",
    "contractor": "Royal Engineering",
    "rowid": "861529",
    "final_x": "3680202.78491",
    "final_y": "524023.150652",
    "longitude": "-90.0724269539209",
    "latitude": "29.934921174757065",
    "geocoded_column": {
      "latitude": "29.934921174757065",
      "longitude": "-90.0724269539209"
    }
  },
  {
    "service_request": "2022-861528",
    "request_type": "Safety & Permits",
    "request_reason": "Licenses & Permits",
    "date_created": "2022-02-16T14:54:19.000",
    "date_modified": "2022-02-16T14:54:19.000",
    "request_status": "Pending",
    "responsible_agency": "Safety and Permits",
    "final_address": "214 Maumus Ave",
    "address_councildis": "C",
    "status": "Pending",
    "rowid": "861528",
    "final_x": "3706515.9795",
    "final_y": "516833.806837",
    "longitude": "-89.98962334704494",
    "latitude": "29.914330580407967",
    "geocoded_column": {
      "latitude": "29.914330580407967",
      "longitude": "-89.98962334704494"
    }
  },
  {
    "service_request": "2022-861527",
    "request_type": "Property Maintenance",
    "request_reason": "Property Maintenance",
    "date_created": "2022-02-16T14:49:20.000",
    "date_modified": "2022-02-16T14:49:30.000",
    "request_status": "Pending",
    "responsible_agency": "Department of Code Enforcement",
    "final_address": "2739 Peniston St",
    "address_councildis": "B",
    "status": "Pending",
    "rowid": "861527",
    "final_x": "3671923.76315",
    "final_y": "525223.853437",
    "longitude": "-90.09852294266062",
    "latitude": "29.93847062808617",
    "geocoded_column": {
      "latitude": "29.93847062808617",
      "longitude": "-90.09852294266062"
    }
  },
  {
    "service_request": "2022-861526",
    "request_type": "Property Maintenance",
    "request_reason": "Property Maintenance",
    "date_created": "2022-02-16T14:49:00.000",
    "date_modified": "2022-02-16T14:49:00.000",
    "request_status": "Pending",
    "responsible_agency": "Department of Code Enforcement",
    "final_address": "3208 Jena St",
    "address_councildis": "B",
    "status": "Pending",
    "rowid": "861526",
    "final_x": "3669788.59066",
    "final_y": "526632.313726",
    "longitude": "-90.10521625799318",
    "latitude": "29.942406534018087",
    "geocoded_column": {
      "latitude": "29.942406534018087",
      "longitude": "-90.10521625799318"
    }
  },
  {
    "service_request": "2022-861525",
    "request_type": "Trash/Recycling",
    "request_reason": "Missed Trash Pick-Up",
    "date_created": "2022-02-16T14:46:56.000",
    "date_modified": "2022-02-16T14:47:01.000",
    "request_status": "Pending",
    "responsible_agency": "Department of Sanitation",
    "final_address": "8735 Apricot St",
    "address_councildis": "A",
    "status": "Assigned to Contractor",
    "contractor": "Richards Disposal",
    "rowid": "861525",
    "final_x": "3664064.00032",
    "final_y": "534284.947717",
    "longitude": "-90.12303496031429",
    "latitude": "29.96361626729517",
    "geocoded_column": {
      "latitude": "29.96361626729517",
      "longitude": "-90.12303496031429"
    }
  },
  {
    "service_request": "2022-861524",
    "request_type": "Trash/Recycling",
    "request_reason": "Request a Large Item Pick Up",
    "date_created": "2022-02-16T14:46:04.000",
    "date_modified": "2022-02-16T14:46:05.000",
    "request_status": "Pending",
    "responsible_agency": "Department of Sanitation",
    "final_address": "4627 Annunciation St",
    "address_councildis": "B",
    "status": "Assigned to Contractor",
    "contractor": "Richards Disposal",
    "rowid": "861524",
    "final_x": "3670173.81422",
    "final_y": "517689.664886",
    "longitude": "-90.10430285514599",
    "latitude": "29.917805755480774",
    "geocoded_column": {
      "latitude": "29.917805755480774",
      "longitude": "-90.10430285514599"
    }
  },
  {
    "service_request": "2022-861523",
    "request_type": "Safety & Permits",
    "request_reason": "Licenses & Permits",
    "date_created": "2022-02-16T14:38:03.000",
    "date_modified": "2022-02-16T14:38:03.000",
    "request_status": "Pending",
    "responsible_agency": "Safety and Permits",
    "final_address": "5910 S Front St",
    "address_councildis": "A",
    "status": "Pending",
    "rowid": "861523",
    "final_x": "3664660.0777",
    "final_y": "516964.823605",
    "longitude": "-90.12173094426656",
    "latitude": "29.915974133368017",
    "geocoded_column": {
      "latitude": "29.915974133368017",
      "longitude": "-90.12173094426656"
    }
  },
  {
    "service_request": "2022-861522",
    "request_type": "Trash/Recycling",
    "request_reason": "Missed Trash Pick-Up",
    "date_created": "2022-02-16T14:35:02.000",
    "date_modified": "2022-02-16T14:35:03.000",
    "request_status": "Pending",
    "responsible_agency": "Department of Sanitation",
    "final_address": "1127 Fern St",
    "address_councildis": "A",
    "status": "Assigned to Contractor",
    "contractor": "Richards Disposal",
    "rowid": "861522",
    "final_x": "3662484.36685",
    "final_y": "527732.639615",
    "longitude": "-90.12824091988482",
    "latitude": "29.945645321390217",
    "geocoded_column": {
      "latitude": "29.945645321390217",
      "longitude": "-90.12824091988482"
    }
  },
  {
    "service_request": "2022-861521",
    "request_type": "Trash/Recycling",
    "request_reason": "Dead Animal Pick Up",
    "date_created": "2022-02-16T14:33:21.000",
    "date_modified": "2022-02-16T14:33:22.000",
    "request_status": "Pending",
    "responsible_agency": "Department of Sanitation",
    "final_address": "5900 BLK Tchoupitoulas St",
    "address_councildis": "A",
    "status": "Assigned to Contractor",
    "contractor": "Richards Disposal",
    "rowid": "861521",
    "final_x": "3664699.15646",
    "final_y": "517357.508708",
    "longitude": "-90.12159448841174",
    "latitude": "29.917052758996203",
    "geocoded_column": {
      "latitude": "29.917052758996203",
      "longitude": "-90.12159448841174"
    }
  },
  {
    "service_request": "2022-861520",
    "request_type": "Traffic Signals/Signs/Striping/Streetlights",
    "request_reason": "Street Light Outage/Malfunction",
    "date_created": "2022-02-16T14:32:21.000",
    "date_modified": "2022-02-16T14:32:22.000",
    "request_status": "Pending",
    "responsible_agency": "Department of Public Works",
    "final_address": "5517 N Robertson St",
    "address_councildis": "E",
    "status": "Pending",
    "contractor": "Royal Engineering",
    "rowid": "861520",
    "final_x": "3698273.78224",
    "final_y": "535358.126726",
    "longitude": "-90.01496562721007",
    "latitude": "29.965529216295362",
    "geocoded_column": {
      "latitude": "29.965529216295362",
      "longitude": "-90.01496562721007"
    }
  },
  {
    "service_request": "2022-861519",
    "request_type": "Trash/Recycling",
    "request_reason": "Illegal Dumping",
    "date_created": "2022-02-16T14:30:42.000",
    "date_modified": "2022-02-16T14:30:42.000",
    "request_status": "Pending",
    "responsible_agency": "Department of Sanitation",
    "final_address": "300 Socrates St",
    "address_councildis": "C",
    "status": "Pending",
    "rowid": "861519",
    "final_x": "3686325.11362",
    "final_y": "526406.473342",
    "longitude": "-90.05301479973242",
    "latitude": "29.941287841208784",
    "geocoded_column": {
      "latitude": "29.941287841208784",
      "longitude": "-90.05301479973242"
    }
  },
  {
    "service_request": "2022-861518",
    "request_type": "Trash/Recycling",
    "request_reason": "Illegal Dumping",
    "date_created": "2022-02-16T14:27:40.000",
    "date_modified": "2022-02-16T14:27:40.000",
    "request_status": "Pending",
    "responsible_agency": "Department of Sanitation",
    "final_address": "1601 Simon Bolivar Ave",
    "address_councildis": "B",
    "status": "Pending",
    "rowid": "861518",
    "final_x": "3677066.19054",
    "final_y": "526481.22931",
    "longitude": "-90.08224442510749",
    "latitude": "29.941774616668855",
    "geocoded_column": {
      "latitude": "29.941774616668855",
      "longitude": "-90.08224442510749"
    }
  },
  {
    "service_request": "2022-861517",
    "request_type": "Trash/Recycling",
    "request_reason": "Request a Large Item Pick Up",
    "date_created": "2022-02-16T14:27:13.000",
    "date_modified": "2022-02-16T14:27:14.000",
    "request_status": "Pending",
    "responsible_agency": "Department of Sanitation",
    "final_address": "11294 Midpoint Dr",
    "address_councildis": "E",
    "status": "Assigned to Contractor",
    "contractor": "Metro Disposal",
    "rowid": "861517",
    "final_x": "3718522.56185",
    "final_y": "559483.636253",
    "longitude": "-89.95010193325913",
    "latitude": "30.03120885078771",
    "geocoded_column": {
      "latitude": "30.03120885078771",
      "longitude": "-89.95010193325913"
    }
  },
  {
    "service_request": "2022-861516",
    "request_type": "Trash/Recycling",
    "request_reason": "Order Trash Cart",
    "date_created": "2022-02-16T14:27:01.000",
    "date_modified": "2022-02-16T14:30:31.000",
    "request_status": "Pending",
    "responsible_agency": "Department of Sanitation",
    "final_address": "New Orleans,LA",
    "address_councildis": "E",
    "status": "Assigned to Contractor",
    "contractor": "Metro Disposal",
    "rowid": "861516",
    "final_x": "3700556.23044",
    "final_y": "533714.469381",
    "longitude": "-90.00781784584248",
    "latitude": "29.960937341281006",
    "geocoded_column": {
      "latitude": "29.960937341281006",
      "longitude": "-90.00781784584248"
    }
  },
  {
    "service_request": "2022-861515",
    "request_type": "Trash/Recycling",
    "request_reason": "Request a Large Item Pick Up",
    "date_created": "2022-02-16T14:20:18.000",
    "date_modified": "2022-02-16T14:20:19.000",
    "request_status": "Pending",
    "responsible_agency": "Department of Sanitation",
    "final_address": "506 S Murat St",
    "address_councildis": "A",
    "status": "Assigned to Contractor",
    "contractor": "Richards Disposal",
    "rowid": "861515",
    "final_x": "3668716.62228",
    "final_y": "538035.744393",
    "longitude": "-90.10821577276434",
    "latitude": "29.973793758375876",
    "geocoded_column": {
      "latitude": "29.973793758375876",
      "longitude": "-90.10821577276434"
    }
  },
  {
    "service_request": "2022-861514",
    "request_type": "Trash/Recycling",
    "request_reason": "Request a Large Item Pick Up",
    "date_created": "2022-02-16T14:20:00.000",
    "date_modified": "2022-02-16T14:20:01.000",
    "request_status": "Pending",
    "responsible_agency": "Department of Sanitation",
    "final_address": "4409 Eden St",
    "address_councildis": "B",
    "status": "Assigned to Contractor",
    "contractor": "Richards Disposal",
    "rowid": "861514",
    "final_x": "3669919.50094",
    "final_y": "530702.337986",
    "longitude": "-90.10466515487335",
    "latitude": "29.953593912389938",
    "geocoded_column": {
      "latitude": "29.953593912389938",
      "longitude": "-90.10466515487335"
    }
  },
  {
    "service_request": "2022-861513",
    "request_type": "Roads/Drainage",
    "request_reason": "Street Flooding / Drainage",
    "date_created": "2022-02-16T14:19:39.000",
    "date_modified": "2022-02-16T14:19:39.000",
    "request_status": "Pending",
    "responsible_agency": "Department of Public Works",
    "final_address": "1601 Simon Bolivar Ave",
    "address_councildis": "B",
    "status": "Pending",
    "rowid": "861513",
    "final_x": "3677066.19054",
    "final_y": "526481.22931",
    "longitude": "-90.08224442510749",
    "latitude": "29.941774616668855",
    "geocoded_column": {
      "latitude": "29.941774616668855",
      "longitude": "-90.08224442510749"
    }
  },
  {
    "service_request": "2022-861512",
    "request_type": "Trash/Recycling",
    "request_reason": "Request a Large Item Pick Up",
    "date_created": "2022-02-16T14:16:28.000",
    "date_modified": "2022-02-16T14:16:29.000",
    "request_status": "Pending",
    "responsible_agency": "Department of Sanitation",
    "final_address": "1309 Leontine St",
    "address_councildis": "B",
    "status": "Assigned to Contractor",
    "contractor": "Richards Disposal",
    "rowid": "861512",
    "final_x": "3667402.1929",
    "final_y": "520074.555768",
    "longitude": "-90.11297119012383",
    "latitude": "29.92444490734079",
    "geocoded_column": {
      "latitude": "29.92444490734079",
      "longitude": "-90.11297119012383"
    }
  },
  {
    "service_request": "2022-861511",
    "request_type": "Traffic Signals/Signs/Striping/Streetlights",
    "request_reason": "Request for Traffic Calming due to Speeding",
    "date_created": "2022-02-16T14:10:19.000",
    "date_modified": "2022-02-16T14:10:19.000",
    "request_status": "Pending",
    "responsible_agency": "Department of Public Works",
    "final_address": "5790 Crowder Blvd",
    "address_councildis": "E",
    "status": "Pending",
    "rowid": "861511",
    "final_x": "3704694.77431",
    "final_y": "558192.461531",
    "longitude": "-89.99384560868877",
    "latitude": "30.0281103569615",
    "geocoded_column": {
      "latitude": "30.0281103569615",
      "longitude": "-89.99384560868877"
    }
  },
  {
    "service_request": "2022-861510",
    "request_type": "Trash/Recycling",
    "request_reason": "Repair Trash Cart",
    "date_created": "2022-02-16T14:09:11.000",
    "date_modified": "2022-02-16T14:09:12.000",
    "request_status": "Pending",
    "responsible_agency": "Department of Sanitation",
    "final_address": "937 S Telemachus St",
    "address_councildis": "B",
    "status": "Assigned to Contractor",
    "contractor": "Richards Disposal",
    "rowid": "861510",
    "final_x": "3669944.44628",
    "final_y": "534279.301381",
    "longitude": "-90.10446525814477",
    "latitude": "29.96342864325713",
    "geocoded_column": {
      "latitude": "29.96342864325713",
      "longitude": "-90.10446525814477"
    }
  },
  {
    "service_request": "2022-861509",
    "request_type": "Trash/Recycling",
    "request_reason": "Order Trash Cart",
    "date_created": "2022-02-16T14:08:56.000",
    "date_modified": "2022-02-16T14:08:58.000",
    "request_status": "Pending",
    "responsible_agency": "Department of Sanitation",
    "final_address": "2016 Lamanche St, New Orleans, Louisiana, 70117",
    "address_councildis": "E",
    "status": "Assigned to Contractor",
    "contractor": "Metro Disposal",
    "rowid": "861509",
    "final_x": "3699270.64356",
    "final_y": "537204.23636",
    "longitude": "-90.01175036040033",
    "latitude": "29.970573779748367",
    "geocoded_column": {
      "latitude": "29.970573779748367",
      "longitude": "-90.01175036040033"
    }
  },
  {
    "service_request": "2022-861508",
    "request_type": "Trash/Recycling",
    "request_reason": "Replace Trash Cart",
    "date_created": "2022-02-16T14:08:17.000",
    "date_modified": "2022-02-16T15:08:25.000",
    "case_close_date": "2022-02-16T09:08:25.000",
    "request_status": "Closed",
    "responsible_agency": "Department of Sanitation",
    "final_address": "2824 Baronne St",
    "address_councildis": "B",
    "status": "Resolved",
    "contractor": "Richards Disposal",
    "rowid": "861508",
    "final_x": "3675349.40712",
    "final_y": "523000.205691",
    "longitude": "-90.08778413672246",
    "latitude": "29.932254370372988",
    "geocoded_column": {
      "latitude": "29.932254370372988",
      "longitude": "-90.08778413672246"
    }
  },
  {
    "service_request": "2022-861507",
    "request_type": "Trash/Recycling",
    "request_reason": "Replace Trash Cart",
    "date_created": "2022-02-16T14:07:47.000",
    "date_modified": "2022-02-16T14:10:46.000",
    "request_status": "Pending",
    "responsible_agency": "Department of Sanitation",
    "final_address": "641 Arabella St",
    "address_councildis": "A",
    "status": "Assigned to Contractor",
    "contractor": "Richards Disposal",
    "rowid": "861507",
    "final_x": "3665763.17376",
    "final_y": "518447.640182",
    "longitude": "-90.11819949519247",
    "latitude": "29.920019297232308",
    "geocoded_column": {
      "latitude": "29.920019297232308",
      "longitude": "-90.11819949519247"
    }
  },
  {
    "service_request": "2022-861506",
    "request_type": "Property Maintenance",
    "request_reason": "Property Maintenance",
    "date_created": "2022-02-16T14:06:57.000",
    "date_modified": "2022-02-16T14:06:57.000",
    "request_status": "Pending",
    "responsible_agency": "Department of Code Enforcement",
    "final_address": "1136 Decatur St",
    "address_councildis": "C",
    "status": "Pending",
    "rowid": "861506",
    "final_x": "3684249.04399",
    "final_y": "533366.790084",
    "longitude": "-90.05932500616495",
    "latitude": "29.960489969448492",
    "geocoded_column": {
      "latitude": "29.960489969448492",
      "longitude": "-90.05932500616495"
    }
  },
  {
    "service_request": "2022-861505",
    "request_type": "Roads/Drainage",
    "request_reason": "Catch Basin - Clogged",
    "date_created": "2022-02-16T14:03:23.000",
    "date_modified": "2022-02-16T14:03:23.000",
    "request_status": "Pending",
    "responsible_agency": "Department of Public Works",
    "final_address": "2505 Annunciation St",
    "address_councildis": "B",
    "status": "Pending",
    "rowid": "861505",
    "final_x": "3678351.71944",
    "final_y": "520414.554296",
    "longitude": "-90.07839551868811",
    "latitude": "29.925054594315984",
    "geocoded_column": {
      "latitude": "29.925054594315984",
      "longitude": "-90.07839551868811"
    }
  },
  {
    "service_request": "2022-861504",
    "request_type": "Parks & Parkways",
    "request_reason": "Request Tree Service (Right of Way/Public Property)",
    "date_created": "2022-02-16T14:00:56.000",
    "date_modified": "2022-02-16T14:00:56.000",
    "request_status": "Pending",
    "responsible_agency": "Department of Parks & Parkway",
    "final_address": "521 Peniston St",
    "address_councildis": "B",
    "status": "Pending",
    "rowid": "861504",
    "final_x": "3673703.4372",
    "final_y": "517907.352502",
    "longitude": "-90.09315432911478",
    "latitude": "29.918299755662225",
    "geocoded_column": {
      "latitude": "29.918299755662225",
      "longitude": "-90.09315432911478"
    }
  },
  {
    "service_request": "2022-861503",
    "request_type": "Trash/Recycling",
    "request_reason": "Damaged Caused By Contractor",
    "date_created": "2022-02-16T13:55:39.000",
    "date_modified": "2022-02-16T13:55:40.000",
    "request_status": "Pending",
    "responsible_agency": "Department of Sanitation",
    "final_address": "1728 N Gayoso St",
    "address_councildis": "D",
    "status": "Assigned to Contractor",
    "contractor": "Metro Disposal",
    "rowid": "861503",
    "final_x": "3678832.52424",
    "final_y": "541550.862284",
    "longitude": "-90.07614573250827",
    "latitude": "29.98315784209537",
    "geocoded_column": {
      "latitude": "29.98315784209537",
      "longitude": "-90.07614573250827"
    }
  },
  {
    "service_request": "2022-861502",
    "request_type": "Parks & Parkways",
    "request_reason": "Request Tree Service (Right of Way/Public Property)",
    "date_created": "2022-02-16T13:51:37.000",
    "date_modified": "2022-02-16T13:53:42.000",
    "request_status": "Pending",
    "responsible_agency": "Department of Parks & Parkway",
    "final_address": "5517 N Robertson St",
    "address_councildis": "E",
    "status": "Pending",
    "rowid": "861502",
    "final_x": "3698273.78224",
    "final_y": "535358.126726",
    "longitude": "-90.01496562721007",
    "latitude": "29.965529216295362",
    "geocoded_column": {
      "latitude": "29.965529216295362",
      "longitude": "-90.01496562721007"
    }
  },
  {
    "service_request": "2022-861501",
    "request_type": "Trash/Recycling",
    "request_reason": "Request a Large Item Pick Up",
    "date_created": "2022-02-16T13:42:02.000",
    "date_modified": "2022-02-16T13:42:03.000",
    "request_status": "Pending",
    "responsible_agency": "Department of Sanitation",
    "final_address": "4610 S Carrollton Ave",
    "address_councildis": "A",
    "status": "Assigned to Contractor",
    "contractor": "Richards Disposal",
    "rowid": "861501",
    "final_x": "3670753.06875",
    "final_y": "537735.197128",
    "longitude": "-90.10179441444232",
    "latitude": "29.972907328123423",
    "geocoded_column": {
      "latitude": "29.972907328123423",
      "longitude": "-90.10179441444232"
    }
  },
  {
    "service_request": "2022-861500",
    "request_type": "Traffic Signals/Signs/Striping/Streetlights",
    "request_reason": "Street Light Outage/Malfunction",
    "date_created": "2022-02-16T13:41:45.000",
    "date_modified": "2022-02-16T13:42:15.000",
    "request_status": "Pending",
    "responsible_agency": "Department of Public Works",
    "final_address": "2215 Wirth Pl",
    "address_councildis": "A",
    "status": "Pending",
    "contractor": "Royal Engineering",
    "rowid": "861500",
    "final_x": "3667107.85338",
    "final_y": "524321.196348",
    "longitude": "-90.11375764421877",
    "latitude": "29.936130435514674",
    "geocoded_column": {
      "latitude": "29.936130435514674",
      "longitude": "-90.11375764421877"
    }
  },
  {
    "service_request": "2022-861499",
    "request_type": "Abandoned Vehicles",
    "request_reason": "Abandoned/Junk Vehicles",
    "date_created": "2022-02-16T13:33:24.000",
    "date_modified": "2022-02-16T13:33:24.000",
    "request_status": "Pending",
    "responsible_agency": "Department of Public Works",
    "final_address": "ST ANDREW ST & FRERET ST",
    "address_councildis": "B",
    "status": "Pending",
    "rowid": "861499",
    "final_x": "3676029.5",
    "final_y": "526723.58",
    "longitude": "-90.08550914111133",
    "latitude": "29.942472084366198",
    "geocoded_column": {
      "latitude": "29.942472084366198",
      "longitude": "-90.08550914111133"
    }
  },
  {
    "service_request": "2022-861498",
    "request_type": "Trash/Recycling",
    "request_reason": "Request a Large Item Pick Up",
    "date_created": "2022-02-16T13:28:00.000",
    "date_modified": "2022-02-16T13:28:01.000",
    "case_close_date": "2021-12-20T18:00:00.000",
    "request_status": "Pending",
    "responsible_agency": "Department of Sanitation",
    "final_address": "5630 Oxford Pl",
    "address_councildis": "C",
    "status": "Assigned to Contractor",
    "contractor": "Richards Disposal",
    "rowid": "861498",
    "final_x": "3704450.02193",
    "final_y": "520126.712824",
    "longitude": "-89.9960228533633",
    "latitude": "29.923451389702237",
    "geocoded_column": {
      "latitude": "29.923451389702237",
      "longitude": "-89.9960228533633"
    }
  },
  {
    "service_request": "2022-861497",
    "request_type": "Abandoned Vehicles",
    "request_reason": "Vehicle Blocking Your Driveway",
    "date_created": "2022-02-16T13:27:00.000",
    "date_modified": "2022-02-16T13:27:00.000",
    "request_status": "Pending",
    "responsible_agency": "Department of Public Works",
    "final_address": "1615 Casa Calvo St",
    "address_councildis": "C",
    "status": "Pending",
    "rowid": "861497",
    "final_x": "3691965.22205",
    "final_y": "525291.471165",
    "longitude": "-90.03524785314205",
    "latitude": "29.93804747638723",
    "geocoded_column": {
      "latitude": "29.93804747638723",
      "longitude": "-90.03524785314205"
    }
  },
  {
    "service_request": "2022-861496",
    "request_type": "Trash/Recycling",
    "request_reason": "Request a Large Item Pick Up",
    "date_created": "2022-02-16T13:25:47.000",
    "date_modified": "2022-02-16T13:25:48.000",
    "request_status": "Pending",
    "responsible_agency": "Department of Sanitation",
    "final_address": "5330 Camp St",
    "address_councildis": "B",
    "status": "Assigned to Contractor",
    "contractor": "Richards Disposal",
    "rowid": "861496",
    "final_x": "3667254.12948",
    "final_y": "519003.313463",
    "longitude": "-90.11347457721239",
    "latitude": "29.921503664049855",
    "geocoded_column": {
      "latitude": "29.921503664049855",
      "longitude": "-90.11347457721239"
    }
  },
  {
    "service_request": "2022-861495",
    "request_type": "Trash/Recycling",
    "request_reason": "Missed Trash Pick-Up",
    "date_created": "2022-02-16T13:22:35.000",
    "date_modified": "2022-02-16T13:22:36.000",
    "request_status": "Pending",
    "responsible_agency": "Department of Sanitation",
    "final_address": "3310 Lawrence St",
    "address_councildis": "C",
    "status": "Assigned to Contractor",
    "contractor": "Richards Disposal",
    "rowid": "861495",
    "final_x": "3696430.36727",
    "final_y": "525527.507069",
    "longitude": "-90.02114253843634",
    "latitude": "29.938556648824083",
    "geocoded_column": {
      "latitude": "29.938556648824083",
      "longitude": "-90.02114253843634"
    }
  },
  {
    "service_request": "2022-861494",
    "request_type": "Traffic Signals/Signs/Striping/Streetlights",
    "request_reason": "Street Light Outage/Malfunction",
    "date_created": "2022-02-16T13:22:00.000",
    "date_modified": "2022-02-16T13:22:01.000",
    "request_status": "Pending",
    "responsible_agency": "Department of Public Works",
    "final_address": "330 Julia St",
    "address_councildis": "B",
    "status": "Pending",
    "contractor": "Royal Engineering",
    "rowid": "861494",
    "final_x": "3681921.8781",
    "final_y": "527482.024127",
    "longitude": "-90.06687910963836",
    "latitude": "29.944379795263774",
    "geocoded_column": {
      "latitude": "29.944379795263774",
      "longitude": "-90.06687910963836"
    }
  },
  {
    "service_request": "2022-861493",
    "request_type": "Trash/Recycling",
    "request_reason": "Illegal Dumping",
    "date_created": "2022-02-16T13:21:58.000",
    "date_modified": "2022-02-16T13:21:58.000",
    "request_status": "Pending",
    "responsible_agency": "Department of Sanitation",
    "final_address": "838 Wagner St",
    "address_councildis": "C",
    "status": "Pending",
    "rowid": "861493",
    "final_x": "3690601.92502",
    "final_y": "528265.192704",
    "longitude": "-90.03944587370789",
    "latitude": "29.946266590733543",
    "geocoded_column": {
      "latitude": "29.946266590733543",
      "longitude": "-90.03944587370789"
    }
  },
  {
    "service_request": "2022-861492",
    "request_type": "Roads/Drainage",
    "request_reason": "Leaking Hydrant",
    "date_created": "2022-02-16T13:21:08.000",
    "date_modified": "2022-02-16T13:21:08.000",
    "request_status": "Pending",
    "responsible_agency": "Department of Public Works",
    "final_address": "FELICITY ST & WILLOW ST",
    "address_councildis": "B",
    "status": "Pending",
    "rowid": "861492",
    "final_x": "3675288.9",
    "final_y": "527781.68",
    "longitude": "-90.08781107398946",
    "latitude": "29.945403666400605",
    "geocoded_column": {
      "latitude": "29.945403666400605",
      "longitude": "-90.08781107398946"
    }
  },
  {
    "service_request": "2022-861491",
    "request_type": "Traffic Signals/Signs/Striping/Streetlights",
    "request_reason": "Traffic Sign Missing/Damaged",
    "date_created": "2022-02-16T13:21:07.000",
    "date_modified": "2022-02-16T13:21:07.000",
    "request_status": "Pending",
    "responsible_agency": "Department of Public Works",
    "final_address": "4325 Jena St",
    "address_councildis": "A",
    "status": "Pending",
    "rowid": "861491",
    "final_x": "3669149.77959",
    "final_y": "529230.841153",
    "longitude": "-90.10714534053443",
    "latitude": "29.94957045012267",
    "geocoded_column": {
      "latitude": "29.94957045012267",
      "longitude": "-90.10714534053443"
    }
  },
  {
    "service_request": "2022-861490",
    "request_type": "Property Maintenance",
    "request_reason": "Property Maintenance",
    "date_created": "2022-02-16T13:18:48.000",
    "date_modified": "2022-02-16T13:18:48.000",
    "request_status": "Pending",
    "responsible_agency": "Department of Code Enforcement",
    "final_address": "9600 Lake Forest Blvd",
    "address_councildis": "E",
    "status": "Pending",
    "rowid": "861490",
    "final_x": "3708616.80081",
    "final_y": "558345.998684",
    "longitude": "-89.98144663383816",
    "latitude": "30.028405874469446",
    "geocoded_column": {
      "latitude": "30.028405874469446",
      "longitude": "-89.98144663383816"
    }
  },
  {
    "service_request": "2022-861489",
    "request_type": "Abandoned Vehicles",
    "request_reason": "Abandoned/Junk Vehicles",
    "date_created": "2022-02-16T13:17:19.000",
    "date_modified": "2022-02-16T13:18:30.000",
    "request_status": "Pending",
    "responsible_agency": "Department of Public Works",
    "final_address": "2000 BLK N Johnson St",
    "address_councildis": "D",
    "status": "Pending",
    "rowid": "861489",
    "final_x": "3683788.04315",
    "final_y": "539542.005677",
    "longitude": "-90.06056414995854",
    "latitude": "29.977483759857353",
    "geocoded_column": {
      "latitude": "29.977483759857353",
      "longitude": "-90.06056414995854"
    }
  },
  {
    "service_request": "2022-861488",
    "request_type": "Trash/Recycling",
    "request_reason": "Missed Trash Pick-Up",
    "date_created": "2022-02-16T13:15:16.000",
    "date_modified": "2022-02-16T13:15:17.000",
    "request_status": "Pending",
    "responsible_agency": "Department of Sanitation",
    "final_address": "5021 Laurel St",
    "address_councildis": "B",
    "status": "Assigned to Contractor",
    "contractor": "Richards Disposal",
    "rowid": "861488",
    "final_x": "3668445.67098",
    "final_y": "517890.746998",
    "longitude": "-90.10975088889502",
    "latitude": "29.918409523234416",
    "geocoded_column": {
      "latitude": "29.918409523234416",
      "longitude": "-90.10975088889502"
    }
  },
  {
    "service_request": "2022-861487",
    "request_type": "Property Maintenance",
    "request_reason": "Property Maintenance",
    "date_created": "2022-02-16T13:13:56.000",
    "date_modified": "2022-02-16T13:13:56.000",
    "request_status": "Pending",
    "responsible_agency": "Department of Code Enforcement",
    "final_address": "5200 Crowder Blvd",
    "address_councildis": "E",
    "status": "Pending",
    "rowid": "861487",
    "final_x": "3706110.3098",
    "final_y": "556875.952794",
    "longitude": "-89.9894214322073",
    "latitude": "30.024444895091882",
    "geocoded_column": {
      "latitude": "30.024444895091882",
      "longitude": "-89.9894214322073"
    }
  },
  {
    "service_request": "2022-861486",
    "request_type": "Abandoned Vehicles",
    "request_reason": "Abandoned/Junk Vehicles",
    "date_created": "2022-02-16T13:09:18.000",
    "date_modified": "2022-02-16T13:09:23.000",
    "request_status": "Pending",
    "responsible_agency": "Department of Public Works",
    "final_address": "3718 Banks St",
    "address_councildis": "B",
    "status": "Pending",
    "rowid": "861486",
    "final_x": "3671429.07547",
    "final_y": "536485.880263",
    "longitude": "-90.09970193000524",
    "latitude": "29.969452132204186",
    "geocoded_column": {
      "latitude": "29.969452132204186",
      "longitude": "-90.09970193000524"
    }
  },
  {
    "service_request": "2022-861485",
    "request_type": "Trash/Recycling",
    "request_reason": "Missed Trash Pick-Up",
    "date_created": "2022-02-16T13:09:02.000",
    "date_modified": "2022-02-16T13:12:47.000",
    "request_status": "Pending",
    "responsible_agency": "Department of Sanitation",
    "final_address": "3818 Delachaise St",
    "address_councildis": "B",
    "status": "Assigned to Contractor",
    "contractor": "Richards Disposal",
    "rowid": "861485",
    "final_x": "3671028.13953",
    "final_y": "528744.834112",
    "longitude": "-90.10123099454022",
    "latitude": "29.948178686146218",
    "geocoded_column": {
      "latitude": "29.948178686146218",
      "longitude": "-90.10123099454022"
    }
  },
  {
    "service_request": "2022-861484",
    "request_type": "Trash/Recycling",
    "request_reason": "Repair Trash Cart",
    "date_created": "2022-02-16T13:07:26.000",
    "date_modified": "2022-02-16T14:02:59.000",
    "case_close_date": "2022-02-16T08:02:59.000",
    "request_status": "Closed",
    "responsible_agency": "Department of Sanitation",
    "final_address": "265 Audubon Blvd",
    "address_councildis": "A",
    "status": "Duplicate Case",
    "contractor": "Richards Disposal",
    "rowid": "861484",
    "final_x": "3666882.23738",
    "final_y": "529289.022657",
    "longitude": "-90.11430306908531",
    "latitude": "29.949796957487123",
    "geocoded_column": {
      "latitude": "29.949796957487123",
      "longitude": "-90.11430306908531"
    }
  },
  {
    "service_request": "2022-861483",
    "request_type": "Trash/Recycling",
    "request_reason": "Illegal Dumping",
    "date_created": "2022-02-16T13:04:02.000",
    "date_modified": "2022-02-16T13:04:03.000",
    "case_close_date": "2021-02-25T18:00:00.000",
    "request_status": "Pending",
    "responsible_agency": "Department of Sanitation",
    "final_address": "LEON C SIMON DR & ELYSIAN FIELDS AVE",
    "address_councildis": "D",
    "status": "Pending",
    "rowid": "861483",
    "final_x": "3683286.9",
    "final_y": "556893.48",
    "longitude": "-90.06153866892379",
    "latitude": "30.0252093795726",
    "geocoded_column": {
      "latitude": "30.0252093795726",
      "longitude": "-90.06153866892379"
    }
  },
  {
    "service_request": "2022-861482",
    "request_type": "Traffic Signals/Signs/Striping/Streetlights",
    "request_reason": "Street Light Outage/Malfunction",
    "date_created": "2022-02-16T13:03:47.000",
    "date_modified": "2022-02-16T13:03:48.000",
    "request_status": "Pending",
    "responsible_agency": "Department of Public Works",
    "final_address": "7733 Gannon Rd",
    "address_councildis": "E",
    "status": "Pending",
    "contractor": "Royal Engineering",
    "rowid": "861482",
    "final_x": "3716124.3285",
    "final_y": "570390.443047",
    "longitude": "-89.95726644351016",
    "latitude": "30.061277509188713",
    "geocoded_column": {
      "latitude": "30.061277509188713",
      "longitude": "-89.95726644351016"
    }
  },
  {
    "service_request": "2022-861481",
    "request_type": "Trash/Recycling",
    "request_reason": "Missed Trash Pick-Up",
    "date_created": "2022-02-16T13:03:36.000",
    "date_modified": "2022-02-16T13:03:36.000",
    "request_status": "Pending",
    "responsible_agency": "Department of Sanitation",
    "final_address": "4211 Vixen St",
    "address_councildis": "C",
    "status": "Assigned to Contractor",
    "contractor": "Richards Disposal",
    "rowid": "861481",
    "final_x": "3699164.00029",
    "final_y": "520669.237177",
    "longitude": "-90.01268900714909",
    "latitude": "29.925111723205504",
    "geocoded_column": {
      "latitude": "29.925111723205504",
      "longitude": "-90.01268900714909"
    }
  },
  {
    "service_request": "2022-861480",
    "request_type": "Traffic Signals/Signs/Striping/Streetlights",
    "request_reason": "Street Light Outage/Malfunction",
    "date_created": "2022-02-16T13:01:26.000",
    "date_modified": "2022-02-16T13:01:27.000",
    "request_status": "Pending",
    "responsible_agency": "Department of Public Works",
    "final_address": "5330 Cameron Blvd",
    "address_councildis": "D",
    "status": "Pending",
    "contractor": "Royal Engineering",
    "rowid": "861480",
    "final_x": "3682463.02357",
    "final_y": "552642.01647",
    "longitude": "-90.06429077415184",
    "latitude": "30.013544529315173",
    "geocoded_column": {
      "latitude": "30.013544529315173",
      "longitude": "-90.06429077415184"
    }
  },
  {
    "service_request": "2022-861479",
    "request_type": "Trash/Recycling",
    "request_reason": "Request a Large Item Pick Up",
    "date_created": "2022-02-16T12:59:57.000",
    "date_modified": "2022-02-16T12:59:58.000",
    "request_status": "Pending",
    "responsible_agency": "Department of Sanitation",
    "final_address": "3702 Octavia St",
    "address_councildis": "A",
    "status": "Assigned to Contractor",
    "contractor": "Richards Disposal",
    "rowid": "861479",
    "final_x": "3668660.06913",
    "final_y": "529132.84992",
    "longitude": "-90.10869488968756",
    "latitude": "29.94931540673205",
    "geocoded_column": {
      "latitude": "29.94931540673205",
      "longitude": "-90.10869488968756"
    }
  },
  {
    "service_request": "2022-861478",
    "request_type": "Traffic Signals/Signs/Striping/Streetlights",
    "request_reason": "Traffic Signal Malfunctioning/Damaged",
    "date_created": "2022-02-16T12:58:53.000",
    "date_modified": "2022-02-16T12:58:53.000",
    "request_status": "Pending",
    "responsible_agency": "Department of Public Works",
    "final_address": "541 Audubon St",
    "address_councildis": "A",
    "status": "Pending",
    "rowid": "861478",
    "final_x": "3662921.3417",
    "final_y": "524026.812348",
    "longitude": "-90.12698442419376",
    "latitude": "29.935442831917573",
    "geocoded_column": {
      "latitude": "29.935442831917573",
      "longitude": "-90.12698442419376"
    }
  },
  {
    "service_request": "2022-861477",
    "request_type": "Trash/Recycling",
    "request_reason": "Missed Trash Pick-Up",
    "date_created": "2022-02-16T12:58:23.000",
    "date_modified": "2022-02-16T12:58:24.000",
    "request_status": "Pending",
    "responsible_agency": "Department of Sanitation",
    "final_address": "7733 Gannon Rd",
    "address_councildis": "E",
    "status": "Assigned to Contractor",
    "contractor": "Metro Disposal",
    "rowid": "861477",
    "final_x": "3716124.3285",
    "final_y": "570390.443047",
    "longitude": "-89.95726644351016",
    "latitude": "30.061277509188713",
    "geocoded_column": {
      "latitude": "30.061277509188713",
      "longitude": "-89.95726644351016"
    }
  },