[
  {
    "service_request": "2026-1270297",
    "request_type": "Property Maintenance",
    "request_reason": "Property Maintenance",
    "date_created": "2026-03-31T23:23:33.000",
    "date_modified": "2026-03-31T23:23:36.000",
    "request_status": "Pending",
    "responsible_agency": "Department of Code Enforcement",
    "final_address": "1900 Valence St",
    "address_councildis": "B",
    "status": "Pending",
    "rowid": "1270297",
    "final_x": "3669502.68039",
    "final_y": "521903.530106",
    "longitude": "-90.10627882429554",
    "latitude": "29.929412324056322",
    "geocoded_column": {
      "latitude": "29.929412324056322",
      "longitude": "-90.10627882429554"
    }
  },
  {
    "service_request": "2026-1270296",
    "request_type": "Streetlights",
    "request_reason": "Streetlight Outage/Malfunction",
    "date_created": "2026-03-31T22:59:00.000",
    "date_modified": "2026-03-31T22:59:01.000",
    "request_status": "Pending",
    "responsible_agency": "Department of Public Works",
    "final_address": "2116 Independence St",
    "address_councildis": "D",
    "status": "Pending",
    "rowid": "1270296",
    "final_x": "3691875.89648",
    "final_y": "539424.662922",
    "longitude": "-90.03502429189591",
    "latitude": "29.97691160778575",
    "geocoded_column": {
      "latitude": "29.97691160778575",
      "longitude": "-90.03502429189591"
    }
  },
  {
    "service_request": "2026-1270295",
    "request_type": "Roads and Streets",
    "request_reason": "Pothole",
    "date_created": "2026-03-31T22:58:18.000",
    "date_modified": "2026-03-31T22:58:20.000",
    "request_status": "Pending",
    "responsible_agency": "Department of Public Works",
    "final_address": "5207 Conti St",
    "address_councildis": "A",
    "status": "Pending",
    "rowid": "1270295",
    "final_x": "3668586.01844",
    "final_y": "541767.853452",
    "longitude": "-90.10850225582462",
    "latitude": "29.984059637079987",
    "geocoded_column": {
      "latitude": "29.984059637079987",
      "longitude": "-90.10850225582462"
    }
  },
  {
    "service_request": "2026-1270294",
    "request_type": "Health Related Request",
    "request_reason": "Noise Ordinance Complaint",
    "date_created": "2026-03-31T22:38:01.000",
    "date_modified": "2026-03-31T22:38:03.000",
    "request_status": "Pending",
    "responsible_agency": "Health Department",
    "final_address": "801 Bourbon St, New Orleans, Louisiana, 70116",
    "address_councildis": "C",
    "status": "Pending",
    "rowid": "1270294",
    "final_x": "3682490.98735",
    "final_y": "533018.672772",
    "longitude": "-90.06488875731978",
    "latitude": "29.959586396383013",
    "geocoded_column": {
      "latitude": "29.959586396383013",
      "longitude": "-90.06488875731978"
    }
  },
  {
    "service_request": "2026-1270293",
    "request_type": "Drainage",
    "request_reason": "Catch Basin Not Draining",
    "date_created": "2026-03-31T22:21:53.000",
    "date_modified": "2026-03-31T22:21:54.000",
    "request_status": "Pending",
    "responsible_agency": "Sewerage & Water Board",
    "final_address": "4700 Euphrosine St",
    "address_councildis": "B",
    "status": "Pending",
    "rowid": "1270293",
    "final_x": "3670089.7099",
    "final_y": "533238.95354",
    "longitude": "-90.10404177598079",
    "latitude": "29.960563747791145",
    "geocoded_column": {
      "latitude": "29.960563747791145",
      "longitude": "-90.10404177598079"
    }
  },
  {
    "service_request": "2026-1270292",
    "request_type": "General Services",
    "request_reason": "General Service Request",
    "date_created": "2026-03-31T22:20:47.000",
    "date_modified": "2026-03-31T22:20:49.000",
    "request_status": "Pending",
    "responsible_agency": "Orleans Parish Communication District",
    "final_address": "527 City Park Ave, New Orleans, Louisiana, 70119",
    "status": "Pending",
    "rowid": "1270292",
    "longitude": "0.0",
    "latitude": "0.0",
    "geocoded_column": {
      "latitude": "0.0",
      "longitude": "0.0"
    }
  },
  {
    "service_request": "2026-1270291",
    "request_type": "Drainage",
    "request_reason": "Catch Basin Not Draining",
    "date_created": "2026-03-31T22:20:07.000",
    "date_modified": "2026-03-31T22:20:17.000",
    "request_status": "Pending",
    "responsible_agency": "Sewerage & Water Board",
    "final_address": "4700 Euphrosine St",
    "address_councildis": "B",
    "status": "Pending",
    "rowid": "1270291",
    "final_x": "3670089.7099",
    "final_y": "533238.95354",
    "longitude": "-90.10404177598079",
    "latitude": "29.960563747791145",
    "geocoded_column": {
      "latitude": "29.960563747791145",
      "longitude": "-90.10404177598079"
    }
  },
  {
    "service_request": "2026-1270290",
    "request_type": "General Services",
    "request_reason": "General Service Request",
    "date_created": "2026-03-31T21:58:58.000",
    "date_modified": "2026-03-31T21:59:00.000",
    "request_status": "Pending",
    "responsible_agency": "Orleans Parish Communication District",
    "final_address": "3127 General Meyer Ave",
    "address_councildis": "C",
    "status": "Pending",
    "rowid": "1270290",
    "final_x": "3695614.98218",
    "final_y": "526319.122494",
    "longitude": "-90.02368821609147",
    "latitude": "29.94075896812778",
    "geocoded_column": {
      "latitude": "29.94075896812778",
      "longitude": "-90.02368821609147"
    }
  },
  {
    "service_request": "2026-1270289",
    "request_type": "Trash/Recycling",
    "request_reason": "Repair Trash Cart",
    "date_created": "2026-03-31T21:55:29.000",
    "date_modified": "2026-03-31T21:55:31.000",
    "request_status": "Pending",
    "responsible_agency": "Department of Sanitation",
    "final_address": "3325 De Soto St",
    "address_councildis": "A",
    "status": "Assigned to Contractor",
    "contractor": "IV Waste",
    "rowid": "1270289",
    "final_x": "3675570.13384",
    "final_y": "540164.381515",
    "longitude": "-90.0864977063011",
    "latitude": "29.97944351549026",
    "geocoded_column": {
      "latitude": "29.97944351549026",
      "longitude": "-90.0864977063011"
    }
  },
  {
    "service_request": "2026-1270288",
    "request_type": "Trash/Recycling",
    "request_reason": "Request a Large Item Pick Up",
    "date_created": "2026-03-31T21:54:16.000",
    "date_modified": "2026-03-31T21:54:19.000",
    "request_status": "Pending",
    "responsible_agency": "Department of Sanitation",
    "final_address": "15006 Curran Rd",
    "address_councildis": "E",
    "status": "Assigned to Contractor",
    "contractor": "Waste Pro",
    "rowid": "1270288",
    "final_x": "3720851.22521",
    "final_y": "574211.904042",
    "longitude": "-89.94217830971647",
    "latitude": "30.07162798395205",
    "geocoded_column": {
      "latitude": "30.07162798395205",
      "longitude": "-89.94217830971647"
    }
  },
  {
    "service_request": "2026-1270287",
    "request_type": "Streetlights",
    "request_reason": "Streetlight Outage/Malfunction",
    "date_created": "2026-03-31T21:28:17.000",
    "date_modified": "2026-03-31T21:28:24.000",
    "request_status": "Pending",
    "responsible_agency": "Department of Public Works",
    "final_address": "GENERAL DE GAULLE DR & WOODLAND HWY & WOODLAND DR & WOODLAND BRIDGE",
    "address_councildis": "C",
    "status": "Pending",
    "rowid": "1270287",
    "final_x": "3705400.3",
    "final_y": "514971.88",
    "longitude": "-89.99321351264551",
    "latitude": "29.90924684950023",
    "geocoded_column": {
      "latitude": "29.90924684950023",
      "longitude": "-89.99321351264551"
    }
  },
  {
    "service_request": "2026-1270286",
    "request_type": "Streetlights",
    "request_reason": "Streetlight Outage/Malfunction",
    "date_created": "2026-03-31T21:19:39.000",
    "date_modified": "2026-03-31T21:19:42.000",
    "request_status": "Pending",
    "responsible_agency": "Department of Public Works",
    "final_address": "5946 Memphis St",
    "address_councildis": "A",
    "status": "Pending",
    "rowid": "1270286",
    "final_x": "3669070.47572",
    "final_y": "546945.072465",
    "longitude": "-90.10679703044974",
    "latitude": "29.998280965243257",
    "geocoded_column": {
      "latitude": "29.998280965243257",
      "longitude": "-90.10679703044974"
    }
  },
  {
    "service_request": "2026-1270285",
    "request_type": "Trash/Recycling",
    "request_reason": "Order Trash Cart",
    "date_created": "2026-03-31T21:15:04.000",
    "date_modified": "2026-03-31T21:15:05.000",
    "request_status": "Pending",
    "responsible_agency": "Department of Sanitation",
    "final_address": "2238 Ursulines Ave",
    "address_councildis": "C",
    "status": "Assigned to Contractor",
    "contractor": "IV Waste",
    "rowid": "1270285",
    "final_x": "3678981.93435",
    "final_y": "537026.518792",
    "longitude": "-90.07583064624501",
    "latitude": "29.970712951851315",
    "geocoded_column": {
      "latitude": "29.970712951851315",
      "longitude": "-90.07583064624501"
    }
  },
  {
    "service_request": "2026-1270284",
    "request_type": "Trash/Recycling",
    "request_reason": "Order Recycling Cart",
    "date_created": "2026-03-31T21:13:43.000",
    "date_modified": "2026-03-31T21:13:46.000",
    "request_status": "Pending",
    "responsible_agency": "Department of Sanitation",
    "final_address": "2238 Ursulines Ave",
    "address_councildis": "C",
    "status": "Pending",
    "rowid": "1270284",
    "final_x": "3678981.93435",
    "final_y": "537026.518792",
    "longitude": "-90.07583064624501",
    "latitude": "29.970712951851315",
    "geocoded_column": {
      "latitude": "29.970712951851315",
      "longitude": "-90.07583064624501"
    }
  },
  {
    "service_request": "2026-1270283",
    "request_type": "Utility Poles",
    "request_reason": "Wires Sagging/Hanging Low",
    "date_created": "2026-03-31T21:09:40.000",
    "date_modified": "2026-03-31T21:09:42.000",
    "request_status": "Pending",
    "responsible_agency": "Utility Company Collective",
    "final_address": "8140 Zimple St",
    "address_councildis": "A",
    "status": "Pending",
    "rowid": "1270283",
    "final_x": "3661485.85178",
    "final_y": "528281.0416",
    "longitude": "-90.13137541337191",
    "latitude": "29.947182089602926",
    "geocoded_column": {
      "latitude": "29.947182089602926",
      "longitude": "-90.13137541337191"
    }
  },
  {
    "service_request": "2026-1270282",
    "request_type": "Abandoned Vehicles",
    "request_reason": "Abandoned/Junk Vehicles",
    "date_created": "2026-03-31T21:06:54.000",
    "date_modified": "2026-03-31T21:06:55.000",
    "request_status": "Pending",
    "responsible_agency": "Department of Public Works",
    "final_address": "1605 Lowerline St",
    "address_councildis": "A",
    "status": "Pending",
    "rowid": "1270282",
    "final_x": "3664551.78157",
    "final_y": "528054.195839",
    "longitude": "-90.1217026490442",
    "latitude": "29.946469548979845",
    "geocoded_column": {
      "latitude": "29.946469548979845",
      "longitude": "-90.1217026490442"
    }
  },
  {
    "service_request": "2026-1270281",
    "request_type": "Trash/Recycling",
    "request_reason": "Request a Large Item Pick Up",
    "date_created": "2026-03-31T20:46:12.000",
    "date_modified": "2026-03-31T20:46:14.000",
    "request_status": "Pending",
    "responsible_agency": "Department of Sanitation",
    "final_address": "4747 Cerise Ave",
    "address_councildis": "E",
    "status": "Assigned to Contractor",
    "contractor": "Waste Pro",
    "rowid": "1270281",
    "final_x": "3708676.31844",
    "final_y": "555716.322585",
    "longitude": "-89.98135660805634",
    "latitude": "30.021173363012544",
    "geocoded_column": {
      "latitude": "30.021173363012544",
      "longitude": "-89.98135660805634"
    }
  },
  {
    "service_request": "2026-1270280",
    "request_type": "Roads and Streets",
    "request_reason": "Pothole",
    "date_created": "2026-03-31T20:45:04.000",
    "date_modified": "2026-03-31T20:45:07.000",
    "request_status": "Pending",
    "responsible_agency": "Department of Public Works",
    "final_address": "4444 Mandeville St",
    "address_councildis": "D",
    "status": "Pending",
    "rowid": "1270280",
    "final_x": "3684742.51375",
    "final_y": "549295.623059",
    "longitude": "-90.05720653804248",
    "latitude": "30.004273549852517",
    "geocoded_column": {
      "latitude": "30.004273549852517",
      "longitude": "-90.05720653804248"
    }
  },
  {
    "service_request": "2026-1270279",
    "request_type": "Trash/Recycling",
    "request_reason": "Replace Trash Cart",
    "date_created": "2026-03-31T20:36:23.000",
    "date_modified": "2026-03-31T20:36:26.000",
    "request_status": "Pending",
    "responsible_agency": "Department of Sanitation",
    "final_address": "1133 Allen Toussaint Blvd",
    "address_councildis": "D",
    "status": "Assigned to Contractor",
    "contractor": "IV Waste",
    "rowid": "1270279",
    "final_x": "3675011.42881",
    "final_y": "554949.503256",
    "longitude": "-90.08775470097441",
    "latitude": "30.020114107271404",
    "geocoded_column": {
      "latitude": "30.020114107271404",
      "longitude": "-90.08775470097441"
    }
  },
  {
    "service_request": "2026-1270278",
    "request_type": "Abandoned Vehicles",
    "request_reason": "Abandoned/Junk Vehicles",
    "date_created": "2026-03-31T20:28:08.000",
    "date_modified": "2026-03-31T20:28:11.000",
    "request_status": "Pending",
    "responsible_agency": "Department of Public Works",
    "final_address": "3361 Belfort St",
    "address_councildis": "A",
    "status": "Pending",
    "rowid": "1270278",
    "final_x": "3677058.45058",
    "final_y": "542609.488269",
    "longitude": "-90.0817126514568",
    "latitude": "29.98612209815992",
    "geocoded_column": {
      "latitude": "29.98612209815992",
      "longitude": "-90.0817126514568"
    }
  },
  {
    "service_request": "2026-1270277",
    "request_type": "Trash/Recycling",
    "request_reason": "Replace Trash Cart",
    "date_created": "2026-03-31T20:15:14.000",
    "date_modified": "2026-03-31T20:15:16.000",
    "request_status": "Pending",
    "responsible_agency": "Department of Sanitation",
    "final_address": "6032 Orleans Ave",
    "address_councildis": "A",
    "status": "Assigned to Contractor",
    "contractor": "IV Waste",
    "rowid": "1270277",
    "final_x": "3670809.8866",
    "final_y": "547312.082897",
    "longitude": "-90.10128976157571",
    "latitude": "29.999238805732034",
    "geocoded_column": {
      "latitude": "29.999238805732034",
      "longitude": "-90.10128976157571"
    }
  },
  {
    "service_request": "2026-1270276",
    "request_type": "General Services",
    "request_reason": "General Service Request",
    "date_created": "2026-03-31T19:50:40.000",
    "date_modified": "2026-03-31T19:50:43.000",
    "request_status": "Pending",
    "responsible_agency": "Orleans Parish Communication District",
    "final_address": "1437 Eighth St",
    "address_councildis": "B",
    "status": "Pending",
    "rowid": "1270276",
    "final_x": "3675396.55931",
    "final_y": "521354.212793",
    "longitude": "-90.0876917698831",
    "latitude": "29.927727014616636",
    "geocoded_column": {
      "latitude": "29.927727014616636",
      "longitude": "-90.0876917698831"
    }
  },
  {
    "service_request": "2026-1270275",
    "request_type": "Trash/Recycling",
    "request_reason": "Request a Large Item Pick Up",
    "date_created": "2026-03-31T19:37:04.000",
    "date_modified": "2026-03-31T19:37:06.000",
    "request_status": "Pending",
    "responsible_agency": "Department of Sanitation",
    "final_address": "420 Delery St",
    "address_councildis": "E",
    "status": "Assigned to Contractor",
    "contractor": "Waste Pro",
    "rowid": "1270275",
    "final_x": "3699517.16925",
    "final_y": "530761.234626",
    "longitude": "-90.01120659014201",
    "latitude": "29.952850003967722",
    "geocoded_column": {
      "latitude": "29.952850003967722",
      "longitude": "-90.01120659014201"
    }
  },
  {
    "service_request": "2026-1270274",
    "request_type": "Roads and Streets",
    "request_reason": "Pothole",
    "date_created": "2026-03-31T19:13:35.000",
    "date_modified": "2026-03-31T19:13:36.000",
    "request_status": "Pending",
    "responsible_agency": "Department of Public Works",
    "final_address": "3431 Chartres St Unit 1",
    "address_councildis": "C",
    "status": "Pending",
    "rowid": "1270274",
    "final_x": "3689966.99862",
    "final_y": "533848.857797",
    "longitude": "-90.04125175484616",
    "latitude": "29.96163943842403",
    "geocoded_column": {
      "latitude": "29.96163943842403",
      "longitude": "-90.04125175484616"
    }
  },
  {
    "service_request": "2026-1270273",
    "request_type": "Trash/Recycling",
    "request_reason": "Order Trash Cart",
    "date_created": "2026-03-31T19:09:23.000",
    "date_modified": "2026-03-31T19:09:26.000",
    "request_status": "Pending",
    "responsible_agency": "Department of Sanitation",
    "final_address": "3326 Allen St",
    "address_councildis": "D",
    "status": "Assigned to Contractor",
    "contractor": "IV Waste",
    "rowid": "1270273",
    "final_x": "3682037.57359",
    "final_y": "544767.847695",
    "longitude": "-90.0659101530978",
    "latitude": "29.991906338076383",
    "geocoded_column": {
      "latitude": "29.991906338076383",
      "longitude": "-90.0659101530978"
    }
  },
  {
    "service_request": "2026-1270272",
    "request_type": "Trash/Recycling",
    "request_reason": "Replace Trash Cart",
    "date_created": "2026-03-31T19:07:22.000",
    "date_modified": "2026-03-31T19:07:24.000",
    "request_status": "Pending",
    "responsible_agency": "Department of Sanitation",
    "final_address": "5613 Dauphine St",
    "address_councildis": "E",
    "status": "Assigned to Contractor",
    "contractor": "Waste Pro",
    "rowid": "1270272",
    "final_x": "3697891.76899",
    "final_y": "532622.477252",
    "longitude": "-90.0162713015163",
    "latitude": "29.9580192328716",
    "geocoded_column": {
      "latitude": "29.9580192328716",
      "longitude": "-90.0162713015163"
    }
  },
  {
    "service_request": "2026-1270271",
    "request_type": "Roads and Streets",
    "request_reason": "Sidewalk Damaged or Missing",
    "date_created": "2026-03-31T19:05:54.000",
    "date_modified": "2026-03-31T19:05:56.000",
    "request_status": "Pending",
    "responsible_agency": "Department of Public Works",
    "final_address": "504 Philip St",
    "address_councildis": "B",
    "status": "Pending",
    "rowid": "1270271",
    "final_x": "3679847.34888",
    "final_y": "520092.479352",
    "longitude": "-90.07368547719487",
    "latitude": "29.92412386806631",
    "geocoded_column": {
      "latitude": "29.92412386806631",
      "longitude": "-90.07368547719487"
    }
  },
  {
    "service_request": "2026-1270270",
    "request_type": "Abandoned Vehicles",
    "request_reason": "Abandoned/Junk Vehicles",
    "date_created": "2026-03-31T19:04:19.000",
    "date_modified": "2026-03-31T19:04:21.000",
    "request_status": "Pending",
    "responsible_agency": "Department of Public Works",
    "final_address": "8403 Willow St",
    "address_councildis": "A",
    "status": "Pending",
    "rowid": "1270270",
    "final_x": "3661609.17459",
    "final_y": "529686.332417",
    "longitude": "-90.13093947443666",
    "latitude": "29.951042631442142",
    "geocoded_column": {
      "latitude": "29.951042631442142",
      "longitude": "-90.13093947443666"
    }
  },
  {
    "service_request": "2026-1270269",
    "request_type": "Trash/Recycling",
    "request_reason": "Illegal Dumping",
    "date_created": "2026-03-31T19:03:15.000",
    "date_modified": "2026-03-31T19:03:17.000",
    "request_status": "Pending",
    "responsible_agency": "Department of Sanitation",
    "final_address": "1603 Murl St",
    "address_councildis": "C",
    "status": "Pending",
    "rowid": "1270269",
    "final_x": "3695320.65494",
    "final_y": "525469.596221",
    "longitude": "-90.02464808641334",
    "latitude": "29.93843231051299",
    "geocoded_column": {
      "latitude": "29.93843231051299",
      "longitude": "-90.02464808641334"
    }
  },
  {
    "service_request": "2026-1270268",
    "request_type": "Property Maintenance",
    "request_reason": "Property Maintenance",
    "date_created": "2026-03-31T18:59:49.000",
    "date_modified": "2026-03-31T18:59:50.000",
    "request_status": "Pending",
    "responsible_agency": "Department of Code Enforcement",
    "final_address": "3010 Lawrence St",
    "address_councildis": "C",
    "status": "Pending",
    "rowid": "1270268",
    "final_x": "3695132.79293",
    "final_y": "525546.366909",
    "longitude": "-90.02523841573742",
    "latitude": "29.938649301833273",
    "geocoded_column": {
      "latitude": "29.938649301833273",
      "longitude": "-90.02523841573742"
    }
  },
  {
    "service_request": "2026-1270267",
    "request_type": "Property Maintenance",
    "request_reason": "Property Maintenance",
    "date_created": "2026-03-31T18:59:17.000",
    "date_modified": "2026-03-31T18:59:18.000",
    "request_status": "Pending",
    "responsible_agency": "Department of Code Enforcement",
    "final_address": "3365 Belfort St",
    "address_councildis": "A",
    "status": "Pending",
    "rowid": "1270267",
    "final_x": "3677023.03394",
    "final_y": "542610.182733",
    "longitude": "-90.08182449489911",
    "latitude": "29.986125071382386",
    "geocoded_column": {
      "latitude": "29.986125071382386",
      "longitude": "-90.08182449489911"
    }
  },
  {
    "service_request": "2026-1270266",
    "request_type": "Abandoned Vehicles",
    "request_reason": "Abandoned/Junk Vehicles",
    "date_created": "2026-03-31T18:56:55.000",
    "date_modified": "2026-03-31T18:56:57.000",
    "request_status": "Pending",
    "responsible_agency": "Department of Public Works",
    "final_address": "3010 Lawrence St",
    "address_councildis": "C",
    "status": "Pending",
    "rowid": "1270266",
    "final_x": "3695132.79293",
    "final_y": "525546.366909",
    "longitude": "-90.02523841573742",
    "latitude": "29.938649301833273",
    "geocoded_column": {
      "latitude": "29.938649301833273",
      "longitude": "-90.02523841573742"
    }
  },
  {
    "service_request": "2026-1270265",
    "request_type": "Drainage",
    "request_reason": "Catch Basin Not Draining",
    "date_created": "2026-03-31T18:49:30.000",
    "date_modified": "2026-03-31T18:49:32.000",
    "request_status": "Pending",
    "responsible_agency": "Sewerage & Water Board",
    "final_address": "5510 Pratt Dr",
    "address_councildis": "D",
    "status": "Pending",
    "rowid": "1270265",
    "final_x": "3680263.37327",
    "final_y": "552724.646294",
    "longitude": "-90.07123764246637",
    "latitude": "30.013838533594537",
    "geocoded_column": {
      "latitude": "30.013838533594537",
      "longitude": "-90.07123764246637"
    }
  },
  {
    "service_request": "2026-1270264",
    "request_type": "Trash/Recycling",
    "request_reason": "Repair Trash Cart",
    "date_created": "2026-03-31T18:47:50.000",
    "date_modified": "2026-03-31T18:47:51.000",
    "request_status": "Pending",
    "responsible_agency": "Department of Sanitation",
    "final_address": "6578 Louisville St",
    "address_councildis": "A",
    "status": "Assigned to Contractor",
    "contractor": "IV Waste",
    "rowid": "1270264",
    "final_x": "3668021.20122",
    "final_y": "551381.928789",
    "longitude": "-90.10996204976269",
    "latitude": "30.010511618750197",
    "geocoded_column": {
      "latitude": "30.010511618750197",
      "longitude": "-90.10996204976269"
    }
  },
  {
    "service_request": "2026-1270263",
    "request_type": "Trash/Recycling",
    "request_reason": "Request a Large Item Pick Up",
    "date_created": "2026-03-31T18:45:50.000",
    "date_modified": "2026-03-31T18:45:52.000",
    "request_status": "Pending",
    "responsible_agency": "Department of Sanitation",
    "final_address": "55 Grand Canyon Dr",
    "address_councildis": "C",
    "status": "Assigned to Contractor",
    "contractor": "Richards Disposal",
    "rowid": "1270263",
    "final_x": "3699152.87946",
    "final_y": "516390.312821",
    "longitude": "-90.01287976682167",
    "latitude": "29.913346492029135",
    "geocoded_column": {
      "latitude": "29.913346492029135",
      "longitude": "-90.01287976682167"
    }
  },
  {
    "service_request": "2026-1270262",
    "request_type": "Trash/Recycling",
    "request_reason": "Replace Trash Cart",
    "date_created": "2026-03-31T18:45:16.000",
    "date_modified": "2026-03-31T18:45:17.000",
    "request_status": "Pending",
    "responsible_agency": "Department of Sanitation",
    "final_address": "6578 Louisville St",
    "address_councildis": "A",
    "status": "Assigned to Contractor",
    "contractor": "IV Waste",
    "rowid": "1270262",
    "final_x": "3668021.20122",
    "final_y": "551381.928789",
    "longitude": "-90.10996204976269",
    "latitude": "30.010511618750197",
    "geocoded_column": {
      "latitude": "30.010511618750197",
      "longitude": "-90.10996204976269"
    }
  },
  {
    "service_request": "2026-1270261",
    "request_type": "Trash/Recycling",
    "request_reason": "Change Size of Trash Cart",
    "date_created": "2026-03-31T18:36:15.000",
    "date_modified": "2026-03-31T18:36:17.000",
    "request_status": "Pending",
    "responsible_agency": "Department of Sanitation",
    "final_address": "2816 Tecumseh St",
    "address_councildis": "D",
    "status": "Assigned to Contractor",
    "contractor": "IV Waste",
    "rowid": "1270261",
    "final_x": "3688753.04547",
    "final_y": "547472.446738",
    "longitude": "-90.04460134728487",
    "latitude": "29.99913705461861",
    "geocoded_column": {
      "latitude": "29.99913705461861",
      "longitude": "-90.04460134728487"
    }
  },
  {
    "service_request": "2026-1270260",
    "request_type": "Street and Traffic Signs",
    "request_reason": "Additional Signage Request",
    "date_created": "2026-03-31T18:32:59.000",
    "date_modified": "2026-03-31T18:33:00.000",
    "request_status": "Pending",
    "responsible_agency": "Department of Public Works",
    "final_address": "3900 Dublin St",
    "address_councildis": "A",
    "status": "Pending",
    "rowid": "1270260",
    "final_x": "3667971.22266",
    "final_y": "535895.698247",
    "longitude": "-90.11064203636731",
    "latitude": "29.967931239067607",
    "geocoded_column": {
      "latitude": "29.967931239067607",
      "longitude": "-90.11064203636731"
    }
  },
  {
    "service_request": "2026-1270259",
    "request_type": "Property Maintenance",
    "request_reason": "Property Maintenance",
    "date_created": "2026-03-31T18:28:41.000",
    "date_modified": "2026-03-31T18:28:44.000",
    "request_status": "Pending",
    "responsible_agency": "Department of Code Enforcement",
    "final_address": "5730 Providence Pl",
    "address_councildis": "D",
    "status": "Pending",
    "rowid": "1270259",
    "final_x": "3688174.04316",
    "final_y": "554449.181912",
    "longitude": "-90.0461828462937",
    "latitude": "30.01833841368749",
    "geocoded_column": {
      "latitude": "30.01833841368749",
      "longitude": "-90.0461828462937"
    }
  },
  {
    "service_request": "2026-1270258",
    "request_type": "Trash/Recycling",
    "request_reason": "Request a Large Item Pick Up",
    "date_created": "2026-03-31T18:26:19.000",
    "date_modified": "2026-03-31T18:26:24.000",
    "request_status": "Pending",
    "responsible_agency": "Department of Sanitation",
    "final_address": "912 Lowerline St",
    "address_councildis": "A",
    "status": "Assigned to Contractor",
    "contractor": "IV Waste",
    "rowid": "1270258",
    "final_x": "3663126.04903",
    "final_y": "526064.487614",
    "longitude": "-90.12627039217878",
    "latitude": "29.94103986416811",
    "geocoded_column": {
      "latitude": "29.94103986416811",
      "longitude": "-90.12627039217878"
    }
  },
  {
    "service_request": "2026-1270257",
    "request_type": "Utility Poles",
    "request_reason": "Utility Pole Down",
    "date_created": "2026-03-31T18:19:06.000",
    "date_modified": "2026-03-31T18:19:08.000",
    "request_status": "Pending",
    "responsible_agency": "Utility Company Collective",
    "final_address": "12170 Old Gentilly Rd",
    "address_councildis": "E",
    "status": "Pending",
    "rowid": "1270257",
    "final_x": "3720228.10841",
    "final_y": "552556.804182",
    "longitude": "-89.9449776298222",
    "latitude": "30.012106113304142",
    "geocoded_column": {
      "latitude": "30.012106113304142",
      "longitude": "-89.9449776298222"
    }
  },
  {
    "service_request": "2026-1270256",
    "request_type": "Trash/Recycling",
    "request_reason": "Request a Large Item Pick Up",
    "date_created": "2026-03-31T18:17:10.000",
    "date_modified": "2026-03-31T18:17:11.000",
    "request_status": "Pending",
    "responsible_agency": "Department of Sanitation",
    "final_address": "5410 Norgate Dr",
    "address_councildis": "E",
    "status": "Assigned to Contractor",
    "contractor": "Waste Pro",
    "rowid": "1270256",
    "final_x": "3707183.85547",
    "final_y": "557723.299355",
    "longitude": "-89.98599776476887",
    "latitude": "30.026740102688457",
    "geocoded_column": {
      "latitude": "30.026740102688457",
      "longitude": "-89.98599776476887"
    }
  },
  {
    "service_request": "2026-1270255",
    "request_type": "Street and Traffic Signs",
    "request_reason": "Traffic or Parking Sign Damaged or Missing",
    "date_created": "2026-03-31T18:14:16.000",
    "date_modified": "2026-03-31T18:14:20.000",
    "request_status": "Pending",
    "responsible_agency": "Department of Public Works",
    "final_address": "4201 S Carrollton Ave",
    "address_councildis": "A",
    "status": "Pending",
    "rowid": "1270255",
    "final_x": "3669500.31905",
    "final_y": "536680.118023",
    "longitude": "-90.10578654616042",
    "latitude": "29.970043177629208",
    "geocoded_column": {
      "latitude": "29.970043177629208",
      "longitude": "-90.10578654616042"
    }
  },
  {
    "service_request": "2026-1270254",
    "request_type": "Trash/Recycling",
    "request_reason": "Request a Large Item Pick Up",
    "date_created": "2026-03-31T17:49:59.000",
    "date_modified": "2026-03-31T17:50:09.000",
    "request_status": "Pending",
    "responsible_agency": "Department of Sanitation",
    "final_address": "7616 Hurst St",
    "address_councildis": "A",
    "status": "Assigned to Contractor",
    "contractor": "IV Waste",
    "rowid": "1270254",
    "final_x": "3660793.83546",
    "final_y": "524642.908284",
    "longitude": "-90.1336806460374",
    "latitude": "29.93719831889418",
    "geocoded_column": {
      "latitude": "29.93719831889418",
      "longitude": "-90.1336806460374"
    }
  },
  {
    "service_request": "2026-1270253",
    "request_type": "Street and Traffic Signs",
    "request_reason": "One Way Sign Missing or Damaged",
    "date_created": "2026-03-31T17:47:18.000",
    "date_modified": "2026-03-31T17:47:19.000",
    "request_status": "Pending",
    "responsible_agency": "Department of Public Works",
    "final_address": "4341 State Street Dr",
    "address_councildis": "B",
    "status": "Pending",
    "rowid": "1270253",
    "final_x": "3668675.19214",
    "final_y": "531602.878787",
    "longitude": "-90.10856377742009",
    "latitude": "29.956106732843683",
    "geocoded_column": {
      "latitude": "29.956106732843683",
      "longitude": "-90.10856377742009"
    }
  },
  {
    "service_request": "2026-1270252",
    "request_type": "Health Related Request",
    "request_reason": "Noise Ordinance Complaint",
    "date_created": "2026-03-31T17:45:27.000",
    "date_modified": "2026-03-31T17:45:29.000",
    "request_status": "Pending",
    "responsible_agency": "Health Department",
    "final_address": "3431 Parkview Pl, New Orleans, Louisiana, 70119",
    "address_councildis": "A",
    "status": "Pending",
    "rowid": "1270252",
    "final_x": "3675656.68264",
    "final_y": "543421.941006",
    "longitude": "-90.08611236063754",
    "latitude": "29.988398088898556",
    "geocoded_column": {
      "latitude": "29.988398088898556",
      "longitude": "-90.08611236063754"
    }
  },
  {
    "service_request": "2026-1270251",
    "request_type": "Trash/Recycling",
    "request_reason": "Repair Trash Cart",
    "date_created": "2026-03-31T17:42:37.000",
    "date_modified": "2026-03-31T17:42:39.000",
    "request_status": "Pending",
    "responsible_agency": "Department of Sanitation",
    "final_address": "4341 State Street Dr",
    "address_councildis": "B",
    "status": "Assigned to Contractor",
    "contractor": "IV Waste",
    "rowid": "1270251",
    "final_x": "3668675.19214",
    "final_y": "531602.878787",
    "longitude": "-90.10856377742009",
    "latitude": "29.956106732843683",
    "geocoded_column": {
      "latitude": "29.956106732843683",
      "longitude": "-90.10856377742009"
    }
  },
  {
    "service_request": "2026-1270250",
    "request_type": "Trash/Recycling",
    "request_reason": "Replace Trash Cart",
    "date_created": "2026-03-31T17:34:08.000",
    "date_modified": "2026-03-31T17:34:10.000",
    "request_status": "Pending",
    "responsible_agency": "Department of Sanitation",
    "final_address": "17 Audubon Blvd",
    "address_councildis": "A",
    "status": "Assigned to Contractor",
    "contractor": "IV Waste",
    "rowid": "1270250",
    "final_x": "3665415.33357",
    "final_y": "526835.943422",
    "longitude": "-90.1190168614708",
    "latitude": "29.94309461047872",
    "geocoded_column": {
      "latitude": "29.94309461047872",
      "longitude": "-90.1190168614708"
    }
  },
  {
    "service_request": "2026-1270249",
    "request_type": "Roads and Streets",
    "request_reason": "Sidewalk Damaged or Missing",
    "date_created": "2026-03-31T17:32:17.000",
    "date_modified": "2026-03-31T17:32:19.000",
    "request_status": "Pending",
    "responsible_agency": "Department of Public Works",
    "final_address": "1221 Kerlerec St",
    "address_councildis": "C",
    "status": "Pending",
    "rowid": "1270249",
    "final_x": "3682684.80392",
    "final_y": "535980.591751",
    "longitude": "-90.0641731333004",
    "latitude": "29.967724756001996",
    "geocoded_column": {
      "latitude": "29.967724756001996",
      "longitude": "-90.0641731333004"
    }
  },
  {
    "service_request": "2026-1270248",
    "request_type": "Street and Traffic Signs",
    "request_reason": "Additional Signage Request",
    "date_created": "2026-03-31T17:31:35.000",
    "date_modified": "2026-03-31T17:31:38.000",
    "request_status": "Pending",
    "responsible_agency": "Department of Public Works",
    "final_address": "1000 Poland Ave",
    "address_councildis": "C",
    "status": "Pending",
    "rowid": "1270248",
    "final_x": "3692887.71689",
    "final_y": "534630.660166",
    "longitude": "-90.03200061116067",
    "latitude": "29.963698237428737",
    "geocoded_column": {
      "latitude": "29.963698237428737",
      "longitude": "-90.03200061116067"
    }
  },
  {
    "service_request": "2026-1270247",
    "request_type": "Trash/Recycling",
    "request_reason": "Request a Large Item Pick Up",
    "date_created": "2026-03-31T17:17:18.000",
    "date_modified": "2026-03-31T17:17:21.000",
    "request_status": "Pending",
    "responsible_agency": "Department of Sanitation",
    "final_address": "543 Philip St",
    "address_councildis": "B",
    "status": "Assigned to Contractor",
    "contractor": "IV Waste",
    "rowid": "1270247",
    "final_x": "3679726.49525",
    "final_y": "520356.061944",
    "longitude": "-90.07405782538582",
    "latitude": "29.924852286817508",
    "geocoded_column": {
      "latitude": "29.924852286817508",
      "longitude": "-90.07405782538582"
    }
  },
  {
    "service_request": "2026-1270246",
    "request_type": "General Services",
    "request_reason": "General Service Request",
    "date_created": "2026-03-31T17:13:31.000",
    "date_modified": "2026-03-31T17:13:34.000",
    "request_status": "Pending",
    "responsible_agency": "Orleans Parish Communication District",
    "final_address": "3736 Gentilly Blvd",
    "address_councildis": "D",
    "status": "Pending",
    "rowid": "1270246",
    "final_x": "3687333.81071",
    "final_y": "548770.801363",
    "longitude": "-90.0490387578332",
    "latitude": "30.002750873443162",
    "geocoded_column": {
      "latitude": "30.002750873443162",
      "longitude": "-90.0490387578332"
    }
  },
  {
    "service_request": "2026-1270245",
    "request_type": "Roads and Streets",
    "request_reason": "Pothole",
    "date_created": "2026-03-31T17:06:37.000",
    "date_modified": "2026-03-31T17:06:41.000",
    "request_status": "Pending",
    "responsible_agency": "Department of Public Works",
    "final_address": "1821 Conti St",
    "address_councildis": "B",
    "status": "Pending",
    "rowid": "1270245",
    "final_x": "3678677.85666",
    "final_y": "534098.867845",
    "longitude": "-90.07689234391104",
    "latitude": "29.962672082676075",
    "geocoded_column": {
      "latitude": "29.962672082676075",
      "longitude": "-90.07689234391104"
    }
  },
  {
    "service_request": "2026-1270244",
    "request_type": "Trash/Recycling",
    "request_reason": "Request a Large Item Pick Up",
    "date_created": "2026-03-31T16:56:41.000",
    "date_modified": "2026-03-31T16:56:43.000",
    "request_status": "Pending",
    "responsible_agency": "Department of Sanitation",
    "final_address": "5020 Nottingham Dr",
    "address_councildis": "E",
    "status": "Assigned to Contractor",
    "contractor": "Waste Pro",
    "rowid": "1270244",
    "final_x": "3716290.14751",
    "final_y": "558302.979164",
    "longitude": "-89.95720117055254",
    "latitude": "30.028036427389424",
    "geocoded_column": {
      "latitude": "30.028036427389424",
      "longitude": "-89.95720117055254"
    }
  },
  {
    "service_request": "2026-1270243",
    "request_type": "Abandoned Vehicles",
    "request_reason": "Abandoned/Junk Vehicles",
    "date_created": "2026-03-31T16:54:48.000",
    "date_modified": "2026-03-31T16:54:49.000",
    "request_status": "Pending",
    "responsible_agency": "Department of Public Works",
    "final_address": "3015 N Rampart St",
    "address_councildis": "C",
    "status": "Pending",
    "rowid": "1270243",
    "final_x": "3688464.65359",
    "final_y": "535698.395783",
    "longitude": "-90.04593027709045",
    "latitude": "29.96677151966559",
    "geocoded_column": {
      "latitude": "29.96677151966559",
      "longitude": "-90.04593027709045"
    }
  },
  {
    "service_request": "2026-1270242",
    "request_type": "Trash/Recycling",
    "request_reason": "Illegal Dumping",
    "date_created": "2026-03-31T16:51:21.000",
    "date_modified": "2026-03-31T16:51:31.000",
    "request_status": "Pending",
    "responsible_agency": "Department of Sanitation",
    "final_address": "5400 Florida Ave",
    "address_councildis": "E",
    "status": "Pending",
    "rowid": "1270242",
    "final_x": "3698848.46781",
    "final_y": "539927.26881",
    "longitude": "-90.01298453931555",
    "latitude": "29.97807451721998",
    "geocoded_column": {
      "latitude": "29.97807451721998",
      "longitude": "-90.01298453931555"
    }
  },
  {
    "service_request": "2026-1270241",
    "request_type": "Trash/Recycling",
    "request_reason": "Request a Large Item Pick Up",
    "date_created": "2026-03-31T16:48:30.000",
    "date_modified": "2026-03-31T16:48:32.000",
    "request_status": "Pending",
    "responsible_agency": "Department of Sanitation",
    "final_address": "7230 Queensway Dr",
    "address_councildis": "E",
    "status": "Assigned to Contractor",
    "contractor": "Waste Pro",
    "rowid": "1270241",
    "final_x": "3718550.67333",
    "final_y": "570220.805991",
    "longitude": "-89.94960336191922",
    "latitude": "30.060730735147263",
    "geocoded_column": {
      "latitude": "30.060730735147263",
      "longitude": "-89.94960336191922"
    }
  },
  {
    "service_request": "2026-1270240",
    "request_type": "Trash/Recycling",
    "request_reason": "Order Trash Cart",
    "date_created": "2026-03-31T16:45:29.000",
    "date_modified": "2026-03-31T16:45:30.000",
    "request_status": "Pending",
    "responsible_agency": "Department of Sanitation",
    "final_address": "5153 Bayouview Ct",
    "address_councildis": "E",
    "status": "Assigned to Contractor",
    "contractor": "Waste Pro",
    "rowid": "1270240",
    "final_x": "3699201.3754",
    "final_y": "556370.520026",
    "longitude": "-90.0112707338939",
    "latitude": "30.023276147039173",
    "geocoded_column": {
      "latitude": "30.023276147039173",
      "longitude": "-90.0112707338939"
    }
  },
  {
    "service_request": "2026-1270239",
    "request_type": "Trash/Recycling",
    "request_reason": "Change Size of Trash Cart",
    "date_created": "2026-03-31T16:44:57.000",
    "date_modified": "2026-03-31T16:45:01.000",
    "request_status": "Pending",
    "responsible_agency": "Department of Sanitation",
    "final_address": "4225 Eagle St",
    "address_councildis": "A",
    "status": "Assigned to Contractor",
    "contractor": "IV Waste",
    "rowid": "1270239",
    "final_x": "3667482.3202",
    "final_y": "538066.015881",
    "longitude": "-90.11211296371428",
    "latitude": "29.973913224337736",
    "geocoded_column": {
      "latitude": "29.973913224337736",
      "longitude": "-90.11211296371428"
    }
  },
  {
    "service_request": "2026-1270238",
    "request_type": "Trash/Recycling",
    "request_reason": "Replace Trash Cart",
    "date_created": "2026-03-31T16:40:43.000",
    "date_modified": "2026-03-31T16:41:09.000",
    "request_status": "Pending",
    "responsible_agency": "Department of Sanitation",
    "final_address": "5931 Durbridge Dr",
    "address_councildis": "C",
    "status": "Assigned to Contractor",
    "contractor": "Richards Disposal",
    "rowid": "1270238",
    "final_x": "3705342.08132",
    "final_y": "521060.520441",
    "longitude": "-89.99317250259034",
    "latitude": "29.925990377940025",
    "geocoded_column": {
      "latitude": "29.925990377940025",
      "longitude": "-89.99317250259034"
    }
  },
  {
    "service_request": "2026-1270237",
    "request_type": "Trash/Recycling",
    "request_reason": "Request a Large Item Pick Up",
    "date_created": "2026-03-31T16:39:43.000",
    "date_modified": "2026-03-31T16:39:46.000",
    "request_status": "Pending",
    "responsible_agency": "Department of Sanitation",
    "final_address": "2310 Marais St",
    "address_councildis": "C",
    "status": "Assigned to Contractor",
    "contractor": "IV Waste",
    "rowid": "1270237",
    "final_x": "3685853.35062",
    "final_y": "536698.575559",
    "longitude": "-90.05414148504111",
    "latitude": "29.969602080518193",
    "geocoded_column": {
      "latitude": "29.969602080518193",
      "longitude": "-90.05414148504111"
    }
  },
  {
    "service_request": "2026-1270236",
    "request_type": "Trash/Recycling",
    "request_reason": "Order Recycling Cart",
    "date_created": "2026-03-31T16:38:57.000",
    "date_modified": "2026-03-31T16:38:59.000",
    "request_status": "Pending",
    "responsible_agency": "Department of Sanitation",
    "final_address": "307 S Alexander St",
    "address_councildis": "A",
    "status": "Pending",
    "rowid": "1270236",
    "final_x": "3669443.76321",
    "final_y": "538510.605257",
    "longitude": "-90.10590323074496",
    "latitude": "29.975078068696668",
    "geocoded_column": {
      "latitude": "29.975078068696668",
      "longitude": "-90.10590323074496"
    }
  },
  {
    "service_request": "2026-1270235",
    "request_type": "Property Maintenance",
    "request_reason": "Property Maintenance",
    "date_created": "2026-03-31T16:34:21.000",
    "date_modified": "2026-03-31T16:34:22.000",
    "request_status": "Pending",
    "responsible_agency": "Department of Code Enforcement",
    "final_address": "233 S Cortez St",
    "address_councildis": "A",
    "status": "Pending",
    "rowid": "1270235",
    "final_x": "3671623.30919",
    "final_y": "537070.411656",
    "longitude": "-90.09906863813714",
    "latitude": "29.971053645355852",
    "geocoded_column": {
      "latitude": "29.971053645355852",
      "longitude": "-90.09906863813714"
    }
  },
  {
    "service_request": "2026-1270234",
    "request_type": "Property Maintenance",
    "request_reason": "Property Maintenance",
    "date_created": "2026-03-31T16:33:02.000",
    "date_modified": "2026-03-31T16:33:04.000",
    "request_status": "Pending",
    "responsible_agency": "Department of Code Enforcement",
    "final_address": "227 S Cortez St",
    "address_councildis": "A",
    "status": "Pending",
    "rowid": "1270234",
    "final_x": "3671647.46939",
    "final_y": "537108.015752",
    "longitude": "-90.0989910575432",
    "latitude": "29.971156328335642",
    "geocoded_column": {
      "latitude": "29.971156328335642",
      "longitude": "-90.0989910575432"
    }
  },
  {
    "service_request": "2026-1270233",
    "request_type": "Trash/Recycling",
    "request_reason": "Request a Large Item Pick Up",
    "date_created": "2026-03-31T16:31:47.000",
    "date_modified": "2026-03-31T17:11:39.000",
    "request_status": "Pending",
    "responsible_agency": "Department of Sanitation",
    "final_address": "5946 Laurel St",
    "address_councildis": "A",
    "status": "Assigned to Contractor",
    "contractor": "IV Waste",
    "rowid": "1270233",
    "final_x": "3664608.27917",
    "final_y": "518061.863414",
    "longitude": "-90.12185783096047",
    "latitude": "29.91899215727472",
    "geocoded_column": {
      "latitude": "29.91899215727472",
      "longitude": "-90.12185783096047"
    }
  },
  {
    "service_request": "2026-1270232",
    "request_type": "Trash/Recycling",
    "request_reason": "Return Trash Cart",
    "date_created": "2026-03-31T16:22:55.000",
    "date_modified": "2026-03-31T16:22:57.000",
    "request_status": "Pending",
    "responsible_agency": "Department of Sanitation",
    "final_address": "941 Second St",
    "address_councildis": "B",
    "status": "Assigned to Contractor",
    "contractor": "IV Waste",
    "rowid": "1270232",
    "final_x": "3678096.42062",
    "final_y": "520978.924857",
    "longitude": "-90.07918191551167",
    "latitude": "29.92661411558879",
    "geocoded_column": {
      "latitude": "29.92661411558879",
      "longitude": "-90.07918191551167"
    }
  },
  {
    "service_request": "2026-1270231",
    "request_type": "Trash/Recycling",
    "request_reason": "Request a Large Item Pick Up",
    "date_created": "2026-03-31T16:22:45.000",
    "date_modified": "2026-03-31T17:11:18.000",
    "request_status": "Pending",
    "responsible_agency": "Department of Sanitation",
    "final_address": "8005 Plum St",
    "address_councildis": "A",
    "status": "Assigned to Contractor",
    "contractor": "IV Waste",
    "rowid": "1270231",
    "final_x": "3662504.24909",
    "final_y": "528411.142592",
    "longitude": "-90.1281556128474",
    "latitude": "29.947510412351736",
    "geocoded_column": {
      "latitude": "29.947510412351736",
      "longitude": "-90.1281556128474"
    }
  },
  {
    "service_request": "2026-1270230",
    "request_type": "Trash/Recycling",
    "request_reason": "Request a Large Item Pick Up",
    "date_created": "2026-03-31T16:22:31.000",
    "date_modified": "2026-03-31T16:22:33.000",
    "request_status": "Pending",
    "responsible_agency": "Department of Sanitation",
    "final_address": "925 Fats Domino Ave",
    "address_councildis": "E",
    "status": "Assigned to Contractor",
    "contractor": "Waste Pro",
    "rowid": "1270230",
    "final_x": "3697923.77552",
    "final_y": "533171.86842",
    "longitude": "-90.01615029209783",
    "latitude": "29.95952885228087",
    "geocoded_column": {
      "latitude": "29.95952885228087",
      "longitude": "-90.01615029209783"
    }
  },
  {
    "service_request": "2026-1270229",
    "request_type": "Roads and Streets",
    "request_reason": "Pothole",
    "date_created": "2026-03-31T16:20:00.000",
    "date_modified": "2026-03-31T16:20:04.000",
    "request_status": "Pending",
    "responsible_agency": "Department of Public Works",
    "final_address": "217 Whitney Ave",
    "address_councildis": "C",
    "status": "Pending",
    "rowid": "1270229",
    "final_x": "3690213.25334",
    "final_y": "530897.431938",
    "longitude": "-90.04057927663722",
    "latitude": "29.95351640455487",
    "geocoded_column": {
      "latitude": "29.95351640455487",
      "longitude": "-90.04057927663722"
    }
  },
  {
    "service_request": "2026-1270228",
    "request_type": "Roads and Streets",
    "request_reason": "Pothole",
    "date_created": "2026-03-31T16:19:02.000",
    "date_modified": "2026-03-31T16:19:04.000",
    "request_status": "Pending",
    "responsible_agency": "Department of Public Works",
    "final_address": "1505 Patterson St",
    "address_councildis": "C",
    "status": "Pending",
    "rowid": "1270228",
    "final_x": "3690315.08508",
    "final_y": "530998.808002",
    "longitude": "-90.04025412379448",
    "latitude": "29.953791994247027",
    "geocoded_column": {
      "latitude": "29.953791994247027",
      "longitude": "-90.04025412379448"
    }
  },
  {
    "service_request": "2026-1270227",
    "request_type": "Trash/Recycling",
    "request_reason": "Repair Trash Cart",
    "date_created": "2026-03-31T16:18:25.000",
    "date_modified": "2026-03-31T16:18:27.000",
    "request_status": "Pending",
    "responsible_agency": "Department of Sanitation",
    "final_address": "4808 Majestic Oaks Dr",
    "address_councildis": "D",
    "status": "Assigned to Contractor",
    "contractor": "Waste Pro",
    "rowid": "1270227",
    "final_x": "3697602.83626",
    "final_y": "554673.573272",
    "longitude": "-90.01638337362894",
    "latitude": "30.018660804711896",
    "geocoded_column": {
      "latitude": "30.018660804711896",
      "longitude": "-90.01638337362894"
    }
  },
  {
    "service_request": "2026-1270226",
    "request_type": "Trash/Recycling",
    "request_reason": "Order Trash Cart",
    "date_created": "2026-03-31T16:16:43.000",
    "date_modified": "2026-03-31T16:16:44.000",
    "request_status": "Pending",
    "responsible_agency": "Department of Sanitation",
    "final_address": "10311 Flossmoor Dr",
    "address_councildis": "E",
    "status": "Assigned to Contractor",
    "contractor": "Waste Pro",
    "rowid": "1270226",
    "final_x": "3709955.83768",
    "final_y": "563931.027297",
    "longitude": "-89.97700648445907",
    "latitude": "30.04371897655244",
    "geocoded_column": {
      "latitude": "30.04371897655244",
      "longitude": "-89.97700648445907"
    }
  },
  {
    "service_request": "2026-1270225",
    "request_type": "Drainage",
    "request_reason": "Catch Basin Not Draining",
    "date_created": "2026-03-31T16:15:10.000",
    "date_modified": "2026-03-31T16:15:18.000",
    "request_status": "Pending",
    "responsible_agency": "Sewerage & Water Board",
    "final_address": "3067 St Claude Ave",
    "address_councildis": "C",
    "status": "Pending",
    "rowid": "1270225",
    "final_x": "3688984.75798",
    "final_y": "536109.345223",
    "longitude": "-90.04427319419608",
    "latitude": "29.96788540864137",
    "geocoded_column": {
      "latitude": "29.96788540864137",
      "longitude": "-90.04427319419608"
    }
  },
  {
    "service_request": "2026-1270224",
    "request_type": "Trash/Recycling",
    "request_reason": "Request a Large Item Pick Up",
    "date_created": "2026-03-31T16:14:14.000",
    "date_modified": "2026-03-31T16:14:16.000",
    "request_status": "Pending",
    "responsible_agency": "Department of Sanitation",
    "final_address": "3432 Louisiana Avenue Prkwy",
    "address_councildis": "B",
    "status": "Assigned to Contractor",
    "contractor": "IV Waste",
    "rowid": "1270224",
    "final_x": "3671594.36628",
    "final_y": "527717.039231",
    "longitude": "-90.09947812575939",
    "latitude": "29.945335833302842",
    "geocoded_column": {
      "latitude": "29.945335833302842",
      "longitude": "-90.09947812575939"
    }
  },
  {
    "service_request": "2026-1270223",
    "request_type": "Street and Traffic Signs",
    "request_reason": "Street Name Sign Damaged or Missing",
    "date_created": "2026-03-31T16:10:29.000",
    "date_modified": "2026-03-31T16:10:39.000",
    "request_status": "Pending",
    "responsible_agency": "Department of Public Works",
    "final_address": "7184 Lamb Rd",
    "address_councildis": "D",
    "status": "Pending",
    "rowid": "1270223",
    "final_x": "3697394.54435",
    "final_y": "557799.200219",
    "longitude": "-90.0169280382058",
    "latitude": "30.02726167058012",
    "geocoded_column": {
      "latitude": "30.02726167058012",
      "longitude": "-90.0169280382058"
    }
  },
  {
    "service_request": "2026-1270222",
    "request_type": "Healthy Homes",
    "request_reason": "Healthy Homes",
    "date_created": "2026-03-31T16:09:17.000",
    "date_modified": "2026-03-31T16:09:18.000",
    "request_status": "Pending",
    "responsible_agency": "Department of Code Enforcement",
    "final_address": "4600 S Carrollton Ave Apt 2B",
    "address_councildis": "A",
    "status": "Pending",
    "rowid": "1270222",
    "final_x": "3670700.06465",
    "final_y": "537702.702472",
    "longitude": "-90.10196291478312",
    "latitude": "29.97281954509623",
    "geocoded_column": {
      "latitude": "29.97281954509623",
      "longitude": "-90.10196291478312"
    }
  },
  {
    "service_request": "2026-1270221",
    "request_type": "Trash/Recycling",
    "request_reason": "Request a Large Item Pick Up",
    "date_created": "2026-03-31T16:04:50.000",
    "date_modified": "2026-03-31T17:10:54.000",
    "request_status": "Pending",
    "responsible_agency": "Department of Sanitation",
    "final_address": "2311 Killdeer St",
    "address_councildis": "D",
    "status": "Assigned to Contractor",
    "contractor": "IV Waste",
    "rowid": "1270221",
    "final_x": "3684197.21506",
    "final_y": "557633.748187",
    "longitude": "-90.05863619491832",
    "latitude": "30.02721702963286",
    "geocoded_column": {
      "latitude": "30.02721702963286",
      "longitude": "-90.05863619491832"
    }
  },
  {
    "service_request": "2026-1270220",
    "request_type": "Trash/Recycling",
    "request_reason": "Return Trash Cart",
    "date_created": "2026-03-31T16:04:05.000",
    "date_modified": "2026-03-31T16:04:06.000",
    "request_status": "Pending",
    "responsible_agency": "Department of Sanitation",
    "final_address": "1500 State St",
    "address_councildis": "A",
    "status": "Assigned to Contractor",
    "contractor": "IV Waste",
    "rowid": "1270220",
    "final_x": "3665484.62964",
    "final_y": "521858.67769",
    "longitude": "-90.11896461875835",
    "latitude": "29.929406696702195",
    "geocoded_column": {
      "latitude": "29.929406696702195",
      "longitude": "-90.11896461875835"
    }
  },
  {
    "service_request": "2026-1270219",
    "request_type": "Trash/Recycling",
    "request_reason": "Return Trash Cart",
    "date_created": "2026-03-31T16:03:42.000",
    "date_modified": "2026-03-31T16:03:44.000",
    "request_status": "Pending",
    "responsible_agency": "Department of Sanitation",
    "final_address": "15025 Emory Rd",
    "address_councildis": "E",
    "status": "Assigned to Contractor",
    "contractor": "Waste Pro",
    "rowid": "1270219",
    "final_x": "3721090.02022",
    "final_y": "574184.010794",
    "longitude": "-89.94142448381731",
    "latitude": "30.071543315572608",
    "geocoded_column": {
      "latitude": "30.071543315572608",
      "longitude": "-89.94142448381731"
    }
  },
  {
    "service_request": "2026-1270218",
    "request_type": "Trash/Recycling",
    "request_reason": "Order Second Trash Cart",
    "date_created": "2026-03-31T16:03:34.000",
    "date_modified": "2026-03-31T16:03:35.000",
    "request_status": "Pending",
    "responsible_agency": "Department of Sanitation",
    "final_address": "711 Hendee St",
    "address_councildis": "C",
    "status": "Assigned to Contractor",
    "contractor": "Richards Disposal",
    "rowid": "1270218",
    "final_x": "3690796.70883",
    "final_y": "528852.758656",
    "longitude": "-90.03880991694398",
    "latitude": "29.947876145787383",
    "geocoded_column": {
      "latitude": "29.947876145787383",
      "longitude": "-90.03880991694398"
    }
  },
  {
    "service_request": "2026-1270217",
    "request_type": "Trash/Recycling",
    "request_reason": "Request a Large Item Pick Up",
    "date_created": "2026-03-31T16:02:24.000",
    "date_modified": "2026-03-31T16:02:26.000",
    "request_status": "Pending",
    "responsible_agency": "Department of Sanitation",
    "final_address": "7821 W Laverne St",
    "address_councildis": "E",
    "status": "Assigned to Contractor",
    "contractor": "Waste Pro",
    "rowid": "1270217",
    "final_x": "3695017.39024",
    "final_y": "559261.101788",
    "longitude": "-90.02438682960536",
    "latitude": "30.0313562209209",
    "geocoded_column": {
      "latitude": "30.0313562209209",
      "longitude": "-90.02438682960536"
    }
  },
  {
    "service_request": "2026-1270216",
    "request_type": "Trash/Recycling",
    "request_reason": "Request a Large Item Pick Up",
    "date_created": "2026-03-31T15:55:05.000",
    "date_modified": "2026-03-31T15:55:08.000",
    "request_status": "Pending",
    "responsible_agency": "Department of Sanitation",
    "final_address": "0 BLK Admiralty Ct",
    "address_councildis": "C",
    "status": "Assigned to Contractor",
    "contractor": "Richards Disposal",
    "rowid": "1270216",
    "final_x": "3704031.03777",
    "final_y": "523040.620373",
    "longitude": "-89.99723816614093",
    "latitude": "29.931477060413563",
    "geocoded_column": {
      "latitude": "29.931477060413563",
      "longitude": "-89.99723816614093"
    }
  },
  {
    "service_request": "2026-1270215",
    "request_type": "Drainage",
    "request_reason": "Catch Basin Not Draining",
    "date_created": "2026-03-31T15:53:28.000",
    "date_modified": "2026-03-31T15:53:30.000",
    "request_status": "Pending",
    "responsible_agency": "Sewerage & Water Board",
    "final_address": "4408 S Carrollton Ave",
    "address_councildis": "A",
    "status": "Pending",
    "rowid": "1270215",
    "final_x": "3670170.74286",
    "final_y": "537154.019656",
    "longitude": "-90.10365321345849",
    "latitude": "29.97132648215336",
    "geocoded_column": {
      "latitude": "29.97132648215336",
      "longitude": "-90.10365321345849"
    }
  },
  {
    "service_request": "2026-1270214",
    "request_type": "Trash/Recycling",
    "request_reason": "Replace Trash Cart",
    "date_created": "2026-03-31T15:51:27.000",
    "date_modified": "2026-03-31T15:51:28.000",
    "request_status": "Pending",
    "responsible_agency": "Department of Sanitation",
    "final_address": "1249 Lauradale Dr",
    "address_councildis": "C",
    "status": "Assigned to Contractor",
    "contractor": "Richards Disposal",
    "rowid": "1270214",
    "final_x": "3692769.44368",
    "final_y": "526550.758334",
    "longitude": "-90.03266373656767",
    "latitude": "29.941485008468685",
    "geocoded_column": {
      "latitude": "29.941485008468685",
      "longitude": "-90.03266373656767"
    }
  },
  {
    "service_request": "2026-1270213",
    "request_type": "Trash/Recycling",
    "request_reason": "Request a Large Item Pick Up",
    "date_created": "2026-03-31T15:49:01.000",
    "date_modified": "2026-03-31T15:49:02.000",
    "request_status": "Pending",
    "responsible_agency": "Department of Sanitation",
    "final_address": "1425 Madrid St",
    "address_councildis": "D",
    "status": "Assigned to Contractor",
    "contractor": "IV Waste",
    "rowid": "1270213",
    "final_x": "3677695.01877",
    "final_y": "554645.020184",
    "longitude": "-90.07928592514044",
    "latitude": "30.0191964042346",
    "geocoded_column": {
      "latitude": "30.0191964042346",
      "longitude": "-90.07928592514044"
    }
  },
  {
    "service_request": "2026-1270212",
    "request_type": "Street and Traffic Signs",
    "request_reason": "Traffic or Parking Sign Damaged or Missing",
    "date_created": "2026-03-31T15:44:56.000",
    "date_modified": "2026-03-31T15:44:59.000",
    "request_status": "Pending",
    "responsible_agency": "Department of Public Works",
    "final_address": "8300 Edinburgh St",
    "address_councildis": "A",
    "status": "Pending",
    "rowid": "1270212",
    "final_x": "3666871.12116",
    "final_y": "534924.379142",
    "longitude": "-90.1141488445242",
    "latitude": "29.96529266539811",
    "geocoded_column": {
      "latitude": "29.96529266539811",
      "longitude": "-90.1141488445242"
    }
  },
  {
    "service_request": "2026-1270211",
    "request_type": "Trash/Recycling",
    "request_reason": "Repair Trash Cart",
    "date_created": "2026-03-31T15:40:00.000",
    "date_modified": "2026-03-31T15:40:42.000",
    "request_status": "Pending",
    "responsible_agency": "Department of Sanitation",
    "final_address": "6004 Chartres St",
    "address_councildis": "E",
    "status": "Assigned to Contractor",
    "contractor": "Waste Pro",
    "rowid": "1270211",
    "final_x": "3698488.66493",
    "final_y": "531596.034947",
    "longitude": "-90.01442379034327",
    "latitude": "29.955178001312664",
    "geocoded_column": {
      "latitude": "29.955178001312664",
      "longitude": "-90.01442379034327"
    }
  },
  {
    "service_request": "2026-1270210",
    "request_type": "Trash/Recycling",
    "request_reason": "Missed Trash Pick-Up",
    "date_created": "2026-03-31T15:39:50.000",
    "date_modified": "2026-03-31T15:39:53.000",
    "request_status": "Pending",
    "responsible_agency": "Department of Sanitation",
    "final_address": "44 Marywood Ct",
    "address_councildis": "E",
    "status": "Assigned to Contractor",
    "contractor": "Waste Pro",
    "rowid": "1270210",
    "final_x": "3712233.94373",
    "final_y": "567025.747748",
    "longitude": "-89.96969035871096",
    "latitude": "30.052153862366005",
    "geocoded_column": {
      "latitude": "30.052153862366005",
      "longitude": "-89.96969035871096"
    }
  },
  {
    "service_request": "2026-1270209",
    "request_type": "Safety & Permits",
    "request_reason": "Zoning Enforcement",
    "date_created": "2026-03-31T15:38:30.000",
    "date_modified": "2026-03-31T15:38:32.000",
    "request_status": "Pending",
    "responsible_agency": "Safety and Permits",
    "final_address": "2425 Royal St",
    "address_councildis": "C",
    "status": "Pending",
    "rowid": "1270209",
    "final_x": "3686087.6934",
    "final_y": "534978.925062",
    "longitude": "-90.05346207237119",
    "latitude": "29.96486644362875",
    "geocoded_column": {
      "latitude": "29.96486644362875",
      "longitude": "-90.05346207237119"
    }
  },
  {
    "service_request": "2026-1270208",
    "request_type": "Trash/Recycling",
    "request_reason": "Replace Recycling Cart",
    "date_created": "2026-03-31T15:37:30.000",
    "date_modified": "2026-03-31T15:37:31.000",
    "request_status": "Pending",
    "responsible_agency": "Department of Sanitation",
    "final_address": "6 Grand Teton Ct",
    "address_councildis": "C",
    "status": "Pending",
    "rowid": "1270208",
    "final_x": "3699160.89373",
    "final_y": "516518.533493",
    "longitude": "-90.01284980762651",
    "latitude": "29.913698801482454",
    "geocoded_column": {
      "latitude": "29.913698801482454",
      "longitude": "-90.01284980762651"
    }
  },
  {
    "service_request": "2026-1270207",
    "request_type": "Trash/Recycling",
    "request_reason": "Repair Trash Cart",
    "date_created": "2026-03-31T15:34:22.000",
    "date_modified": "2026-03-31T15:34:23.000",
    "request_status": "Pending",
    "responsible_agency": "Department of Sanitation",
    "final_address": "8220 Lomond Rd",
    "address_councildis": "E",
    "status": "Assigned to Contractor",
    "contractor": "Waste Pro",
    "rowid": "1270207",
    "final_x": "3702951.96023",
    "final_y": "561614.192159",
    "longitude": "-89.99922686474089",
    "latitude": "30.037574687026478",
    "geocoded_column": {
      "latitude": "30.037574687026478",
      "longitude": "-89.99922686474089"
    }
  },
  {
    "service_request": "2026-1270206",
    "request_type": "Drainage",
    "request_reason": "Catch Basin Not Draining",
    "date_created": "2026-03-31T15:33:37.000",
    "date_modified": "2026-03-31T15:33:39.000",
    "request_status": "Pending",
    "responsible_agency": "Sewerage & Water Board",
    "final_address": "1230 Washington Ave",
    "address_councildis": "B",
    "status": "Pending",
    "rowid": "1270206",
    "final_x": "3676685.97147",
    "final_y": "521267.062009",
    "longitude": "-90.08362440063459",
    "latitude": "29.927448772607196",
    "geocoded_column": {
      "latitude": "29.927448772607196",
      "longitude": "-90.08362440063459"
    }
  },
  {
    "service_request": "2026-1270205",
    "request_type": "Trash/Recycling",
    "request_reason": "Request a Large Item Pick Up",
    "date_created": "2026-03-31T15:31:54.000",
    "date_modified": "2026-03-31T15:31:56.000",
    "request_status": "Pending",
    "responsible_agency": "Department of Sanitation",
    "final_address": "1525 St Roch Ave",
    "address_councildis": "C",
    "status": "Assigned to Contractor",
    "contractor": "IV Waste",
    "rowid": "1270205",
    "final_x": "3686427.58127",
    "final_y": "538127.641801",
    "longitude": "-90.05227756227208",
    "latitude": "29.97351387383174",
    "geocoded_column": {
      "latitude": "29.97351387383174",
      "longitude": "-90.05227756227208"
    }
  },
  {
    "service_request": "2026-1270204",
    "request_type": "Trash/Recycling",
    "request_reason": "Replace Trash Cart",
    "date_created": "2026-03-31T15:31:08.000",
    "date_modified": "2026-03-31T15:31:09.000",
    "request_status": "Pending",
    "responsible_agency": "Department of Sanitation",
    "final_address": "5603 Rosemary Pl",
    "address_councildis": "A",
    "status": "Assigned to Contractor",
    "contractor": "IV Waste",
    "rowid": "1270204",
    "final_x": "3667206.98695",
    "final_y": "544733.913999",
    "longitude": "-90.11275820816917",
    "latitude": "29.992255754743415",
    "geocoded_column": {
      "latitude": "29.992255754743415",
      "longitude": "-90.11275820816917"
    }
  },
  {
    "service_request": "2026-1270203",
    "request_type": "Trash/Recycling",
    "request_reason": "Repair Recycling Cart",
    "date_created": "2026-03-31T15:30:20.000",
    "date_modified": "2026-03-31T15:30:24.000",
    "request_status": "Pending",
    "responsible_agency": "Department of Sanitation",
    "final_address": "8220 Lomond Rd",
    "address_councildis": "E",
    "status": "Pending",
    "rowid": "1270203",
    "final_x": "3702951.96023",
    "final_y": "561614.192159",
    "longitude": "-89.99922686474089",
    "latitude": "30.037574687026478",
    "geocoded_column": {
      "latitude": "30.037574687026478",
      "longitude": "-89.99922686474089"
    }
  },
  {
    "service_request": "2026-1270202",
    "request_type": "Trash/Recycling",
    "request_reason": "Request a Large Item Pick Up",
    "date_created": "2026-03-31T15:30:03.000",
    "date_modified": "2026-03-31T15:30:05.000",
    "request_status": "Pending",
    "responsible_agency": "Department of Sanitation",
    "final_address": "7555 Mercier St",
    "address_councildis": "E",
    "status": "Assigned to Contractor",
    "contractor": "Waste Pro",
    "rowid": "1270202",
    "final_x": "3711826.78008",
    "final_y": "565996.400291",
    "longitude": "-89.97101594916865",
    "latitude": "30.049336891735546",
    "geocoded_column": {
      "latitude": "30.049336891735546",
      "longitude": "-89.97101594916865"
    }
  },
  {
    "service_request": "2026-1270201",
    "request_type": "Trash/Recycling",
    "request_reason": "Replace Recycling Cart",
    "date_created": "2026-03-31T15:28:36.000",
    "date_modified": "2026-03-31T15:28:40.000",
    "request_status": "Pending",
    "responsible_agency": "Department of Sanitation",
    "final_address": "1435 Madrid St",
    "address_councildis": "D",
    "status": "Pending",
    "rowid": "1270201",
    "final_x": "3677776.29454",
    "final_y": "554656.659736",
    "longitude": "-90.07902871891066",
    "latitude": "30.01922596270733",
    "geocoded_column": {
      "latitude": "30.01922596270733",
      "longitude": "-90.07902871891066"
    }
  },
  {
    "service_request": "2026-1270200",
    "request_type": "Trash/Recycling",
    "request_reason": "Order Recycling Cart",
    "date_created": "2026-03-31T15:25:40.000",
    "date_modified": "2026-03-31T15:25:42.000",
    "request_status": "Pending",
    "responsible_agency": "Department of Sanitation",
    "final_address": "622 Lizardi St",
    "address_councildis": "E",
    "status": "Pending",
    "rowid": "1270200",
    "final_x": "3696020.17456",
    "final_y": "532477.966852",
    "longitude": "-90.02218646306065",
    "latitude": "29.95768089986975",
    "geocoded_column": {
      "latitude": "29.95768089986975",
      "longitude": "-90.02218646306065"
    }
  },
  {
    "service_request": "2026-1270199",
    "request_type": "Trash/Recycling",
    "request_reason": "Repair Trash Cart",
    "date_created": "2026-03-31T15:24:09.000",
    "date_modified": "2026-03-31T15:24:11.000",
    "request_status": "Pending",
    "responsible_agency": "Department of Sanitation",
    "final_address": "4406 Lonely Oak Dr",
    "address_councildis": "E",
    "status": "Assigned to Contractor",
    "contractor": "Waste Pro",
    "rowid": "1270199",
    "final_x": "3702407.7569",
    "final_y": "552842.756694",
    "longitude": "-90.00126891333656",
    "latitude": "30.01347403600308",
    "geocoded_column": {
      "latitude": "30.01347403600308",
      "longitude": "-90.00126891333656"
    }
  },
  {
    "service_request": "2026-1270198",
    "request_type": "Drainage",
    "request_reason": "Catch Basin Not Draining",
    "date_created": "2026-03-31T15:23:31.000",
    "date_modified": "2026-03-31T15:33:02.000",
    "request_status": "Pending",
    "responsible_agency": "Sewerage & Water Board",
    "final_address": "4603 Bienville Ave",
    "address_councildis": "A",
    "status": "Pending",
    "rowid": "1270198",
    "final_x": "3669888.65159",
    "final_y": "540339.155595",
    "longitude": "-90.10443621734449",
    "latitude": "29.980092852309994",
    "geocoded_column": {
      "latitude": "29.980092852309994",
      "longitude": "-90.10443621734449"
    }
  },
  {
    "service_request": "2026-1270197",
    "request_type": "Trash/Recycling",
    "request_reason": "Request a Large Item Pick Up",
    "date_created": "2026-03-31T15:21:54.000",
    "date_modified": "2026-03-31T15:24:40.000",
    "request_status": "Pending",
    "responsible_agency": "Department of Sanitation",
    "final_address": "8220 Lomond Rd",
    "address_councildis": "E",
    "status": "Assigned to Contractor",
    "contractor": "Waste Pro",
    "rowid": "1270197",
    "final_x": "3702951.96023",
    "final_y": "561614.192159",
    "longitude": "-89.99922686474089",
    "latitude": "30.037574687026478",
    "geocoded_column": {
      "latitude": "30.037574687026478",
      "longitude": "-89.99922686474089"
    }
  },
  {
    "service_request": "2026-1270196",
    "request_type": "Abandoned Vehicles",
    "request_reason": "Abandoned/Junk Vehicles",
    "date_created": "2026-03-31T15:19:43.000",
    "date_modified": "2026-03-31T15:19:47.000",
    "request_status": "Pending",
    "responsible_agency": "Department of Public Works",
    "final_address": "2300 BLK Decatur St",
    "address_councildis": "C",
    "status": "Pending",
    "rowid": "1270196",
    "final_x": "3685770.55296",
    "final_y": "534201.691883",
    "longitude": "-90.05449097320157",
    "latitude": "29.962739057712053",
    "geocoded_column": {
      "latitude": "29.962739057712053",
      "longitude": "-90.05449097320157"
    }
  },
  {
    "service_request": "2026-1270195",
    "request_type": "Trash/Recycling",
    "request_reason": "Order Recycling Cart",
    "date_created": "2026-03-31T15:19:13.000",
    "date_modified": "2026-03-31T15:19:15.000",
    "request_status": "Pending",
    "responsible_agency": "Department of Sanitation",
    "final_address": "1241 Elysian Fields Ave",
    "address_councildis": "C",
    "status": "Pending",
    "rowid": "1270195",
    "final_x": "3685068.35452",
    "final_y": "537001.972296",
    "longitude": "-90.05660989007204",
    "latitude": "29.970460389376882",
    "geocoded_column": {
      "latitude": "29.970460389376882",
      "longitude": "-90.05660989007204"
    }
  },
  {
    "service_request": "2026-1270194",
    "request_type": "Abandoned Vehicles",
    "request_reason": "Abandoned/Junk Vehicles",
    "date_created": "2026-03-31T15:16:59.000",
    "date_modified": "2026-03-31T15:17:01.000",
    "request_status": "Pending",
    "responsible_agency": "Department of Public Works",
    "final_address": "3000 BLK N Roman St",
    "address_councildis": "D",
    "status": "Pending",
    "rowid": "1270194",
    "final_x": "3689524.31776",
    "final_y": "538655.412634",
    "longitude": "-90.04247867113735",
    "latitude": "29.97486949622794",
    "geocoded_column": {
      "latitude": "29.97486949622794",
      "longitude": "-90.04247867113735"
    }
  },
  {
    "service_request": "2026-1270193",
    "request_type": "Roads and Streets",
    "request_reason": "Pothole",
    "date_created": "2026-03-31T15:16:54.000",
    "date_modified": "2026-03-31T15:18:23.000",
    "request_status": "Pending",
    "responsible_agency": "Department of Public Works",
    "final_address": "4900 BLK Copernicus St",
    "address_councildis": "C",
    "status": "Pending",
    "rowid": "1270193",
    "final_x": "3702239.83006",
    "final_y": "522618.77312",
    "longitude": "-90.00290821607027",
    "latitude": "29.930374435646005",
    "geocoded_column": {
      "latitude": "29.930374435646005",
      "longitude": "-90.00290821607027"
    }
  },
  {
    "service_request": "2026-1270192",
    "request_type": "Trash/Recycling",
    "request_reason": "Request a Large Item Pick Up",
    "date_created": "2026-03-31T15:15:04.000",
    "date_modified": "2026-03-31T15:15:07.000",
    "request_status": "Pending",
    "responsible_agency": "Department of Sanitation",
    "final_address": "4650 Bonita Dr",
    "address_councildis": "E",
    "status": "Assigned to Contractor",
    "contractor": "Waste Pro",
    "rowid": "1270192",
    "final_x": "3704480.65207",
    "final_y": "554727.502744",
    "longitude": "-89.99465013392593",
    "latitude": "30.018589941489612",
    "geocoded_column": {
      "latitude": "30.018589941489612",
      "longitude": "-89.99465013392593"
    }
  },
  {
    "service_request": "2026-1270191",
    "request_type": "Abandoned Vehicles",
    "request_reason": "Abandoned/Junk Vehicles",
    "date_created": "2026-03-31T15:13:22.000",
    "date_modified": "2026-03-31T15:13:24.000",
    "request_status": "Pending",
    "responsible_agency": "Department of Public Works",
    "final_address": "2300 BLK N Roman St",
    "address_councildis": "D",
    "status": "Pending",
    "rowid": "1270191",
    "final_x": "3686019.87103",
    "final_y": "538980.252536",
    "longitude": "-90.05353511897226",
    "latitude": "29.97587078183194",
    "geocoded_column": {
      "latitude": "29.97587078183194",
      "longitude": "-90.05353511897226"
    }
  },
  {
    "service_request": "2026-1270190",
    "request_type": "Trash/Recycling",
    "request_reason": "Order Second Trash Cart",
    "date_created": "2026-03-31T15:13:03.000",
    "date_modified": "2026-03-31T15:13:05.000",
    "request_status": "Pending",
    "responsible_agency": "Department of Sanitation",
    "final_address": "59 Fontainebleau Dr",
    "address_councildis": "A",
    "status": "Assigned to Contractor",
    "contractor": "IV Waste",
    "rowid": "1270190",
    "final_x": "3666530.63873",
    "final_y": "531174.333826",
    "longitude": "-90.11534995586233",
    "latitude": "29.954991229966453",
    "geocoded_column": {
      "latitude": "29.954991229966453",
      "longitude": "-90.11534995586233"
    }
  },
  {
    "service_request": "2026-1270189",
    "request_type": "Abandoned Vehicles",
    "request_reason": "Abandoned/Junk Vehicles",
    "date_created": "2026-03-31T15:11:57.000",
    "date_modified": "2026-03-31T15:12:43.000",
    "request_status": "Pending",
    "responsible_agency": "Department of Public Works",
    "final_address": "6000 Craigie Rd",
    "address_councildis": "E",
    "status": "Pending",
    "rowid": "1270189",
    "final_x": "3695252.96317",
    "final_y": "558519.590812",
    "longitude": "-90.02366919508705",
    "latitude": "30.02930994736514",
    "geocoded_column": {
      "latitude": "30.02930994736514",
      "longitude": "-90.02366919508705"
    }
  },
  {
    "service_request": "2026-1270188",
    "request_type": "Health Related Request",
    "request_reason": "Homeless Encampment Complaint",
    "date_created": "2026-03-31T15:11:42.000",
    "date_modified": "2026-03-31T15:11:43.000",
    "request_status": "Pending",
    "responsible_agency": "Office Of Homeless Services And Strategy",
    "final_address": "CARROLLTON EXIT & AIRLINE EXIT & CARROLLTON/AIRLINE EX",
    "address_councildis": "B",
    "status": "Pending",
    "rowid": "1270188",
    "final_x": "3670315.7",
    "final_y": "534711.78",
    "longitude": "-90.1032782153074",
    "latitude": "29.964606862247102",
    "geocoded_column": {
      "latitude": "29.964606862247102",
      "longitude": "-90.1032782153074"
    }
  },
  {
    "service_request": "2026-1270187",
    "request_type": "Abandoned Vehicles",
    "request_reason": "Abandoned/Junk Vehicles",
    "date_created": "2026-03-31T15:10:30.000",
    "date_modified": "2026-03-31T15:10:31.000",
    "request_status": "Pending",
    "responsible_agency": "Department of Public Works",
    "final_address": "1400 BLK Saint Anthony St",
    "address_councildis": "C",
    "status": "Pending",
    "rowid": "1270187",
    "final_x": "3683412.16693",
    "final_y": "537471.238822",
    "longitude": "-90.06182386638257",
    "latitude": "29.971801346822495",
    "geocoded_column": {
      "latitude": "29.971801346822495",
      "longitude": "-90.06182386638257"
    }
  },
  {
    "service_request": "2026-1270186",
    "request_type": "Streetlights",
    "request_reason": "Streetlight Outage/Malfunction",
    "date_created": "2026-03-31T15:09:19.000",
    "date_modified": "2026-03-31T15:09:21.000",
    "request_status": "Pending",
    "responsible_agency": "Department of Public Works",
    "final_address": "3124 N Tonti St",
    "address_councildis": "D",
    "status": "Pending",
    "rowid": "1270186",
    "final_x": "3690327.19145",
    "final_y": "540426.397515",
    "longitude": "-90.03987986396302",
    "latitude": "29.979714181207186",
    "geocoded_column": {
      "latitude": "29.979714181207186",
      "longitude": "-90.03987986396302"
    }
  },
  {
    "service_request": "2026-1270185",
    "request_type": "Roads and Streets",
    "request_reason": "Pothole",
    "date_created": "2026-03-31T15:05:42.000",
    "date_modified": "2026-03-31T15:06:05.000",
    "request_status": "Pending",
    "responsible_agency": "Department of Public Works",
    "final_address": "1022 Cherokee St",
    "address_councildis": "A",
    "status": "Pending",
    "rowid": "1270185",
    "final_x": "3663140.83661",
    "final_y": "526562.263038",
    "longitude": "-90.12620714860266",
    "latitude": "29.942408159511483",
    "geocoded_column": {
      "latitude": "29.942408159511483",
      "longitude": "-90.12620714860266"
    }
  },
  {
    "service_request": "2026-1270184",
    "request_type": "Drainage",
    "request_reason": "Catch Basin Frame and Cover Missing or Damaged",
    "date_created": "2026-03-31T15:03:31.000",
    "date_modified": "2026-03-31T15:03:33.000",
    "request_status": "Pending",
    "responsible_agency": "Sewerage & Water Board",
    "final_address": "4365 State Street Dr",
    "address_councildis": "B",
    "status": "Pending",
    "rowid": "1270184",
    "final_x": "3668731.8379",
    "final_y": "531782.087427",
    "longitude": "-90.1083788593401",
    "latitude": "29.956597832682064",
    "geocoded_column": {
      "latitude": "29.956597832682064",
      "longitude": "-90.1083788593401"
    }
  },
  {
    "service_request": "2026-1270183",
    "request_type": "Trash/Recycling",
    "request_reason": "Request a Large Item Pick Up",
    "date_created": "2026-03-31T15:00:33.000",
    "date_modified": "2026-03-31T15:00:35.000",
    "request_status": "Pending",
    "responsible_agency": "Department of Sanitation",
    "final_address": "4758 Charlmark Dr",
    "address_councildis": "E",
    "status": "Assigned to Contractor",
    "contractor": "Waste Pro",
    "rowid": "1270183",
    "final_x": "3711336.68178",
    "final_y": "556142.57129",
    "longitude": "-89.97293470141582",
    "latitude": "30.022258801712216",
    "geocoded_column": {
      "latitude": "30.022258801712216",
      "longitude": "-89.97293470141582"
    }
  },
  {
    "service_request": "2026-1270182",
    "request_type": "Abandoned Vehicles",
    "request_reason": "Abandoned/Junk Vehicles",
    "date_created": "2026-03-31T15:00:23.000",
    "date_modified": "2026-03-31T15:00:31.000",
    "request_status": "Pending",
    "responsible_agency": "Department of Public Works",
    "final_address": "1660 Treasure St",
    "address_councildis": "D",
    "status": "Pending",
    "rowid": "1270182",
    "final_x": "3680460.4852",
    "final_y": "543680.895246",
    "longitude": "-90.07092967336777",
    "latitude": "29.988965472999073",
    "geocoded_column": {
      "latitude": "29.988965472999073",
      "longitude": "-90.07092967336777"
    }
  },
  {
    "service_request": "2026-1270181",
    "request_type": "Trash/Recycling",
    "request_reason": "Illegal Dumping",
    "date_created": "2026-03-31T14:57:58.000",
    "date_modified": "2026-03-31T14:58:01.000",
    "request_status": "Pending",
    "responsible_agency": "Department of Sanitation",
    "final_address": "5260 Revel St",
    "address_councildis": "E",
    "status": "Pending",
    "rowid": "1270181",
    "final_x": "3725015.19097",
    "final_y": "562870.764512",
    "longitude": "-89.92945414626176",
    "latitude": "30.0403049550689",
    "geocoded_column": {
      "latitude": "30.0403049550689",
      "longitude": "-89.92945414626176"
    }
  },
  {
    "service_request": "2026-1270180",
    "request_type": "Trash/Recycling",
    "request_reason": "Request a Large Item Pick Up",
    "date_created": "2026-03-31T14:54:50.000",
    "date_modified": "2026-03-31T17:10:11.000",
    "request_status": "Pending",
    "responsible_agency": "Department of Sanitation",
    "final_address": "1322 Calhoun St",
    "address_councildis": "A",
    "status": "Assigned to Contractor",
    "contractor": "IV Waste",
    "rowid": "1270180",
    "final_x": "3664139.72775",
    "final_y": "521491.013753",
    "longitude": "-90.12322250120444",
    "latitude": "29.928434860283556",
    "geocoded_column": {
      "latitude": "29.928434860283556",
      "longitude": "-90.12322250120444"
    }
  },
  {
    "service_request": "2026-1270179",
    "request_type": "Trash/Recycling",
    "request_reason": "Request a Large Item Pick Up",
    "date_created": "2026-03-31T14:54:01.000",
    "date_modified": "2026-03-31T14:54:03.000",
    "request_status": "Pending",
    "responsible_agency": "Department of Sanitation",
    "final_address": "4717 Deanne St",
    "address_councildis": "D",
    "status": "Assigned to Contractor",
    "contractor": "Waste Pro",
    "rowid": "1270179",
    "final_x": "3696429.71402",
    "final_y": "554025.461016",
    "longitude": "-90.02011346689814",
    "latitude": "30.01691576183856",
    "geocoded_column": {
      "latitude": "30.01691576183856",
      "longitude": "-90.02011346689814"
    }
  },
  {
    "service_request": "2026-1270178",
    "request_type": "Trash/Recycling",
    "request_reason": "Order Recycling Cart",
    "date_created": "2026-03-31T14:53:37.000",
    "date_modified": "2026-03-31T14:53:51.000",
    "request_status": "Pending",
    "responsible_agency": "Department of Sanitation",
    "final_address": "2440 N Prieur St",
    "address_councildis": "D",
    "status": "Pending",
    "rowid": "1270178",
    "final_x": "3686651.04546",
    "final_y": "539367.570186",
    "longitude": "-90.05152801085127",
    "latitude": "29.976916370034203",
    "geocoded_column": {
      "latitude": "29.976916370034203",
      "longitude": "-90.05152801085127"
    }
  },
  {
    "service_request": "2026-1270177",
    "request_type": "Parks & Parkways",
    "request_reason": "Request Tree Service (Right of Way/Public Property)",
    "date_created": "2026-03-31T14:52:51.000",
    "date_modified": "2026-03-31T14:52:54.000",
    "request_status": "Pending",
    "responsible_agency": "Department of Parks & Parkway",
    "final_address": "1461 Nashville Ave",
    "address_councildis": "A",
    "status": "Pending",
    "rowid": "1270177",
    "final_x": "3666124.3577",
    "final_y": "521412.214457",
    "longitude": "-90.1169600695963",
    "latitude": "29.928160406162593",
    "geocoded_column": {
      "latitude": "29.928160406162593",
      "longitude": "-90.1169600695963"
    }
  },
  {
    "service_request": "2026-1270176",
    "request_type": "Trash/Recycling",
    "request_reason": "Repair Trash Cart",
    "date_created": "2026-03-31T14:47:12.000",
    "date_modified": "2026-03-31T14:47:14.000",
    "request_status": "Pending",
    "responsible_agency": "Department of Sanitation",
    "final_address": "4463 Fields St",
    "address_councildis": "C",
    "status": "Assigned to Contractor",
    "contractor": "Richards Disposal",
    "rowid": "1270176",
    "final_x": "3707414.10353",
    "final_y": "514593.955251",
    "longitude": "-89.98687166428722",
    "latitude": "29.90814277145264",
    "geocoded_column": {
      "latitude": "29.90814277145264",
      "longitude": "-89.98687166428722"
    }
  },
  {
    "service_request": "2026-1270175",
    "request_type": "Street and Traffic Signs",
    "request_reason": "Crosswalk Signage Damaged or Missing",
    "date_created": "2026-03-31T14:46:22.000",
    "date_modified": "2026-03-31T14:46:24.000",
    "request_status": "Pending",
    "responsible_agency": "Department of Public Works",
    "final_address": "200 BLK Saint Charles Ave",
    "address_councildis": "B",
    "status": "Pending",
    "rowid": "1270175",
    "final_x": "3680927.36055",
    "final_y": "530189.225827",
    "longitude": "-90.06992484236872",
    "latitude": "29.951853877785517",
    "geocoded_column": {
      "latitude": "29.951853877785517",
      "longitude": "-90.06992484236872"
    }
  },
  {
    "service_request": "2026-1270174",
    "request_type": "Streetlights",
    "request_reason": "Streetlight Outage/Malfunction",
    "date_created": "2026-03-31T14:38:29.000",
    "date_modified": "2026-03-31T14:38:31.000",
    "request_status": "Pending",
    "responsible_agency": "Department of Public Works",
    "final_address": "500 Camp St",
    "address_councildis": "B",
    "status": "Pending",
    "rowid": "1270174",
    "final_x": "3681172.2934",
    "final_y": "529143.03968",
    "longitude": "-90.06918790551748",
    "latitude": "29.94896979018441",
    "geocoded_column": {
      "latitude": "29.94896979018441",
      "longitude": "-90.06918790551748"
    }
  },
  {
    "service_request": "2026-1270173",
    "request_type": "Trash/Recycling",
    "request_reason": "Order Trash Cart",
    "date_created": "2026-03-31T14:31:24.000",
    "date_modified": "2026-03-31T14:31:26.000",
    "request_status": "Pending",
    "responsible_agency": "Department of Sanitation",
    "final_address": "1308 S Lopez St",
    "address_councildis": "B",
    "status": "Assigned to Contractor",
    "contractor": "IV Waste",
    "rowid": "1270173",
    "final_x": "3670606.38721",
    "final_y": "531536.135555",
    "longitude": "-90.1024679696824",
    "latitude": "29.955866310507727",
    "geocoded_column": {
      "latitude": "29.955866310507727",
      "longitude": "-90.1024679696824"
    }
  },
  {
    "service_request": "2026-1270172",
    "request_type": "Roads and Streets",
    "request_reason": "Pothole",
    "date_created": "2026-03-31T14:29:14.000",
    "date_modified": "2026-03-31T14:33:13.000",
    "request_status": "Pending",
    "responsible_agency": "Department of Public Works",
    "final_address": "1800 BLK Conti St",
    "address_councildis": "B",
    "status": "Pending",
    "rowid": "1270172",
    "final_x": "3678661.81784",
    "final_y": "534050.490414",
    "longitude": "-90.07694466746327",
    "latitude": "29.962539544734497",
    "geocoded_column": {
      "latitude": "29.962539544734497",
      "longitude": "-90.07694466746327"
    }
  },
  {
    "service_request": "2026-1270171",
    "request_type": "Abandoned Vehicles",
    "request_reason": "Abandoned/Junk Vehicles",
    "date_created": "2026-03-31T14:26:35.000",
    "date_modified": "2026-03-31T14:28:35.000",
    "request_status": "Pending",
    "responsible_agency": "Department of Public Works",
    "final_address": "2767 N Rocheblave St",
    "address_councildis": "D",
    "status": "Pending",
    "rowid": "1270171",
    "final_x": "3687848.09961",
    "final_y": "541385.129676",
    "longitude": "-90.04767584722418",
    "latitude": "29.98242706974755",
    "geocoded_column": {
      "latitude": "29.98242706974755",
      "longitude": "-90.04767584722418"
    }
  },
  {
    "service_request": "2026-1270170",
    "request_type": "Roads and Streets",
    "request_reason": "Street Subsidence (Sinking)",
    "date_created": "2026-03-31T14:24:23.000",
    "date_modified": "2026-03-31T14:25:40.000",
    "request_status": "Pending",
    "responsible_agency": "Sewerage & Water Board",
    "final_address": "RAY AVE & CHEF MENTEUR HWY",
    "address_councildis": "E",
    "status": "Pending",
    "rowid": "1270170",
    "final_x": "3699018.3",
    "final_y": "551890.28",
    "longitude": "-90.012012455314",
    "latitude": "30.010962993127364",
    "geocoded_column": {
      "latitude": "30.010962993127364",
      "longitude": "-90.012012455314"
    }
  },
  {
    "service_request": "2026-1270169",
    "request_type": "Trash/Recycling",
    "request_reason": "Request a Large Item Pick Up",
    "date_created": "2026-03-31T14:24:21.000",
    "date_modified": "2026-03-31T14:24:22.000",
    "request_status": "Pending",
    "responsible_agency": "Department of Sanitation",
    "final_address": "5010 E St Andrews Cir",
    "address_councildis": "E",
    "status": "Assigned to Contractor",
    "contractor": "Waste Pro",
    "rowid": "1270169",
    "final_x": "3719893.96454",
    "final_y": "559874.545053",
    "longitude": "-89.94575334676105",
    "latitude": "30.032238099939566",
    "geocoded_column": {
      "latitude": "30.032238099939566",
      "longitude": "-89.94575334676105"
    }
  },
  {
    "service_request": "2026-1270168",
    "request_type": "Streetlights",
    "request_reason": "Streetlight Outage/Malfunction",
    "date_created": "2026-03-31T14:21:45.000",
    "date_modified": "2026-03-31T14:21:46.000",
    "request_status": "Pending",
    "responsible_agency": "Department of Public Works",
    "final_address": "600 Camp St",
    "address_councildis": "B",
    "status": "Pending",
    "rowid": "1270168",
    "final_x": "3681024.58856",
    "final_y": "528713.486592",
    "longitude": "-90.06966923094112",
    "latitude": "29.947793143402315",
    "geocoded_column": {
      "latitude": "29.947793143402315",
      "longitude": "-90.06966923094112"
    }
  },
  {
    "service_request": "2026-1270167",
    "request_type": "Drainage",
    "request_reason": "Catch Basin Not Draining",
    "date_created": "2026-03-31T14:21:02.000",
    "date_modified": "2026-03-31T14:21:04.000",
    "request_status": "Pending",
    "responsible_agency": "Sewerage & Water Board",
    "final_address": "4321 Fontainebleau Dr",
    "address_councildis": "B",
    "status": "Pending",
    "rowid": "1270167",
    "final_x": "3669343.12225",
    "final_y": "529515.484033",
    "longitude": "-90.10652524593719",
    "latitude": "29.95034743449731",
    "geocoded_column": {
      "latitude": "29.95034743449731",
      "longitude": "-90.10652524593719"
    }
  },
  {
    "service_request": "2026-1270166",
    "request_type": "Roads and Streets",
    "request_reason": "Pothole",
    "date_created": "2026-03-31T14:18:49.000",
    "date_modified": "2026-03-31T14:18:51.000",
    "request_status": "Pending",
    "responsible_agency": "Department of Public Works",
    "final_address": "8555 Pontchartrain Blvd",
    "address_councildis": "A",
    "status": "Pending",
    "rowid": "1270166",
    "final_x": "3666598.57185",
    "final_y": "555319.448601",
    "longitude": "-90.11432435051701",
    "latitude": "30.02138010131274",
    "geocoded_column": {
      "latitude": "30.02138010131274",
      "longitude": "-90.11432435051701"
    }
  },
  {
    "service_request": "2026-1270165",
    "request_type": "Streetlights",
    "request_reason": "Streetlight Outage/Malfunction",
    "date_created": "2026-03-31T14:17:15.000",
    "date_modified": "2026-03-31T14:17:17.000",
    "request_status": "Pending",
    "responsible_agency": "Department of Public Works",
    "final_address": "1509 Mithra St",
    "address_councildis": "D",
    "status": "Pending",
    "rowid": "1270165",
    "final_x": "3678660.65749",
    "final_y": "552271.653462",
    "longitude": "-90.0763171039214",
    "latitude": "30.012641409186273",
    "geocoded_column": {
      "latitude": "30.012641409186273",
      "longitude": "-90.0763171039214"
    }
  },
  {
    "service_request": "2026-1270164",
    "request_type": "Safety & Permits",
    "request_reason": "Zoning Enforcement",
    "date_created": "2026-03-31T14:11:15.000",
    "date_modified": "2026-03-31T14:11:17.000",
    "request_status": "Pending",
    "responsible_agency": "Safety and Permits",
    "final_address": "2219 S Liberty St",
    "address_councildis": "B",
    "status": "Pending",
    "rowid": "1270164",
    "final_x": "3675852.66056",
    "final_y": "525724.225405",
    "longitude": "-90.08610180790679",
    "latitude": "29.93972948207271",
    "geocoded_column": {
      "latitude": "29.93972948207271",
      "longitude": "-90.08610180790679"
    }
  },
  {
    "service_request": "2026-1270163",
    "request_type": "Street and Traffic Signs",
    "request_reason": "Traffic or Parking Sign Damaged or Missing",
    "date_created": "2026-03-31T14:10:27.000",
    "date_modified": "2026-03-31T14:10:28.000",
    "request_status": "Pending",
    "responsible_agency": "Department of Public Works",
    "final_address": "118 City Park Ave",
    "address_councildis": "A",
    "status": "Pending",
    "rowid": "1270163",
    "final_x": "3667651.43245",
    "final_y": "540854.232907",
    "longitude": "-90.1114849682831",
    "latitude": "29.98157492613766",
    "geocoded_column": {
      "latitude": "29.98157492613766",
      "longitude": "-90.1114849682831"
    }
  },
  {
    "service_request": "2026-1270162",
    "request_type": "Abandoned Vehicles",
    "request_reason": "Abandoned/Junk Vehicles",
    "date_created": "2026-03-31T14:10:24.000",
    "date_modified": "2026-03-31T14:10:26.000",
    "request_status": "Pending",
    "responsible_agency": "Department of Public Works",
    "final_address": "2301 Esplanade Ave",
    "address_councildis": "D",
    "status": "Pending",
    "rowid": "1270162",
    "final_x": "3679282.86901",
    "final_y": "538169.305545",
    "longitude": "-90.07484061925399",
    "latitude": "29.973846138085356",
    "geocoded_column": {
      "latitude": "29.973846138085356",
      "longitude": "-90.07484061925399"
    }
  },
  {
    "service_request": "2026-1270161",
    "request_type": "Trash/Recycling",
    "request_reason": "Request a Large Item Pick Up",
    "date_created": "2026-03-31T14:09:09.000",
    "date_modified": "2026-03-31T14:24:20.000",
    "request_status": "Pending",
    "responsible_agency": "Department of Sanitation",
    "final_address": "1118 N Derbigny St",
    "address_councildis": "C",
    "status": "Assigned to Contractor",
    "rowid": "1270161",
    "final_x": "3680520.51099",
    "final_y": "536148.500487",
    "longitude": "-90.07100218416086",
    "latitude": "29.968252185326357",
    "geocoded_column": {
      "latitude": "29.968252185326357",
      "longitude": "-90.07100218416086"
    }
  },
  {
    "service_request": "2026-1270160",
    "request_type": "Trash/Recycling",
    "request_reason": "Repair Recycling Cart",
    "date_created": "2026-03-31T14:09:07.000",
    "date_modified": "2026-03-31T14:09:09.000",
    "request_status": "Pending",
    "responsible_agency": "Department of Sanitation",
    "final_address": "7933 Oak St",
    "address_councildis": "A",
    "status": "Pending",
    "rowid": "1270160",
    "final_x": "3662402.46208",
    "final_y": "528037.597183",
    "longitude": "-90.12848939708095",
    "latitude": "29.94648622545902",
    "geocoded_column": {
      "latitude": "29.94648622545902",
      "longitude": "-90.12848939708095"
    }
  },
  {
    "service_request": "2026-1270159",
    "request_type": "Trash/Recycling",
    "request_reason": "Repair Recycling Cart",
    "date_created": "2026-03-31T14:07:00.000",
    "date_modified": "2026-03-31T14:07:01.000",
    "request_status": "Pending",
    "responsible_agency": "Department of Sanitation",
    "final_address": "607 Elmira Ave",
    "address_councildis": "C",
    "status": "Pending",
    "rowid": "1270159",
    "final_x": "3688139.73833",
    "final_y": "529404.802433",
    "longitude": "-90.04717944493395",
    "latitude": "29.949476347494322",
    "geocoded_column": {
      "latitude": "29.949476347494322",
      "longitude": "-90.04717944493395"
    }
  },
  {
    "service_request": "2026-1270158",
    "request_type": "Roads and Streets",
    "request_reason": "Pothole",
    "date_created": "2026-03-31T14:06:29.000",
    "date_modified": "2026-03-31T14:06:31.000",
    "request_status": "Pending",
    "responsible_agency": "Department of Public Works",
    "final_address": "1600 BLK Monroe St",
    "address_councildis": "A",
    "status": "Pending",
    "rowid": "1270158",
    "final_x": "3661449.92345",
    "final_y": "530976.915524",
    "longitude": "-90.1313995672924",
    "latitude": "29.954595913841864",
    "geocoded_column": {
      "latitude": "29.954595913841864",
      "longitude": "-90.1313995672924"
    }
  },