[
  {
    "service_request": "2021-841319",
    "request_type": "Mosquito, Termite & Rodent Control",
    "request_reason": "Mosquito Complaint",
    "date_created": "2021-11-10T23:49:04.000",
    "date_modified": "2021-11-10T23:49:04.000",
    "request_status": "Pending",
    "responsible_agency": "Mosquito, Termite & Rodent Control Board",
    "final_address": "2721 Dreux Ave",
    "address_councildis": "D",
    "status": "Pending",
    "rowid": "841319",
    "final_x": "3687502.32982",
    "final_y": "552337.165078",
    "longitude": "-90.04838003981193",
    "latitude": "30.012551876287432",
    "geocoded_column": {
      "latitude": "30.012551876287432",
      "longitude": "-90.04838003981193"
    }
  },
  {
    "service_request": "2021-841318",
    "request_type": "Property Maintenance",
    "request_reason": "Property Maintenance",
    "date_created": "2021-11-10T23:45:59.000",
    "date_modified": "2021-11-10T23:45:59.000",
    "request_status": "Pending",
    "responsible_agency": "Department of Code Enforcement",
    "final_address": "2900 Winston St",
    "address_councildis": "C",
    "status": "Pending",
    "rowid": "841318",
    "final_x": "3711231.75665",
    "final_y": "519206.010487",
    "longitude": "-89.97465012811467",
    "latitude": "29.920700405820348",
    "geocoded_column": {
      "latitude": "29.920700405820348",
      "longitude": "-89.97465012811467"
    }
  },
  {
    "service_request": "2021-841317",
    "request_type": "Traffic Signals/Signs/Striping/Streetlights",
    "request_reason": "Street Light Outage/Malfunction",
    "date_created": "2021-11-10T23:00:02.000",
    "date_modified": "2021-11-10T23:00:03.000",
    "request_status": "Pending",
    "responsible_agency": "Department of Public Works",
    "final_address": "7722 Hampson St",
    "address_councildis": "A",
    "status": "Pending",
    "contractor": "Royal Engineering",
    "rowid": "841317",
    "final_x": "3661729.47091",
    "final_y": "526197.373246",
    "longitude": "-90.13067526358805",
    "latitude": "29.941445636687465",
    "geocoded_column": {
      "latitude": "29.941445636687465",
      "longitude": "-90.13067526358805"
    }
  },
  {
    "service_request": "2021-841316",
    "request_type": "Traffic Signals/Signs/Striping/Streetlights",
    "request_reason": "Request for Traffic Calming due to Speeding",
    "date_created": "2021-11-10T22:55:19.000",
    "date_modified": "2021-11-10T22:55:19.000",
    "request_status": "Pending",
    "responsible_agency": "Department of Public Works",
    "final_address": "1540 St Roch Ave",
    "address_councildis": "C",
    "status": "Pending",
    "rowid": "841316",
    "final_x": "3686247.89218",
    "final_y": "538209.580169",
    "longitude": "-90.05284216507283",
    "latitude": "29.973744698300056",
    "geocoded_column": {
      "latitude": "29.973744698300056",
      "longitude": "-90.05284216507283"
    }
  },
  {
    "service_request": "2021-841315",
    "request_type": "Traffic Signals/Signs/Striping/Streetlights",
    "request_reason": "Street Light Outage/Malfunction",
    "date_created": "2021-11-10T21:58:06.000",
    "date_modified": "2021-11-10T21:58:06.000",
    "request_status": "Pending",
    "responsible_agency": "Department of Public Works",
    "final_address": "2500 BLK Lombard St",
    "address_councildis": "D",
    "status": "Pending",
    "contractor": "Royal Engineering",
    "rowid": "841315",
    "final_x": "3686426.61071",
    "final_y": "549620.376269",
    "longitude": "-90.05187470370497",
    "latitude": "30.00511482389373",
    "geocoded_column": {
      "latitude": "30.00511482389373",
      "longitude": "-90.05187470370497"
    }
  },
  {
    "service_request": "2021-841313",
    "request_type": "Roads/Drainage",
    "request_reason": "Catch Basin - Clogged",
    "date_created": "2021-11-10T20:37:03.000",
    "date_modified": "2021-11-10T20:37:03.000",
    "request_status": "Pending",
    "responsible_agency": "Department of Public Works",
    "final_address": "1834 Desire St",
    "address_councildis": "D",
    "status": "Pending",
    "rowid": "841313",
    "final_x": "3690865.58601",
    "final_y": "538615.165193",
    "longitude": "-90.03824405847136",
    "latitude": "29.97471721420109",
    "geocoded_column": {
      "latitude": "29.97471721420109",
      "longitude": "-90.03824405847136"
    }
  },
  {
    "service_request": "2021-841312",
    "request_type": "Trash/Recycling",
    "request_reason": "Missed Trash Pick-Up",
    "date_created": "2021-11-10T20:32:53.000",
    "date_modified": "2021-11-10T20:33:14.000",
    "request_status": "Pending",
    "responsible_agency": "Department of Sanitation",
    "final_address": "1834 Desire St",
    "address_councildis": "D",
    "status": "Assigned to Contractor",
    "contractor": "Metro Disposal",
    "rowid": "841312",
    "final_x": "3690865.58601",
    "final_y": "538615.165193",
    "longitude": "-90.03824405847136",
    "latitude": "29.97471721420109",
    "geocoded_column": {
      "latitude": "29.97471721420109",
      "longitude": "-90.03824405847136"
    }
  },
  {
    "service_request": "2021-841311",
    "request_type": "Roads/Drainage",
    "request_reason": "Pothole",
    "date_created": "2021-11-10T20:23:51.000",
    "date_modified": "2021-11-10T21:02:25.000",
    "request_status": "Pending",
    "responsible_agency": "Department of Public Works",
    "final_address": "Freret street and Jefferson Avenue",
    "status": "Pending",
    "rowid": "841311",
    "longitude": "0.0",
    "latitude": "0.0",
    "geocoded_column": {
      "latitude": "0.0",
      "longitude": "0.0"
    }
  },
  {
    "service_request": "2021-841310",
    "request_type": "Abandoned Vehicles",
    "request_reason": "Vehicle Blocking Your Driveway",
    "date_created": "2021-11-10T19:47:24.000",
    "date_modified": "2021-11-10T19:47:24.000",
    "request_status": "Pending",
    "responsible_agency": "Department of Public Works",
    "final_address": "259 Westpark Ct",
    "address_councildis": "C",
    "status": "Pending",
    "rowid": "841310",
    "final_x": "3696089.27709",
    "final_y": "522420.805178",
    "longitude": "-90.02233160912171",
    "latitude": "29.930025022028488",
    "geocoded_column": {
      "latitude": "29.930025022028488",
      "longitude": "-90.02233160912171"
    }
  },
  {
    "service_request": "2021-841309",
    "request_type": "Roads/Drainage",
    "request_reason": "Street Subsidence (Sinking)",
    "date_created": "2021-11-10T19:46:06.000",
    "date_modified": "2021-11-10T19:46:06.000",
    "request_status": "Pending",
    "responsible_agency": "Department of Public Works",
    "final_address": "1913 Casa Calvo St",
    "address_councildis": "C",
    "status": "Pending",
    "rowid": "841309",
    "final_x": "3691896.8712",
    "final_y": "524164.881404",
    "longitude": "-90.03550392712869",
    "latitude": "29.934951867401704",
    "geocoded_column": {
      "latitude": "29.934951867401704",
      "longitude": "-90.03550392712869"
    }
  },
  {
    "service_request": "2021-841308",
    "request_type": "Trash/Recycling",
    "request_reason": "Request a Large Item Pick Up",
    "date_created": "2021-11-10T19:45:47.000",
    "date_modified": "2021-11-10T20:02:18.000",
    "request_status": "Pending",
    "responsible_agency": "Department of Sanitation",
    "final_address": "2314 Annunciation St",
    "address_councildis": "B",
    "status": "Assigned to Contractor",
    "contractor": "Richards Disposal",
    "rowid": "841308",
    "final_x": "3679112.42191",
    "final_y": "520861.321849",
    "longitude": "-90.07597875110342",
    "latitude": "29.926260129145852",
    "geocoded_column": {
      "latitude": "29.926260129145852",
      "longitude": "-90.07597875110342"
    }
  },
  {
    "service_request": "2021-841307",
    "request_type": "Traffic Signals/Signs/Striping/Streetlights",
    "request_reason": "Traffic Sign Missing/Damaged",
    "date_created": "2021-11-10T19:45:05.000",
    "date_modified": "2021-11-10T19:45:05.000",
    "request_status": "Pending",
    "responsible_agency": "Department of Public Works",
    "final_address": "1849 Shirley Dr",
    "address_councildis": "C",
    "status": "Pending",
    "rowid": "841307",
    "final_x": "3692859.29053",
    "final_y": "522521.142074",
    "longitude": "-90.03252450245756",
    "latitude": "29.93040213480876",
    "geocoded_column": {
      "latitude": "29.93040213480876",
      "longitude": "-90.03252450245756"
    }
  },
  {
    "service_request": "2021-841306",
    "request_type": "Trash/Recycling",
    "request_reason": "Order Trash Cart",
    "date_created": "2021-11-10T19:36:24.000",
    "date_modified": "2021-11-10T20:02:20.000",
    "request_status": "Pending",
    "responsible_agency": "Department of Sanitation",
    "final_address": "11700 Hayne Blvd",
    "address_councildis": "E",
    "status": "Assigned to Contractor",
    "contractor": "Metro Disposal",
    "rowid": "841306",
    "final_x": "3711579.32632",
    "final_y": "568342.711845",
    "longitude": "-89.97170992369162",
    "latitude": "30.055796382072764",
    "geocoded_column": {
      "latitude": "30.055796382072764",
      "longitude": "-89.97170992369162"
    }
  },
  {
    "service_request": "2021-841304",
    "request_type": "Roads/Drainage",
    "request_reason": "Street Subsidence (Sinking)",
    "date_created": "2021-11-10T18:42:29.000",
    "date_modified": "2021-11-10T18:42:29.000",
    "request_status": "Pending",
    "responsible_agency": "Department of Public Works",
    "final_address": "2744 Jasmine St",
    "address_councildis": "D",
    "status": "Pending",
    "rowid": "841304",
    "final_x": "3688036.68406",
    "final_y": "548125.065554",
    "longitude": "-90.04684119516165",
    "latitude": "30.00095365406136",
    "geocoded_column": {
      "latitude": "30.00095365406136",
      "longitude": "-90.04684119516165"
    }
  },
  {
    "service_request": "2021-841303",
    "request_type": "Abandoned Vehicles",
    "request_reason": "Vehicle Blocking Your Driveway",
    "date_created": "2021-11-10T18:34:12.000",
    "date_modified": "2021-11-10T19:01:52.000",
    "request_status": "Pending",
    "responsible_agency": "Department of Public Works",
    "final_address": "New Orleans,LA",
    "address_councildis": "A",
    "rowid": "841303",
    "final_x": "3665187.84941",
    "final_y": "528122.182783",
    "longitude": "-90.11969207552087",
    "latitude": "29.946637981865873",
    "geocoded_column": {
      "latitude": "29.946637981865873",
      "longitude": "-90.11969207552087"
    }
  },
  {
    "service_request": "2021-841301",
    "request_type": "COVID-19",
    "request_reason": "COVID-19 Business Non-Compliance",
    "date_created": "2021-11-10T18:22:23.000",
    "date_modified": "2021-11-10T19:01:56.000",
    "request_status": "Pending",
    "responsible_agency": "Safety and Permits",
    "final_address": "640 Frenchmen St",
    "address_councildis": "C",
    "status": "Pending",
    "rowid": "841301",
    "final_x": "3684674.75036",
    "final_y": "534785.78471",
    "longitude": "-90.0579308381368",
    "latitude": "29.964378694274583",
    "geocoded_column": {
      "latitude": "29.964378694274583",
      "longitude": "-90.0579308381368"
    }
  },
  {
    "service_request": "2021-841297",
    "request_type": "Trash/Recycling",
    "request_reason": "Request a Large Item Pick Up",
    "date_created": "2021-11-10T18:01:03.000",
    "date_modified": "2021-11-10T18:01:32.000",
    "request_status": "Pending",
    "responsible_agency": "Department of Sanitation",
    "final_address": "226 Spencer Ave",
    "address_councildis": "A",
    "status": "Assigned to Contractor",
    "contractor": "Metro Disposal",
    "rowid": "841297",
    "final_x": "3665775.39642",
    "final_y": "553573.942103",
    "longitude": "-90.1169839168393",
    "latitude": "30.01660462721603",
    "geocoded_column": {
      "latitude": "30.01660462721603",
      "longitude": "-90.1169839168393"
    }
  },
  {
    "service_request": "2021-841296",
    "request_type": "Abandoned Vehicles",
    "request_reason": "Abandoned/Junk Vehicles",
    "date_created": "2021-11-10T17:35:26.000",
    "date_modified": "2021-11-10T18:01:34.000",
    "request_status": "Pending",
    "responsible_agency": "Department of Public Works",
    "final_address": "430 S Cortez St",
    "address_councildis": "B",
    "status": "Pending",
    "rowid": "841296",
    "final_x": "3671220.27707",
    "final_y": "536404.996551",
    "longitude": "-90.10036408256839",
    "latitude": "29.969235908641874",
    "geocoded_column": {
      "latitude": "29.969235908641874",
      "longitude": "-90.10036408256839"
    }
  },
  {
    "service_request": "2021-841295",
    "request_type": "Trash/Recycling",
    "request_reason": "Illegal Dumping",
    "date_created": "2021-11-10T17:25:50.000",
    "date_modified": "2021-11-10T18:01:36.000",
    "request_status": "Pending",
    "responsible_agency": "Department of Sanitation",
    "final_address": "S Norman C Francis Pkwy, New Orleans, Louisiana, 70125",
    "address_councildis": "B",
    "status": "Pending",
    "rowid": "841295",
    "final_x": "3669165.71708",
    "final_y": "530707.358977",
    "longitude": "-90.10704512497513",
    "latitude": "29.95362992171002",
    "geocoded_column": {
      "latitude": "29.95362992171002",
      "longitude": "-90.10704512497513"
    }
  },
  {
    "service_request": "2021-841294",
    "request_type": "Property Maintenance",
    "request_reason": "Property Maintenance",
    "date_created": "2021-11-10T17:24:13.000",
    "date_modified": "2021-11-10T17:24:13.000",
    "request_status": "Pending",
    "responsible_agency": "Department of Code Enforcement",
    "final_address": "1434 St Ferdinand St",
    "address_councildis": "C",
    "status": "Pending",
    "rowid": "841294",
    "final_x": "3688012.30959",
    "final_y": "537753.726024",
    "longitude": "-90.0472859247431",
    "latitude": "29.97243692510507",
    "geocoded_column": {
      "latitude": "29.97243692510507",
      "longitude": "-90.0472859247431"
    }
  },
  {
    "service_request": "2021-841293",
    "request_type": "Property Maintenance",
    "request_reason": "Property Maintenance",
    "date_created": "2021-11-10T17:24:12.000",
    "date_modified": "2021-11-10T17:24:12.000",
    "request_status": "Pending",
    "responsible_agency": "Department of Code Enforcement",
    "final_address": "1434 St Ferdinand St",
    "address_councildis": "C",
    "status": "Pending",
    "rowid": "841293",
    "final_x": "3688012.30959",
    "final_y": "537753.726024",
    "longitude": "-90.0472859247431",
    "latitude": "29.97243692510507",
    "geocoded_column": {
      "latitude": "29.97243692510507",
      "longitude": "-90.0472859247431"
    }
  },
  {
    "service_request": "2021-841291",
    "request_type": "Property Maintenance",
    "request_reason": "Property Maintenance",
    "date_created": "2021-11-10T17:24:11.000",
    "date_modified": "2021-11-10T17:24:11.000",
    "request_status": "Pending",
    "responsible_agency": "Department of Code Enforcement",
    "final_address": "1434 St Ferdinand St",
    "address_councildis": "C",
    "status": "Pending",
    "rowid": "841291",
    "final_x": "3688012.30959",
    "final_y": "537753.726024",
    "longitude": "-90.0472859247431",
    "latitude": "29.97243692510507",
    "geocoded_column": {
      "latitude": "29.97243692510507",
      "longitude": "-90.0472859247431"
    }
  },
  {
    "service_request": "2021-841292",
    "request_type": "Property Maintenance",
    "request_reason": "Property Maintenance",
    "date_created": "2021-11-10T17:24:11.000",
    "date_modified": "2021-11-10T17:24:11.000",
    "request_status": "Pending",
    "responsible_agency": "Department of Code Enforcement",
    "final_address": "1434 St Ferdinand St",
    "address_councildis": "C",
    "status": "Pending",
    "rowid": "841292",
    "final_x": "3688012.30959",
    "final_y": "537753.726024",
    "longitude": "-90.0472859247431",
    "latitude": "29.97243692510507",
    "geocoded_column": {
      "latitude": "29.97243692510507",
      "longitude": "-90.0472859247431"
    }
  },
  {
    "service_request": "2021-841289",
    "request_type": "Mayor's Request",
    "request_reason": "Requests to the Mayor",
    "date_created": "2021-11-10T16:55:32.000",
    "date_modified": "2021-11-10T16:55:32.000",
    "request_status": "Pending",
    "responsible_agency": "Executive Office of the Mayor",
    "status": "Pending",
    "rowid": "841289",
    "longitude": "0.0",
    "latitude": "0.0",
    "geocoded_column": {
      "latitude": "0.0",
      "longitude": "0.0"
    }
  },
  {
    "service_request": "2021-841288",
    "request_type": "Trash/Recycling",
    "request_reason": "Request a Large Item Pick Up",
    "date_created": "2021-11-10T16:54:30.000",
    "date_modified": "2021-11-10T16:54:33.000",
    "request_status": "Pending",
    "responsible_agency": "Department of Sanitation",
    "final_address": "4625 Eastern St",
    "address_councildis": "D",
    "status": "Assigned to Contractor",
    "contractor": "Metro Disposal",
    "rowid": "841288",
    "final_x": "3688120.00995",
    "final_y": "549975.486292",
    "longitude": "-90.04651231435695",
    "latitude": "30.00603906480112",
    "geocoded_column": {
      "latitude": "30.00603906480112",
      "longitude": "-90.04651231435695"
    }
  },
  {
    "service_request": "2021-841287",
    "request_type": "Trash/Recycling",
    "request_reason": "Request a Large Item Pick Up",
    "date_created": "2021-11-10T16:53:46.000",
    "date_modified": "2021-11-10T16:53:47.000",
    "request_status": "Pending",
    "responsible_agency": "Department of Sanitation",
    "final_address": "6028 Catina St",
    "address_councildis": "A",
    "status": "Assigned to Contractor",
    "contractor": "Metro Disposal",
    "rowid": "841287",
    "final_x": "3666708.33108",
    "final_y": "547812.983314",
    "longitude": "-90.11422988928973",
    "latitude": "30.000736734326313",
    "geocoded_column": {
      "latitude": "30.000736734326313",
      "longitude": "-90.11422988928973"
    }
  },
  {
    "service_request": "2021-841286",
    "request_type": "Mayor's Request",
    "request_reason": "Requests to the Mayor",
    "date_created": "2021-11-10T16:46:55.000",
    "date_modified": "2021-11-10T16:46:55.000",
    "request_status": "Pending",
    "responsible_agency": "Executive Office of the Mayor",
    "status": "Pending",
    "rowid": "841286",
    "longitude": "0.0",
    "latitude": "0.0",
    "geocoded_column": {
      "latitude": "0.0",
      "longitude": "0.0"
    }
  },
  {
    "service_request": "2021-841285",
    "request_type": "Traffic Signals/Signs/Striping/Streetlights",
    "request_reason": "Traffic Sign Missing/Damaged",
    "date_created": "2021-11-10T16:43:25.000",
    "date_modified": "2021-11-10T16:43:25.000",
    "request_status": "Pending",
    "responsible_agency": "Department of Public Works",
    "final_address": "7530 Oak St",
    "address_councildis": "A",
    "status": "Pending",
    "rowid": "841285",
    "final_x": "3663301.40384",
    "final_y": "527113.913791",
    "longitude": "-90.12568184278287",
    "latitude": "29.943920370616972",
    "geocoded_column": {
      "latitude": "29.943920370616972",
      "longitude": "-90.12568184278287"
    }
  },
  {
    "service_request": "2021-841284",
    "request_type": "Trash/Recycling",
    "request_reason": "Order Recycling Cart",
    "date_created": "2021-11-10T16:38:19.000",
    "date_modified": "2021-11-10T17:01:22.000",
    "request_status": "Pending",
    "responsible_agency": "Department of Sanitation",
    "final_address": "1850 Hope St 1A",
    "address_councildis": "D",
    "status": "Pending",
    "rowid": "841284",
    "final_x": "3680899.49442",
    "final_y": "541841.818188",
    "longitude": "-90.06960704335134",
    "latitude": "29.983895349813537",
    "geocoded_column": {
      "latitude": "29.983895349813537",
      "longitude": "-90.06960704335134"
    }
  },
  {
    "service_request": "2021-841283",
    "request_type": "Trash/Recycling",
    "request_reason": "Replace Trash Cart",
    "date_created": "2021-11-10T16:37:52.000",
    "date_modified": "2021-11-10T17:01:26.000",
    "request_status": "Pending",
    "responsible_agency": "Department of Sanitation",
    "final_address": "1850 Hope St 1A",
    "address_councildis": "D",
    "status": "Assigned to Contractor",
    "contractor": "Metro Disposal",
    "rowid": "841283",
    "final_x": "3680899.49442",
    "final_y": "541841.818188",
    "longitude": "-90.06960704335134",
    "latitude": "29.983895349813537",
    "geocoded_column": {
      "latitude": "29.983895349813537",
      "longitude": "-90.06960704335134"
    }
  },
  {
    "service_request": "2021-841282",
    "request_type": "Property Maintenance",
    "request_reason": "Property Maintenance",
    "date_created": "2021-11-10T16:36:44.000",
    "date_modified": "2021-11-10T16:36:44.000",
    "request_status": "Pending",
    "responsible_agency": "Department of Code Enforcement",
    "final_address": "2019 St Philip St",
    "address_councildis": "D",
    "status": "Pending",
    "rowid": "841282",
    "final_x": "3679480.19157",
    "final_y": "536284.746823",
    "longitude": "-90.07428283012412",
    "latitude": "29.96865828842867",
    "geocoded_column": {
      "latitude": "29.96865828842867",
      "longitude": "-90.07428283012412"
    }
  },
  {
    "service_request": "2021-841281",
    "request_type": "Trash/Recycling",
    "request_reason": "Missed Trash Pick-Up",
    "date_created": "2021-11-10T16:36:37.000",
    "date_modified": "2021-11-10T17:01:27.000",
    "request_status": "Pending",
    "responsible_agency": "Department of Sanitation",
    "final_address": "5949 Tullis Dr",
    "address_councildis": "C",
    "status": "Assigned to Contractor",
    "contractor": "Richards Disposal",
    "rowid": "841281",
    "final_x": "3706305.57867",
    "final_y": "513483.592562",
    "longitude": "-89.99041136897766",
    "latitude": "29.90512542566896",
    "geocoded_column": {
      "latitude": "29.90512542566896",
      "longitude": "-89.99041136897766"
    }
  },
  {
    "service_request": "2021-841280",
    "request_type": "Trash/Recycling",
    "request_reason": "Replace Trash Cart",
    "date_created": "2021-11-10T16:33:02.000",
    "date_modified": "2021-11-10T16:33:03.000",
    "request_status": "Pending",
    "responsible_agency": "Department of Sanitation",
    "final_address": "13 Christopher Ct",
    "address_councildis": "E",
    "status": "Assigned to Contractor",
    "contractor": "Metro Disposal",
    "rowid": "841280",
    "final_x": "3716706.41599",
    "final_y": "570559.862055",
    "longitude": "-89.95542005243937",
    "latitude": "30.06172410733423",
    "geocoded_column": {
      "latitude": "30.06172410733423",
      "longitude": "-89.95542005243937"
    }
  },
  {
    "service_request": "2021-841279",
    "request_type": "Abandoned Vehicles",
    "request_reason": "Abandoned/Junk Vehicles",
    "date_created": "2021-11-10T16:32:58.000",
    "date_modified": "2021-11-10T16:32:58.000",
    "request_status": "Pending",
    "responsible_agency": "Department of Public Works",
    "final_address": "110 Atlantic Ave",
    "address_councildis": "C",
    "status": "Pending",
    "rowid": "841279",
    "final_x": "3688909.84105",
    "final_y": "531179.014722",
    "longitude": "-90.04468489012203",
    "latitude": "29.954331030327577",
    "geocoded_column": {
      "latitude": "29.954331030327577",
      "longitude": "-90.04468489012203"
    }
  },
  {
    "service_request": "2021-841278",
    "request_type": "Parks & Parkways",
    "request_reason": "Tree Stump (removal, grind)",
    "date_created": "2021-11-10T16:26:25.000",
    "date_modified": "2021-11-10T17:01:30.000",
    "request_status": "Pending",
    "responsible_agency": "Department of Parks & Parkway",
    "final_address": "5900 Alfred St",
    "address_councildis": "D",
    "status": "Pending",
    "rowid": "841278",
    "final_x": "3677094.92488",
    "final_y": "553967.891032",
    "longitude": "-90.08120539661627",
    "latitude": "30.017352588562474",
    "geocoded_column": {
      "latitude": "30.017352588562474",
      "longitude": "-90.08120539661627"
    }
  },
  {
    "service_request": "2021-841277",
    "request_type": "Traffic Signals/Signs/Striping/Streetlights",
    "request_reason": "Street Light Outage/Malfunction",
    "date_created": "2021-11-10T16:24:53.000",
    "date_modified": "2021-11-10T17:01:32.000",
    "request_status": "Pending",
    "responsible_agency": "Department of Public Works",
    "final_address": "212 Loyola Ave",
    "address_councildis": "B",
    "status": "Pending",
    "contractor": "Royal Engineering",
    "rowid": "841277",
    "final_x": "3679374.08296",
    "final_y": "531003.245378",
    "longitude": "-90.074801123716",
    "latitude": "29.954139158470564",
    "geocoded_column": {
      "latitude": "29.954139158470564",
      "longitude": "-90.074801123716"
    }
  },
  {
    "service_request": "2021-841275",
    "request_type": "Traffic Signals/Signs/Striping/Streetlights",
    "request_reason": "Street Light Outage/Malfunction",
    "date_created": "2021-11-10T16:21:59.000",
    "date_modified": "2021-11-10T17:01:34.000",
    "request_status": "Pending",
    "responsible_agency": "Department of Public Works",
    "final_address": "BELLAIRE DR & HEDWIDGE LN",
    "address_councildis": "A",
    "status": "Pending",
    "contractor": "Royal Engineering",
    "rowid": "841275",
    "final_x": "3663962.7",
    "final_y": "542247.88",
    "longitude": "-90.12308926239251",
    "latitude": "29.98551462749923",
    "geocoded_column": {
      "latitude": "29.98551462749923",
      "longitude": "-90.12308926239251"
    }
  },
  {
    "service_request": "2021-841274",
    "request_type": "Trash/Recycling",
    "request_reason": "Missed Trash Pick-Up",
    "date_created": "2021-11-10T16:21:18.000",
    "date_modified": "2021-11-10T17:01:35.000",
    "request_status": "Pending",
    "responsible_agency": "Department of Sanitation",
    "final_address": "2617 Allen St, New Orleans, Louisiana, 70119",
    "address_councildis": "D",
    "status": "Assigned to Contractor",
    "contractor": "Metro Disposal",
    "rowid": "841274",
    "final_x": "3682357.56885",
    "final_y": "541799.173388",
    "longitude": "-90.06500315410602",
    "latitude": "29.98373379433172",
    "geocoded_column": {
      "latitude": "29.98373379433172",
      "longitude": "-90.06500315410602"
    }
  },
  {
    "service_request": "2021-841272",
    "request_type": "Trash/Recycling",
    "request_reason": "Repair Trash Cart",
    "date_created": "2021-11-10T16:11:20.000",
    "date_modified": "2021-11-10T17:01:39.000",
    "request_status": "Pending",
    "responsible_agency": "Department of Sanitation",
    "final_address": "1416 Carondelet St Unit A",
    "address_councildis": "B",
    "status": "Assigned to Contractor",
    "contractor": "Richards Disposal",
    "rowid": "841272",
    "final_x": "3678936.50082",
    "final_y": "525880.243517",
    "longitude": "-90.07636028476806",
    "latitude": "29.94006582135079",
    "geocoded_column": {
      "latitude": "29.94006582135079",
      "longitude": "-90.07636028476806"
    }
  },
  {
    "service_request": "2021-841271",
    "request_type": "Trash/Recycling",
    "request_reason": "Order Trash Cart",
    "date_created": "2021-11-10T16:10:56.000",
    "date_modified": "2021-11-10T17:01:40.000",
    "request_status": "Pending",
    "responsible_agency": "Department of Sanitation",
    "final_address": "2412 Calhoun St, New Orleans, Louisiana, 70118",
    "address_councildis": "A",
    "status": "Assigned to Contractor",
    "contractor": "Richards Disposal",
    "rowid": "841271",
    "final_x": "3666039.181",
    "final_y": "525833.002173",
    "longitude": "-90.11708082419001",
    "latitude": "29.940318650565125",
    "geocoded_column": {
      "latitude": "29.940318650565125",
      "longitude": "-90.11708082419001"
    }
  },
  {
    "service_request": "2021-841270",
    "request_type": "Property Maintenance",
    "request_reason": "Property Maintenance",
    "date_created": "2021-11-10T16:09:05.000",
    "date_modified": "2021-11-10T16:42:01.000",
    "request_status": "Pending",
    "responsible_agency": "Department of Code Enforcement",
    "final_address": "5033 Mexico St",
    "address_councildis": "D",
    "rowid": "841270",
    "final_x": "3691092.60073",
    "final_y": "556720.270298",
    "longitude": "-90.03688012926975",
    "latitude": "30.024492587392515",
    "geocoded_column": {
      "latitude": "30.024492587392515",
      "longitude": "-90.03688012926975"
    }
  },
  {
    "service_request": "2021-841269",
    "request_type": "Property Maintenance",
    "request_reason": "Property Maintenance",
    "date_created": "2021-11-10T16:07:39.000",
    "date_modified": "2021-11-10T16:07:39.000",
    "request_status": "Pending",
    "responsible_agency": "Department of Code Enforcement",
    "final_address": "2935 Dryades St",
    "address_councildis": "B",
    "status": "Pending",
    "rowid": "841269",
    "final_x": "3674664.60744",
    "final_y": "523044.733115",
    "longitude": "-90.0899444616384",
    "latitude": "29.9323972568412",
    "geocoded_column": {
      "latitude": "29.9323972568412",
      "longitude": "-90.0899444616384"
    }
  },
  {
    "service_request": "2021-841268",
    "request_type": "Traffic Signals/Signs/Striping/Streetlights",
    "request_reason": "Street Light Outage/Malfunction",
    "date_created": "2021-11-10T16:06:13.000",
    "date_modified": "2021-11-10T17:01:43.000",
    "request_status": "Pending",
    "responsible_agency": "Department of Public Works",
    "final_address": "4692 Perrault Walk",
    "address_councildis": "E",
    "status": "Pending",
    "contractor": "Royal Engineering",
    "rowid": "841268",
    "final_x": "3709880.14763",
    "final_y": "555349.295321",
    "longitude": "-89.97756660397108",
    "latitude": "30.020125070761043",
    "geocoded_column": {
      "latitude": "30.020125070761043",
      "longitude": "-89.97756660397108"
    }
  },
  {
    "service_request": "2021-841267",
    "request_type": "Safety & Permits",
    "request_reason": "Licenses & Permits",
    "date_created": "2021-11-10T16:05:41.000",
    "date_modified": "2021-11-10T17:01:44.000",
    "request_status": "Pending",
    "responsible_agency": "Safety and Permits",
    "status": "Pending",
    "rowid": "841267",
    "longitude": "0.0",
    "latitude": "0.0",
    "geocoded_column": {
      "latitude": "0.0",
      "longitude": "0.0"
    }
  },
  {
    "service_request": "2021-841265",
    "request_type": "Abandoned Vehicles",
    "request_reason": "Abandoned/Junk Vehicles",
    "date_created": "2021-11-10T15:58:52.000",
    "date_modified": "2021-11-10T15:58:52.000",
    "request_status": "Pending",
    "responsible_agency": "Department of Public Works",
    "final_address": "1824 Marais St",
    "address_councildis": "C",
    "status": "Pending",
    "rowid": "841265",
    "final_x": "3683714.57538",
    "final_y": "536537.442759",
    "longitude": "-90.06090156348291",
    "latitude": "29.969224500863017",
    "geocoded_column": {
      "latitude": "29.969224500863017",
      "longitude": "-90.06090156348291"
    }
  },
  {
    "service_request": "2021-841264",
    "request_type": "Abandoned Vehicles",
    "request_reason": "Abandoned/Junk Vehicles",
    "date_created": "2021-11-10T15:58:18.000",
    "date_modified": "2021-11-10T15:58:18.000",
    "request_status": "Pending",
    "responsible_agency": "Department of Public Works",
    "final_address": "902 Clouet St",
    "address_councildis": "C",
    "status": "Pending",
    "rowid": "841264",
    "final_x": "3688788.60988",
    "final_y": "535258.815366",
    "longitude": "-90.04492283635548",
    "latitude": "29.96555281493825",
    "geocoded_column": {
      "latitude": "29.96555281493825",
      "longitude": "-90.04492283635548"
    }
  },
  {
    "service_request": "2021-841263",
    "request_type": "Trash/Recycling",
    "request_reason": "Order Recycling Cart",
    "date_created": "2021-11-10T15:56:29.000",
    "date_modified": "2021-11-10T15:56:29.000",
    "request_status": "Pending",
    "responsible_agency": "Department of Sanitation",
    "final_address": "3605 St Claude Ave",
    "address_councildis": "C",
    "status": "Pending",
    "rowid": "841263",
    "final_x": "3690806.21264",
    "final_y": "535664.449478",
    "longitude": "-90.0385368790018",
    "latitude": "29.966605632285624",
    "geocoded_column": {
      "latitude": "29.966605632285624",
      "longitude": "-90.0385368790018"
    }
  },
  {
    "service_request": "2021-841262",
    "request_type": "Traffic Signals/Signs/Striping/Streetlights",
    "request_reason": "Street Light Outage/Malfunction",
    "date_created": "2021-11-10T15:52:32.000",
    "date_modified": "2021-11-10T15:52:33.000",
    "request_status": "Pending",
    "responsible_agency": "Department of Public Works",
    "final_address": "3115 Desaix Blvd",
    "address_councildis": "D",
    "status": "Pending",
    "contractor": "Royal Engineering",
    "rowid": "841262",
    "final_x": "3678942.76366",
    "final_y": "543622.15547",
    "longitude": "-90.07572573608022",
    "latitude": "29.98884984919293",
    "geocoded_column": {
      "latitude": "29.98884984919293",
      "longitude": "-90.07572573608022"
    }
  },
  {
    "service_request": "2021-841261",
    "request_type": "Traffic Signals/Signs/Striping/Streetlights",
    "request_reason": "Street Light Outage/Malfunction",
    "date_created": "2021-11-10T15:38:52.000",
    "date_modified": "2021-11-10T16:01:25.000",
    "request_status": "Pending",
    "responsible_agency": "Department of Public Works",
    "final_address": "1312 Gordon St",
    "address_councildis": "E",
    "status": "Pending",
    "contractor": "Royal Engineering",
    "rowid": "841261",
    "final_x": "3699454.51799",
    "final_y": "534265.604677",
    "longitude": "-90.01127674460399",
    "latitude": "29.962487764153153",
    "geocoded_column": {
      "latitude": "29.962487764153153",
      "longitude": "-90.01127674460399"
    }
  },
  {
    "service_request": "2021-841260",
    "request_type": "Roads/Drainage",
    "request_reason": "Pothole",
    "date_created": "2021-11-10T15:38:28.000",
    "date_modified": "2021-11-10T16:01:27.000",
    "request_status": "Pending",
    "responsible_agency": "Department of Public Works",
    "final_address": "3524 Banks St",
    "address_councildis": "B",
    "status": "Pending",
    "rowid": "841260",
    "final_x": "3671918.63028",
    "final_y": "536122.787591",
    "longitude": "-90.09816823327603",
    "latitude": "29.96843924797434",
    "geocoded_column": {
      "latitude": "29.96843924797434",
      "longitude": "-90.09816823327603"
    }
  },
  {
    "service_request": "2021-841259",
    "request_type": "Trash/Recycling",
    "request_reason": "Illegal Dumping",
    "date_created": "2021-11-10T15:37:41.000",
    "date_modified": "2021-11-10T15:37:41.000",
    "request_status": "Pending",
    "responsible_agency": "Department of Sanitation",
    "final_address": "1111 Poland Ave",
    "address_councildis": "D",
    "status": "Pending",
    "rowid": "841259",
    "final_x": "3693198.2847",
    "final_y": "535193.421126",
    "longitude": "-90.03099967493971",
    "latitude": "29.965235929674588",
    "geocoded_column": {
      "latitude": "29.965235929674588",
      "longitude": "-90.03099967493971"
    }
  },
  {
    "service_request": "2021-841258",
    "request_type": "Abandoned Vehicles",
    "request_reason": "Abandoned/Junk Vehicles",
    "date_created": "2021-11-10T15:37:27.000",
    "date_modified": "2021-11-10T15:37:27.000",
    "request_status": "Pending",
    "responsible_agency": "Department of Public Works",
    "final_address": "2116 Foucher St",
    "address_councildis": "B",
    "status": "Pending",
    "rowid": "841258",
    "final_x": "3672792.82683",
    "final_y": "523088.170171",
    "longitude": "-90.09585203351774",
    "latitude": "29.932572411430282",
    "geocoded_column": {
      "latitude": "29.932572411430282",
      "longitude": "-90.09585203351774"
    }
  },
  {
    "service_request": "2021-841256",
    "request_type": "Property Maintenance",
    "request_reason": "Property Maintenance",
    "date_created": "2021-11-10T15:35:37.000",
    "date_modified": "2021-11-10T15:35:37.000",
    "request_status": "Pending",
    "responsible_agency": "Department of Code Enforcement",
    "final_address": "3440 S Liberty St",
    "address_councildis": "B",
    "status": "Pending",
    "rowid": "841256",
    "final_x": "3672890.81646",
    "final_y": "523662.585851",
    "longitude": "-90.09552309870573",
    "latitude": "29.93414895837542",
    "geocoded_column": {
      "latitude": "29.93414895837542",
      "longitude": "-90.09552309870573"
    }
  },
  {
    "service_request": "2021-841255",
    "request_type": "Mosquito, Termite & Rodent Control",
    "request_reason": "Rodent Complaint (Rats)",
    "date_created": "2021-11-10T15:33:42.000",
    "date_modified": "2021-11-10T16:01:31.000",
    "request_status": "Pending",
    "responsible_agency": "Mosquito, Termite & Rodent Control Board",
    "final_address": "528 Governor Nicholls St Apt A",
    "address_councildis": "C",
    "status": "Pending",
    "rowid": "841255",
    "final_x": "3684042.79829",
    "final_y": "533562.384837",
    "longitude": "-90.05996942357035",
    "latitude": "29.961034091659933",
    "geocoded_column": {
      "latitude": "29.961034091659933",
      "longitude": "-90.05996942357035"
    }
  },
  {
    "service_request": "2021-841254",
    "request_type": "Mosquito, Termite & Rodent Control",
    "request_reason": "Rodent Complaint (Rats)",
    "date_created": "2021-11-10T15:33:40.000",
    "date_modified": "2021-11-10T16:01:33.000",
    "request_status": "Pending",
    "responsible_agency": "Mosquito, Termite & Rodent Control Board",
    "final_address": "528 Governor Nicholls St Apt A",
    "address_councildis": "C",
    "status": "Pending",
    "rowid": "841254",
    "final_x": "3684042.79829",
    "final_y": "533562.384837",
    "longitude": "-90.05996942357035",
    "latitude": "29.961034091659933",
    "geocoded_column": {
      "latitude": "29.961034091659933",
      "longitude": "-90.05996942357035"
    }
  },
  {
    "service_request": "2021-841253",
    "request_type": "Traffic Signals/Signs/Striping/Streetlights",
    "request_reason": "Request for Stop Sign",
    "date_created": "2021-11-10T15:33:14.000",
    "date_modified": "2021-11-10T15:33:14.000",
    "request_status": "Pending",
    "responsible_agency": "Department of Public Works",
    "final_address": "LAHARPE ST & PAUL MORPHY ST",
    "address_councildis": "D",
    "status": "Pending",
    "rowid": "841253",
    "final_x": "3678577.3",
    "final_y": "540093.08",
    "longitude": "-90.07700234657607",
    "latitude": "29.979157143574163",
    "geocoded_column": {
      "latitude": "29.979157143574163",
      "longitude": "-90.07700234657607"
    }
  },
  {
    "service_request": "2021-841252",
    "request_type": "Property Maintenance",
    "request_reason": "Property Maintenance",
    "date_created": "2021-11-10T15:30:22.000",
    "date_modified": "2021-11-10T15:30:22.000",
    "request_status": "Pending",
    "responsible_agency": "Department of Code Enforcement",
    "final_address": "1118 Cadiz St",
    "address_councildis": "B",
    "status": "Pending",
    "rowid": "841252",
    "final_x": "3670121.16097",
    "final_y": "519605.515128",
    "longitude": "-90.10440419487917",
    "latitude": "29.9230752895361",
    "geocoded_column": {
      "latitude": "29.9230752895361",
      "longitude": "-90.10440419487917"
    }
  },
  {
    "service_request": "2021-841251",
    "request_type": "Abandoned Vehicles",
    "request_reason": "Vehicle Blocking Your Driveway",
    "date_created": "2021-11-10T15:30:05.000",
    "date_modified": "2021-11-10T16:01:35.000",
    "request_status": "Pending",
    "responsible_agency": "Department of Public Works",
    "final_address": "1631 Esplanade Ave",
    "address_councildis": "D",
    "status": "Pending",
    "rowid": "841251",
    "final_x": "3681054.48136",
    "final_y": "536825.21812",
    "longitude": "-90.0692923078212",
    "latitude": "29.97009674018187",
    "geocoded_column": {
      "latitude": "29.97009674018187",
      "longitude": "-90.0692923078212"
    }
  },
  {
    "service_request": "2021-841250",
    "request_type": "Traffic Signals/Signs/Striping/Streetlights",
    "request_reason": "Street Light Outage/Malfunction",
    "date_created": "2021-11-10T15:16:35.000",
    "date_modified": "2021-11-10T15:16:36.000",
    "request_status": "Pending",
    "responsible_agency": "Department of Public Works",
    "final_address": "N SOLOMON ST & TOULOUSE ST",
    "address_councildis": "A",
    "status": "Pending",
    "contractor": "Royal Engineering",
    "rowid": "841250",
    "final_x": "3671671.8",
    "final_y": "540154.68",
    "longitude": "-90.09881055336874",
    "latitude": "29.97953290231733",
    "geocoded_column": {
      "latitude": "29.97953290231733",
      "longitude": "-90.09881055336874"
    }
  },
  {
    "service_request": "2021-841249",
    "request_type": "Roads/Drainage",
    "request_reason": "Leaking Hydrant",
    "date_created": "2021-11-10T15:14:54.000",
    "date_modified": "2021-11-10T16:01:37.000",
    "request_status": "Pending",
    "responsible_agency": "Department of Public Works",
    "final_address": "4710 Lurline St, New Orleans, Louisiana, 70127",
    "address_councildis": "E",
    "status": "Pending",
    "rowid": "841249",
    "final_x": "3711921.00152",
    "final_y": "555877.886809",
    "longitude": "-89.97109835674289",
    "latitude": "30.0215119353478",
    "geocoded_column": {
      "latitude": "30.0215119353478",
      "longitude": "-89.97109835674289"
    }
  },
  {
    "service_request": "2021-841248",
    "request_type": "Traffic Signals/Signs/Striping/Streetlights",
    "request_reason": "Street Light Outage/Malfunction",
    "date_created": "2021-11-10T15:14:27.000",
    "date_modified": "2021-11-10T15:14:29.000",
    "request_status": "Pending",
    "responsible_agency": "Department of Public Works",
    "final_address": "4151 Toulouse St",
    "address_councildis": "A",
    "status": "Pending",
    "contractor": "Royal Engineering",
    "rowid": "841248",
    "final_x": "3671889.6011",
    "final_y": "540043.505355",
    "longitude": "-90.09812643392333",
    "latitude": "29.97922075582204",
    "geocoded_column": {
      "latitude": "29.97922075582204",
      "longitude": "-90.09812643392333"
    }
  },
  {
    "service_request": "2021-841247",
    "request_type": "Traffic Signals/Signs/Striping/Streetlights",
    "request_reason": "Street Light Outage/Malfunction",
    "date_created": "2021-11-10T15:12:56.000",
    "date_modified": "2021-11-10T15:12:56.000",
    "request_status": "Pending",
    "responsible_agency": "Department of Public Works",
    "final_address": "4141 Toulouse St",
    "address_councildis": "A",
    "status": "Pending",
    "contractor": "Royal Engineering",
    "rowid": "841247",
    "final_x": "3671957.99662",
    "final_y": "539984.881355",
    "longitude": "-90.09791241000511",
    "latitude": "29.979057532289037",
    "geocoded_column": {
      "latitude": "29.979057532289037",
      "longitude": "-90.09791241000511"
    }
  },
  {
    "service_request": "2021-841246",
    "request_type": "Trash/Recycling",
    "request_reason": "Request a Large Item Pick Up",
    "date_created": "2021-11-10T15:10:22.000",
    "date_modified": "2021-11-10T16:01:38.000",
    "request_status": "Pending",
    "responsible_agency": "Department of Sanitation",
    "final_address": "1123 Michael St",
    "address_councildis": "C",
    "status": "Assigned to Contractor",
    "contractor": "Richards Disposal",
    "rowid": "841246",
    "final_x": "3697174.83267",
    "final_y": "527195.853439",
    "longitude": "-90.01873176795985",
    "latitude": "29.94312055943825",
    "geocoded_column": {
      "latitude": "29.94312055943825",
      "longitude": "-90.01873176795985"
    }
  },
  {
    "service_request": "2021-841245",
    "request_type": "Roads/Drainage",
    "request_reason": "Street Flooding / Drainage",
    "date_created": "2021-11-10T14:58:57.000",
    "date_modified": "2021-11-10T14:58:57.000",
    "request_status": "Pending",
    "responsible_agency": "Department of Public Works",
    "final_address": "1124 Cadiz St",
    "address_councildis": "B",
    "status": "Pending",
    "rowid": "841245",
    "final_x": "3670159.52782",
    "final_y": "519642.460152",
    "longitude": "-90.10428183429629",
    "latitude": "29.923175745092955",
    "geocoded_column": {
      "latitude": "29.923175745092955",
      "longitude": "-90.10428183429629"
    }
  },
  {
    "service_request": "2021-841244",
    "request_type": "Traffic Signals/Signs/Striping/Streetlights",
    "request_reason": "Traffic Sign Missing/Damaged",
    "date_created": "2021-11-10T14:57:39.000",
    "date_modified": "2021-11-10T14:57:39.000",
    "request_status": "Pending",
    "responsible_agency": "Department of Public Works",
    "final_address": "2236 Jefferson Ave",
    "address_councildis": "A",
    "status": "Pending",
    "rowid": "841244",
    "final_x": "3667813.19559",
    "final_y": "523963.293884",
    "longitude": "-90.11154290008324",
    "latitude": "29.935125656901313",
    "geocoded_column": {
      "latitude": "29.935125656901313",
      "longitude": "-90.11154290008324"
    }
  },
  {
    "service_request": "2021-841243",
    "request_type": "Traffic Signals/Signs/Striping/Streetlights",
    "request_reason": "Additional signage",
    "date_created": "2021-11-10T14:56:02.000",
    "date_modified": "2021-11-10T15:01:36.000",
    "request_status": "Pending",
    "responsible_agency": "Department of Public Works",
    "final_address": "1717 Mcshane Pl",
    "address_councildis": "C",
    "status": "Pending",
    "rowid": "841243",
    "final_x": "3683300.91599",
    "final_y": "535984.264327",
    "longitude": "-90.06222730857968",
    "latitude": "29.967716075713543",
    "geocoded_column": {
      "latitude": "29.967716075713543",
      "longitude": "-90.06222730857968"
    }
  },
  {
    "service_request": "2021-841242",
    "request_type": "Traffic Signals/Signs/Striping/Streetlights",
    "request_reason": "Street Light Outage/Malfunction",
    "date_created": "2021-11-10T14:55:42.000",
    "date_modified": "2021-11-10T14:55:42.000",
    "request_status": "Pending",
    "responsible_agency": "Department of Public Works",
    "final_address": "11931 Curran Rd",
    "address_councildis": "E",
    "status": "Pending",
    "contractor": "Royal Engineering",
    "rowid": "841242",
    "final_x": "3713051.55083",
    "final_y": "567872.578212",
    "longitude": "-89.96707426012453",
    "latitude": "30.054455520974",
    "geocoded_column": {
      "latitude": "30.054455520974",
      "longitude": "-89.96707426012453"
    }
  },
  {
    "service_request": "2021-841241",
    "request_type": "Safety & Permits",
    "request_reason": "Licenses & Permits",
    "date_created": "2021-11-10T14:54:39.000",
    "date_modified": "2021-11-10T14:54:39.000",
    "request_status": "Pending",
    "responsible_agency": "Safety and Permits",
    "status": "Pending",
    "rowid": "841241",
    "longitude": "0.0",
    "latitude": "0.0",
    "geocoded_column": {
      "latitude": "0.0",
      "longitude": "0.0"
    }
  },
  {
    "service_request": "2021-841240",
    "request_type": "Traffic Signals/Signs/Striping/Streetlights",
    "request_reason": "Street Light Outage/Malfunction",
    "date_created": "2021-11-10T14:51:59.000",
    "date_modified": "2021-11-10T14:52:00.000",
    "request_status": "Pending",
    "responsible_agency": "Department of Public Works",
    "final_address": "11937 Curran Rd",
    "address_councildis": "E",
    "status": "Pending",
    "contractor": "Royal Engineering",
    "rowid": "841240",
    "final_x": "3713123.0172",
    "final_y": "567940.308133",
    "longitude": "-89.96684582046665",
    "latitude": "30.05463940732781",
    "geocoded_column": {
      "latitude": "30.05463940732781",
      "longitude": "-89.96684582046665"
    }
  },
  {
    "service_request": "2021-841239",
    "request_type": "Abandoned Vehicles",
    "request_reason": "Abandoned/Junk Vehicles",
    "date_created": "2021-11-10T14:43:34.000",
    "date_modified": "2021-11-10T14:43:34.000",
    "request_status": "Pending",
    "responsible_agency": "Department of Public Works",
    "final_address": "2500 Louisa St",
    "address_councildis": "D",
    "status": "Pending",
    "rowid": "841239",
    "final_x": "3690855.46716",
    "final_y": "541198.25134",
    "longitude": "-90.03818380569375",
    "latitude": "29.98182009611967",
    "geocoded_column": {
      "latitude": "29.98182009611967",
      "longitude": "-90.03818380569375"
    }
  },
  {
    "service_request": "2021-841238",
    "request_type": "Property Maintenance",
    "request_reason": "Property Maintenance",
    "date_created": "2021-11-10T14:42:27.000",
    "date_modified": "2021-11-10T14:42:27.000",
    "request_status": "Pending",
    "responsible_agency": "Department of Code Enforcement",
    "final_address": "1930 Pauger St",
    "address_councildis": "C",
    "status": "Pending",
    "rowid": "841238",
    "final_x": "3683797.74287",
    "final_y": "536843.925",
    "longitude": "-90.06062816417212",
    "latitude": "29.970064681096897",
    "geocoded_column": {
      "latitude": "29.970064681096897",
      "longitude": "-90.06062816417212"
    }
  },
  {
    "service_request": "2021-841237",
    "request_type": "Traffic Signals/Signs/Striping/Streetlights",
    "request_reason": "Street Light Outage/Malfunction",
    "date_created": "2021-11-10T14:40:07.000",
    "date_modified": "2021-11-10T14:40:07.000",
    "request_status": "Pending",
    "responsible_agency": "Department of Public Works",
    "final_address": "6958 Marshal Foch St",
    "address_councildis": "A",
    "status": "Pending",
    "contractor": "Royal Engineering",
    "rowid": "841237",
    "final_x": "3670325.44449",
    "final_y": "553673.967319",
    "longitude": "-90.10260426751653",
    "latitude": "30.016746067626684",
    "geocoded_column": {
      "latitude": "30.016746067626684",
      "longitude": "-90.10260426751653"
    }
  },
  {
    "service_request": "2021-841236",
    "request_type": "Parks & Parkways",
    "request_reason": "Request Tree Service (Right of Way/Public Property)",
    "date_created": "2021-11-10T14:39:08.000",
    "date_modified": "2021-11-10T14:39:08.000",
    "request_status": "Pending",
    "responsible_agency": "Department of Parks & Parkway",
    "final_address": "3527 Rue Colette",
    "address_councildis": "C",
    "status": "Pending",
    "rowid": "841236",
    "final_x": "3704486.20708",
    "final_y": "517601.825334",
    "longitude": "-89.99600165184307",
    "latitude": "29.916507660865562",
    "geocoded_column": {
      "latitude": "29.916507660865562",
      "longitude": "-89.99600165184307"
    }
  },
  {
    "service_request": "2021-841235",
    "request_type": "Roads/Drainage",
    "request_reason": "Accessibility Ramps, Curbs and Sidewalk Repair",
    "date_created": "2021-11-10T14:38:20.000",
    "date_modified": "2021-11-10T14:38:20.000",
    "request_status": "Pending",
    "responsible_agency": "Department of Public Works",
    "final_address": "9017 Belfast St",
    "address_councildis": "A",
    "status": "Pending",
    "rowid": "841235",
    "final_x": "3663206.05741",
    "final_y": "534692.363462",
    "longitude": "-90.12573070912198",
    "latitude": "29.964761416885494",
    "geocoded_column": {
      "latitude": "29.964761416885494",
      "longitude": "-90.12573070912198"
    }
  },
  {
    "service_request": "2021-841234",
    "request_type": "Abandoned Vehicles",
    "request_reason": "Abandoned/Junk Vehicles",
    "date_created": "2021-11-10T14:36:55.000",
    "date_modified": "2021-11-10T14:40:04.000",
    "request_status": "Pending",
    "responsible_agency": "Department of Public Works",
    "final_address": "3245 St Thomas St",
    "address_councildis": "B",
    "status": "Pending",
    "rowid": "841234",
    "final_x": "3676214.37691",
    "final_y": "518290.794422",
    "longitude": "-90.08521544909166",
    "latitude": "29.919279131881645",
    "geocoded_column": {
      "latitude": "29.919279131881645",
      "longitude": "-90.08521544909166"
    }
  },
  {
    "service_request": "2021-841233",
    "request_type": "Abandoned Vehicles",
    "request_reason": "Abandoned/Junk Vehicles",
    "date_created": "2021-11-10T14:36:27.000",
    "date_modified": "2021-11-10T14:36:27.000",
    "request_status": "Pending",
    "responsible_agency": "Department of Public Works",
    "final_address": "7032 Derbes St",
    "address_councildis": "A",
    "status": "Pending",
    "rowid": "841233",
    "final_x": "3665809.76333",
    "final_y": "554512.513048",
    "longitude": "-90.11684384826852",
    "latitude": "30.019184364016667",
    "geocoded_column": {
      "latitude": "30.019184364016667",
      "longitude": "-90.11684384826852"
    }
  },
  {
    "service_request": "2021-841231",
    "request_type": "Safety & Permits",
    "request_reason": "Licenses & Permits",
    "date_created": "2021-11-10T14:36:24.000",
    "date_modified": "2021-11-10T14:36:24.000",
    "request_status": "Pending",
    "responsible_agency": "Safety and Permits",
    "final_address": "4511 Knight Dr",
    "address_councildis": "E",
    "status": "Pending",
    "rowid": "841231",
    "final_x": "3708346.486",
    "final_y": "554159.302232",
    "longitude": "-89.98245677715242",
    "latitude": "30.016902858339122",
    "geocoded_column": {
      "latitude": "30.016902858339122",
      "longitude": "-89.98245677715242"
    }
  },
  {
    "service_request": "2021-841230",
    "request_type": "Trash/Recycling",
    "request_reason": "Request a Large Item Pick Up",
    "date_created": "2021-11-10T14:31:58.000",
    "date_modified": "2021-11-10T14:32:20.000",
    "request_status": "Pending",
    "responsible_agency": "Department of Sanitation",
    "final_address": "6967 Marshal Foch St",
    "address_councildis": "A",
    "status": "Assigned to Contractor",
    "contractor": "Metro Disposal",
    "rowid": "841230",
    "final_x": "3670506.55265",
    "final_y": "553659.909335",
    "longitude": "-90.10203251776367",
    "latitude": "30.01670206316952",
    "geocoded_column": {
      "latitude": "30.01670206316952",
      "longitude": "-90.10203251776367"
    }
  },
  {
    "service_request": "2021-841228",
    "request_type": "Trash/Recycling",
    "request_reason": "Order Recycling Cart",
    "date_created": "2021-11-10T14:28:36.000",
    "date_modified": "2021-11-10T14:28:36.000",
    "request_status": "Pending",
    "responsible_agency": "Department of Sanitation",
    "final_address": "5114 Baronne St",
    "address_councildis": "B",
    "status": "Pending",
    "rowid": "841228",
    "final_x": "3668344.38631",
    "final_y": "521414.110969",
    "longitude": "-90.10995185166132",
    "latitude": "29.928100633122465",
    "geocoded_column": {
      "latitude": "29.928100633122465",
      "longitude": "-90.10995185166132"
    }
  },
  {
    "service_request": "2021-841226",
    "request_type": "Parks & Parkways",
    "request_reason": "Request Tree Service (Right of Way/Public Property)",
    "date_created": "2021-11-10T14:28:18.000",
    "date_modified": "2021-11-10T14:30:04.000",
    "request_status": "Pending",
    "responsible_agency": "Department of Parks & Parkway",
    "final_address": "1400 Elizardi Blvd",
    "address_councildis": "C",
    "status": "Pending",
    "rowid": "841226",
    "final_x": "3694867.63133",
    "final_y": "526057.88531",
    "longitude": "-90.02605713083608",
    "latitude": "29.940064122107977",
    "geocoded_column": {
      "latitude": "29.940064122107977",
      "longitude": "-90.02605713083608"
    }
  },
  {
    "service_request": "2021-841225",
    "request_type": "Property Maintenance",
    "request_reason": "Property Maintenance",
    "date_created": "2021-11-10T14:25:24.000",
    "date_modified": "2021-11-10T14:25:24.000",
    "request_status": "Pending",
    "responsible_agency": "Department of Code Enforcement",
    "final_address": "7070 Boston Dr",
    "address_councildis": "E",
    "status": "Pending",
    "rowid": "841225",
    "final_x": "3706282.94391",
    "final_y": "560849.44547",
    "longitude": "-89.98872860910454",
    "latitude": "30.035364876495724",
    "geocoded_column": {
      "latitude": "30.035364876495724",
      "longitude": "-89.98872860910454"
    }
  },
  {
    "service_request": "2021-841222",
    "request_type": "Trash/Recycling",
    "request_reason": "Replace Trash Cart",
    "date_created": "2021-11-10T14:15:46.000",
    "date_modified": "2021-11-10T14:15:49.000",
    "request_status": "Pending",
    "responsible_agency": "Department of Sanitation",
    "final_address": "8950 Dinkins St, New Orleans, Louisiana, 70127",
    "address_councildis": "E",
    "status": "Assigned to Contractor",
    "contractor": "Metro Disposal",
    "rowid": "841222",
    "final_x": "3705022.65854",
    "final_y": "563544.201056",
    "longitude": "-89.99261164962701",
    "latitude": "30.042814995630643",
    "geocoded_column": {
      "latitude": "30.042814995630643",
      "longitude": "-89.99261164962701"
    }
  },
  {
    "service_request": "2021-841221",
    "request_type": "Trash/Recycling",
    "request_reason": "Request a Large Item Pick Up",
    "date_created": "2021-11-10T14:15:14.000",
    "date_modified": "2021-11-10T14:15:14.000",
    "request_status": "Pending",
    "responsible_agency": "Department of Sanitation",
    "final_address": "4150 Dhemecourt St, New Orleans, Louisiana, 70119",
    "address_councildis": "A",
    "status": "Assigned to Contractor",
    "contractor": "Richards Disposal",
    "rowid": "841221",
    "final_x": "3669421.08078",
    "final_y": "537071.752328",
    "longitude": "-90.10602354169667",
    "latitude": "29.971122374677055",
    "geocoded_column": {
      "latitude": "29.971122374677055",
      "longitude": "-90.10602354169667"
    }
  },
  {
    "service_request": "2021-841220",
    "request_type": "Health Related Questions",
    "request_reason": "Noise Ordinance Complaint",
    "date_created": "2021-11-10T14:14:29.000",
    "date_modified": "2021-11-10T14:14:29.000",
    "request_status": "Pending",
    "responsible_agency": "Health Department",
    "final_address": "1923 Joseph St, New Orleans, Louisiana, 70115",
    "status": "Pending",
    "rowid": "841220",
    "longitude": "0.0",
    "latitude": "0.0",
    "geocoded_column": {
      "latitude": "0.0",
      "longitude": "0.0"
    }
  },
  {
    "service_request": "2021-841219",
    "request_type": "Traffic Signals/Signs/Striping/Streetlights",
    "request_reason": "Street Light Outage/Malfunction",
    "date_created": "2021-11-10T14:11:32.000",
    "date_modified": "2021-11-10T14:11:32.000",
    "request_status": "Pending",
    "responsible_agency": "Department of Public Works",
    "final_address": "5932 Tullis Dr",
    "address_councildis": "C",
    "status": "Pending",
    "contractor": "Royal Engineering",
    "rowid": "841219",
    "final_x": "3706488.39959",
    "final_y": "513950.90821",
    "longitude": "-89.98981708945729",
    "latitude": "29.9064044907273",
    "geocoded_column": {
      "latitude": "29.9064044907273",
      "longitude": "-89.98981708945729"
    }
  },
  {
    "service_request": "2021-841218",
    "request_type": "Traffic Signals/Signs/Striping/Streetlights",
    "request_reason": "Street Light Outage/Malfunction",
    "date_created": "2021-11-10T14:11:22.000",
    "date_modified": "2021-11-10T14:11:23.000",
    "request_status": "Pending",
    "responsible_agency": "Department of Public Works",
    "final_address": "5932 Tullis Dr",
    "address_councildis": "C",
    "status": "Pending",
    "contractor": "Royal Engineering",
    "rowid": "841218",
    "final_x": "3706488.39959",
    "final_y": "513950.90821",
    "longitude": "-89.98981708945729",
    "latitude": "29.9064044907273",
    "geocoded_column": {
      "latitude": "29.9064044907273",
      "longitude": "-89.98981708945729"
    }
  },
  {
    "service_request": "2021-841217",
    "request_type": "Traffic Signals/Signs/Striping/Streetlights",
    "request_reason": "Street Light Outage/Malfunction",
    "date_created": "2021-11-10T14:10:59.000",
    "date_modified": "2021-11-10T14:11:00.000",
    "request_status": "Pending",
    "responsible_agency": "Department of Public Works",
    "final_address": "5932 Tullis Dr",
    "address_councildis": "C",
    "status": "Pending",
    "contractor": "Royal Engineering",
    "rowid": "841217",
    "final_x": "3706488.39959",
    "final_y": "513950.90821",
    "longitude": "-89.98981708945729",
    "latitude": "29.9064044907273",
    "geocoded_column": {
      "latitude": "29.9064044907273",
      "longitude": "-89.98981708945729"
    }
  },
  {
    "service_request": "2021-841216",
    "request_type": "Traffic Signals/Signs/Striping/Streetlights",
    "request_reason": "Street Light Outage/Malfunction",
    "date_created": "2021-11-10T14:10:40.000",
    "date_modified": "2021-11-10T14:10:44.000",
    "request_status": "Pending",
    "responsible_agency": "Department of Public Works",
    "final_address": "5932 Tullis Dr",
    "address_councildis": "C",
    "status": "Pending",
    "contractor": "Royal Engineering",
    "rowid": "841216",
    "final_x": "3706488.39959",
    "final_y": "513950.90821",
    "longitude": "-89.98981708945729",
    "latitude": "29.9064044907273",
    "geocoded_column": {
      "latitude": "29.9064044907273",
      "longitude": "-89.98981708945729"
    }
  },
  {
    "service_request": "2021-841215",
    "request_type": "Traffic Signals/Signs/Striping/Streetlights",
    "request_reason": "Street Light Outage/Malfunction",
    "date_created": "2021-11-10T14:10:05.000",
    "date_modified": "2021-11-10T14:10:06.000",
    "request_status": "Pending",
    "responsible_agency": "Department of Public Works",
    "final_address": "5932 Tullis Dr",
    "address_councildis": "C",
    "status": "Pending",
    "contractor": "Royal Engineering",
    "rowid": "841215",
    "final_x": "3706488.39959",
    "final_y": "513950.90821",
    "longitude": "-89.98981708945729",
    "latitude": "29.9064044907273",
    "geocoded_column": {
      "latitude": "29.9064044907273",
      "longitude": "-89.98981708945729"
    }
  },
  {
    "service_request": "2021-841214",
    "request_type": "Traffic Signals/Signs/Striping/Streetlights",
    "request_reason": "Street Light Outage/Malfunction",
    "date_created": "2021-11-10T14:09:40.000",
    "date_modified": "2021-11-10T14:09:41.000",
    "request_status": "Pending",
    "responsible_agency": "Department of Public Works",
    "final_address": "5932 Tullis Dr",
    "address_councildis": "C",
    "status": "Pending",
    "contractor": "Royal Engineering",
    "rowid": "841214",
    "final_x": "3706488.39959",
    "final_y": "513950.90821",
    "longitude": "-89.98981708945729",
    "latitude": "29.9064044907273",
    "geocoded_column": {
      "latitude": "29.9064044907273",
      "longitude": "-89.98981708945729"
    }
  },
  {
    "service_request": "2021-841213",
    "request_type": "Traffic Signals/Signs/Striping/Streetlights",
    "request_reason": "Street Light Outage/Malfunction",
    "date_created": "2021-11-10T14:09:20.000",
    "date_modified": "2021-11-10T14:09:20.000",
    "request_status": "Pending",
    "responsible_agency": "Department of Public Works",
    "final_address": "5932 Tullis Dr",
    "address_councildis": "C",
    "status": "Pending",
    "contractor": "Royal Engineering",
    "rowid": "841213",
    "final_x": "3706488.39959",
    "final_y": "513950.90821",
    "longitude": "-89.98981708945729",
    "latitude": "29.9064044907273",
    "geocoded_column": {
      "latitude": "29.9064044907273",
      "longitude": "-89.98981708945729"
    }
  },
  {
    "service_request": "2021-841212",
    "request_type": "Traffic Signals/Signs/Striping/Streetlights",
    "request_reason": "Street Light Outage/Malfunction",
    "date_created": "2021-11-10T14:08:46.000",
    "date_modified": "2021-11-10T14:08:47.000",
    "request_status": "Pending",
    "responsible_agency": "Department of Public Works",
    "final_address": "5932 Tullis Dr",
    "address_councildis": "C",
    "status": "Pending",
    "contractor": "Royal Engineering",
    "rowid": "841212",
    "final_x": "3706488.39959",
    "final_y": "513950.90821",
    "longitude": "-89.98981708945729",
    "latitude": "29.9064044907273",
    "geocoded_column": {
      "latitude": "29.9064044907273",
      "longitude": "-89.98981708945729"
    }
  },
  {
    "service_request": "2021-841211",
    "request_type": "Traffic Signals/Signs/Striping/Streetlights",
    "request_reason": "Street Light Outage/Malfunction",
    "date_created": "2021-11-10T14:08:22.000",
    "date_modified": "2021-11-10T14:08:23.000",
    "request_status": "Pending",
    "responsible_agency": "Department of Public Works",
    "final_address": "5932 Tullis Dr",
    "address_councildis": "C",
    "status": "Pending",
    "contractor": "Royal Engineering",
    "rowid": "841211",
    "final_x": "3706488.39959",
    "final_y": "513950.90821",
    "longitude": "-89.98981708945729",
    "latitude": "29.9064044907273",
    "geocoded_column": {
      "latitude": "29.9064044907273",
      "longitude": "-89.98981708945729"
    }
  },
  {
    "service_request": "2021-841210",
    "request_type": "Property Maintenance",
    "request_reason": "Property Maintenance",
    "date_created": "2021-11-10T14:05:17.000",
    "date_modified": "2021-11-10T14:05:17.000",
    "request_status": "Pending",
    "responsible_agency": "Department of Code Enforcement",
    "final_address": "7506 Devine Ave",
    "address_councildis": "E",
    "status": "Pending",
    "rowid": "841210",
    "final_x": "3705794.3274",
    "final_y": "562664.43408",
    "longitude": "-89.9902054749947",
    "latitude": "30.04037113576683",
    "geocoded_column": {
      "latitude": "30.04037113576683",
      "longitude": "-89.9902054749947"
    }
  },
  {
    "service_request": "2021-841209",
    "request_type": "Roads/Drainage",
    "request_reason": "Pothole",
    "date_created": "2021-11-10T14:05:05.000",
    "date_modified": "2021-11-10T14:05:05.000",
    "request_status": "Pending",
    "responsible_agency": "Department of Public Works",
    "final_address": "3501 S Carrollton Ave",
    "address_councildis": "B",
    "status": "Pending",
    "rowid": "841209",
    "final_x": "3667635.90426",
    "final_y": "534354.767109",
    "longitude": "-90.1117528665523",
    "latitude": "29.96370402378397",
    "geocoded_column": {
      "latitude": "29.96370402378397",
      "longitude": "-90.1117528665523"
    }
  },
  {
    "service_request": "2021-841207",
    "request_type": "Trash/Recycling",
    "request_reason": "Replace Trash Cart",
    "date_created": "2021-11-10T14:01:09.000",
    "date_modified": "2021-11-10T14:01:28.000",
    "request_status": "Pending",
    "responsible_agency": "Department of Sanitation",
    "final_address": "New Orleans,LA",
    "status": "Assigned to Contractor",
    "rowid": "841207",
    "longitude": "0.0",
    "latitude": "0.0",
    "geocoded_column": {
      "latitude": "0.0",
      "longitude": "0.0"
    }
  },
  {
    "service_request": "2021-841206",
    "request_type": "Trash/Recycling",
    "request_reason": "Replace Trash Cart",
    "date_created": "2021-11-10T13:57:49.000",
    "date_modified": "2021-11-10T14:01:30.000",
    "request_status": "Pending",
    "responsible_agency": "Department of Sanitation",
    "final_address": "5644 Pauline Dr, New Orleans, Louisiana, 70126",
    "address_councildis": "D",
    "status": "Assigned to Contractor",
    "contractor": "Metro Disposal",
    "rowid": "841206",
    "final_x": "3691805.67836",
    "final_y": "554903.89884",
    "longitude": "-90.03469198551792",
    "latitude": "30.019476043836164",
    "geocoded_column": {
      "latitude": "30.019476043836164",
      "longitude": "-90.03469198551792"
    }
  },
  {
    "service_request": "2021-841205",
    "request_type": "Property Maintenance",
    "request_reason": "Property Maintenance",
    "date_created": "2021-11-10T13:52:13.000",
    "date_modified": "2021-11-10T13:52:13.000",
    "request_status": "Pending",
    "responsible_agency": "Department of Code Enforcement",
    "final_address": "1705 Lamanche St",
    "address_councildis": "E",
    "status": "Pending",
    "rowid": "841205",
    "final_x": "3699045.79351",
    "final_y": "535969.726983",
    "longitude": "-90.01250539992488",
    "latitude": "29.967186451442714",
    "geocoded_column": {
      "latitude": "29.967186451442714",
      "longitude": "-90.01250539992488"
    }
  },
  {
    "service_request": "2021-841204",
    "request_type": "Property Maintenance",
    "request_reason": "Property Maintenance",
    "date_created": "2021-11-10T13:50:20.000",
    "date_modified": "2021-11-10T13:50:20.000",
    "request_status": "Pending",
    "responsible_agency": "Department of Code Enforcement",
    "final_address": "626 Kerlerec St",
    "address_councildis": "C",
    "status": "Pending",
    "rowid": "841204",
    "final_x": "3684308.24751",
    "final_y": "534512.749893",
    "longitude": "-90.05909781175012",
    "latitude": "29.963639154625255",
    "geocoded_column": {
      "latitude": "29.963639154625255",
      "longitude": "-90.05909781175012"
    }
  },
  {
    "service_request": "2021-841203",
    "request_type": "Traffic Signals/Signs/Striping/Streetlights",
    "request_reason": "Street Light Outage/Malfunction",
    "date_created": "2021-11-10T13:50:19.000",
    "date_modified": "2021-11-10T13:50:20.000",
    "request_status": "Pending",
    "responsible_agency": "Department of Public Works",
    "final_address": "5324 Wickfield Dr",
    "address_councildis": "D",
    "status": "Pending",
    "contractor": "Royal Engineering",
    "rowid": "841203",
    "final_x": "3681069.59503",
    "final_y": "552722.471126",
    "longitude": "-90.0686904725702",
    "latitude": "30.01380811069433",
    "geocoded_column": {
      "latitude": "30.01380811069433",
      "longitude": "-90.0686904725702"
    }
  },
  {
    "service_request": "2021-841202",
    "request_type": "Traffic Signals/Signs/Striping/Streetlights",
    "request_reason": "Street Light Outage/Malfunction",
    "date_created": "2021-11-10T13:49:31.000",
    "date_modified": "2021-11-10T13:49:31.000",
    "request_status": "Pending",
    "responsible_agency": "Department of Public Works",
    "final_address": "5504 Wickfield Dr",
    "address_councildis": "D",
    "status": "Pending",
    "contractor": "Royal Engineering",
    "rowid": "841202",
    "final_x": "3681054.39573",
    "final_y": "552933.594775",
    "longitude": "-90.06873113273613",
    "latitude": "30.014389085421204",
    "geocoded_column": {
      "latitude": "30.014389085421204",
      "longitude": "-90.06873113273613"
    }
  },
  {
    "service_request": "2021-841200",
    "request_type": "Abandoned Vehicles",
    "request_reason": "Abandoned/Junk Vehicles",
    "date_created": "2021-11-10T13:44:31.000",
    "date_modified": "2021-11-10T13:45:18.000",
    "request_status": "Pending",
    "responsible_agency": "Department of Public Works",
    "final_address": "7716 Woodbine Dr",
    "address_councildis": "E",
    "status": "Pending",
    "rowid": "841200",
    "final_x": "3701795.06865",
    "final_y": "561629.416031",
    "longitude": "-90.00288233441303",
    "latitude": "30.037653532652094",
    "geocoded_column": {
      "latitude": "30.037653532652094",
      "longitude": "-90.00288233441303"
    }
  },
  {
    "service_request": "2021-841199",
    "request_type": "Trash/Recycling",
    "request_reason": "Order Trash Cart",
    "date_created": "2021-11-10T13:42:04.000",
    "date_modified": "2021-11-10T14:01:33.000",
    "request_status": "Pending",
    "responsible_agency": "Department of Sanitation",
    "final_address": "3019 N Rampart St",
    "address_councildis": "C",
    "status": "Assigned to Contractor",
    "contractor": "Metro Disposal",
    "rowid": "841199",
    "final_x": "3688497.63459",
    "final_y": "535690.968647",
    "longitude": "-90.04582638704387",
    "latitude": "29.966750078692794",
    "geocoded_column": {
      "latitude": "29.966750078692794",
      "longitude": "-90.04582638704387"
    }
  },
  {
    "service_request": "2021-841197",
    "request_type": "Parks & Parkways",
    "request_reason": "Request Tree Service (Right of Way/Public Property)",
    "date_created": "2021-11-10T13:39:42.000",
    "date_modified": "2021-11-10T13:39:42.000",
    "request_status": "Pending",
    "responsible_agency": "Department of Parks & Parkway",
    "final_address": "1332 Esplanade Ave",
    "address_councildis": "C",
    "status": "Pending",
    "rowid": "841197",
    "final_x": "3681862.44488",
    "final_y": "536015.581127",
    "longitude": "-90.06676894177487",
    "latitude": "29.967845984769735",
    "geocoded_column": {
      "latitude": "29.967845984769735",
      "longitude": "-90.06676894177487"
    }
  },
  {
    "service_request": "2021-841196",
    "request_type": "Traffic Signals/Signs/Striping/Streetlights",
    "request_reason": "Street Light Outage/Malfunction",
    "date_created": "2021-11-10T13:39:05.000",
    "date_modified": "2021-11-10T15:31:36.000",
    "request_status": "Pending",
    "responsible_agency": "Department of Public Works",
    "final_address": "4718 Saint Peter St, New Orleans, Louisiana, 70119",
    "address_councildis": "A",
    "status": "Pending",
    "contractor": "Royal Engineering",
    "rowid": "841196",
    "final_x": "3670278.33953",
    "final_y": "541598.37998",
    "longitude": "-90.10316271783762",
    "latitude": "29.98354379346871",
    "geocoded_column": {
      "latitude": "29.98354379346871",
      "longitude": "-90.10316271783762"
    }
  },
  {
    "service_request": "2021-841195",
    "request_type": "Property Maintenance",
    "request_reason": "Property Maintenance",
    "date_created": "2021-11-10T13:32:21.000",
    "date_modified": "2021-11-10T14:01:38.000",
    "request_status": "Pending",
    "responsible_agency": "Department of Code Enforcement",
    "final_address": "2558 N Johnson St",
    "address_councildis": "D",
    "status": "Pending",
    "rowid": "841195",
    "final_x": "3687451.94255",
    "final_y": "539804.09857",
    "longitude": "-90.04898307616638",
    "latitude": "29.978092009813658",
    "geocoded_column": {
      "latitude": "29.978092009813658",
      "longitude": "-90.04898307616638"
    }
  },
  {
    "service_request": "2021-841194",
    "request_type": "Safety & Permits",
    "request_reason": "Licenses & Permits",
    "date_created": "2021-11-10T13:30:51.000",
    "date_modified": "2021-11-10T13:30:51.000",
    "request_status": "Pending",
    "responsible_agency": "Safety and Permits",
    "final_address": "4511 Knight Dr",
    "address_councildis": "E",
    "status": "Pending",
    "rowid": "841194",
    "final_x": "3708346.486",
    "final_y": "554159.302232",
    "longitude": "-89.98245677715242",
    "latitude": "30.016902858339122",
    "geocoded_column": {
      "latitude": "30.016902858339122",
      "longitude": "-89.98245677715242"
    }
  },
  {
    "service_request": "2021-841193",
    "request_type": "Property Maintenance",
    "request_reason": "Property Maintenance",
    "date_created": "2021-11-10T13:29:56.000",
    "date_modified": "2021-11-10T13:29:56.000",
    "request_status": "Pending",
    "responsible_agency": "Department of Code Enforcement",
    "final_address": "626 Kerlerec St",
    "address_councildis": "C",
    "status": "Pending",
    "rowid": "841193",
    "final_x": "3684308.24751",
    "final_y": "534512.749893",
    "longitude": "-90.05909781175012",
    "latitude": "29.963639154625255",
    "geocoded_column": {
      "latitude": "29.963639154625255",
      "longitude": "-90.05909781175012"
    }
  },
  {
    "service_request": "2021-841192",
    "request_type": "Trash/Recycling",
    "request_reason": "Missed Trash Pick-Up",
    "date_created": "2021-11-10T13:27:51.000",
    "date_modified": "2021-11-10T13:27:52.000",
    "request_status": "Pending",
    "responsible_agency": "Department of Sanitation",
    "final_address": "2536 Conti St Apt 1",
    "address_councildis": "B",
    "status": "Assigned to Contractor",
    "contractor": "Richards Disposal",
    "rowid": "841192",
    "final_x": "3676586.03893",
    "final_y": "535582.512902",
    "longitude": "-90.08344692543419",
    "latitude": "29.966814508159796",
    "geocoded_column": {
      "latitude": "29.966814508159796",
      "longitude": "-90.08344692543419"
    }
  },
  {
    "service_request": "2021-841191",
    "request_type": "Traffic Signals/Signs/Striping/Streetlights",
    "request_reason": "Street Light Outage/Malfunction",
    "date_created": "2021-11-10T13:27:02.000",
    "date_modified": "2021-11-10T13:27:03.000",
    "request_status": "Pending",
    "responsible_agency": "Department of Public Works",
    "final_address": "4725 Crowder Blvd",
    "address_councildis": "E",
    "status": "Pending",
    "contractor": "Royal Engineering",
    "rowid": "841191",
    "final_x": "3706558.65041",
    "final_y": "555623.069017",
    "longitude": "-89.98805124686034",
    "latitude": "30.02098548502369",
    "geocoded_column": {
      "latitude": "30.02098548502369",
      "longitude": "-89.98805124686034"
    }
  },
  {
    "service_request": "2021-841190",
    "request_type": "Roads/Drainage",
    "request_reason": "Pothole",
    "date_created": "2021-11-10T13:24:53.000",
    "date_modified": "2021-11-10T14:19:46.000",
    "case_close_date": "2021-11-10T08:19:46.000",
    "request_status": "Closed",
    "responsible_agency": "Department of Public Works",
    "final_address": "4074 Fairmont Dr",
    "address_councildis": "D",
    "status": "Duplicate Case",
    "rowid": "841190",
    "final_x": "3684471.6285",
    "final_y": "547365.762641",
    "longitude": "-90.05813016396982",
    "latitude": "29.998975421254247",
    "geocoded_column": {
      "latitude": "29.998975421254247",
      "longitude": "-90.05813016396982"
    }
  },
  {
    "service_request": "2021-841189",
    "request_type": "Traffic Signals/Signs/Striping/Streetlights",
    "request_reason": "Street Light Outage/Malfunction",
    "date_created": "2021-11-10T13:24:17.000",
    "date_modified": "2021-11-10T14:01:40.000",
    "request_status": "Pending",
    "responsible_agency": "Department of Public Works",
    "final_address": "4721 Crowder Blvd",
    "address_councildis": "E",
    "status": "Pending",
    "contractor": "Royal Engineering",
    "rowid": "841189",
    "final_x": "3706563.65163",
    "final_y": "555573.400473",
    "longitude": "-89.98803728713365",
    "latitude": "30.020848754328423",
    "geocoded_column": {
      "latitude": "30.020848754328423",
      "longitude": "-89.98803728713365"
    }
  },
  {
    "service_request": "2021-841187",
    "request_type": "Parks & Parkways",
    "request_reason": "Request Tree Service (Right of Way/Public Property)",
    "date_created": "2021-11-10T13:21:28.000",
    "date_modified": "2021-11-10T13:21:28.000",
    "request_status": "Pending",
    "responsible_agency": "Department of Parks & Parkway",
    "final_address": "2611 Octavia St",
    "address_councildis": "A",
    "status": "Pending",
    "rowid": "841187",
    "final_x": "3667881.57537",
    "final_y": "525142.875965",
    "longitude": "-90.11128730865019",
    "latitude": "29.938367124135016",
    "geocoded_column": {
      "latitude": "29.938367124135016",
      "longitude": "-90.11128730865019"
    }
  },
  {
    "service_request": "2021-841185",
    "request_type": "Abandoned Vehicles",
    "request_reason": "Abandoned/Junk Vehicles",
    "date_created": "2021-11-10T13:17:47.000",
    "date_modified": "2021-11-10T14:01:44.000",
    "request_status": "Pending",
    "responsible_agency": "Department of Public Works",
    "final_address": "5245 Magazine St",
    "address_councildis": "B",
    "status": "Pending",
    "rowid": "841185",
    "final_x": "3667629.78964",
    "final_y": "518662.660215",
    "longitude": "-90.11230023609677",
    "latitude": "29.92055597286775",
    "geocoded_column": {
      "latitude": "29.92055597286775",
      "longitude": "-90.11230023609677"
    }
  },
  {
    "service_request": "2021-841186",
    "request_type": "Abandoned Vehicles",
    "request_reason": "Abandoned/Junk Vehicles",
    "date_created": "2021-11-10T13:17:47.000",
    "date_modified": "2021-11-10T13:17:47.000",
    "request_status": "Pending",
    "responsible_agency": "Department of Public Works",
    "final_address": "4220 Howard Ave",
    "address_councildis": "B",
    "status": "Pending",
    "rowid": "841186",
    "final_x": "3671928.25051",
    "final_y": "532977.677508",
    "longitude": "-90.09824491248071",
    "latitude": "29.959790962147792",
    "geocoded_column": {
      "latitude": "29.959790962147792",
      "longitude": "-90.09824491248071"
    }
  },
  {
    "service_request": "2021-841183",
    "request_type": "Traffic Signals/Signs/Striping/Streetlights",
    "request_reason": "Street Light Outage/Malfunction",
    "date_created": "2021-11-10T13:10:30.000",
    "date_modified": "2021-11-10T14:01:46.000",
    "request_status": "Pending",
    "responsible_agency": "Department of Public Works",
    "final_address": "2228 St Roch Ave",
    "address_councildis": "D",
    "status": "Pending",
    "contractor": "Royal Engineering",
    "rowid": "841183",
    "final_x": "3686057.6157",
    "final_y": "540745.257099",
    "longitude": "-90.0533536412562",
    "latitude": "29.980722764083275",
    "geocoded_column": {
      "latitude": "29.980722764083275",
      "longitude": "-90.0533536412562"
    }
  },
  {
    "service_request": "2021-841182",
    "request_type": "Traffic Signals/Signs/Striping/Streetlights",
    "request_reason": "Additional signage",
    "date_created": "2021-11-10T13:06:06.000",
    "date_modified": "2021-11-10T14:01:47.000",
    "request_status": "Pending",
    "responsible_agency": "Department of Public Works",
    "final_address": "N ROBERTSON ST & POLAND AVE",
    "address_councildis": "D",
    "status": "Pending",
    "rowid": "841182",
    "final_x": "3693387.9",
    "final_y": "536500.58",
    "longitude": "-90.03035394194877",
    "latitude": "29.968824227096107",
    "geocoded_column": {
      "latitude": "29.968824227096107",
      "longitude": "-90.03035394194877"
    }
  },
  {
    "service_request": "2021-841181",
    "request_type": "Traffic Signals/Signs/Striping/Streetlights",
    "request_reason": "Traffic Signal Malfunctioning/Damaged",
    "date_created": "2021-11-10T13:04:18.000",
    "date_modified": "2021-11-10T14:01:49.000",
    "request_status": "Pending",
    "responsible_agency": "Department of Public Works",
    "final_address": "N ROBERTSON ST & POLAND AVE",
    "address_councildis": "D",
    "status": "Pending",
    "rowid": "841181",
    "final_x": "3693387.9",
    "final_y": "536500.58",
    "longitude": "-90.03035394194877",
    "latitude": "29.968824227096107",
    "geocoded_column": {
      "latitude": "29.968824227096107",
      "longitude": "-90.03035394194877"
    }
  },
  {
    "service_request": "2021-841180",
    "request_type": "Trash/Recycling",
    "request_reason": "Repair Trash Cart",
    "date_created": "2021-11-10T13:01:51.000",
    "date_modified": "2021-11-10T14:01:51.000",
    "request_status": "Pending",
    "responsible_agency": "Department of Sanitation",
    "final_address": "345 Walnut St",
    "address_councildis": "A",
    "status": "Assigned to Contractor",
    "contractor": "Richards Disposal",
    "rowid": "841180",
    "final_x": "3662070.03328",
    "final_y": "522233.46713",
    "longitude": "-90.12973149332994",
    "latitude": "29.930536314023687",
    "geocoded_column": {
      "latitude": "29.930536314023687",
      "longitude": "-90.12973149332994"
    }
  },
  {
    "service_request": "2021-841179",
    "request_type": "Trash/Recycling",
    "request_reason": "Return Trash Cart",
    "date_created": "2021-11-10T12:58:30.000",
    "date_modified": "2021-11-10T12:58:31.000",
    "request_status": "Pending",
    "responsible_agency": "Department of Sanitation",
    "final_address": "4021 Danneel St",
    "address_councildis": "B",
    "status": "Assigned to Contractor",
    "contractor": "Richards Disposal",
    "rowid": "841179",
    "final_x": "3672003.86759",
    "final_y": "522469.089914",
    "longitude": "-90.09836378002711",
    "latitude": "29.930893545522622",
    "geocoded_column": {
      "latitude": "29.930893545522622",
      "longitude": "-90.09836378002711"
    }
  },
  {
    "service_request": "2021-841178",
    "request_type": "Trash/Recycling",
    "request_reason": "Missed Trash Pick-Up",
    "date_created": "2021-11-10T12:57:40.000",
    "date_modified": "2021-11-10T13:01:31.000",
    "request_status": "Pending",
    "responsible_agency": "Department of Sanitation",
    "final_address": "5904 Orleans Ave",
    "address_councildis": "A",
    "status": "Assigned to Contractor",
    "contractor": "Metro Disposal",
    "rowid": "841178",
    "final_x": "3670733.77537",
    "final_y": "546470.657425",
    "longitude": "-90.10155877376815",
    "latitude": "29.99692742790127",
    "geocoded_column": {
      "latitude": "29.99692742790127",
      "longitude": "-90.10155877376815"
    }
  },
  {
    "service_request": "2021-841177",
    "request_type": "Trash/Recycling",
    "request_reason": "Missed Trash Pick-Up",
    "date_created": "2021-11-10T12:57:29.000",
    "date_modified": "2021-11-10T12:57:30.000",
    "request_status": "Pending",
    "responsible_agency": "Department of Sanitation",
    "final_address": "1019 Dante St",
    "address_councildis": "A",
    "status": "Assigned to Contractor",
    "contractor": "Richards Disposal",
    "rowid": "841177",
    "final_x": "3661091.71341",
    "final_y": "528434.492288",
    "longitude": "-90.13261478634003",
    "latitude": "29.94761539237641",
    "geocoded_column": {
      "latitude": "29.94761539237641",
      "longitude": "-90.13261478634003"
    }
  },
  {
    "service_request": "2021-841176",
    "request_type": "Abandoned Vehicles",
    "request_reason": "Abandoned/Junk Vehicles",
    "date_created": "2021-11-10T12:55:43.000",
    "date_modified": "2021-11-10T12:57:47.000",
    "request_status": "Pending",
    "responsible_agency": "Department of Public Works",
    "final_address": "2701 Franklin Ave",
    "address_councildis": "D",
    "status": "Pending",
    "rowid": "841176",
    "final_x": "3687470.26742",
    "final_y": "542994.785677",
    "longitude": "-90.04881223018945",
    "latitude": "29.98686470261699",
    "geocoded_column": {
      "latitude": "29.98686470261699",
      "longitude": "-90.04881223018945"
    }
  },
  {
    "service_request": "2021-841175",
    "request_type": "Abandoned Vehicles",
    "request_reason": "Abandoned/Junk Vehicles",
    "date_created": "2021-11-10T12:54:19.000",
    "date_modified": "2021-11-10T12:54:19.000",
    "request_status": "Pending",
    "responsible_agency": "Department of Public Works",
    "final_address": "2721 Constitution Pl",
    "address_councildis": "D",
    "status": "Pending",
    "rowid": "841175",
    "final_x": "3687624.583",
    "final_y": "543010.388877",
    "longitude": "-90.04832425249137",
    "latitude": "29.986902848268468",
    "geocoded_column": {
      "latitude": "29.986902848268468",
      "longitude": "-90.04832425249137"
    }
  },
  {
    "service_request": "2021-841173",
    "request_type": "Abandoned Vehicles",
    "request_reason": "Abandoned/Junk Vehicles",
    "date_created": "2021-11-10T12:48:30.000",
    "date_modified": "2021-11-10T12:48:30.000",
    "request_status": "Pending",
    "responsible_agency": "Department of Public Works",
    "final_address": "2516 Dryades St",
    "address_councildis": "B",
    "status": "Pending",
    "rowid": "841173",
    "final_x": "3675989.97589",
    "final_y": "523842.496507",
    "longitude": "-90.08573296845123",
    "latitude": "29.934551233548042",
    "geocoded_column": {
      "latitude": "29.934551233548042",
      "longitude": "-90.08573296845123"
    }
  },
  {
    "service_request": "2021-841172",
    "request_type": "Trash/Recycling",
    "request_reason": "Missed Trash Pick-Up",
    "date_created": "2021-11-10T12:47:50.000",
    "date_modified": "2021-11-10T13:01:36.000",
    "request_status": "Pending",
    "responsible_agency": "Department of Sanitation",
    "final_address": "2710 Thalia St",
    "address_councildis": "B",
    "status": "Assigned to Contractor",
    "contractor": "Richards Disposal",
    "rowid": "841172",
    "final_x": "3675961.49173",
    "final_y": "527902.989375",
    "longitude": "-90.08568331374344",
    "latitude": "29.945717107010022",
    "geocoded_column": {
      "latitude": "29.945717107010022",
      "longitude": "-90.08568331374344"
    }
  },
  {
    "service_request": "2021-841171",
    "request_type": "Trash/Recycling",
    "request_reason": "Replace Trash Cart",
    "date_created": "2021-11-10T12:47:24.000",
    "date_modified": "2021-11-10T13:01:37.000",
    "request_status": "Pending",
    "responsible_agency": "Department of Sanitation",
    "final_address": "6308 Pratt Dr, New Orleans, Louisiana, 70122",
    "address_councildis": "D",
    "status": "Assigned to Contractor",
    "contractor": "Metro Disposal",
    "rowid": "841171",
    "final_x": "3679672.99842",
    "final_y": "556859.900506",
    "longitude": "-90.07295921149765",
    "latitude": "30.025226845105774",
    "geocoded_column": {
      "latitude": "30.025226845105774",
      "longitude": "-90.07295921149765"
    }
  },
  {
    "service_request": "2021-841169",
    "request_type": "Property Maintenance",
    "request_reason": "Property Maintenance",
    "date_created": "2021-11-10T12:45:08.000",
    "date_modified": "2021-11-10T12:45:08.000",
    "request_status": "Pending",
    "responsible_agency": "Department of Code Enforcement",
    "final_address": "301 S White St",
    "address_councildis": "B",
    "status": "Pending",
    "rowid": "841169",
    "final_x": "3674313.05544",
    "final_y": "534803.115974",
    "longitude": "-90.0906517070814",
    "latitude": "29.964739408035033",
    "geocoded_column": {
      "latitude": "29.964739408035033",
      "longitude": "-90.0906517070814"
    }
  },
  {
    "service_request": "2021-841168",
    "request_type": "Property Maintenance",
    "request_reason": "Property Maintenance",
    "date_created": "2021-11-10T12:44:43.000",
    "date_modified": "2021-11-10T13:01:40.000",
    "request_status": "Pending",
    "responsible_agency": "Department of Code Enforcement",
    "final_address": "2016 Shalett St",
    "address_councildis": "C",
    "status": "Pending",
    "rowid": "841168",
    "final_x": "3694257.13552",
    "final_y": "523054.864763",
    "longitude": "-90.0280925487593",
    "latitude": "29.931825981930114",
    "geocoded_column": {
      "latitude": "29.931825981930114",
      "longitude": "-90.0280925487593"
    }
  },
  {
    "service_request": "2021-841167",
    "request_type": "Property Maintenance",
    "request_reason": "Property Maintenance",
    "date_created": "2021-11-10T12:44:03.000",
    "date_modified": "2021-11-10T12:44:03.000",
    "request_status": "Pending",
    "responsible_agency": "Department of Code Enforcement",
    "final_address": "9009 Fig St",
    "address_councildis": "A",
    "status": "Pending",
    "rowid": "841167",
    "final_x": "3663911.13235",
    "final_y": "535369.375494",
    "longitude": "-90.12348154555048",
    "latitude": "29.966602526471686",
    "geocoded_column": {
      "latitude": "29.966602526471686",
      "longitude": "-90.12348154555048"
    }
  },
  {
    "service_request": "2021-841166",
    "request_type": "Traffic Signals/Signs/Striping/Streetlights",
    "request_reason": "Street Light Outage/Malfunction",
    "date_created": "2021-11-10T12:43:45.000",
    "date_modified": "2021-11-10T12:43:46.000",
    "request_status": "Pending",
    "responsible_agency": "Department of Public Works",
    "final_address": "7840 Willow St",
    "address_councildis": "A",
    "status": "Pending",
    "contractor": "Royal Engineering",
    "rowid": "841166",
    "final_x": "3663008.89255",
    "final_y": "528311.822784",
    "longitude": "-90.12656555302829",
    "latitude": "29.947222710500984",
    "geocoded_column": {
      "latitude": "29.947222710500984",
      "longitude": "-90.12656555302829"
    }
  },
  {
    "service_request": "2021-841165",
    "request_type": "Property Maintenance",
    "request_reason": "Property Maintenance",
    "date_created": "2021-11-10T12:42:33.000",
    "date_modified": "2021-11-10T13:01:41.000",
    "request_status": "Pending",
    "responsible_agency": "Department of Code Enforcement",
    "final_address": "2030 Shalett St",
    "address_councildis": "C",
    "status": "Pending",
    "rowid": "841165",
    "final_x": "3694323.58179",
    "final_y": "522926.167099",
    "longitude": "-90.02788741485146",
    "latitude": "29.931470025866364",
    "geocoded_column": {
      "latitude": "29.931470025866364",
      "longitude": "-90.02788741485146"
    }
  },
  {
    "service_request": "2021-841163",
    "request_type": "Abandoned Vehicles",
    "request_reason": "Abandoned/Junk Vehicles",
    "date_created": "2021-11-10T12:39:06.000",
    "date_modified": "2021-11-10T12:47:38.000",
    "request_status": "Pending",
    "responsible_agency": "Department of Public Works",
    "status": "Inspected",
    "rowid": "841163",
    "longitude": "0.0",
    "latitude": "0.0",
    "geocoded_column": {
      "latitude": "0.0",
      "longitude": "0.0"
    }
  },
  {
    "service_request": "2021-841162",
    "request_type": "Roads/Drainage",
    "request_reason": "Pothole",
    "date_created": "2021-11-10T12:35:07.000",
    "date_modified": "2021-11-10T12:35:07.000",
    "request_status": "Pending",
    "responsible_agency": "Department of Public Works",
    "final_address": "2817 Burgundy St",
    "address_councildis": "C",
    "status": "Pending",
    "rowid": "841162",
    "final_x": "3687666.41455",
    "final_y": "535533.42247",
    "longitude": "-90.0484569488485",
    "latitude": "29.966342536907536",
    "geocoded_column": {
      "latitude": "29.966342536907536",
      "longitude": "-90.0484569488485"
    }
  },
  {
    "service_request": "2021-841161",
    "request_type": "Trash/Recycling",
    "request_reason": "Illegal Dumping",
    "date_created": "2021-11-10T12:33:57.000",
    "date_modified": "2021-11-10T12:33:57.000",
    "request_status": "Pending",
    "responsible_agency": "Department of Sanitation",
    "final_address": "3652 Franklin Ave",
    "address_councildis": "D",
    "status": "Pending",
    "rowid": "841161",
    "final_x": "3687049.81967",
    "final_y": "546533.896273",
    "longitude": "-90.0500150673672",
    "latitude": "29.996608942353877",
    "geocoded_column": {
      "latitude": "29.996608942353877",
      "longitude": "-90.0500150673672"
    }
  },
  {
    "service_request": "2021-841159",
    "request_type": "Abandoned Vehicles",
    "request_reason": "Abandoned/Junk Vehicles",
    "date_created": "2021-11-10T12:31:12.000",
    "date_modified": "2021-11-10T12:34:25.000",
    "request_status": "Pending",
    "responsible_agency": "Department of Public Works",
    "status": "Inspected",
    "rowid": "841159",
    "longitude": "0.0",
    "latitude": "0.0",
    "geocoded_column": {
      "latitude": "0.0",
      "longitude": "0.0"
    }
  },
  {
    "service_request": "2021-841158",
    "request_type": "Property Maintenance",
    "request_reason": "Property Maintenance",
    "date_created": "2021-11-10T12:27:08.000",
    "date_modified": "2021-11-10T12:27:08.000",
    "request_status": "Pending",
    "responsible_agency": "Department of Code Enforcement",
    "final_address": "7130 W Laverne St",
    "address_councildis": "D",
    "status": "Pending",
    "rowid": "841158",
    "final_x": "3695717.11862",
    "final_y": "556851.966618",
    "longitude": "-90.02226277720806",
    "latitude": "30.024710020393005",
    "geocoded_column": {
      "latitude": "30.024710020393005",
      "longitude": "-90.02226277720806"
    }
  },
  {
    "service_request": "2021-841157",
    "request_type": "Property Maintenance",
    "request_reason": "Property Maintenance",
    "date_created": "2021-11-10T12:24:19.000",
    "date_modified": "2021-11-10T12:24:19.000",
    "request_status": "Pending",
    "responsible_agency": "Department of Code Enforcement",
    "final_address": "7114 W Laverne St",
    "address_councildis": "D",
    "status": "Pending",
    "rowid": "841157",
    "final_x": "3695778.64861",
    "final_y": "556717.199002",
    "longitude": "-90.02207322699805",
    "latitude": "30.02433752466813",
    "geocoded_column": {
      "latitude": "30.02433752466813",
      "longitude": "-90.02207322699805"
    }
  },
  {
    "service_request": "2021-841156",
    "request_type": "Trash/Recycling",
    "request_reason": "Repair Trash Cart",
    "date_created": "2021-11-10T12:21:22.000",
    "date_modified": "2021-11-10T13:01:43.000",
    "case_close_date": "2020-03-08T19:00:00.000",
    "request_status": "Pending",
    "responsible_agency": "Department of Sanitation",
    "final_address": "1718 Cadiz St",
    "address_councildis": "B",
    "status": "Assigned to Contractor",
    "contractor": "Richards Disposal",
    "rowid": "841156",
    "final_x": "3669961.08212",
    "final_y": "521337.086073",
    "longitude": "-90.10485090221152",
    "latitude": "29.927841278092455",
    "geocoded_column": {
      "latitude": "29.927841278092455",
      "longitude": "-90.10485090221152"
    }
  },
  {
    "service_request": "2021-841155",
    "request_type": "Abandoned Vehicles",
    "request_reason": "Abandoned/Junk Vehicles",
    "date_created": "2021-11-10T12:20:27.000",
    "date_modified": "2021-11-10T12:20:27.000",
    "request_status": "Pending",
    "responsible_agency": "Department of Public Works",
    "final_address": "901 Race St",
    "address_councildis": "B",
    "status": "Pending",
    "rowid": "841155",
    "final_x": "3680958.04463",
    "final_y": "523700.050491",
    "longitude": "-90.07005385420247",
    "latitude": "29.93400988197389",
    "geocoded_column": {
      "latitude": "29.93400988197389",
      "longitude": "-90.07005385420247"
    }
  },