[
  {
    "service_request": "2023-968804",
    "request_type": "Abandoned Vehicles",
    "request_reason": "Abandoned/Junk Vehicles",
    "date_created": "2023-01-20T00:53:18.000",
    "date_modified": "2023-01-20T00:53:19.000",
    "request_status": "Pending",
    "responsible_agency": "Department of Public Works",
    "final_address": "1300 BLK Saint Peter St",
    "address_councildis": "C",
    "status": "Pending",
    "rowid": "968804",
    "final_x": "3681081.30381",
    "final_y": "533306.192034",
    "longitude": "-90.06933019477862",
    "latitude": "29.960419810134294",
    "geocoded_column": {
      "latitude": "29.960419810134294",
      "longitude": "-90.06933019477862"
    }
  },
  {
    "service_request": "2023-968803",
    "request_type": "Roads/Drainage",
    "request_reason": "Catch Basin - Clogged",
    "date_created": "2023-01-19T23:48:02.000",
    "date_modified": "2023-01-19T23:48:02.000",
    "request_status": "Pending",
    "responsible_agency": "Department of Public Works",
    "final_address": "2433 N Claiborne Ave",
    "address_councildis": "D",
    "status": "Pending",
    "rowid": "968803",
    "final_x": "3686634.76962",
    "final_y": "538325.563593",
    "longitude": "-90.05161622739914",
    "latitude": "29.974051718516314",
    "geocoded_column": {
      "latitude": "29.974051718516314",
      "longitude": "-90.05161622739914"
    }
  },
  {
    "service_request": "2023-968802",
    "request_type": "Trash/Recycling",
    "request_reason": "Repair Trash Cart",
    "date_created": "2023-01-19T22:39:08.000",
    "date_modified": "2023-01-19T22:39:09.000",
    "request_status": "Pending",
    "responsible_agency": "Department of Sanitation",
    "final_address": "5033 St Charles Ave",
    "address_councildis": "B",
    "status": "Assigned to Contractor",
    "contractor": "Richards Disposal",
    "rowid": "968802",
    "final_x": "3668479.08212",
    "final_y": "521084.575865",
    "longitude": "-90.10953775657389",
    "latitude": "29.92719056136446",
    "geocoded_column": {
      "latitude": "29.92719056136446",
      "longitude": "-90.10953775657389"
    }
  },
  {
    "service_request": "2023-968801",
    "request_type": "Health Related Request",
    "request_reason": "Noise Ordinance Complaint",
    "date_created": "2023-01-19T22:12:21.000",
    "date_modified": "2023-01-19T22:12:21.000",
    "request_status": "Pending",
    "responsible_agency": "Health Department",
    "final_address": "1009 N Claiborne Ave, New Orleans, Louisiana, 70116",
    "address_councildis": "D",
    "status": "Pending",
    "rowid": "968801",
    "final_x": "3680417.66101",
    "final_y": "535635.218886",
    "longitude": "-90.07134484150656",
    "latitude": "29.966843952035386",
    "geocoded_column": {
      "latitude": "29.966843952035386",
      "longitude": "-90.07134484150656"
    }
  },
  {
    "service_request": "2023-968800",
    "request_type": "Traffic Signals/Signs/Striping/Streetlights",
    "request_reason": "Traffic Signal Malfunctioning/Damaged",
    "date_created": "2023-01-19T21:58:50.000",
    "date_modified": "2023-01-19T21:58:50.000",
    "request_status": "Pending",
    "responsible_agency": "Department of Public Works",
    "final_address": "2001 Magazine St",
    "address_councildis": "B",
    "status": "Pending",
    "rowid": "968800",
    "final_x": "3679455.35938",
    "final_y": "522592.635514",
    "longitude": "-90.07483616931862",
    "latitude": "29.931010323102342",
    "geocoded_column": {
      "latitude": "29.931010323102342",
      "longitude": "-90.07483616931862"
    }
  },
  {
    "service_request": "2023-968798",
    "request_type": "Health Related Request",
    "request_reason": "Noise Ordinance Complaint",
    "date_created": "2023-01-19T21:42:23.000",
    "date_modified": "2023-01-19T21:42:23.000",
    "request_status": "Pending",
    "responsible_agency": "Health Department",
    "final_address": "501 Tchoupitoulas New Orleans Louisiana ",
    "address_councildis": "B",
    "status": "Pending",
    "rowid": "968798",
    "final_x": "3679203.07195",
    "final_y": "519161.990327",
    "longitude": "-90.07575146902829",
    "latitude": "29.921584785096794",
    "geocoded_column": {
      "latitude": "29.921584785096794",
      "longitude": "-90.07575146902829"
    }
  },
  {
    "service_request": "2023-968797",
    "request_type": "Abandoned Vehicles",
    "request_reason": "Abandoned/Junk Vehicles",
    "date_created": "2023-01-19T21:40:19.000",
    "date_modified": "2023-01-19T21:40:19.000",
    "request_status": "Pending",
    "responsible_agency": "Department of Public Works",
    "final_address": "4659 Coronado Dr",
    "address_councildis": "E",
    "status": "Pending",
    "rowid": "968797",
    "final_x": "3714234.04722",
    "final_y": "556135.50441",
    "longitude": "-89.96378010831427",
    "latitude": "30.022144468062457",
    "geocoded_column": {
      "latitude": "30.022144468062457",
      "longitude": "-89.96378010831427"
    }
  },
  {
    "service_request": "2023-968796",
    "request_type": "Property Maintenance",
    "request_reason": "Property Maintenance",
    "date_created": "2023-01-19T21:37:44.000",
    "date_modified": "2023-01-19T21:37:44.000",
    "request_status": "Pending",
    "responsible_agency": "Department of Code Enforcement",
    "final_address": "4000 St Claude Ave",
    "address_councildis": "C",
    "status": "Pending",
    "rowid": "968796",
    "final_x": "3691865.73648",
    "final_y": "535248.04583",
    "longitude": "-90.03520582243148",
    "latitude": "29.965427705776385",
    "geocoded_column": {
      "latitude": "29.965427705776385",
      "longitude": "-90.03520582243148"
    }
  },
  {
    "service_request": "2023-968795",
    "request_type": "Abandoned Vehicles",
    "request_reason": "Abandoned/Junk Vehicles",
    "date_created": "2023-01-19T21:34:24.000",
    "date_modified": "2023-01-19T21:34:24.000",
    "request_status": "Pending",
    "responsible_agency": "Department of Public Works",
    "final_address": "4659 Coronado Dr",
    "address_councildis": "E",
    "status": "Pending",
    "rowid": "968795",
    "final_x": "3714234.04722",
    "final_y": "556135.50441",
    "longitude": "-89.96378010831427",
    "latitude": "30.022144468062457",
    "geocoded_column": {
      "latitude": "30.022144468062457",
      "longitude": "-89.96378010831427"
    }
  },
  {
    "service_request": "2023-968794",
    "request_type": "Trash/Recycling",
    "request_reason": "MIssed Recycling Pick-Up",
    "date_created": "2023-01-19T21:27:48.000",
    "date_modified": "2023-01-19T21:27:49.000",
    "request_status": "Pending",
    "responsible_agency": "Department of Sanitation",
    "final_address": "2514 Adams St",
    "address_councildis": "A",
    "status": "Assigned to Contractor",
    "contractor": "Richards Disposal",
    "rowid": "968794",
    "final_x": "3666291.92775",
    "final_y": "531000.21101",
    "longitude": "-90.11610955893856",
    "latitude": "29.95451942389691",
    "geocoded_column": {
      "latitude": "29.95451942389691",
      "longitude": "-90.11610955893856"
    }
  },
  {
    "service_request": "2023-968793",
    "request_type": "Health Related Request",
    "request_reason": "Noise Ordinance Complaint",
    "date_created": "2023-01-19T21:27:21.000",
    "date_modified": "2023-01-19T21:27:21.000",
    "request_status": "Pending",
    "responsible_agency": "Health Department",
    "final_address": "239 Decatur St",
    "address_councildis": "C",
    "status": "Pending",
    "rowid": "968793",
    "final_x": "3682195.63317",
    "final_y": "530830.069826",
    "longitude": "-90.06589786183099",
    "latitude": "29.95357746948798",
    "geocoded_column": {
      "latitude": "29.95357746948798",
      "longitude": "-90.06589786183099"
    }
  },
  {
    "service_request": "2023-968792",
    "request_type": "Trash/Recycling",
    "request_reason": "Missed Trash Pick-Up",
    "date_created": "2023-01-19T21:24:16.000",
    "date_modified": "2023-01-19T21:24:16.000",
    "request_status": "Pending",
    "responsible_agency": "Department of Sanitation",
    "final_address": "2540 Esplanade Ave, New Orleans, Louisiana, 70119",
    "address_councildis": "D",
    "status": "Assigned to Contractor",
    "contractor": "Richards Disposal",
    "rowid": "968792",
    "final_x": "3678320.94197",
    "final_y": "538729.288009",
    "longitude": "-90.0778592202657",
    "latitude": "29.975414912265574",
    "geocoded_column": {
      "latitude": "29.975414912265574",
      "longitude": "-90.0778592202657"
    }
  },
  {
    "service_request": "2023-968791",
    "request_type": "Trash/Recycling",
    "request_reason": "Missed Trash Pick-Up",
    "date_created": "2023-01-19T21:23:22.000",
    "date_modified": "2023-01-19T21:23:23.000",
    "request_status": "Pending",
    "responsible_agency": "Department of Sanitation",
    "final_address": "1300 N Broad St, New Orleans, Louisiana, 70119",
    "address_councildis": "D",
    "status": "Assigned to Contractor",
    "contractor": "Richards Disposal",
    "rowid": "968791",
    "final_x": "3678119.03803",
    "final_y": "538717.037385",
    "longitude": "-90.07849731140278",
    "latitude": "29.975387308563494",
    "geocoded_column": {
      "latitude": "29.975387308563494",
      "longitude": "-90.07849731140278"
    }
  },
  {
    "service_request": "2023-968790",
    "request_type": "Abandoned Vehicles",
    "request_reason": "Abandoned/Junk Vehicles",
    "date_created": "2023-01-19T21:21:34.000",
    "date_modified": "2023-01-19T21:21:34.000",
    "request_status": "Pending",
    "responsible_agency": "Department of Public Works",
    "final_address": "2215 S Liberty St",
    "address_councildis": "B",
    "status": "Pending",
    "rowid": "968790",
    "final_x": "3675867.34491",
    "final_y": "525760.909629",
    "longitude": "-90.08605418659143",
    "latitude": "29.93982991213108",
    "geocoded_column": {
      "latitude": "29.93982991213108",
      "longitude": "-90.08605418659143"
    }
  },
  {
    "service_request": "2023-968789",
    "request_type": "Trash/Recycling",
    "request_reason": "MIssed Recycling Pick-Up",
    "date_created": "2023-01-19T21:20:17.000",
    "date_modified": "2023-01-19T21:20:17.000",
    "request_status": "Pending",
    "responsible_agency": "Department of Sanitation",
    "final_address": "2231 Wirth Pl",
    "address_councildis": "A",
    "status": "Assigned to Contractor",
    "contractor": "Richards Disposal",
    "rowid": "968789",
    "final_x": "3667151.38125",
    "final_y": "524461.921532",
    "longitude": "-90.11361549587174",
    "latitude": "29.936516110759136",
    "geocoded_column": {
      "latitude": "29.936516110759136",
      "longitude": "-90.11361549587174"
    }
  },
  {
    "service_request": "2023-968788",
    "request_type": "Safety & Permits",
    "request_reason": "Licenses & Permits",
    "date_created": "2023-01-19T21:12:58.000",
    "date_modified": "2023-01-19T21:12:58.000",
    "request_status": "Pending",
    "responsible_agency": "Safety and Permits",
    "final_address": "5769 Cameron Blvd",
    "address_councildis": "D",
    "status": "Pending",
    "rowid": "968788",
    "final_x": "3682530.48943",
    "final_y": "554648.600408",
    "longitude": "-90.06400738767712",
    "latitude": "30.019059848432168",
    "geocoded_column": {
      "latitude": "30.019059848432168",
      "longitude": "-90.06400738767712"
    }
  },
  {
    "service_request": "2023-968787",
    "request_type": "Trash/Recycling",
    "request_reason": "Replace Recycling Cart",
    "date_created": "2023-01-19T20:58:02.000",
    "date_modified": "2023-01-19T20:58:02.000",
    "request_status": "Pending",
    "responsible_agency": "Department of Sanitation",
    "final_address": "965 S Genois St",
    "address_councildis": "B",
    "status": "Pending",
    "rowid": "968787",
    "final_x": "3670116.22164",
    "final_y": "533906.498245",
    "longitude": "-90.10393544004046",
    "latitude": "29.96239849200406",
    "geocoded_column": {
      "latitude": "29.96239849200406",
      "longitude": "-90.10393544004046"
    }
  },
  {
    "service_request": "2023-968786",
    "request_type": "Trash/Recycling",
    "request_reason": "Replace Recycling Cart",
    "date_created": "2023-01-19T20:57:29.000",
    "date_modified": "2023-01-19T20:57:29.000",
    "request_status": "Pending",
    "responsible_agency": "Department of Sanitation",
    "final_address": "3813 Virgil Blvd",
    "address_councildis": "D",
    "status": "Pending",
    "rowid": "968786",
    "final_x": "3680663.922",
    "final_y": "546522.494929",
    "longitude": "-90.07018813152858",
    "latitude": "29.996772703799806",
    "geocoded_column": {
      "latitude": "29.996772703799806",
      "longitude": "-90.07018813152858"
    }
  },
  {
    "service_request": "2023-968785",
    "request_type": "Abandoned Vehicles",
    "request_reason": "Abandoned/Junk Vehicles",
    "date_created": "2023-01-19T20:56:15.000",
    "date_modified": "2023-01-19T20:56:15.000",
    "request_status": "Pending",
    "responsible_agency": "Department of Public Works",
    "final_address": "1527 Dumaine St",
    "address_councildis": "C",
    "status": "Pending",
    "rowid": "968785",
    "final_x": "3680594.90978",
    "final_y": "534931.925702",
    "longitude": "-90.07080956197805",
    "latitude": "29.964904767598078",
    "geocoded_column": {
      "latitude": "29.964904767598078",
      "longitude": "-90.07080956197805"
    }
  },
  {
    "service_request": "2023-968784",
    "request_type": "Abandoned Vehicles",
    "request_reason": "Abandoned/Junk Vehicles",
    "date_created": "2023-01-19T20:49:26.000",
    "date_modified": "2023-01-19T20:49:26.000",
    "request_status": "Pending",
    "responsible_agency": "Department of Public Works",
    "final_address": "908 N Robertson St",
    "address_councildis": "C",
    "status": "Pending",
    "rowid": "968784",
    "final_x": "3680590.25979",
    "final_y": "534996.071366",
    "longitude": "-90.0708220144134",
    "latitude": "29.965081287114533",
    "geocoded_column": {
      "latitude": "29.965081287114533",
      "longitude": "-90.0708220144134"
    }
  },
  {
    "service_request": "2023-968783",
    "request_type": "Trash/Recycling",
    "request_reason": "Missed Trash Pick-Up",
    "date_created": "2023-01-19T20:49:03.000",
    "date_modified": "2023-01-19T20:49:04.000",
    "request_status": "Pending",
    "responsible_agency": "Department of Sanitation",
    "final_address": "621 Pelican Ave",
    "address_councildis": "C",
    "status": "Assigned to Contractor",
    "contractor": "Richards Disposal",
    "rowid": "968783",
    "final_x": "3687394.2806",
    "final_y": "530739.84237",
    "longitude": "-90.0494859539611",
    "latitude": "29.953170236662285",
    "geocoded_column": {
      "latitude": "29.953170236662285",
      "longitude": "-90.0494859539611"
    }
  },
  {
    "service_request": "2023-968781",
    "request_type": "Trash/Recycling",
    "request_reason": "Order Recycling Cart",
    "date_created": "2023-01-19T20:36:57.000",
    "date_modified": "2023-01-19T20:36:57.000",
    "request_status": "Pending",
    "responsible_agency": "Department of Sanitation",
    "final_address": "7801 Jahncke Rd",
    "address_councildis": "E",
    "status": "Pending",
    "rowid": "968781",
    "final_x": "3713823.77368",
    "final_y": "568844.480357",
    "longitude": "-89.96459676950148",
    "latitude": "30.057102513223278",
    "geocoded_column": {
      "latitude": "30.057102513223278",
      "longitude": "-89.96459676950148"
    }
  },
  {
    "service_request": "2023-968780",
    "request_type": "Traffic Signals/Signs/Striping/Streetlights",
    "request_reason": "Street Light Outage/Malfunction",
    "date_created": "2023-01-19T20:28:54.000",
    "date_modified": "2023-01-19T20:28:55.000",
    "request_status": "Pending",
    "responsible_agency": "Department of Public Works",
    "final_address": "220 S St Patrick St",
    "address_councildis": "A",
    "status": "Assigned to Contractor",
    "contractor": "Legacy Professional Services",
    "rowid": "968780",
    "final_x": "3668761.08289",
    "final_y": "539315.531914",
    "longitude": "-90.10803213454084",
    "latitude": "29.977311436311158",
    "geocoded_column": {
      "latitude": "29.977311436311158",
      "longitude": "-90.10803213454084"
    }
  },
  {
    "service_request": "2023-968779",
    "request_type": "Trash/Recycling",
    "request_reason": "MIssed Recycling Pick-Up",
    "date_created": "2023-01-19T20:23:08.000",
    "date_modified": "2023-01-19T20:23:09.000",
    "request_status": "Pending",
    "responsible_agency": "Department of Sanitation",
    "final_address": "1718 Urquhart St",
    "address_councildis": "C",
    "status": "Assigned to Contractor",
    "contractor": "IV Waste",
    "rowid": "968779",
    "final_x": "3683265.47279",
    "final_y": "536801.357512",
    "longitude": "-90.06231061593071",
    "latitude": "29.969963880521334",
    "geocoded_column": {
      "latitude": "29.969963880521334",
      "longitude": "-90.06231061593071"
    }
  },
  {
    "service_request": "2023-968778",
    "request_type": "Trash/Recycling",
    "request_reason": "Missed Trash Pick-Up",
    "date_created": "2023-01-19T20:22:19.000",
    "date_modified": "2023-01-19T20:22:19.000",
    "request_status": "Pending",
    "responsible_agency": "Department of Sanitation",
    "final_address": "1718 Urquhart St",
    "address_councildis": "C",
    "status": "Assigned to Contractor",
    "contractor": "IV Waste",
    "rowid": "968778",
    "final_x": "3683265.47279",
    "final_y": "536801.357512",
    "longitude": "-90.06231061593071",
    "latitude": "29.969963880521334",
    "geocoded_column": {
      "latitude": "29.969963880521334",
      "longitude": "-90.06231061593071"
    }
  },
  {
    "service_request": "2023-968777",
    "request_type": "Roads/Drainage",
    "request_reason": "Street Flooding / Drainage",
    "date_created": "2023-01-19T20:18:07.000",
    "date_modified": "2023-01-19T20:18:07.000",
    "request_status": "Pending",
    "responsible_agency": "Department of Public Works",
    "final_address": "5904 Annunciation St",
    "address_councildis": "A",
    "status": "Pending",
    "rowid": "968777",
    "final_x": "3664847.81332",
    "final_y": "517637.226678",
    "longitude": "-90.12111592177729",
    "latitude": "29.91781757278294",
    "geocoded_column": {
      "latitude": "29.91781757278294",
      "longitude": "-90.12111592177729"
    }
  },
  {
    "service_request": "2023-968776",
    "request_type": "Abandoned Vehicles",
    "request_reason": "Abandoned/Junk Vehicles",
    "date_created": "2023-01-19T20:02:06.000",
    "date_modified": "2023-01-19T20:02:06.000",
    "request_status": "Pending",
    "responsible_agency": "Department of Public Works",
    "final_address": "8629 Willow St",
    "address_councildis": "A",
    "status": "Pending",
    "rowid": "968776",
    "final_x": "3660982.05523",
    "final_y": "530274.354945",
    "longitude": "-90.13290016241618",
    "latitude": "29.952677584536342",
    "geocoded_column": {
      "latitude": "29.952677584536342",
      "longitude": "-90.13290016241618"
    }
  },
  {
    "service_request": "2023-968775",
    "request_type": "Trash/Recycling",
    "request_reason": "Order Trash Cart",
    "date_created": "2023-01-19T19:57:09.000",
    "date_modified": "2023-01-19T19:57:10.000",
    "request_status": "Pending",
    "responsible_agency": "Department of Sanitation",
    "final_address": "2420 Octavia St",
    "address_councildis": "A",
    "status": "Assigned to Contractor",
    "contractor": "Richards Disposal",
    "rowid": "968775",
    "final_x": "3667652.25511",
    "final_y": "524595.193148",
    "longitude": "-90.11202972733831",
    "latitude": "29.936867895107397",
    "geocoded_column": {
      "latitude": "29.936867895107397",
      "longitude": "-90.11202972733831"
    }
  },
  {
    "service_request": "2023-968774",
    "request_type": "Health Related Request",
    "request_reason": "Noise Ordinance Complaint",
    "date_created": "2023-01-19T19:45:05.000",
    "date_modified": "2023-01-19T19:45:05.000",
    "request_status": "Pending",
    "responsible_agency": "Health Department",
    "final_address": "5012 S Robertson St",
    "address_councildis": "B",
    "status": "Pending",
    "rowid": "968774",
    "final_x": "3668661.3042",
    "final_y": "524167.269628",
    "longitude": "-90.10885853516197",
    "latitude": "29.935661631524376",
    "geocoded_column": {
      "latitude": "29.935661631524376",
      "longitude": "-90.10885853516197"
    }
  },
  {
    "service_request": "2023-968773",
    "request_type": "Health Related Request",
    "request_reason": "Noise Ordinance Complaint",
    "date_created": "2023-01-19T19:44:21.000",
    "date_modified": "2023-01-19T19:44:21.000",
    "request_status": "Pending",
    "responsible_agency": "Health Department",
    "final_address": "5010 S Robertson St",
    "address_councildis": "B",
    "status": "Pending",
    "rowid": "968773",
    "final_x": "3668654.35982",
    "final_y": "524225.60294",
    "longitude": "-90.10887849078452",
    "latitude": "29.93582223345129",
    "geocoded_column": {
      "latitude": "29.93582223345129",
      "longitude": "-90.10887849078452"
    }
  },
  {
    "service_request": "2023-968772",
    "request_type": "Health Related Request",
    "request_reason": "Noise Ordinance Complaint",
    "date_created": "2023-01-19T19:36:46.000",
    "date_modified": "2023-01-19T19:36:46.000",
    "request_status": "Pending",
    "responsible_agency": "Health Department",
    "final_address": "1435 Japonica St",
    "address_councildis": "D",
    "status": "Pending",
    "rowid": "968772",
    "final_x": "3694180.25654",
    "final_y": "536091.081287",
    "longitude": "-90.02786637644809",
    "latitude": "29.96767345223562",
    "geocoded_column": {
      "latitude": "29.96767345223562",
      "longitude": "-90.02786637644809"
    }
  },
  {
    "service_request": "2023-968771",
    "request_type": "Abandoned Vehicles",
    "request_reason": "Abandoned/Junk Vehicles",
    "date_created": "2023-01-19T19:30:21.000",
    "date_modified": "2023-01-19T19:30:21.000",
    "request_status": "Pending",
    "responsible_agency": "Department of Public Works",
    "final_address": "8629 Willow St",
    "address_councildis": "A",
    "status": "Pending",
    "rowid": "968771",
    "final_x": "3660982.05523",
    "final_y": "530274.354945",
    "longitude": "-90.13290016241618",
    "latitude": "29.952677584536342",
    "geocoded_column": {
      "latitude": "29.952677584536342",
      "longitude": "-90.13290016241618"
    }
  },
  {
    "service_request": "2023-968770",
    "request_type": "Traffic Signals/Signs/Striping/Streetlights",
    "request_reason": "Street Light Outage/Malfunction",
    "date_created": "2023-01-19T19:28:53.000",
    "date_modified": "2023-01-19T19:28:53.000",
    "request_status": "Pending",
    "responsible_agency": "Department of Public Works",
    "final_address": "3931 Octavia St",
    "address_councildis": "B",
    "status": "Assigned to Contractor",
    "contractor": "Legacy Professional Services",
    "rowid": "968770",
    "final_x": "3668936.18382",
    "final_y": "529976.781313",
    "longitude": "-90.10779457015788",
    "latitude": "29.951627825016892",
    "geocoded_column": {
      "latitude": "29.951627825016892",
      "longitude": "-90.10779457015788"
    }
  },
  {
    "service_request": "2023-968769",
    "request_type": "Trash/Recycling",
    "request_reason": "Request a Large Item Pick Up",
    "date_created": "2023-01-19T19:23:15.000",
    "date_modified": "2023-01-19T19:23:16.000",
    "request_status": "Pending",
    "responsible_agency": "Department of Sanitation",
    "final_address": "932 Philip St",
    "address_councildis": "B",
    "status": "Assigned to Contractor",
    "contractor": "Richards Disposal",
    "rowid": "968769",
    "final_x": "3678771.01819",
    "final_y": "521448.345977",
    "longitude": "-90.07703614853055",
    "latitude": "29.927884550649317",
    "geocoded_column": {
      "latitude": "29.927884550649317",
      "longitude": "-90.07703614853055"
    }
  },
  {
    "service_request": "2023-968768",
    "request_type": "Trash/Recycling",
    "request_reason": "Missed Trash Pick-Up",
    "date_created": "2023-01-19T19:21:28.000",
    "date_modified": "2023-01-19T19:21:29.000",
    "request_status": "Pending",
    "responsible_agency": "Department of Sanitation",
    "final_address": "2128 St Andrew St",
    "address_councildis": "B",
    "status": "Assigned to Contractor",
    "contractor": "Richards Disposal",
    "rowid": "968768",
    "final_x": "3676851.91688",
    "final_y": "525814.340861",
    "longitude": "-90.08294390778713",
    "latitude": "29.939947324561064",
    "geocoded_column": {
      "latitude": "29.939947324561064",
      "longitude": "-90.08294390778713"
    }
  },
  {
    "service_request": "2023-968767",
    "request_type": "Trash/Recycling",
    "request_reason": "Replace Trash Cart",
    "date_created": "2023-01-19T19:15:51.000",
    "date_modified": "2023-01-19T19:15:52.000",
    "request_status": "Pending",
    "responsible_agency": "Department of Sanitation",
    "final_address": "4620 Laurel St",
    "address_councildis": "B",
    "status": "Assigned to Contractor",
    "contractor": "Richards Disposal",
    "rowid": "968767",
    "final_x": "3670188.22484",
    "final_y": "517921.44575",
    "longitude": "-90.1042495211069",
    "latitude": "29.918442654587203",
    "geocoded_column": {
      "latitude": "29.918442654587203",
      "longitude": "-90.1042495211069"
    }
  },
  {
    "service_request": "2023-968766",
    "request_type": "Property Maintenance",
    "request_reason": "Property Maintenance",
    "date_created": "2023-01-19T19:12:11.000",
    "date_modified": "2023-01-19T19:12:11.000",
    "request_status": "Pending",
    "responsible_agency": "Department of Code Enforcement",
    "final_address": "1346 Crescent St",
    "address_councildis": "D",
    "status": "Pending",
    "rowid": "968766",
    "final_x": "3677420.34171",
    "final_y": "552296.413078",
    "longitude": "-90.08023496511679",
    "latitude": "30.01274684412268",
    "geocoded_column": {
      "latitude": "30.01274684412268",
      "longitude": "-90.08023496511679"
    }
  },
  {
    "service_request": "2023-968765",
    "request_type": "Tax and Revenue",
    "request_reason": "General Tax Question",
    "date_created": "2023-01-19T19:11:05.000",
    "date_modified": "2023-01-19T19:11:05.000",
    "request_status": "Pending",
    "responsible_agency": "Bureau of Revenue",
    "final_address": "555 Canal St",
    "address_councildis": "C",
    "status": "Pending",
    "rowid": "968765",
    "final_x": "3681657.1156",
    "final_y": "530427.761794",
    "longitude": "-90.06761230467993",
    "latitude": "29.952487626263423",
    "geocoded_column": {
      "latitude": "29.952487626263423",
      "longitude": "-90.06761230467993"
    }
  },
  {
    "service_request": "2023-968763",
    "request_type": "Traffic Signals/Signs/Striping/Streetlights",
    "request_reason": "Street Light Outage/Malfunction",
    "date_created": "2023-01-19T18:56:44.000",
    "date_modified": "2023-01-19T18:56:45.000",
    "request_status": "Pending",
    "responsible_agency": "Department of Public Works",
    "final_address": "5519 Perrier St",
    "address_councildis": "A",
    "status": "Assigned to Contractor",
    "contractor": "Legacy Professional Services",
    "rowid": "968763",
    "final_x": "3666567.18138",
    "final_y": "520212.087544",
    "longitude": "-90.11560243180904",
    "latitude": "29.924847503312908",
    "geocoded_column": {
      "latitude": "29.924847503312908",
      "longitude": "-90.11560243180904"
    }
  },
  {
    "service_request": "2023-968762",
    "request_type": "Trash/Recycling",
    "request_reason": "MIssed Recycling Pick-Up",
    "date_created": "2023-01-19T18:52:18.000",
    "date_modified": "2023-01-19T18:52:18.000",
    "request_status": "Pending",
    "responsible_agency": "Department of Sanitation",
    "final_address": "1604 Robert C. Blakes, Sr. Dr",
    "address_councildis": "B",
    "status": "Assigned to Contractor",
    "contractor": "Richards Disposal",
    "rowid": "968762",
    "final_x": "3678647.1204",
    "final_y": "525437.572413",
    "longitude": "-90.07728922277693",
    "latitude": "29.938857347755224",
    "geocoded_column": {
      "latitude": "29.938857347755224",
      "longitude": "-90.07728922277693"
    }
  },
  {
    "service_request": "2023-968761",
    "request_type": "Traffic Signals/Signs/Striping/Streetlights",
    "request_reason": "Street Light Outage/Malfunction",
    "date_created": "2023-01-19T18:46:03.000",
    "date_modified": "2023-01-19T18:46:04.000",
    "request_status": "Pending",
    "responsible_agency": "Department of Public Works",
    "final_address": "1811 Marais St",
    "address_councildis": "C",
    "status": "Assigned to Contractor",
    "contractor": "Legacy Professional Services",
    "rowid": "968761",
    "final_x": "3683591.6237",
    "final_y": "536587.708871",
    "longitude": "-90.06128809122839",
    "latitude": "29.96936646894604",
    "geocoded_column": {
      "latitude": "29.96936646894604",
      "longitude": "-90.06128809122839"
    }
  },
  {
    "service_request": "2023-968760",
    "request_type": "Traffic Signals/Signs/Striping/Streetlights",
    "request_reason": "Street Light Outage/Malfunction",
    "date_created": "2023-01-19T18:44:47.000",
    "date_modified": "2023-01-19T18:53:03.000",
    "request_status": "Pending",
    "responsible_agency": "Department of Public Works",
    "final_address": "5527 Prytania St, New Orleans, Louisiana, 70115",
    "address_councildis": "A",
    "status": "Assigned to Contractor",
    "contractor": "Legacy Professional Services",
    "rowid": "968760",
    "final_x": "3666547.22701",
    "final_y": "520494.458488",
    "longitude": "-90.11565594906365",
    "latitude": "29.92562451738319",
    "geocoded_column": {
      "latitude": "29.92562451738319",
      "longitude": "-90.11565594906365"
    }
  },
  {
    "service_request": "2023-968759",
    "request_type": "Trash/Recycling",
    "request_reason": "MIssed Recycling Pick-Up",
    "date_created": "2023-01-19T18:41:25.000",
    "date_modified": "2023-01-19T18:41:26.000",
    "request_status": "Pending",
    "responsible_agency": "Department of Sanitation",
    "final_address": "5411 S Rocheblave St",
    "address_councildis": "A",
    "status": "Assigned to Contractor",
    "contractor": "Richards Disposal",
    "rowid": "968759",
    "final_x": "3668777.25825",
    "final_y": "528399.293056",
    "longitude": "-90.10834963185951",
    "latitude": "29.9472949199749",
    "geocoded_column": {
      "latitude": "29.9472949199749",
      "longitude": "-90.10834963185951"
    }
  },
  {
    "service_request": "2023-968758",
    "request_type": "Trash/Recycling",
    "request_reason": "Repair Trash Cart",
    "date_created": "2023-01-19T18:40:43.000",
    "date_modified": "2023-01-19T18:40:43.000",
    "request_status": "Pending",
    "responsible_agency": "Department of Sanitation",
    "final_address": "2201 Mandeville St",
    "address_councildis": "D",
    "status": "Assigned to Contractor",
    "contractor": "IV Waste",
    "rowid": "968758",
    "final_x": "3685483.51343",
    "final_y": "540449.067467",
    "longitude": "-90.05517733961419",
    "latitude": "29.979925968220897",
    "geocoded_column": {
      "latitude": "29.979925968220897",
      "longitude": "-90.05517733961419"
    }
  },
  {
    "service_request": "2023-968757",
    "request_type": "Traffic Signals/Signs/Striping/Streetlights",
    "request_reason": "Street Light Outage/Malfunction",
    "date_created": "2023-01-19T18:32:33.000",
    "date_modified": "2023-01-19T18:32:34.000",
    "request_status": "Pending",
    "responsible_agency": "Department of Public Works",
    "final_address": "4666 Read Blvd",
    "address_councildis": "E",
    "status": "Assigned to Contractor",
    "contractor": "Legacy Professional Services",
    "rowid": "968757",
    "final_x": "3712707.84126",
    "final_y": "555768.117081",
    "longitude": "-89.96861631275759",
    "latitude": "30.021184367298854",
    "geocoded_column": {
      "latitude": "30.021184367298854",
      "longitude": "-89.96861631275759"
    }
  },
  {
    "service_request": "2023-968756",
    "request_type": "Trash/Recycling",
    "request_reason": "Replace Trash Cart",
    "date_created": "2023-01-19T18:32:07.000",
    "date_modified": "2023-01-19T18:32:08.000",
    "request_status": "Pending",
    "responsible_agency": "Department of Sanitation",
    "final_address": "2301 Pauline St",
    "address_councildis": "D",
    "status": "Assigned to Contractor",
    "contractor": "IV Waste",
    "rowid": "968756",
    "final_x": "3692389.74563",
    "final_y": "540002.258699",
    "longitude": "-90.03338070381386",
    "latitude": "29.978483770837794",
    "geocoded_column": {
      "latitude": "29.978483770837794",
      "longitude": "-90.03338070381386"
    }
  },
  {
    "service_request": "2023-968755",
    "request_type": "Trash/Recycling",
    "request_reason": "Missed Trash Pick-Up",
    "date_created": "2023-01-19T18:29:13.000",
    "date_modified": "2023-01-19T18:29:14.000",
    "request_status": "Pending",
    "responsible_agency": "Department of Sanitation",
    "final_address": "2318 Winthrop St",
    "address_councildis": "E",
    "status": "Assigned to Contractor",
    "contractor": "Waste Pro",
    "rowid": "968755",
    "final_x": "3700406.62122",
    "final_y": "538123.950473",
    "longitude": "-90.00812924139349",
    "latitude": "29.973066585920034",
    "geocoded_column": {
      "latitude": "29.973066585920034",
      "longitude": "-90.00812924139349"
    }
  },
  {
    "service_request": "2023-968754",
    "request_type": "Traffic Signals/Signs/Striping/Streetlights",
    "request_reason": "Street Light Outage/Malfunction",
    "date_created": "2023-01-19T18:28:05.000",
    "date_modified": "2023-01-19T18:28:06.000",
    "request_status": "Pending",
    "responsible_agency": "Department of Public Works",
    "final_address": "345 Bellaire Dr",
    "address_councildis": "A",
    "status": "Assigned to Contractor",
    "contractor": "Legacy Professional Services",
    "rowid": "968754",
    "final_x": "3663986.46522",
    "final_y": "541876.704012",
    "longitude": "-90.12302658101453",
    "latitude": "29.98449332818907",
    "geocoded_column": {
      "latitude": "29.98449332818907",
      "longitude": "-90.12302658101453"
    }
  },
  {
    "service_request": "2023-968753",
    "request_type": "Trash/Recycling",
    "request_reason": "Order Recycling Cart",
    "date_created": "2023-01-19T18:13:22.000",
    "date_modified": "2023-01-19T18:13:22.000",
    "request_status": "Pending",
    "responsible_agency": "Department of Sanitation",
    "final_address": "7509 Dogwood Dr",
    "address_councildis": "E",
    "status": "Pending",
    "rowid": "968753",
    "final_x": "3701489.33559",
    "final_y": "560709.163614",
    "longitude": "-90.00388226033508",
    "latitude": "30.03513295477828",
    "geocoded_column": {
      "latitude": "30.03513295477828",
      "longitude": "-90.00388226033508"
    }
  },
  {
    "service_request": "2023-968751",
    "request_type": "Trash/Recycling",
    "request_reason": "Request a Large Item Pick Up",
    "date_created": "2023-01-19T17:56:04.000",
    "date_modified": "2023-01-19T17:56:05.000",
    "request_status": "Pending",
    "responsible_agency": "Department of Sanitation",
    "final_address": "2623 Saint Philip St, New Orleans, Louisiana, 70119",
    "status": "Assigned to Contractor",
    "rowid": "968751",
    "longitude": "0.0",
    "latitude": "0.0",
    "geocoded_column": {
      "latitude": "0.0",
      "longitude": "0.0"
    }
  },
  {
    "service_request": "2023-968750",
    "request_type": "Trash/Recycling",
    "request_reason": "Request a Large Item Pick Up",
    "date_created": "2023-01-19T17:52:59.000",
    "date_modified": "2023-01-19T17:53:00.000",
    "request_status": "Pending",
    "responsible_agency": "Department of Sanitation",
    "final_address": "7072 E Tamaron Blvd",
    "address_councildis": "E",
    "status": "Assigned to Contractor",
    "contractor": "Waste Pro",
    "rowid": "968750",
    "final_x": "3718729.58245",
    "final_y": "568605.228069",
    "longitude": "-89.94909953457669",
    "latitude": "30.056282625632136",
    "geocoded_column": {
      "latitude": "30.056282625632136",
      "longitude": "-89.94909953457669"
    }
  },
  {
    "service_request": "2023-968749",
    "request_type": "Abandoned Vehicles",
    "request_reason": "Abandoned/Junk Vehicles",
    "date_created": "2023-01-19T17:48:23.000",
    "date_modified": "2023-01-19T17:48:23.000",
    "request_status": "Pending",
    "responsible_agency": "Department of Public Works",
    "final_address": "3612 Upperline St",
    "address_councildis": "B",
    "status": "Pending",
    "rowid": "968749",
    "final_x": "3669257.15047",
    "final_y": "528162.601152",
    "longitude": "-90.10684242432613",
    "latitude": "29.94662997876134",
    "geocoded_column": {
      "latitude": "29.94662997876134",
      "longitude": "-90.10684242432613"
    }
  },
  {
    "service_request": "2023-968748",
    "request_type": "Abandoned Vehicles",
    "request_reason": "Abandoned/Junk Vehicles",
    "date_created": "2023-01-19T17:44:44.000",
    "date_modified": "2023-01-19T17:48:12.000",
    "request_status": "Pending",
    "responsible_agency": "Department of Public Works",
    "final_address": "2116 Egania St",
    "address_councildis": "E",
    "status": "Pending",
    "rowid": "968748",
    "final_x": "3697882.29392",
    "final_y": "538049.434505",
    "longitude": "-90.0161042209211",
    "latitude": "29.972941727629255",
    "geocoded_column": {
      "latitude": "29.972941727629255",
      "longitude": "-90.0161042209211"
    }
  },
  {
    "service_request": "2023-968747",
    "request_type": "Trash/Recycling",
    "request_reason": "Replace Trash Cart",
    "date_created": "2023-01-19T17:41:11.000",
    "date_modified": "2023-01-19T17:41:12.000",
    "request_status": "Pending",
    "responsible_agency": "Department of Sanitation",
    "final_address": "2407 Orleans Ave",
    "address_councildis": "D",
    "status": "Assigned to Contractor",
    "contractor": "Richards Disposal",
    "rowid": "968747",
    "final_x": "3677851.96098",
    "final_y": "536289.997575",
    "longitude": "-90.07942469486125",
    "latitude": "29.96872181991093",
    "geocoded_column": {
      "latitude": "29.96872181991093",
      "longitude": "-90.07942469486125"
    }
  },
  {
    "service_request": "2023-968746",
    "request_type": "Trash/Recycling",
    "request_reason": "MIssed Recycling Pick-Up",
    "date_created": "2023-01-19T17:30:04.000",
    "date_modified": "2023-01-19T17:30:05.000",
    "request_status": "Pending",
    "responsible_agency": "Department of Sanitation",
    "final_address": "5826 Clara St",
    "address_councildis": "A",
    "status": "Assigned to Contractor",
    "contractor": "Richards Disposal",
    "rowid": "968746",
    "final_x": "3666914.57978",
    "final_y": "525225.735933",
    "longitude": "-90.11433743670578",
    "latitude": "29.938623284611396",
    "geocoded_column": {
      "latitude": "29.938623284611396",
      "longitude": "-90.11433743670578"
    }
  },
  {
    "service_request": "2023-968745",
    "request_type": "Roads/Drainage",
    "request_reason": "Accessibility Ramps, Curbs and Sidewalk Repair",
    "date_created": "2023-01-19T17:24:48.000",
    "date_modified": "2023-01-19T17:24:48.000",
    "request_status": "Pending",
    "responsible_agency": "Department of Public Works",
    "final_address": "7040 Pinebrook Dr",
    "address_councildis": "E",
    "status": "Pending",
    "rowid": "968745",
    "final_x": "3719515.24729",
    "final_y": "569711.089126",
    "longitude": "-89.94657390819788",
    "latitude": "30.05929716283975",
    "geocoded_column": {
      "latitude": "30.05929716283975",
      "longitude": "-89.94657390819788"
    }
  },
  {
    "service_request": "2023-968744",
    "request_type": "Trash/Recycling",
    "request_reason": "Request a Large Item Pick Up",
    "date_created": "2023-01-19T17:23:48.000",
    "date_modified": "2023-01-19T17:23:49.000",
    "request_status": "Pending",
    "responsible_agency": "Department of Sanitation",
    "final_address": "132 N Clark St",
    "address_councildis": "B",
    "status": "Assigned to Contractor",
    "contractor": "Richards Disposal",
    "rowid": "968744",
    "final_x": "3673111.28091",
    "final_y": "537260.092744",
    "longitude": "-90.09436294080056",
    "latitude": "29.97153104880709",
    "geocoded_column": {
      "latitude": "29.97153104880709",
      "longitude": "-90.09436294080056"
    }
  },
  {
    "service_request": "2023-968743",
    "request_type": "Abandoned Vehicles",
    "request_reason": "Abandoned/Junk Vehicles",
    "date_created": "2023-01-19T17:22:49.000",
    "date_modified": "2023-01-19T17:22:49.000",
    "request_status": "Pending",
    "responsible_agency": "Department of Public Works",
    "final_address": "1121 Josephine St",
    "address_councildis": "B",
    "status": "Pending",
    "rowid": "968743",
    "final_x": "3679071.71599",
    "final_y": "522488.544954",
    "longitude": "-90.07605088547997",
    "latitude": "29.93073568870048",
    "geocoded_column": {
      "latitude": "29.93073568870048",
      "longitude": "-90.07605088547997"
    }
  },
  {
    "service_request": "2023-968741",
    "request_type": "Abandoned Vehicles",
    "request_reason": "Abandoned/Junk Vehicles",
    "date_created": "2023-01-19T17:18:53.000",
    "date_modified": "2023-01-19T17:18:53.000",
    "request_status": "Pending",
    "responsible_agency": "Department of Public Works",
    "final_address": "4659 Clara St",
    "address_councildis": "B",
    "status": "Pending",
    "rowid": "968741",
    "final_x": "3669237.82855",
    "final_y": "525005.648701",
    "longitude": "-90.10701010836664",
    "latitude": "29.93794995102898",
    "geocoded_column": {
      "latitude": "29.93794995102898",
      "longitude": "-90.10701010836664"
    }
  },
  {
    "service_request": "2023-968740",
    "request_type": "Traffic Signals/Signs/Striping/Streetlights",
    "request_reason": "Street Light Outage/Malfunction",
    "date_created": "2023-01-19T17:16:19.000",
    "date_modified": "2023-01-19T17:16:20.000",
    "request_status": "Pending",
    "responsible_agency": "Department of Public Works",
    "final_address": "6651 Fleur-De-Lis Dr",
    "address_councildis": "A",
    "status": "Assigned to Contractor",
    "contractor": "Legacy Professional Services",
    "rowid": "968740",
    "final_x": "3665537.55258",
    "final_y": "552418.013462",
    "longitude": "-90.1177741499592",
    "latitude": "30.01343316848812",
    "geocoded_column": {
      "latitude": "30.01343316848812",
      "longitude": "-90.1177741499592"
    }
  },
  {
    "service_request": "2023-968739",
    "request_type": "Abandoned Vehicles",
    "request_reason": "Abandoned/Junk Vehicles",
    "date_created": "2023-01-19T17:13:05.000",
    "date_modified": "2023-01-19T17:13:05.000",
    "request_status": "Pending",
    "responsible_agency": "Department of Public Works",
    "final_address": "5518 St Anthony Ave",
    "address_councildis": "D",
    "status": "Pending",
    "rowid": "968739",
    "final_x": "3682023.95663",
    "final_y": "553391.380951",
    "longitude": "-90.06565180162265",
    "latitude": "30.01561837266314",
    "geocoded_column": {
      "latitude": "30.01561837266314",
      "longitude": "-90.06565180162265"
    }
  },
  {
    "service_request": "2023-968738",
    "request_type": "Trash/Recycling",
    "request_reason": "MIssed Recycling Pick-Up",
    "date_created": "2023-01-19T17:09:34.000",
    "date_modified": "2023-01-19T17:09:35.000",
    "request_status": "Pending",
    "responsible_agency": "Department of Sanitation",
    "final_address": "932 N Rocheblave St",
    "address_councildis": "D",
    "status": "Assigned to Contractor",
    "contractor": "Richards Disposal",
    "rowid": "968738",
    "final_x": "3678147.60782",
    "final_y": "537097.181064",
    "longitude": "-90.07846310766809",
    "latitude": "29.970932399269138",
    "geocoded_column": {
      "latitude": "29.970932399269138",
      "longitude": "-90.07846310766809"
    }
  },
  {
    "service_request": "2023-968737",
    "request_type": "Roads/Drainage",
    "request_reason": "Accessibility Ramps, Curbs and Sidewalk Repair",
    "date_created": "2023-01-19T17:08:53.000",
    "date_modified": "2023-01-19T17:08:53.000",
    "request_status": "Pending",
    "responsible_agency": "Department of Public Works",
    "final_address": "7530 Lady Gray St",
    "address_councildis": "E",
    "status": "Pending",
    "rowid": "968737",
    "final_x": "3710148.29304",
    "final_y": "564907.600738",
    "longitude": "-89.97636169715221",
    "latitude": "30.046397896000524",
    "geocoded_column": {
      "latitude": "30.046397896000524",
      "longitude": "-89.97636169715221"
    }
  },
  {
    "service_request": "2023-968735",
    "request_type": "Trash/Recycling",
    "request_reason": "Replace Trash Cart",
    "date_created": "2023-01-19T17:07:25.000",
    "date_modified": "2023-01-19T17:07:25.000",
    "request_status": "Pending",
    "responsible_agency": "Department of Sanitation",
    "final_address": "641 S Salcedo St",
    "address_councildis": "B",
    "status": "Assigned to Contractor",
    "contractor": "Richards Disposal",
    "rowid": "968735",
    "final_x": "3672594.05179",
    "final_y": "534207.940805",
    "longitude": "-90.0961005095569",
    "latitude": "29.963154025272658",
    "geocoded_column": {
      "latitude": "29.963154025272658",
      "longitude": "-90.0961005095569"
    }
  },
  {
    "service_request": "2023-968734",
    "request_type": "Trash/Recycling",
    "request_reason": "Repair Trash Cart",
    "date_created": "2023-01-19T17:06:58.000",
    "date_modified": "2023-01-19T17:06:59.000",
    "request_status": "Pending",
    "responsible_agency": "Department of Sanitation",
    "final_address": "932 N Rocheblave St",
    "address_councildis": "D",
    "status": "Assigned to Contractor",
    "contractor": "Richards Disposal",
    "rowid": "968734",
    "final_x": "3678147.60782",
    "final_y": "537097.181064",
    "longitude": "-90.07846310766809",
    "latitude": "29.970932399269138",
    "geocoded_column": {
      "latitude": "29.970932399269138",
      "longitude": "-90.07846310766809"
    }
  },
  {
    "service_request": "2023-968733",
    "request_type": "Roads/Drainage",
    "request_reason": "Street Subsidence (Sinking)",
    "date_created": "2023-01-19T17:05:18.000",
    "date_modified": "2023-01-19T17:05:18.000",
    "request_status": "Pending",
    "responsible_agency": "Department of Public Works",
    "final_address": "2125 St Charles Ave",
    "address_councildis": "B",
    "status": "Pending",
    "rowid": "968733",
    "final_x": "3677693.51016",
    "final_y": "523853.647931",
    "longitude": "-90.08035456194905",
    "latitude": "29.93453078487509",
    "geocoded_column": {
      "latitude": "29.93453078487509",
      "longitude": "-90.08035456194905"
    }
  },
  {
    "service_request": "2023-968732",
    "request_type": "Trash/Recycling",
    "request_reason": "Order Recycling Cart",
    "date_created": "2023-01-19T17:04:54.000",
    "date_modified": "2023-01-19T17:04:54.000",
    "request_status": "Pending",
    "responsible_agency": "Department of Sanitation",
    "final_address": "149 Mary Jane Ln",
    "address_councildis": "E",
    "status": "Pending",
    "rowid": "968732",
    "final_x": "3718393.03705",
    "final_y": "571417.375464",
    "longitude": "-89.95005597911239",
    "latitude": "30.064026035272967",
    "geocoded_column": {
      "latitude": "30.064026035272967",
      "longitude": "-89.95005597911239"
    }
  },
  {
    "service_request": "2023-968731",
    "request_type": "Traffic Signals/Signs/Striping/Streetlights",
    "request_reason": "Street Name Sign Damaged or Missing",
    "date_created": "2023-01-19T17:04:18.000",
    "date_modified": "2023-01-19T17:04:18.000",
    "request_status": "Pending",
    "responsible_agency": "Department of Public Works",
    "final_address": "14045 Quail Creek Ln",
    "address_councildis": "E",
    "status": "Pending",
    "rowid": "968731",
    "final_x": "3718848.02668",
    "final_y": "572305.040233",
    "longitude": "-89.94858382957149",
    "latitude": "30.066451630836738",
    "geocoded_column": {
      "latitude": "30.066451630836738",
      "longitude": "-89.94858382957149"
    }
  },
  {
    "service_request": "2023-968730",
    "request_type": "Trash/Recycling",
    "request_reason": "Missed Trash Pick-Up",
    "date_created": "2023-01-19T16:58:11.000",
    "date_modified": "2023-01-19T16:58:12.000",
    "request_status": "Pending",
    "responsible_agency": "Department of Sanitation",
    "final_address": "207 Alonzo St",
    "address_councildis": "A",
    "status": "Assigned to Contractor",
    "contractor": "Richards Disposal",
    "rowid": "968730",
    "final_x": "3664549.42816",
    "final_y": "517106.686837",
    "longitude": "-90.12207546547137",
    "latitude": "29.916367429827737",
    "geocoded_column": {
      "latitude": "29.916367429827737",
      "longitude": "-90.12207546547137"
    }
  },
  {
    "service_request": "2023-968729",
    "request_type": "Trash/Recycling",
    "request_reason": "Missed Trash Pick-Up",
    "date_created": "2023-01-19T16:56:00.000",
    "date_modified": "2023-01-19T16:56:01.000",
    "request_status": "Pending",
    "responsible_agency": "Department of Sanitation",
    "final_address": "1600 BLK N Tonti St",
    "address_councildis": "D",
    "status": "Assigned to Contractor",
    "contractor": "IV Waste",
    "rowid": "968729",
    "final_x": "3680549.53388",
    "final_y": "539731.03778",
    "longitude": "-90.0707858671501",
    "latitude": "29.978102047005667",
    "geocoded_column": {
      "latitude": "29.978102047005667",
      "longitude": "-90.0707858671501"
    }
  },
  {
    "service_request": "2023-968728",
    "request_type": "Traffic Signals/Signs/Striping/Streetlights",
    "request_reason": "Street Light Outage/Malfunction",
    "date_created": "2023-01-19T16:55:48.000",
    "date_modified": "2023-01-19T16:55:48.000",
    "request_status": "Pending",
    "responsible_agency": "Department of Public Works",
    "final_address": "11416 Melvin Pl",
    "address_councildis": "E",
    "status": "Assigned to Contractor",
    "contractor": "Legacy Professional Services",
    "rowid": "968728",
    "final_x": "3717888.38745",
    "final_y": "561599.833631",
    "longitude": "-89.95202530894831",
    "latitude": "30.037048574005947",
    "geocoded_column": {
      "latitude": "30.037048574005947",
      "longitude": "-89.95202530894831"
    }
  },
  {
    "service_request": "2023-968727",
    "request_type": "Abandoned Vehicles",
    "request_reason": "Abandoned/Junk Vehicles",
    "date_created": "2023-01-19T16:52:48.000",
    "date_modified": "2023-01-19T16:52:48.000",
    "request_status": "Pending",
    "responsible_agency": "Department of Public Works",
    "final_address": "1820 Nunez St",
    "address_councildis": "C",
    "status": "Pending",
    "rowid": "968727",
    "final_x": "3687334.60175",
    "final_y": "524693.173116",
    "longitude": "-90.04988824943945",
    "latitude": "29.936545790426052",
    "geocoded_column": {
      "latitude": "29.936545790426052",
      "longitude": "-90.04988824943945"
    }
  },
  {
    "service_request": "2023-968726",
    "request_type": "Roads/Drainage",
    "request_reason": "Pothole",
    "date_created": "2023-01-19T16:51:42.000",
    "date_modified": "2023-01-19T16:51:43.000",
    "request_status": "Pending",
    "responsible_agency": "Department of Public Works",
    "final_address": "6110 Patton St",
    "address_councildis": "A",
    "status": "Pending",
    "rowid": "968726",
    "final_x": "3663764.07514",
    "final_y": "518800.228023",
    "longitude": "-90.12449797305516",
    "latitude": "29.9210469455179",
    "geocoded_column": {
      "latitude": "29.9210469455179",
      "longitude": "-90.12449797305516"
    }
  },
  {
    "service_request": "2023-968725",
    "request_type": "Traffic Signals/Signs/Striping/Streetlights",
    "request_reason": "Additional signage",
    "date_created": "2023-01-19T16:50:33.000",
    "date_modified": "2023-01-19T16:50:34.000",
    "request_status": "Pending",
    "responsible_agency": "Department of Public Works",
    "final_address": "6110 Patton St",
    "address_councildis": "A",
    "status": "Pending",
    "rowid": "968725",
    "final_x": "3663764.07514",
    "final_y": "518800.228023",
    "longitude": "-90.12449797305516",
    "latitude": "29.9210469455179",
    "geocoded_column": {
      "latitude": "29.9210469455179",
      "longitude": "-90.12449797305516"
    }
  },
  {
    "service_request": "2023-968724",
    "request_type": "Trash/Recycling",
    "request_reason": "Request a Large Item Pick Up",
    "date_created": "2023-01-19T16:45:12.000",
    "date_modified": "2023-01-19T16:45:12.000",
    "request_status": "Pending",
    "responsible_agency": "Department of Sanitation",
    "final_address": "13315 Dwyer Blvd",
    "address_councildis": "E",
    "status": "Assigned to Contractor",
    "contractor": "Waste Pro",
    "rowid": "968724",
    "final_x": "3725033.30099",
    "final_y": "561771.782111",
    "longitude": "-89.92943946658197",
    "latitude": "30.037282596575974",
    "geocoded_column": {
      "latitude": "30.037282596575974",
      "longitude": "-89.92943946658197"
    }
  },
  {
    "service_request": "2023-968723",
    "request_type": "Trash/Recycling",
    "request_reason": "Order Recycling Cart",
    "date_created": "2023-01-19T16:43:14.000",
    "date_modified": "2023-01-19T16:43:15.000",
    "request_status": "Pending",
    "responsible_agency": "Department of Sanitation",
    "final_address": "923 Constantinople St",
    "address_councildis": "B",
    "status": "Pending",
    "rowid": "968723",
    "final_x": "3672536.41236",
    "final_y": "519137.427511",
    "longitude": "-90.09679610752718",
    "latitude": "29.921716749837113",
    "geocoded_column": {
      "latitude": "29.921716749837113",
      "longitude": "-90.09679610752718"
    }
  },
  {
    "service_request": "2023-968722",
    "request_type": "Trash/Recycling",
    "request_reason": "Replace Trash Cart",
    "date_created": "2023-01-19T16:43:02.000",
    "date_modified": "2023-01-19T16:43:03.000",
    "request_status": "Pending",
    "responsible_agency": "Department of Sanitation",
    "final_address": "6911 Lake Willow Dr",
    "address_councildis": "E",
    "status": "Assigned to Contractor",
    "contractor": "Waste Pro",
    "rowid": "968722",
    "final_x": "3703034.79882",
    "final_y": "558810.843932",
    "longitude": "-89.99906823754539",
    "latitude": "30.029863920932325",
    "geocoded_column": {
      "latitude": "30.029863920932325",
      "longitude": "-89.99906823754539"
    }
  },
  {
    "service_request": "2023-968721",
    "request_type": "Trash/Recycling",
    "request_reason": "Order Trash Cart",
    "date_created": "2023-01-19T16:42:17.000",
    "date_modified": "2023-01-19T16:42:20.000",
    "request_status": "Pending",
    "responsible_agency": "Department of Sanitation",
    "final_address": "923 Constantinople St",
    "address_councildis": "B",
    "status": "Assigned to Contractor",
    "contractor": "Richards Disposal",
    "rowid": "968721",
    "final_x": "3672536.41236",
    "final_y": "519137.427511",
    "longitude": "-90.09679610752718",
    "latitude": "29.921716749837113",
    "geocoded_column": {
      "latitude": "29.921716749837113",
      "longitude": "-90.09679610752718"
    }
  },
  {
    "service_request": "2023-968720",
    "request_type": "Roads/Drainage",
    "request_reason": "Street Flooding / Drainage",
    "date_created": "2023-01-19T16:41:16.000",
    "date_modified": "2023-01-19T16:41:16.000",
    "request_status": "Pending",
    "responsible_agency": "Department of Public Works",
    "final_address": "1812 Marigny St",
    "address_councildis": "D",
    "status": "Pending",
    "rowid": "968720",
    "final_x": "3685154.75138",
    "final_y": "539038.782922",
    "longitude": "-90.056265347929",
    "latitude": "29.976058260304487",
    "geocoded_column": {
      "latitude": "29.976058260304487",
      "longitude": "-90.056265347929"
    }
  },
  {
    "service_request": "2023-968719",
    "request_type": "Trash/Recycling",
    "request_reason": "Repair Trash Cart",
    "date_created": "2023-01-19T16:37:28.000",
    "date_modified": "2023-01-19T16:37:29.000",
    "request_status": "Pending",
    "responsible_agency": "Department of Sanitation",
    "final_address": "3208 Bienville Ave",
    "address_councildis": "B",
    "status": "Assigned to Contractor",
    "contractor": "Richards Disposal",
    "rowid": "968719",
    "final_x": "3674233.67483",
    "final_y": "536863.877896",
    "longitude": "-90.09083181873308",
    "latitude": "29.97040817423551",
    "geocoded_column": {
      "latitude": "29.97040817423551",
      "longitude": "-90.09083181873308"
    }
  },
  {
    "service_request": "2023-968718",
    "request_type": "Trash/Recycling",
    "request_reason": "MIssed Recycling Pick-Up",
    "date_created": "2023-01-19T16:36:23.000",
    "date_modified": "2023-01-19T16:36:24.000",
    "request_status": "Pending",
    "responsible_agency": "Department of Sanitation",
    "final_address": "1604 Robert C. Blakes, Sr. Dr",
    "address_councildis": "B",
    "status": "Assigned to Contractor",
    "contractor": "Richards Disposal",
    "rowid": "968718",
    "final_x": "3678647.1204",
    "final_y": "525437.572413",
    "longitude": "-90.07728922277693",
    "latitude": "29.938857347755224",
    "geocoded_column": {
      "latitude": "29.938857347755224",
      "longitude": "-90.07728922277693"
    }
  },
  {
    "service_request": "2023-968717",
    "request_type": "Trash/Recycling",
    "request_reason": "MIssed Recycling Pick-Up",
    "date_created": "2023-01-19T16:35:33.000",
    "date_modified": "2023-01-19T16:35:34.000",
    "request_status": "Pending",
    "responsible_agency": "Department of Sanitation",
    "final_address": "1604 Robert C. Blakes, Sr. Dr",
    "address_councildis": "B",
    "status": "Assigned to Contractor",
    "contractor": "Richards Disposal",
    "rowid": "968717",
    "final_x": "3678647.1204",
    "final_y": "525437.572413",
    "longitude": "-90.07728922277693",
    "latitude": "29.938857347755224",
    "geocoded_column": {
      "latitude": "29.938857347755224",
      "longitude": "-90.07728922277693"
    }
  },
  {
    "service_request": "2023-968716",
    "request_type": "Trash/Recycling",
    "request_reason": "MIssed Recycling Pick-Up",
    "date_created": "2023-01-19T16:34:27.000",
    "date_modified": "2023-01-19T16:34:28.000",
    "request_status": "Pending",
    "responsible_agency": "Department of Sanitation",
    "final_address": "1604 Robert C. Blakes, Sr. Dr",
    "address_councildis": "B",
    "status": "Assigned to Contractor",
    "contractor": "Richards Disposal",
    "rowid": "968716",
    "final_x": "3678647.1204",
    "final_y": "525437.572413",
    "longitude": "-90.07728922277693",
    "latitude": "29.938857347755224",
    "geocoded_column": {
      "latitude": "29.938857347755224",
      "longitude": "-90.07728922277693"
    }
  },
  {
    "service_request": "2023-968715",
    "request_type": "Trash/Recycling",
    "request_reason": "Request a Large Item Pick Up",
    "date_created": "2023-01-19T16:34:16.000",
    "date_modified": "2023-01-19T16:34:16.000",
    "request_status": "Pending",
    "responsible_agency": "Department of Sanitation",
    "final_address": "1141 Eighth St",
    "address_councildis": "B",
    "status": "Assigned to Contractor",
    "contractor": "Richards Disposal",
    "rowid": "968715",
    "final_x": "3675959.3563",
    "final_y": "520507.36492",
    "longitude": "-90.08594425441291",
    "latitude": "29.925381622184727",
    "geocoded_column": {
      "latitude": "29.925381622184727",
      "longitude": "-90.08594425441291"
    }
  },
  {
    "service_request": "2023-968714",
    "request_type": "Trash/Recycling",
    "request_reason": "Request a Large Item Pick Up",
    "date_created": "2023-01-19T16:33:54.000",
    "date_modified": "2023-01-19T16:33:55.000",
    "request_status": "Pending",
    "responsible_agency": "Department of Sanitation",
    "final_address": "4662 Kendall Dr, New Orleans, Louisiana, 70126",
    "address_councildis": "D",
    "status": "Assigned to Contractor",
    "contractor": "IV Waste",
    "rowid": "968714",
    "final_x": "3690350.16822",
    "final_y": "550715.613269",
    "longitude": "-90.0394403297825",
    "latitude": "30.00800508742269",
    "geocoded_column": {
      "latitude": "30.00800508742269",
      "longitude": "-90.0394403297825"
    }
  },
  {
    "service_request": "2023-968713",
    "request_type": "Trash/Recycling",
    "request_reason": "MIssed Recycling Pick-Up",
    "date_created": "2023-01-19T16:33:22.000",
    "date_modified": "2023-01-19T16:33:22.000",
    "request_status": "Pending",
    "responsible_agency": "Department of Sanitation",
    "final_address": "1604 Robert C. Blakes, Sr. Dr",
    "address_councildis": "B",
    "status": "Assigned to Contractor",
    "contractor": "Richards Disposal",
    "rowid": "968713",
    "final_x": "3678647.1204",
    "final_y": "525437.572413",
    "longitude": "-90.07728922277693",
    "latitude": "29.938857347755224",
    "geocoded_column": {
      "latitude": "29.938857347755224",
      "longitude": "-90.07728922277693"
    }
  },
  {
    "service_request": "2023-968712",
    "request_type": "Trash/Recycling",
    "request_reason": "MIssed Recycling Pick-Up",
    "date_created": "2023-01-19T16:32:21.000",
    "date_modified": "2023-01-19T16:32:22.000",
    "request_status": "Pending",
    "responsible_agency": "Department of Sanitation",
    "final_address": "1604 Robert C. Blakes, Sr. Dr",
    "address_councildis": "B",
    "status": "Assigned to Contractor",
    "contractor": "Richards Disposal",
    "rowid": "968712",
    "final_x": "3678647.1204",
    "final_y": "525437.572413",
    "longitude": "-90.07728922277693",
    "latitude": "29.938857347755224",
    "geocoded_column": {
      "latitude": "29.938857347755224",
      "longitude": "-90.07728922277693"
    }
  },
  {
    "service_request": "2023-968711",
    "request_type": "Trash/Recycling",
    "request_reason": "MIssed Recycling Pick-Up",
    "date_created": "2023-01-19T16:31:29.000",
    "date_modified": "2023-01-19T16:31:30.000",
    "request_status": "Pending",
    "responsible_agency": "Department of Sanitation",
    "final_address": "1604 Robert C. Blakes, Sr. Dr",
    "address_councildis": "B",
    "status": "Assigned to Contractor",
    "contractor": "Richards Disposal",
    "rowid": "968711",
    "final_x": "3678647.1204",
    "final_y": "525437.572413",
    "longitude": "-90.07728922277693",
    "latitude": "29.938857347755224",
    "geocoded_column": {
      "latitude": "29.938857347755224",
      "longitude": "-90.07728922277693"
    }
  },
  {
    "service_request": "2023-968710",
    "request_type": "Trash/Recycling",
    "request_reason": "Replace Trash Cart",
    "date_created": "2023-01-19T16:29:36.000",
    "date_modified": "2023-01-19T16:29:37.000",
    "request_status": "Pending",
    "responsible_agency": "Department of Sanitation",
    "final_address": "320 No Hammond Hwy, New Orleans, Louisiana, 70124",
    "status": "Assigned to Contractor",
    "rowid": "968710",
    "longitude": "0.0",
    "latitude": "0.0",
    "geocoded_column": {
      "latitude": "0.0",
      "longitude": "0.0"
    }
  },
  {
    "service_request": "2023-968709",
    "request_type": "Trash/Recycling",
    "request_reason": "MIssed Recycling Pick-Up",
    "date_created": "2023-01-19T16:28:57.000",
    "date_modified": "2023-01-19T16:28:58.000",
    "request_status": "Pending",
    "responsible_agency": "Department of Sanitation",
    "final_address": "1604 Robert C. Blakes, Sr. Dr",
    "address_councildis": "B",
    "status": "Assigned to Contractor",
    "contractor": "Richards Disposal",
    "rowid": "968709",
    "final_x": "3678647.1204",
    "final_y": "525437.572413",
    "longitude": "-90.07728922277693",
    "latitude": "29.938857347755224",
    "geocoded_column": {
      "latitude": "29.938857347755224",
      "longitude": "-90.07728922277693"
    }
  },
  {
    "service_request": "2023-968708",
    "request_type": "Trash/Recycling",
    "request_reason": "Order Trash Cart",
    "date_created": "2023-01-19T16:26:10.000",
    "date_modified": "2023-01-19T16:26:11.000",
    "request_status": "Pending",
    "responsible_agency": "Department of Sanitation",
    "final_address": "1610 S Rampart St",
    "address_councildis": "B",
    "status": "Assigned to Contractor",
    "contractor": "Richards Disposal",
    "rowid": "968708",
    "final_x": "3677559.0365",
    "final_y": "526067.830718",
    "longitude": "-90.08070267645701",
    "latitude": "29.940623101545686",
    "geocoded_column": {
      "latitude": "29.940623101545686",
      "longitude": "-90.08070267645701"
    }
  },
  {
    "service_request": "2023-968707",
    "request_type": "Trash/Recycling",
    "request_reason": "Missed Trash Pick-Up",
    "date_created": "2023-01-19T16:24:57.000",
    "date_modified": "2023-01-19T16:24:58.000",
    "request_status": "Pending",
    "responsible_agency": "Department of Sanitation",
    "final_address": "1004 Joseph St",
    "address_councildis": "A",
    "status": "Assigned to Contractor",
    "contractor": "Richards Disposal",
    "rowid": "968707",
    "final_x": "3666233.90753",
    "final_y": "519612.486904",
    "longitude": "-90.11667456883154",
    "latitude": "29.923208525076674",
    "geocoded_column": {
      "latitude": "29.923208525076674",
      "longitude": "-90.11667456883154"
    }
  },
  {
    "service_request": "2023-968706",
    "request_type": "Trash/Recycling",
    "request_reason": "Request a Large Item Pick Up",
    "date_created": "2023-01-19T16:23:37.000",
    "date_modified": "2023-01-19T16:25:51.000",
    "request_status": "Pending",
    "responsible_agency": "Department of Sanitation",
    "final_address": "4922 Clara St",
    "address_councildis": "B",
    "status": "Assigned to Contractor",
    "contractor": "Richards Disposal",
    "rowid": "968706",
    "final_x": "3669011.5906",
    "final_y": "524931.062844",
    "longitude": "-90.10772688160439",
    "latitude": "29.93775151975768",
    "geocoded_column": {
      "latitude": "29.93775151975768",
      "longitude": "-90.10772688160439"
    }
  },
  {
    "service_request": "2023-968705",
    "request_type": "Abandoned Vehicles",
    "request_reason": "Abandoned/Junk Vehicles",
    "date_created": "2023-01-19T16:17:59.000",
    "date_modified": "2023-01-19T16:17:59.000",
    "request_status": "Pending",
    "responsible_agency": "Department of Public Works",
    "final_address": "1910 Second St",
    "address_councildis": "B",
    "status": "Pending",
    "rowid": "968705",
    "final_x": "3676007.0555",
    "final_y": "524030.877436",
    "longitude": "-90.0856725728446",
    "latitude": "29.935068708194006",
    "geocoded_column": {
      "latitude": "29.935068708194006",
      "longitude": "-90.0856725728446"
    }
  },
  {
    "service_request": "2023-968704",
    "request_type": "Roads/Drainage",
    "request_reason": "Street Flooding / Drainage",
    "date_created": "2023-01-19T16:16:19.000",
    "date_modified": "2023-01-19T16:16:19.000",
    "request_status": "Pending",
    "responsible_agency": "Department of Public Works",
    "final_address": "2529 Palmer Ave",
    "address_councildis": "A",
    "status": "Pending",
    "rowid": "968704",
    "final_x": "3666596.29082",
    "final_y": "526143.790142",
    "longitude": "-90.11531150269593",
    "latitude": "29.941156945844572",
    "geocoded_column": {
      "latitude": "29.941156945844572",
      "longitude": "-90.11531150269593"
    }
  },
  {
    "service_request": "2023-968703",
    "request_type": "Roads/Drainage",
    "request_reason": "Road Shoulder Repair",
    "date_created": "2023-01-19T16:15:54.000",
    "date_modified": "2023-01-19T16:15:54.000",
    "request_status": "Pending",
    "responsible_agency": "Department of Public Works",
    "final_address": "8100 BLK Cohn St",
    "address_councildis": "A",
    "status": "Pending",
    "rowid": "968703",
    "final_x": "3663499.55256",
    "final_y": "530297.063865",
    "longitude": "-90.12495024364874",
    "latitude": "29.952667265710872",
    "geocoded_column": {
      "latitude": "29.952667265710872",
      "longitude": "-90.12495024364874"
    }
  },
  {
    "service_request": "2023-968702",
    "request_type": "Trash/Recycling",
    "request_reason": "Request a Large Item Pick Up",
    "date_created": "2023-01-19T16:15:46.000",
    "date_modified": "2023-01-19T16:15:47.000",
    "request_status": "Pending",
    "responsible_agency": "Department of Sanitation",
    "final_address": "5521 S Tonti St",
    "address_councildis": "A",
    "status": "Assigned to Contractor",
    "contractor": "Richards Disposal",
    "rowid": "968702",
    "final_x": "3668316.64647",
    "final_y": "528134.816447",
    "longitude": "-90.10981287986135",
    "latitude": "29.94658122730512",
    "geocoded_column": {
      "latitude": "29.94658122730512",
      "longitude": "-90.10981287986135"
    }
  },
  {
    "service_request": "2023-968701",
    "request_type": "Trash/Recycling",
    "request_reason": "Request a Large Item Pick Up",
    "date_created": "2023-01-19T16:14:38.000",
    "date_modified": "2023-01-19T16:14:39.000",
    "request_status": "Pending",
    "responsible_agency": "Department of Sanitation",
    "final_address": "3402 Octavia St",
    "address_councildis": "A",
    "status": "Assigned to Contractor",
    "contractor": "Richards Disposal",
    "rowid": "968701",
    "final_x": "3668423.18196",
    "final_y": "528081.496767",
    "longitude": "-90.10947830622754",
    "latitude": "29.946431487114538",
    "geocoded_column": {
      "latitude": "29.946431487114538",
      "longitude": "-90.10947830622754"
    }
  },
  {
    "service_request": "2023-968700",
    "request_type": "Trash/Recycling",
    "request_reason": "MIssed Recycling Pick-Up",
    "date_created": "2023-01-19T16:13:28.000",
    "date_modified": "2023-01-19T16:13:29.000",
    "request_status": "Pending",
    "responsible_agency": "Department of Sanitation",
    "final_address": "1604 Robert C. Blakes, Sr. Dr",
    "address_councildis": "B",
    "status": "Assigned to Contractor",
    "contractor": "Richards Disposal",
    "rowid": "968700",
    "final_x": "3678647.1204",
    "final_y": "525437.572413",
    "longitude": "-90.07728922277693",
    "latitude": "29.938857347755224",
    "geocoded_column": {
      "latitude": "29.938857347755224",
      "longitude": "-90.07728922277693"
    }
  },
  {
    "service_request": "2023-968699",
    "request_type": "Trash/Recycling",
    "request_reason": "Request a Large Item Pick Up",
    "date_created": "2023-01-19T16:12:10.000",
    "date_modified": "2023-01-19T16:12:11.000",
    "request_status": "Pending",
    "responsible_agency": "Department of Sanitation",
    "final_address": "5463 Provincial Pl New Orleans, LA 70129",
    "address_councildis": "E",
    "status": "Assigned to Contractor",
    "contractor": "Waste Pro",
    "rowid": "968699",
    "final_x": "3726460.31955",
    "final_y": "563909.375393",
    "longitude": "-89.9248467916541",
    "latitude": "30.043111941017496",
    "geocoded_column": {
      "latitude": "30.043111941017496",
      "longitude": "-89.9248467916541"
    }
  },
  {
    "service_request": "2023-968698",
    "request_type": "Trash/Recycling",
    "request_reason": "Request a Large Item Pick Up",
    "date_created": "2023-01-19T16:09:59.000",
    "date_modified": "2023-01-19T16:10:00.000",
    "request_status": "Pending",
    "responsible_agency": "Department of Sanitation",
    "final_address": "8137 Cohn St",
    "address_councildis": "A",
    "status": "Assigned to Contractor",
    "contractor": "Richards Disposal",
    "rowid": "968698",
    "final_x": "3663426.02669",
    "final_y": "530431.072514",
    "longitude": "-90.12517794486021",
    "latitude": "29.953037878034632",
    "geocoded_column": {
      "latitude": "29.953037878034632",
      "longitude": "-90.12517794486021"
    }
  },
  {
    "service_request": "2023-968697",
    "request_type": "Trash/Recycling",
    "request_reason": "Request a Large Item Pick Up",
    "date_created": "2023-01-19T16:09:40.000",
    "date_modified": "2023-01-19T16:09:43.000",
    "request_status": "Pending",
    "responsible_agency": "Department of Sanitation",
    "final_address": "7828 Colapissa St",
    "address_councildis": "B",
    "status": "Assigned to Contractor",
    "contractor": "Richards Disposal",
    "rowid": "968697",
    "final_x": "3667142.28282",
    "final_y": "532797.665156",
    "longitude": "-90.11336403202166",
    "latitude": "29.959436967540626",
    "geocoded_column": {
      "latitude": "29.959436967540626",
      "longitude": "-90.11336403202166"
    }
  },
  {
    "service_request": "2023-968696",
    "request_type": "Traffic Signals/Signs/Striping/Streetlights",
    "request_reason": "Street Light Outage/Malfunction",
    "date_created": "2023-01-19T16:08:40.000",
    "date_modified": "2023-01-19T16:08:41.000",
    "request_status": "Pending",
    "responsible_agency": "Department of Public Works",
    "final_address": "JONQUIL ST & PEOPLES AVE",
    "address_councildis": "D",
    "status": "Assigned to Contractor",
    "contractor": "Legacy Professional Services",
    "rowid": "968696",
    "final_x": "3688460.9",
    "final_y": "547329.48",
    "longitude": "-90.04552931434864",
    "latitude": "29.998752979369648",
    "geocoded_column": {
      "latitude": "29.998752979369648",
      "longitude": "-90.04552931434864"
    }
  },
  {
    "service_request": "2023-968695",
    "request_type": "Safety & Permits",
    "request_reason": "Construction permit",
    "date_created": "2023-01-19T16:07:59.000",
    "date_modified": "2023-01-19T16:07:59.000",
    "request_status": "Pending",
    "responsible_agency": "Department of Code Enforcement",
    "final_address": "2829 Boyd St",
    "address_councildis": "C",
    "status": "Pending",
    "rowid": "968695",
    "final_x": "3708112.79064",
    "final_y": "519874.228472",
    "longitude": "-89.98447034807798",
    "latitude": "29.92263909475881",
    "geocoded_column": {
      "latitude": "29.92263909475881",
      "longitude": "-89.98447034807798"
    }
  },
  {
    "service_request": "2023-968694",
    "request_type": "Trash/Recycling",
    "request_reason": "Missed Trash Pick-Up",
    "date_created": "2023-01-19T16:03:41.000",
    "date_modified": "2023-01-19T16:03:42.000",
    "request_status": "Pending",
    "responsible_agency": "Department of Sanitation",
    "final_address": "GENTILLY BLVD & CHEF MENTEUR HWY & PEOPLES AVE",
    "address_councildis": "D",
    "status": "Assigned to Contractor",
    "contractor": "IV Waste",
    "rowid": "968694",
    "final_x": "3688339.3",
    "final_y": "548734.24",
    "longitude": "-90.04586358727227",
    "latitude": "30.002619316644004",
    "geocoded_column": {
      "latitude": "30.002619316644004",
      "longitude": "-90.04586358727227"
    }
  },
  {
    "service_request": "2023-968693",
    "request_type": "Trash/Recycling",
    "request_reason": "Illegal Dumping",
    "date_created": "2023-01-19T15:58:33.000",
    "date_modified": "2023-01-19T15:58:33.000",
    "request_status": "Pending",
    "responsible_agency": "Department of Sanitation",
    "final_address": "422 Burdette St",
    "address_councildis": "A",
    "status": "Pending",
    "rowid": "968693",
    "final_x": "3660996.82637",
    "final_y": "525706.529853",
    "longitude": "-90.1330046118547",
    "latitude": "29.9401170967883",
    "geocoded_column": {
      "latitude": "29.9401170967883",
      "longitude": "-90.1330046118547"
    }
  },
  {
    "service_request": "2023-968692",
    "request_type": "Trash/Recycling",
    "request_reason": "Return Recycling Cart",
    "date_created": "2023-01-19T15:52:27.000",
    "date_modified": "2023-01-19T15:52:27.000",
    "request_status": "Pending",
    "responsible_agency": "Department of Sanitation",
    "final_address": "4956 Painters St",
    "address_councildis": "D",
    "status": "Pending",
    "rowid": "968692",
    "final_x": "3686061.26358",
    "final_y": "551388.691797",
    "longitude": "-90.05296648630976",
    "latitude": "30.00998827755513",
    "geocoded_column": {
      "latitude": "30.00998827755513",
      "longitude": "-90.05296648630976"
    }
  },
  {
    "service_request": "2023-968691",
    "request_type": "Tax and Revenue",
    "request_reason": "Hotel/Motel",
    "date_created": "2023-01-19T15:52:24.000",
    "date_modified": "2023-01-19T15:52:24.000",
    "request_status": "Pending",
    "responsible_agency": "Bureau of Revenue",
    "status": "Pending",
    "rowid": "968691",
    "longitude": "0.0",
    "latitude": "0.0",
    "geocoded_column": {
      "latitude": "0.0",
      "longitude": "0.0"
    }
  },
  {
    "service_request": "2023-968690",
    "request_type": "Trash/Recycling",
    "request_reason": "MIssed Recycling Pick-Up",
    "date_created": "2023-01-19T15:49:32.000",
    "date_modified": "2023-01-19T15:49:33.000",
    "request_status": "Pending",
    "responsible_agency": "Department of Sanitation",
    "final_address": "2735 Octavia St",
    "address_councildis": "A",
    "status": "Assigned to Contractor",
    "contractor": "Richards Disposal",
    "rowid": "968690",
    "final_x": "3667995.9682",
    "final_y": "525657.812733",
    "longitude": "-90.11090881442182",
    "latitude": "29.939779679428753",
    "geocoded_column": {
      "latitude": "29.939779679428753",
      "longitude": "-90.11090881442182"
    }
  },
  {
    "service_request": "2023-968689",
    "request_type": "Trash/Recycling",
    "request_reason": "Missed Trash Pick-Up",
    "date_created": "2023-01-19T15:49:16.000",
    "date_modified": "2023-01-19T15:49:17.000",
    "request_status": "Pending",
    "responsible_agency": "Department of Sanitation",
    "final_address": "2324 Gordon St",
    "address_councildis": "E",
    "status": "Assigned to Contractor",
    "contractor": "Waste Pro",
    "rowid": "968689",
    "final_x": "3700934.10948",
    "final_y": "537945.013961",
    "longitude": "-90.0064698852921",
    "latitude": "29.97255779036344",
    "geocoded_column": {
      "latitude": "29.97255779036344",
      "longitude": "-90.0064698852921"
    }
  },
  {
    "service_request": "2023-968688",
    "request_type": "Trash/Recycling",
    "request_reason": "Request a Large Item Pick Up",
    "date_created": "2023-01-19T15:47:01.000",
    "date_modified": "2023-01-19T15:47:01.000",
    "request_status": "Pending",
    "responsible_agency": "Department of Sanitation",
    "final_address": "5320 Wildair Dr",
    "address_councildis": "D",
    "status": "Assigned to Contractor",
    "contractor": "IV Waste",
    "rowid": "968688",
    "final_x": "3681579.55669",
    "final_y": "552657.726742",
    "longitude": "-90.06708151752858",
    "latitude": "30.013614601339896",
    "geocoded_column": {
      "latitude": "30.013614601339896",
      "longitude": "-90.06708151752858"
    }
  },
  {
    "service_request": "2023-968687",
    "request_type": "Traffic Signals/Signs/Striping/Streetlights",
    "request_reason": "Street Light Knocked Down/Leaning",
    "date_created": "2023-01-19T15:46:13.000",
    "date_modified": "2023-01-19T15:46:14.000",
    "request_status": "Pending",
    "responsible_agency": "Department of Public Works",
    "final_address": "6001 Woodland Hwy",
    "address_councildis": "C",
    "status": "Pending",
    "contractor": "Legacy Professional Services",
    "rowid": "968687",
    "final_x": "3705934.84919",
    "final_y": "514368.845811",
    "longitude": "-89.99154868222467",
    "latitude": "29.90757151102874",
    "geocoded_column": {
      "latitude": "29.90757151102874",
      "longitude": "-89.99154868222467"
    }
  },
  {
    "service_request": "2023-968686",
    "request_type": "Roads/Drainage",
    "request_reason": "Unpermitted work in ROW",
    "date_created": "2023-01-19T15:45:51.000",
    "date_modified": "2023-01-19T15:45:51.000",
    "request_status": "Pending",
    "responsible_agency": "Department of Public Works",
    "final_address": "601 Sixth St",
    "address_councildis": "B",
    "status": "Pending",
    "rowid": "968686",
    "final_x": "3677608.21704",
    "final_y": "519113.642359",
    "longitude": "-90.08078740655355",
    "latitude": "29.921499877356183",
    "geocoded_column": {
      "latitude": "29.921499877356183",
      "longitude": "-90.08078740655355"
    }
  },
  {
    "service_request": "2023-968685",
    "request_type": "Abandoned Vehicles",
    "request_reason": "Abandoned/Junk Vehicles",
    "date_created": "2023-01-19T15:40:22.000",
    "date_modified": "2023-01-19T15:40:22.000",
    "request_status": "Pending",
    "responsible_agency": "Department of Public Works",
    "final_address": "4423 S Liberty St, New Orleans, Louisiana, 70115",
    "address_councildis": "B",
    "status": "Pending",
    "rowid": "968685",
    "final_x": "3670340.83284",
    "final_y": "523377.147579",
    "longitude": "-90.10358299919477",
    "latitude": "29.933439592684998",
    "geocoded_column": {
      "latitude": "29.933439592684998",
      "longitude": "-90.10358299919477"
    }
  },
  {
    "service_request": "2023-968684",
    "request_type": "Abandoned Vehicles",
    "request_reason": "Abandoned/Junk Vehicles",
    "date_created": "2023-01-19T15:40:21.000",
    "date_modified": "2023-01-19T15:40:21.000",
    "request_status": "Pending",
    "responsible_agency": "Department of Public Works",
    "final_address": "5300 Berkley Dr",
    "address_councildis": "C",
    "status": "Pending",
    "rowid": "968684",
    "final_x": "3703359.75998",
    "final_y": "518294.021686",
    "longitude": "-89.99953171787156",
    "latitude": "29.91844706456825",
    "geocoded_column": {
      "latitude": "29.91844706456825",
      "longitude": "-89.99953171787156"
    }
  },
  {
    "service_request": "2023-968683",
    "request_type": "Abandoned Vehicles",
    "request_reason": "Abandoned/Junk Vehicles",
    "date_created": "2023-01-19T15:37:37.000",
    "date_modified": "2023-01-19T15:37:37.000",
    "request_status": "Pending",
    "responsible_agency": "Department of Public Works",
    "final_address": "801 Navarre St",
    "address_councildis": "A",
    "status": "Pending",
    "rowid": "968683",
    "final_x": "3668735.98862",
    "final_y": "543875.12987",
    "longitude": "-90.10795738757884",
    "latitude": "29.98984951978325",
    "geocoded_column": {
      "latitude": "29.98984951978325",
      "longitude": "-90.10795738757884"
    }
  },
  {
    "service_request": "2023-968682",
    "request_type": "Roads/Drainage",
    "request_reason": "Street Subsidence (Sinking)",
    "date_created": "2023-01-19T15:33:58.000",
    "date_modified": "2023-01-19T15:33:58.000",
    "request_status": "Pending",
    "responsible_agency": "Department of Public Works",
    "final_address": "122 Bragg St",
    "address_councildis": "A",
    "status": "Pending",
    "rowid": "968682",
    "final_x": "3666813.0009",
    "final_y": "550326.395476",
    "longitude": "-90.11381472246843",
    "latitude": "30.00764468397284",
    "geocoded_column": {
      "latitude": "30.00764468397284",
      "longitude": "-90.11381472246843"
    }
  },
  {
    "service_request": "2023-968681",
    "request_type": "Traffic Signals/Signs/Striping/Streetlights",
    "request_reason": "Street Light Outage/Malfunction",
    "date_created": "2023-01-19T15:33:38.000",
    "date_modified": "2023-01-19T15:33:39.000",
    "request_status": "Pending",
    "responsible_agency": "Department of Public Works",
    "final_address": "6120 Law St, New Orleans, Louisiana, 70117",
    "address_councildis": "E",
    "status": "Assigned to Contractor",
    "contractor": "Legacy Professional Services",
    "rowid": "968681",
    "final_x": "3701816.47895",
    "final_y": "538559.798473",
    "longitude": "-90.0036606924821",
    "latitude": "29.974220099732527",
    "geocoded_column": {
      "latitude": "29.974220099732527",
      "longitude": "-90.0036606924821"
    }
  },
  {
    "service_request": "2023-968680",
    "request_type": "Trash/Recycling",
    "request_reason": "Missed Trash Pick-Up",
    "date_created": "2023-01-19T15:33:17.000",
    "date_modified": "2023-01-19T15:33:18.000",
    "request_status": "Pending",
    "responsible_agency": "Department of Sanitation",
    "final_address": "453 Audubon Blvd",
    "address_councildis": "B",
    "status": "Assigned to Contractor",
    "contractor": "Richards Disposal",
    "rowid": "968680",
    "final_x": "3667692.22023",
    "final_y": "530654.810626",
    "longitude": "-90.11169959542475",
    "latitude": "29.95352870950375",
    "geocoded_column": {
      "latitude": "29.95352870950375",
      "longitude": "-90.11169959542475"
    }
  },
  {
    "service_request": "2023-968679",
    "request_type": "Trash/Recycling",
    "request_reason": "Return Recycling Cart",
    "date_created": "2023-01-19T15:32:44.000",
    "date_modified": "2023-01-19T15:32:44.000",
    "request_status": "Pending",
    "responsible_agency": "Department of Sanitation",
    "final_address": "818 Poland Ave",
    "address_councildis": "C",
    "status": "Pending",
    "rowid": "968679",
    "final_x": "3692736.32496",
    "final_y": "534016.784901",
    "longitude": "-90.03250069738738",
    "latitude": "29.96201502298458",
    "geocoded_column": {
      "latitude": "29.96201502298458",
      "longitude": "-90.03250069738738"
    }
  },
  {
    "service_request": "2023-968678",
    "request_type": "Roads/Drainage",
    "request_reason": "Unpermitted work in ROW",
    "date_created": "2023-01-19T15:30:41.000",
    "date_modified": "2023-01-19T15:30:41.000",
    "request_status": "Pending",
    "responsible_agency": "Department of Public Works",
    "final_address": "601 Sixth St",
    "address_councildis": "B",
    "status": "Pending",
    "rowid": "968678",
    "final_x": "3677608.21704",
    "final_y": "519113.642359",
    "longitude": "-90.08078740655355",
    "latitude": "29.921499877356183",
    "geocoded_column": {
      "latitude": "29.921499877356183",
      "longitude": "-90.08078740655355"
    }
  },
  {
    "service_request": "2023-968677",
    "request_type": "Trash/Recycling",
    "request_reason": "Missed Trash Pick-Up",
    "date_created": "2023-01-19T15:25:21.000",
    "date_modified": "2023-01-19T15:25:22.000",
    "request_status": "Pending",
    "responsible_agency": "Department of Sanitation",
    "final_address": "620 Soraparu St",
    "address_councildis": "B",
    "status": "Assigned to Contractor",
    "contractor": "Richards Disposal",
    "rowid": "968677",
    "final_x": "3679239.42933",
    "final_y": "520277.98508",
    "longitude": "-90.0755980373529",
    "latitude": "29.924652310462665",
    "geocoded_column": {
      "latitude": "29.924652310462665",
      "longitude": "-90.0755980373529"
    }
  },
  {
    "service_request": "2023-968676",
    "request_type": "Roads/Drainage",
    "request_reason": "Catch Basin - Clogged",
    "date_created": "2023-01-19T15:24:42.000",
    "date_modified": "2023-01-19T15:24:42.000",
    "request_status": "Pending",
    "responsible_agency": "Department of Public Works",
    "final_address": "2608 Banks St",
    "address_councildis": "B",
    "status": "Pending",
    "rowid": "968676",
    "final_x": "3674970.98062",
    "final_y": "533805.454981",
    "longitude": "-90.08860824553368",
    "latitude": "29.961976540160162",
    "geocoded_column": {
      "latitude": "29.961976540160162",
      "longitude": "-90.08860824553368"
    }
  },
  {
    "service_request": "2023-968675",
    "request_type": "Roads/Drainage",
    "request_reason": "Catch Basin - Clogged",
    "date_created": "2023-01-19T15:23:10.000",
    "date_modified": "2023-01-19T15:23:10.000",
    "request_status": "Pending",
    "responsible_agency": "Department of Public Works",
    "final_address": "2501 Banks St",
    "address_councildis": "B",
    "status": "Pending",
    "rowid": "968675",
    "final_x": "3675422.22798",
    "final_y": "533620.953349",
    "longitude": "-90.08718961099208",
    "latitude": "29.96145573647873",
    "geocoded_column": {
      "latitude": "29.96145573647873",
      "longitude": "-90.08718961099208"
    }
  },
  {
    "service_request": "2023-968674",
    "request_type": "Abandoned Vehicles",
    "request_reason": "Abandoned/Junk Vehicles",
    "date_created": "2023-01-19T15:22:25.000",
    "date_modified": "2023-01-19T15:25:11.000",
    "request_status": "Pending",
    "responsible_agency": "Department of Public Works",
    "final_address": "1232 St Andrew St",
    "address_councildis": "B",
    "status": "Pending",
    "rowid": "968674",
    "final_x": "3679074.68104",
    "final_y": "523055.966715",
    "longitude": "-90.07602186994683",
    "latitude": "29.93229582290714",
    "geocoded_column": {
      "latitude": "29.93229582290714",
      "longitude": "-90.07602186994683"
    }
  },
  {
    "service_request": "2023-968673",
    "request_type": "Traffic Signals/Signs/Striping/Streetlights",
    "request_reason": "Street Light Outage/Malfunction",
    "date_created": "2023-01-19T15:21:34.000",
    "date_modified": "2023-01-19T15:21:34.000",
    "request_status": "Pending",
    "responsible_agency": "Department of Public Works",
    "final_address": "2621 Banks St B",
    "address_councildis": "B",
    "status": "Assigned to Contractor",
    "contractor": "Legacy Professional Services",
    "rowid": "968673",
    "final_x": "3674935.93621",
    "final_y": "533986.222405",
    "longitude": "-90.08871271002862",
    "latitude": "29.96247463651033",
    "geocoded_column": {
      "latitude": "29.96247463651033",
      "longitude": "-90.08871271002862"
    }
  },
  {
    "service_request": "2023-968672",
    "request_type": "Trash/Recycling",
    "request_reason": "Missed Trash Pick-Up",
    "date_created": "2023-01-19T15:20:10.000",
    "date_modified": "2023-01-19T15:20:11.000",
    "request_status": "Pending",
    "responsible_agency": "Department of Sanitation",
    "final_address": "2100 BLK Flood St",
    "address_councildis": "E",
    "status": "Assigned to Contractor",
    "contractor": "Waste Pro",
    "rowid": "968672",
    "final_x": "3698766.7504",
    "final_y": "537770.290389",
    "longitude": "-90.01332111040922",
    "latitude": "29.97214619526096",
    "geocoded_column": {
      "latitude": "29.97214619526096",
      "longitude": "-90.01332111040922"
    }
  },
  {
    "service_request": "2023-968671",
    "request_type": "Trash/Recycling",
    "request_reason": "Repair Trash Cart",
    "date_created": "2023-01-19T15:19:49.000",
    "date_modified": "2023-01-19T15:19:50.000",
    "request_status": "Pending",
    "responsible_agency": "Department of Sanitation",
    "final_address": "2611 St Thomas St",
    "address_councildis": "B",
    "status": "Assigned to Contractor",
    "contractor": "Richards Disposal",
    "rowid": "968671",
    "final_x": "3678439.03054",
    "final_y": "519585.8494",
    "longitude": "-90.07814856155048",
    "latitude": "29.922773295413617",
    "geocoded_column": {
      "latitude": "29.922773295413617",
      "longitude": "-90.07814856155048"
    }
  },
  {
    "service_request": "2023-968669",
    "request_type": "Abandoned Vehicles",
    "request_reason": "Abandoned/Junk Vehicles",
    "date_created": "2023-01-19T15:14:56.000",
    "date_modified": "2023-01-19T15:14:56.000",
    "request_status": "Pending",
    "responsible_agency": "Department of Public Works",
    "final_address": "1232 St Andrew St",
    "address_councildis": "B",
    "status": "Pending",
    "rowid": "968669",
    "final_x": "3679074.68104",
    "final_y": "523055.966715",
    "longitude": "-90.07602186994683",
    "latitude": "29.93229582290714",
    "geocoded_column": {
      "latitude": "29.93229582290714",
      "longitude": "-90.07602186994683"
    }
  },
  {
    "service_request": "2023-968668",
    "request_type": "Trash/Recycling",
    "request_reason": "Illegal Dumping",
    "date_created": "2023-01-19T15:14:16.000",
    "date_modified": "2023-01-19T15:14:16.000",
    "request_status": "Pending",
    "responsible_agency": "Department of Sanitation",
    "final_address": "436 Seventh St",
    "address_councildis": "B",
    "status": "Pending",
    "rowid": "968668",
    "final_x": "3677401.23662",
    "final_y": "518752.218743",
    "longitude": "-90.08145321833399",
    "latitude": "29.920512298800503",
    "geocoded_column": {
      "latitude": "29.920512298800503",
      "longitude": "-90.08145321833399"
    }
  },
  {
    "service_request": "2023-968667",
    "request_type": "Trash/Recycling",
    "request_reason": "Order Recycling Cart",
    "date_created": "2023-01-19T15:08:59.000",
    "date_modified": "2023-01-19T15:08:59.000",
    "request_status": "Pending",
    "responsible_agency": "Department of Sanitation",
    "final_address": "3325 Desaix Blvd",
    "address_councildis": "D",
    "status": "Pending",
    "rowid": "968667",
    "final_x": "3677406.67048",
    "final_y": "543710.788814",
    "longitude": "-90.0805747286217",
    "latitude": "29.989139827598354",
    "geocoded_column": {
      "latitude": "29.989139827598354",
      "longitude": "-90.0805747286217"
    }
  },
  {
    "service_request": "2023-968666",
    "request_type": "Trash/Recycling",
    "request_reason": "MIssed Recycling Pick-Up",
    "date_created": "2023-01-19T15:08:02.000",
    "date_modified": "2023-01-19T15:08:03.000",
    "request_status": "Pending",
    "responsible_agency": "Department of Sanitation",
    "final_address": "3325 Desaix Blvd",
    "address_councildis": "D",
    "status": "Assigned to Contractor",
    "contractor": "IV Waste",
    "rowid": "968666",
    "final_x": "3677406.67048",
    "final_y": "543710.788814",
    "longitude": "-90.0805747286217",
    "latitude": "29.989139827598354",
    "geocoded_column": {
      "latitude": "29.989139827598354",
      "longitude": "-90.0805747286217"
    }
  },
  {
    "service_request": "2023-968665",
    "request_type": "Trash/Recycling",
    "request_reason": "Replace Trash Cart",
    "date_created": "2023-01-19T15:06:06.000",
    "date_modified": "2023-01-19T15:06:07.000",
    "request_status": "Pending",
    "responsible_agency": "Department of Sanitation",
    "final_address": "6122 Clara St",
    "address_councildis": "A",
    "status": "Assigned to Contractor",
    "contractor": "Richards Disposal",
    "rowid": "968665",
    "final_x": "3666504.55681",
    "final_y": "525452.633213",
    "longitude": "-90.11562431493674",
    "latitude": "29.939259167120607",
    "geocoded_column": {
      "latitude": "29.939259167120607",
      "longitude": "-90.11562431493674"
    }
  },
  {
    "service_request": "2023-968664",
    "request_type": "Trash/Recycling",
    "request_reason": "Request a Large Item Pick Up",
    "date_created": "2023-01-19T15:02:34.000",
    "date_modified": "2023-01-19T15:13:55.000",
    "case_close_date": "2023-01-19T09:13:55.000",
    "request_status": "Closed",
    "responsible_agency": "Department of Sanitation",
    "final_address": "5320 Wildair Dr",
    "address_councildis": "D",
    "status": "Assigned to Contractor",
    "contractor": "IV Waste",
    "contractor_action": "Completed",
    "rowid": "968664",
    "final_x": "3681579.55669",
    "final_y": "552657.726742",
    "longitude": "-90.06708151752858",
    "latitude": "30.013614601339896",
    "geocoded_column": {
      "latitude": "30.013614601339896",
      "longitude": "-90.06708151752858"
    }
  },
  {
    "service_request": "2023-968663",
    "request_type": "Roads/Drainage",
    "request_reason": "Pothole",
    "date_created": "2023-01-19T15:01:26.000",
    "date_modified": "2023-01-19T15:04:53.000",
    "request_status": "Pending",
    "responsible_agency": "Department of Public Works",
    "final_address": "101 West Robert E Lee Blvd",
    "address_councildis": "D",
    "status": "Inspected",
    "rowid": "968663",
    "final_x": "3666734.08109",
    "final_y": "555016.436761",
    "longitude": "-90.11390636608914",
    "latitude": "30.02054296132822",
    "geocoded_column": {
      "latitude": "30.02054296132822",
      "longitude": "-90.11390636608914"
    }
  },
  {
    "service_request": "2023-968662",
    "request_type": "Trash/Recycling",
    "request_reason": "Request a Large Item Pick Up",
    "date_created": "2023-01-19T15:01:03.000",
    "date_modified": "2023-01-19T15:01:04.000",
    "request_status": "Pending",
    "responsible_agency": "Department of Sanitation",
    "final_address": "1018 Mazant St",
    "address_councildis": "C",
    "status": "Assigned to Contractor",
    "contractor": "IV Waste",
    "rowid": "968662",
    "final_x": "3692007.79312",
    "final_y": "534959.56263",
    "longitude": "-90.03476754025336",
    "latitude": "29.964630052464987",
    "geocoded_column": {
      "latitude": "29.964630052464987",
      "longitude": "-90.03476754025336"
    }
  },
  {
    "service_request": "2023-968661",
    "request_type": "Traffic Signals/Signs/Striping/Streetlights",
    "request_reason": "Traffic Signal Malfunctioning/Damaged",
    "date_created": "2023-01-19T15:00:24.000",
    "date_modified": "2023-01-19T15:00:24.000",
    "request_status": "Pending",
    "responsible_agency": "Department of Public Works",
    "final_address": "WASHINGTON AVE & MAGAZINE ST",
    "address_councildis": "B",
    "status": "Pending",
    "rowid": "968661",
    "final_x": "3677050.9",
    "final_y": "520822.68",
    "longitude": "-90.08248772433362",
    "latitude": "29.92621591740664",
    "geocoded_column": {
      "latitude": "29.92621591740664",
      "longitude": "-90.08248772433362"
    }
  },
  {
    "service_request": "2023-968660",
    "request_type": "Traffic Signals/Signs/Striping/Streetlights",
    "request_reason": "Street Light Outage/Malfunction",
    "date_created": "2023-01-19T15:00:19.000",
    "date_modified": "2023-01-19T15:00:19.000",
    "request_status": "Pending",
    "responsible_agency": "Department of Public Works",
    "final_address": "FOCH RD & DOROTHEA ST",
    "address_councildis": "D",
    "status": "Assigned to Contractor",
    "contractor": "Legacy Professional Services",
    "rowid": "968660",
    "final_x": "3696293.9",
    "final_y": "557464.68",
    "longitude": "-90.02041807125228",
    "latitude": "30.026376590105215",
    "geocoded_column": {
      "latitude": "30.026376590105215",
      "longitude": "-90.02041807125228"
    }
  },