[
  {
    "service_request": "2025-1193893",
    "request_type": "Streetlights",
    "request_reason": "Streetlight Outage/Malfunction",
    "date_created": "2025-05-20T23:53:40.000",
    "date_modified": "2025-05-20T23:53:42.000",
    "request_status": "Pending",
    "responsible_agency": "Department of Public Works",
    "final_address": "3116 Fortin St",
    "address_councildis": "A",
    "status": "Pending",
    "contractor": "Legacy Professional Services",
    "rowid": "1193893",
    "final_x": "3676469.47547",
    "final_y": "540924.258955",
    "longitude": "-90.0836310499441",
    "latitude": "29.981505977451373",
    "geocoded_column": {
      "latitude": "29.981505977451373",
      "longitude": "-90.0836310499441"
    }
  },
  {
    "service_request": "2025-1193892",
    "request_type": "Trash/Recycling",
    "request_reason": "Replace Trash Cart",
    "date_created": "2025-05-20T23:49:41.000",
    "date_modified": "2025-05-20T23:49:43.000",
    "request_status": "Pending",
    "responsible_agency": "Department of Sanitation",
    "final_address": "1624 Southlawn Blvd",
    "address_councildis": "C",
    "status": "Assigned to Contractor",
    "contractor": "Richards Disposal",
    "rowid": "1193892",
    "final_x": "3695207.94045",
    "final_y": "525264.939901",
    "longitude": "-90.02501131298227",
    "latitude": "29.937873115332746",
    "geocoded_column": {
      "latitude": "29.937873115332746",
      "longitude": "-90.02501131298227"
    }
  },
  {
    "service_request": "2025-1193891",
    "request_type": "Traffic Safety",
    "request_reason": "Request for Traffic Calming due to Speeding",
    "date_created": "2025-05-20T23:09:27.000",
    "date_modified": "2025-05-20T23:09:29.000",
    "request_status": "Pending",
    "responsible_agency": "Department of Public Works",
    "final_address": "1110 Marigny St",
    "address_councildis": "C",
    "status": "Pending",
    "rowid": "1193891",
    "final_x": "3685377.2006",
    "final_y": "536512.459655",
    "longitude": "-90.05565175905825",
    "latitude": "29.969104934082246",
    "geocoded_column": {
      "latitude": "29.969104934082246",
      "longitude": "-90.05565175905825"
    }
  },
  {
    "service_request": "2025-1193890",
    "request_type": "Trash/Recycling",
    "request_reason": "Order Recycling Cart",
    "date_created": "2025-05-20T22:45:38.000",
    "date_modified": "2025-05-20T22:45:40.000",
    "request_status": "Pending",
    "responsible_agency": "Department of Sanitation",
    "final_address": "40 Castle Pines Dr",
    "address_councildis": "C",
    "status": "Pending",
    "rowid": "1193890",
    "final_x": "3719515.41996",
    "final_y": "511744.016752",
    "longitude": "-89.94878736114734",
    "latitude": "29.899909897385623",
    "geocoded_column": {
      "latitude": "29.899909897385623",
      "longitude": "-89.94878736114734"
    }
  },
  {
    "service_request": "2025-1193889",
    "request_type": "Trash/Recycling",
    "request_reason": "Order Trash Cart",
    "date_created": "2025-05-20T22:44:28.000",
    "date_modified": "2025-05-20T22:44:30.000",
    "request_status": "Pending",
    "responsible_agency": "Department of Sanitation",
    "final_address": "40 Castle Pines Dr",
    "address_councildis": "C",
    "status": "Assigned to Contractor",
    "contractor": "Richards Disposal",
    "rowid": "1193889",
    "final_x": "3719515.41996",
    "final_y": "511744.016752",
    "longitude": "-89.94878736114734",
    "latitude": "29.899909897385623",
    "geocoded_column": {
      "latitude": "29.899909897385623",
      "longitude": "-89.94878736114734"
    }
  },
  {
    "service_request": "2025-1193888",
    "request_type": "Streetlights",
    "request_reason": "Streetlight Outage/Malfunction",
    "date_created": "2025-05-20T22:26:29.000",
    "date_modified": "2025-05-20T22:26:31.000",
    "request_status": "Pending",
    "responsible_agency": "Department of Public Works",
    "final_address": "1115 Crete St",
    "address_councildis": "A",
    "status": "Pending",
    "contractor": "Legacy Professional Services",
    "rowid": "1193888",
    "final_x": "3677617.11163",
    "final_y": "538827.812617",
    "longitude": "-90.08007870441617",
    "latitude": "29.9757070068908",
    "geocoded_column": {
      "latitude": "29.9757070068908",
      "longitude": "-90.08007870441617"
    }
  },
  {
    "service_request": "2025-1193887",
    "request_type": "Property Maintenance",
    "request_reason": "Property Maintenance",
    "date_created": "2025-05-20T22:24:03.000",
    "date_modified": "2025-05-20T22:24:05.000",
    "request_status": "Pending",
    "responsible_agency": "Department of Code Enforcement",
    "final_address": "7442 Spring Lake Dr",
    "address_councildis": "E",
    "status": "Pending",
    "rowid": "1193887",
    "final_x": "3701082.86289",
    "final_y": "559136.32598",
    "longitude": "-90.0052243815867",
    "latitude": "30.03082122286488",
    "geocoded_column": {
      "latitude": "30.03082122286488",
      "longitude": "-90.0052243815867"
    }
  },
  {
    "service_request": "2025-1193886",
    "request_type": "Healthy Homes",
    "request_reason": "Healthy Homes",
    "date_created": "2025-05-20T22:06:31.000",
    "date_modified": "2025-05-20T22:06:33.000",
    "request_status": "Pending",
    "responsible_agency": "Department of Code Enforcement",
    "final_address": "0 BLK Agriculture Pl",
    "address_councildis": "D",
    "status": "Pending",
    "rowid": "1193886",
    "final_x": "3689891.40135",
    "final_y": "543419.290574",
    "longitude": "-90.04114966127275",
    "latitude": "29.987957086684915",
    "geocoded_column": {
      "latitude": "29.987957086684915",
      "longitude": "-90.04114966127275"
    }
  },
  {
    "service_request": "2025-1193885",
    "request_type": "Trash/Recycling",
    "request_reason": "Request a Large Item Pick Up",
    "date_created": "2025-05-20T22:04:40.000",
    "date_modified": "2025-05-20T22:04:42.000",
    "request_status": "Pending",
    "responsible_agency": "Department of Sanitation",
    "final_address": "3765 Inwood Ave",
    "address_councildis": "C",
    "status": "Assigned to Contractor",
    "contractor": "Richards Disposal",
    "rowid": "1193885",
    "final_x": "3704885.12523",
    "final_y": "514588.910131",
    "longitude": "-89.99485360176823",
    "latitude": "29.90821037078622",
    "geocoded_column": {
      "latitude": "29.90821037078622",
      "longitude": "-89.99485360176823"
    }
  },
  {
    "service_request": "2025-1193884",
    "request_type": "Trash/Recycling",
    "request_reason": "MIssed Recycling Pick-Up",
    "date_created": "2025-05-20T21:25:47.000",
    "date_modified": "2025-05-20T21:25:54.000",
    "request_status": "Pending",
    "responsible_agency": "Department of Sanitation",
    "final_address": "2224 Cambronne St",
    "address_councildis": "A",
    "status": "Assigned to Contractor",
    "contractor": "IV Waste",
    "rowid": "1193884",
    "final_x": "3663657.86477",
    "final_y": "531901.357059",
    "longitude": "-90.12439691671044",
    "latitude": "29.957073960201097",
    "geocoded_column": {
      "latitude": "29.957073960201097",
      "longitude": "-90.12439691671044"
    }
  },
  {
    "service_request": "2025-1193883",
    "request_type": "Trash/Recycling",
    "request_reason": "Missed Trash Pick-Up",
    "date_created": "2025-05-20T21:25:07.000",
    "date_modified": "2025-05-20T21:25:09.000",
    "request_status": "Pending",
    "responsible_agency": "Department of Sanitation",
    "final_address": "2226 Cambronne St",
    "address_councildis": "A",
    "status": "Assigned to Contractor",
    "contractor": "IV Waste",
    "rowid": "1193883",
    "final_x": "3663666.89235",
    "final_y": "531911.755651",
    "longitude": "-90.12436806383634",
    "latitude": "29.957102291048333",
    "geocoded_column": {
      "latitude": "29.957102291048333",
      "longitude": "-90.12436806383634"
    }
  },
  {
    "service_request": "2025-1193882",
    "request_type": "Trash/Recycling",
    "request_reason": "Missed Trash Pick-Up",
    "date_created": "2025-05-20T21:23:16.000",
    "date_modified": "2025-05-20T21:23:18.000",
    "request_status": "Pending",
    "responsible_agency": "Department of Sanitation",
    "final_address": "2224 Cambronne St",
    "address_councildis": "A",
    "status": "Assigned to Contractor",
    "contractor": "IV Waste",
    "rowid": "1193882",
    "final_x": "3663657.86477",
    "final_y": "531901.357059",
    "longitude": "-90.12439691671044",
    "latitude": "29.957073960201097",
    "geocoded_column": {
      "latitude": "29.957073960201097",
      "longitude": "-90.12439691671044"
    }
  },
  {
    "service_request": "2025-1193881",
    "request_type": "Roads and Streets",
    "request_reason": "Pothole",
    "date_created": "2025-05-20T21:14:32.000",
    "date_modified": "2025-05-20T21:14:33.000",
    "request_status": "Pending",
    "responsible_agency": "Department of Public Works",
    "final_address": "2200 BLK Upperline St",
    "address_councildis": "B",
    "status": "Pending",
    "rowid": "1193881",
    "final_x": "3669135.49568",
    "final_y": "523020.49607",
    "longitude": "-90.10740023666168",
    "latitude": "29.93249443019217",
    "geocoded_column": {
      "latitude": "29.93249443019217",
      "longitude": "-90.10740023666168"
    }
  },
  {
    "service_request": "2025-1193880",
    "request_type": "Street and Traffic Signs",
    "request_reason": "Traffic or Parking Sign Damaged or Missing",
    "date_created": "2025-05-20T21:13:55.000",
    "date_modified": "2025-05-20T21:13:57.000",
    "request_status": "Pending",
    "responsible_agency": "Department of Public Works",
    "final_address": "1126 Adams St",
    "address_councildis": "A",
    "status": "Pending",
    "rowid": "1193880",
    "final_x": "3662941.20608",
    "final_y": "527321.918271",
    "longitude": "-90.12681217610627",
    "latitude": "29.944502750062995",
    "geocoded_column": {
      "latitude": "29.944502750062995",
      "longitude": "-90.12681217610627"
    }
  },
  {
    "service_request": "2025-1193879",
    "request_type": "Trash/Recycling",
    "request_reason": "Request a Large Item Pick Up",
    "date_created": "2025-05-20T20:50:37.000",
    "date_modified": "2025-05-20T20:50:39.000",
    "request_status": "Pending",
    "responsible_agency": "Department of Sanitation",
    "final_address": "7911 Cynthia Dr",
    "address_councildis": "E",
    "status": "Assigned to Contractor",
    "contractor": "Waste Pro",
    "rowid": "1193879",
    "final_x": "3702133.61047",
    "final_y": "560542.983262",
    "longitude": "-90.00185236443579",
    "latitude": "30.03465545404194",
    "geocoded_column": {
      "latitude": "30.03465545404194",
      "longitude": "-90.00185236443579"
    }
  },
  {
    "service_request": "2025-1193878",
    "request_type": "Drainage",
    "request_reason": "Street Flooding",
    "date_created": "2025-05-20T20:35:30.000",
    "date_modified": "2025-05-20T20:35:33.000",
    "request_status": "Pending",
    "responsible_agency": "Sewerage & Water Board",
    "final_address": "4091 Fairmont Dr",
    "address_councildis": "D",
    "status": "Pending",
    "rowid": "1193878",
    "final_x": "3684556.46473",
    "final_y": "547523.425874",
    "longitude": "-90.05785662128562",
    "latitude": "29.999406342189626",
    "geocoded_column": {
      "latitude": "29.999406342189626",
      "longitude": "-90.05785662128562"
    }
  },
  {
    "service_request": "2025-1193877",
    "request_type": "Trash/Recycling",
    "request_reason": "Damaged Caused By Contractor",
    "date_created": "2025-05-20T20:32:13.000",
    "date_modified": "2025-05-20T20:32:16.000",
    "request_status": "Pending",
    "responsible_agency": "Department of Sanitation",
    "final_address": "4091 Fairmont Dr",
    "address_councildis": "D",
    "status": "Assigned to Contractor",
    "contractor": "IV Waste",
    "rowid": "1193877",
    "final_x": "3684556.46473",
    "final_y": "547523.425874",
    "longitude": "-90.05785662128562",
    "latitude": "29.999406342189626",
    "geocoded_column": {
      "latitude": "29.999406342189626",
      "longitude": "-90.05785662128562"
    }
  },
  {
    "service_request": "2025-1193876",
    "request_type": "Streetlights",
    "request_reason": "Streetlight Outage/Malfunction",
    "date_created": "2025-05-20T20:25:11.000",
    "date_modified": "2025-05-20T20:25:13.000",
    "request_status": "Pending",
    "responsible_agency": "Department of Public Works",
    "final_address": "917 Seventh St",
    "address_councildis": "B",
    "status": "Pending",
    "contractor": "Legacy Professional Services",
    "rowid": "1193876",
    "final_x": "3676723.41729",
    "final_y": "519913.963512",
    "longitude": "-90.08355278195359",
    "latitude": "29.92372706715264",
    "geocoded_column": {
      "latitude": "29.92372706715264",
      "longitude": "-90.08355278195359"
    }
  },
  {
    "service_request": "2025-1193875",
    "request_type": "Streetlights",
    "request_reason": "Streetlight Outage/Malfunction",
    "date_created": "2025-05-20T20:22:35.000",
    "date_modified": "2025-05-20T20:22:37.000",
    "request_status": "Pending",
    "responsible_agency": "Department of Public Works",
    "final_address": "917 Seventh St",
    "address_councildis": "B",
    "status": "Pending",
    "contractor": "Legacy Professional Services",
    "rowid": "1193875",
    "final_x": "3676723.41729",
    "final_y": "519913.963512",
    "longitude": "-90.08355278195359",
    "latitude": "29.92372706715264",
    "geocoded_column": {
      "latitude": "29.92372706715264",
      "longitude": "-90.08355278195359"
    }
  },
  {
    "service_request": "2025-1193874",
    "request_type": "Trash/Recycling",
    "request_reason": "Request a Large Item Pick Up",
    "date_created": "2025-05-20T20:01:50.000",
    "date_modified": "2025-05-20T20:01:52.000",
    "request_status": "Pending",
    "responsible_agency": "Department of Sanitation",
    "final_address": "4231 Palmyra St",
    "address_councildis": "A",
    "status": "Assigned to Contractor",
    "contractor": "IV Waste",
    "rowid": "1193874",
    "final_x": "3669917.13082",
    "final_y": "538291.341577",
    "longitude": "-90.10441563577841",
    "latitude": "29.9744612161979",
    "geocoded_column": {
      "latitude": "29.9744612161979",
      "longitude": "-90.10441563577841"
    }
  },
  {
    "service_request": "2025-1193873",
    "request_type": "Trash/Recycling",
    "request_reason": "Request a Large Item Pick Up",
    "date_created": "2025-05-20T19:49:24.000",
    "date_modified": "2025-05-20T19:49:27.000",
    "request_status": "Pending",
    "responsible_agency": "Department of Sanitation",
    "final_address": "638 Port St",
    "address_councildis": "C",
    "status": "Assigned to Contractor",
    "contractor": "IV Waste",
    "rowid": "1193873",
    "final_x": "3687006.54146",
    "final_y": "534868.168454",
    "longitude": "-90.05056433111247",
    "latitude": "29.96453364895112",
    "geocoded_column": {
      "latitude": "29.96453364895112",
      "longitude": "-90.05056433111247"
    }
  },
  {
    "service_request": "2025-1193872",
    "request_type": "Trash/Recycling",
    "request_reason": "Repair Recycling Cart",
    "date_created": "2025-05-20T19:37:13.000",
    "date_modified": "2025-05-20T19:37:14.000",
    "request_status": "Pending",
    "responsible_agency": "Department of Sanitation",
    "final_address": "2827 Lepage St",
    "address_councildis": "A",
    "status": "Pending",
    "rowid": "1193872",
    "final_x": "3677358.35483",
    "final_y": "539936.38657",
    "longitude": "-90.08085766099984",
    "latitude": "29.97876298308493",
    "geocoded_column": {
      "latitude": "29.97876298308493",
      "longitude": "-90.08085766099984"
    }
  },
  {
    "service_request": "2025-1193871",
    "request_type": "Parks & Parkways",
    "request_reason": "Request Tree Service (Right of Way/Public Property)",
    "date_created": "2025-05-20T19:36:57.000",
    "date_modified": "2025-05-20T19:36:58.000",
    "request_status": "Pending",
    "responsible_agency": "Department of Parks & Parkway",
    "final_address": "5109 Franklin Ave",
    "address_councildis": "D",
    "status": "Pending",
    "rowid": "1193871",
    "final_x": "3686815.69634",
    "final_y": "551649.683285",
    "longitude": "-90.0505737323976",
    "latitude": "30.01068270746279",
    "geocoded_column": {
      "latitude": "30.01068270746279",
      "longitude": "-90.0505737323976"
    }
  },
  {
    "service_request": "2025-1193870",
    "request_type": "Trash/Recycling",
    "request_reason": "Request a Large Item Pick Up",
    "date_created": "2025-05-20T19:36:31.000",
    "date_modified": "2025-05-20T19:36:34.000",
    "request_status": "Pending",
    "responsible_agency": "Department of Sanitation",
    "final_address": "4401 St Roch Ave",
    "address_councildis": "D",
    "status": "Assigned to Contractor",
    "contractor": "IV Waste",
    "rowid": "1193870",
    "final_x": "3685536.98601",
    "final_y": "548927.187923",
    "longitude": "-90.0547096471598",
    "latitude": "30.00323613364496",
    "geocoded_column": {
      "latitude": "30.00323613364496",
      "longitude": "-90.0547096471598"
    }
  },
  {
    "service_request": "2025-1193869",
    "request_type": "Roads and Streets",
    "request_reason": "Curb Damage",
    "date_created": "2025-05-20T19:27:13.000",
    "date_modified": "2025-05-20T19:27:15.000",
    "request_status": "Pending",
    "responsible_agency": "Department of Public Works",
    "final_address": "4327 Bienville Ave",
    "address_councildis": "A",
    "status": "Pending",
    "rowid": "1193869",
    "final_x": "3670557.00423",
    "final_y": "539816.328586",
    "longitude": "-90.1023430148152",
    "latitude": "29.97863552908133",
    "geocoded_column": {
      "latitude": "29.97863552908133",
      "longitude": "-90.1023430148152"
    }
  },
  {
    "service_request": "2025-1193868",
    "request_type": "Trash/Recycling",
    "request_reason": "Damaged Caused By Contractor",
    "date_created": "2025-05-20T19:20:07.000",
    "date_modified": "2025-05-20T19:20:09.000",
    "request_status": "Pending",
    "responsible_agency": "Department of Sanitation",
    "final_address": "1624 River Oaks Dr",
    "address_councildis": "C",
    "status": "Assigned to Contractor",
    "contractor": "Richards Disposal",
    "rowid": "1193868",
    "final_x": "3701754.20996",
    "final_y": "524565.0135",
    "longitude": "-90.00436997415856",
    "latitude": "29.935741414303262",
    "geocoded_column": {
      "latitude": "29.935741414303262",
      "longitude": "-90.00436997415856"
    }
  },
  {
    "service_request": "2025-1193867",
    "request_type": "Trash/Recycling",
    "request_reason": "Damaged Caused By Contractor",
    "date_created": "2025-05-20T19:12:06.000",
    "date_modified": "2025-05-20T19:12:08.000",
    "request_status": "Pending",
    "responsible_agency": "Department of Sanitation",
    "final_address": "1624 River Oaks Dr",
    "address_councildis": "C",
    "status": "Assigned to Contractor",
    "contractor": "Richards Disposal",
    "rowid": "1193867",
    "final_x": "3701754.20996",
    "final_y": "524565.0135",
    "longitude": "-90.00436997415856",
    "latitude": "29.935741414303262",
    "geocoded_column": {
      "latitude": "29.935741414303262",
      "longitude": "-90.00436997415856"
    }
  },
  {
    "service_request": "2025-1193866",
    "request_type": "General Services",
    "request_reason": "General Service Request",
    "date_created": "2025-05-20T19:09:13.000",
    "date_modified": "2025-05-20T19:09:16.000",
    "request_status": "Pending",
    "responsible_agency": "Orleans Parish Communication District",
    "final_address": "8643 Hickory St",
    "address_councildis": "A",
    "status": "Pending",
    "rowid": "1193866",
    "final_x": "3661855.15712",
    "final_y": "531369.613571",
    "longitude": "-90.13010696934349",
    "latitude": "29.95566401239345",
    "geocoded_column": {
      "latitude": "29.95566401239345",
      "longitude": "-90.13010696934349"
    }
  },
  {
    "service_request": "2025-1193865",
    "request_type": "Trash/Recycling",
    "request_reason": "Request a Large Item Pick Up",
    "date_created": "2025-05-20T18:33:21.000",
    "date_modified": "2025-05-20T18:33:23.000",
    "request_status": "Pending",
    "responsible_agency": "Department of Sanitation",
    "final_address": "4710 Charlmark Dr",
    "address_councildis": "E",
    "status": "Assigned to Contractor",
    "contractor": "Waste Pro",
    "rowid": "1193865",
    "final_x": "3711372.93746",
    "final_y": "555779.343705",
    "longitude": "-89.97283377069996",
    "latitude": "30.021258884729072",
    "geocoded_column": {
      "latitude": "30.021258884729072",
      "longitude": "-89.97283377069996"
    }
  },
  {
    "service_request": "2025-1193864",
    "request_type": "Trash/Recycling",
    "request_reason": "Request a Large Item Pick Up",
    "date_created": "2025-05-20T18:21:59.000",
    "date_modified": "2025-05-20T18:22:01.000",
    "request_status": "Pending",
    "responsible_agency": "Department of Sanitation",
    "final_address": "4734 Knight Dr",
    "address_councildis": "E",
    "status": "Assigned to Contractor",
    "contractor": "Waste Pro",
    "rowid": "1193864",
    "final_x": "3708066.25566",
    "final_y": "555496.059737",
    "longitude": "-89.98329241774074",
    "latitude": "30.0205875039124",
    "geocoded_column": {
      "latitude": "30.0205875039124",
      "longitude": "-89.98329241774074"
    }
  },
  {
    "service_request": "2025-1193863",
    "request_type": "Trash/Recycling",
    "request_reason": "Request a Large Item Pick Up",
    "date_created": "2025-05-20T18:19:57.000",
    "date_modified": "2025-05-20T18:20:01.000",
    "request_status": "Pending",
    "responsible_agency": "Department of Sanitation",
    "final_address": "4734 Knight Dr",
    "address_councildis": "E",
    "status": "Assigned to Contractor",
    "contractor": "Waste Pro",
    "rowid": "1193863",
    "final_x": "3708066.25566",
    "final_y": "555496.059737",
    "longitude": "-89.98329241774074",
    "latitude": "30.0205875039124",
    "geocoded_column": {
      "latitude": "30.0205875039124",
      "longitude": "-89.98329241774074"
    }
  },
  {
    "service_request": "2025-1193862",
    "request_type": "Trash/Recycling",
    "request_reason": "Missed Trash Pick-Up",
    "date_created": "2025-05-20T18:18:52.000",
    "date_modified": "2025-05-20T18:18:54.000",
    "request_status": "Pending",
    "responsible_agency": "Department of Sanitation",
    "final_address": "20051 Chef Menteur Hwy, New Orleans, Louisiana, 70129",
    "address_councildis": "E",
    "status": "Assigned to Contractor",
    "contractor": "Waste Pro",
    "rowid": "1193862",
    "final_x": "3755422.40028",
    "final_y": "573384.91217",
    "longitude": "-89.83292478934948",
    "latitude": "30.068154725828407",
    "geocoded_column": {
      "latitude": "30.068154725828407",
      "longitude": "-89.83292478934948"
    }
  },
  {
    "service_request": "2025-1193861",
    "request_type": "Trash/Recycling",
    "request_reason": "Replace Trash Cart",
    "date_created": "2025-05-20T18:07:26.000",
    "date_modified": "2025-05-20T18:07:28.000",
    "request_status": "Pending",
    "responsible_agency": "Department of Sanitation",
    "final_address": "1624 Tricou St",
    "address_councildis": "E",
    "status": "Assigned to Contractor",
    "contractor": "Waste Pro",
    "rowid": "1193861",
    "final_x": "3700879.44266",
    "final_y": "535028.630982",
    "longitude": "-90.00674916465057",
    "latitude": "29.964540529821818",
    "geocoded_column": {
      "latitude": "29.964540529821818",
      "longitude": "-90.00674916465057"
    }
  },
  {
    "service_request": "2025-1193860",
    "request_type": "Trash/Recycling",
    "request_reason": "Request a Large Item Pick Up",
    "date_created": "2025-05-20T18:05:40.000",
    "date_modified": "2025-05-20T18:05:43.000",
    "request_status": "Pending",
    "responsible_agency": "Department of Sanitation",
    "final_address": "3113 Cambronne St",
    "address_councildis": "A",
    "status": "Assigned to Contractor",
    "contractor": "IV Waste",
    "rowid": "1193860",
    "final_x": "3665850.83853",
    "final_y": "534179.462341",
    "longitude": "-90.11739582200936",
    "latitude": "29.963274200368076",
    "geocoded_column": {
      "latitude": "29.963274200368076",
      "longitude": "-90.11739582200936"
    }
  },
  {
    "service_request": "2025-1193859",
    "request_type": "Trash/Recycling",
    "request_reason": "Missed Trash Pick-Up",
    "date_created": "2025-05-20T18:00:54.000",
    "date_modified": "2025-05-20T18:00:56.000",
    "request_status": "Pending",
    "responsible_agency": "Department of Sanitation",
    "final_address": "4210 Ulloa St",
    "address_councildis": "A",
    "status": "Assigned to Contractor",
    "contractor": "IV Waste",
    "rowid": "1193859",
    "final_x": "3669048.07994",
    "final_y": "536906.353224",
    "longitude": "-90.10720712159522",
    "latitude": "29.97067856272226",
    "geocoded_column": {
      "latitude": "29.97067856272226",
      "longitude": "-90.10720712159522"
    }
  },
  {
    "service_request": "2025-1193858",
    "request_type": "General Services",
    "request_reason": "General Service Request",
    "date_created": "2025-05-20T17:59:56.000",
    "date_modified": "2025-05-20T17:59:59.000",
    "request_status": "Pending",
    "responsible_agency": "Orleans Parish Communication District",
    "final_address": "920 Conti St, New Orleans, Louisiana, 70112",
    "address_councildis": "C",
    "status": "Pending",
    "rowid": "1193858",
    "final_x": "3681133.1956",
    "final_y": "532060.265475",
    "longitude": "-90.06920973640284",
    "latitude": "29.956992361632587",
    "geocoded_column": {
      "latitude": "29.956992361632587",
      "longitude": "-90.06920973640284"
    }
  },
  {
    "service_request": "2025-1193857",
    "request_type": "Abandoned Vehicles",
    "request_reason": "Abandoned/Junk Vehicles",
    "date_created": "2025-05-20T17:56:23.000",
    "date_modified": "2025-05-20T17:56:24.000",
    "request_status": "Pending",
    "responsible_agency": "Department of Public Works",
    "final_address": "2629 Iberville St",
    "address_councildis": "B",
    "status": "Pending",
    "rowid": "1193857",
    "final_x": "3675931.0267",
    "final_y": "535321.721798",
    "longitude": "-90.08552442352735",
    "latitude": "29.96611705072427",
    "geocoded_column": {
      "latitude": "29.96611705072427",
      "longitude": "-90.08552442352735"
    }
  },
  {
    "service_request": "2025-1193856",
    "request_type": "Abandoned Vehicles",
    "request_reason": "Abandoned/Junk Vehicles",
    "date_created": "2025-05-20T17:48:57.000",
    "date_modified": "2025-05-20T17:48:59.000",
    "request_status": "Pending",
    "responsible_agency": "Department of Public Works",
    "final_address": "2629 Iberville St",
    "address_councildis": "B",
    "status": "Pending",
    "rowid": "1193856",
    "final_x": "3675931.0267",
    "final_y": "535321.721798",
    "longitude": "-90.08552442352735",
    "latitude": "29.96611705072427",
    "geocoded_column": {
      "latitude": "29.96611705072427",
      "longitude": "-90.08552442352735"
    }
  },
  {
    "service_request": "2025-1193855",
    "request_type": "Abandoned Vehicles",
    "request_reason": "Abandoned/Junk Vehicles",
    "date_created": "2025-05-20T17:46:19.000",
    "date_modified": "2025-05-20T17:46:20.000",
    "request_status": "Pending",
    "responsible_agency": "Department of Public Works",
    "final_address": "2629 Iberville St",
    "address_councildis": "B",
    "status": "Pending",
    "rowid": "1193855",
    "final_x": "3675931.0267",
    "final_y": "535321.721798",
    "longitude": "-90.08552442352735",
    "latitude": "29.96611705072427",
    "geocoded_column": {
      "latitude": "29.96611705072427",
      "longitude": "-90.08552442352735"
    }
  },
  {
    "service_request": "2025-1193854",
    "request_type": "Abandoned Vehicles",
    "request_reason": "Abandoned/Junk Vehicles",
    "date_created": "2025-05-20T17:44:39.000",
    "date_modified": "2025-05-20T17:44:41.000",
    "request_status": "Pending",
    "responsible_agency": "Department of Public Works",
    "final_address": "2629 Iberville St",
    "address_councildis": "B",
    "status": "Pending",
    "rowid": "1193854",
    "final_x": "3675931.0267",
    "final_y": "535321.721798",
    "longitude": "-90.08552442352735",
    "latitude": "29.96611705072427",
    "geocoded_column": {
      "latitude": "29.96611705072427",
      "longitude": "-90.08552442352735"
    }
  },
  {
    "service_request": "2025-1193853",
    "request_type": "Trash/Recycling",
    "request_reason": "Request a Large Item Pick Up",
    "date_created": "2025-05-20T17:38:05.000",
    "date_modified": "2025-05-20T17:38:06.000",
    "request_status": "Pending",
    "responsible_agency": "Department of Sanitation",
    "final_address": "4616 Eastern St",
    "address_councildis": "D",
    "status": "Assigned to Contractor",
    "contractor": "IV Waste",
    "rowid": "1193853",
    "final_x": "3688016.82089",
    "final_y": "549908.610196",
    "longitude": "-90.0468406845979",
    "latitude": "30.005858365966148",
    "geocoded_column": {
      "latitude": "30.005858365966148",
      "longitude": "-90.0468406845979"
    }
  },
  {
    "service_request": "2025-1193852",
    "request_type": "Roads and Streets",
    "request_reason": "Pothole",
    "date_created": "2025-05-20T17:25:34.000",
    "date_modified": "2025-05-20T17:25:35.000",
    "request_status": "Pending",
    "responsible_agency": "Department of Public Works",
    "final_address": "N GALVEZ ST & IBERVILLE ST",
    "address_councildis": "B",
    "status": "Pending",
    "rowid": "1193852",
    "final_x": "3677209.0",
    "final_y": "534242.38",
    "longitude": "-90.08152584962525",
    "latitude": "29.963110897809077",
    "geocoded_column": {
      "latitude": "29.963110897809077",
      "longitude": "-90.08152584962525"
    }
  },
  {
    "service_request": "2025-1193851",
    "request_type": "Abandoned Vehicles",
    "request_reason": "Abandoned/Junk Vehicles",
    "date_created": "2025-05-20T17:23:43.000",
    "date_modified": "2025-05-20T17:23:46.000",
    "request_status": "Pending",
    "responsible_agency": "Department of Public Works",
    "final_address": "1308 Milan St",
    "address_councildis": "B",
    "status": "Pending",
    "rowid": "1193851",
    "final_x": "3671615.34395",
    "final_y": "520232.557432",
    "longitude": "-90.09966631418217",
    "latitude": "29.92475530671526",
    "geocoded_column": {
      "latitude": "29.92475530671526",
      "longitude": "-90.09966631418217"
    }
  },
  {
    "service_request": "2025-1193850",
    "request_type": "Trash/Recycling",
    "request_reason": "Repair Trash Cart",
    "date_created": "2025-05-20T17:22:49.000",
    "date_modified": "2025-05-20T17:22:51.000",
    "request_status": "Pending",
    "responsible_agency": "Department of Sanitation",
    "final_address": "720 Adele St",
    "address_councildis": "B",
    "status": "Assigned to Contractor",
    "contractor": "IV Waste",
    "rowid": "1193850",
    "final_x": "3680115.8957",
    "final_y": "521378.215801",
    "longitude": "-90.07279312088582",
    "latitude": "29.927651102628822",
    "geocoded_column": {
      "latitude": "29.927651102628822",
      "longitude": "-90.07279312088582"
    }
  },
  {
    "service_request": "2025-1193849",
    "request_type": "Drainage",
    "request_reason": "Drainage Manhole Cover Missing or Damaged",
    "date_created": "2025-05-20T17:20:17.000",
    "date_modified": "2025-05-20T17:20:19.000",
    "request_status": "Pending",
    "responsible_agency": "Sewerage & Water Board",
    "final_address": "910 Dauphine St",
    "address_councildis": "C",
    "status": "Pending",
    "rowid": "1193849",
    "final_x": "3682508.50799",
    "final_y": "533549.124613",
    "longitude": "-90.06481488743063",
    "latitude": "29.96104442432874",
    "geocoded_column": {
      "latitude": "29.96104442432874",
      "longitude": "-90.06481488743063"
    }
  },
  {
    "service_request": "2025-1193848",
    "request_type": "Abandoned Vehicles",
    "request_reason": "Abandoned/Junk Vehicles",
    "date_created": "2025-05-20T17:15:38.000",
    "date_modified": "2025-05-20T17:15:39.000",
    "request_status": "Pending",
    "responsible_agency": "Department of Public Works",
    "final_address": "DABADIE ST & N BROAD ST",
    "address_councildis": "D",
    "status": "Pending",
    "rowid": "1193848",
    "final_x": "3679586.3",
    "final_y": "540713.38",
    "longitude": "-90.0737939971972",
    "latitude": "29.980832295385937",
    "geocoded_column": {
      "latitude": "29.980832295385937",
      "longitude": "-90.0737939971972"
    }
  },
  {
    "service_request": "2025-1193847",
    "request_type": "General Services",
    "request_reason": "General Service Request",
    "date_created": "2025-05-20T17:14:51.000",
    "date_modified": "2025-05-20T17:14:54.000",
    "request_status": "Pending",
    "responsible_agency": "Orleans Parish Communication District",
    "final_address": "706 St Ann St",
    "address_councildis": "C",
    "status": "Pending",
    "rowid": "1193847",
    "final_x": "3682718.1334",
    "final_y": "532778.570692",
    "longitude": "-90.06417988106436",
    "latitude": "29.95891928167923",
    "geocoded_column": {
      "latitude": "29.95891928167923",
      "longitude": "-90.06417988106436"
    }
  },
  {
    "service_request": "2025-1193846",
    "request_type": "Trash/Recycling",
    "request_reason": "Request a Large Item Pick Up",
    "date_created": "2025-05-20T17:11:49.000",
    "date_modified": "2025-05-20T17:11:50.000",
    "request_status": "Pending",
    "responsible_agency": "Department of Sanitation",
    "final_address": "4481 De Montluzin St",
    "address_councildis": "D",
    "status": "Assigned to Contractor",
    "contractor": "IV Waste",
    "rowid": "1193846",
    "final_x": "3687279.03548",
    "final_y": "549535.731667",
    "longitude": "-90.04918471778284",
    "latitude": "30.00485584175965",
    "geocoded_column": {
      "latitude": "30.00485584175965",
      "longitude": "-90.04918471778284"
    }
  },
  {
    "service_request": "2025-1193845",
    "request_type": "Trash/Recycling",
    "request_reason": "Request a Large Item Pick Up",
    "date_created": "2025-05-20T17:11:03.000",
    "date_modified": "2025-05-20T17:11:06.000",
    "request_status": "Pending",
    "responsible_agency": "Department of Sanitation",
    "final_address": "3232 Jefferson Ave",
    "address_councildis": "A",
    "status": "Assigned to Contractor",
    "contractor": "IV Waste",
    "rowid": "1193845",
    "final_x": "3668565.46362",
    "final_y": "527225.824703",
    "longitude": "-90.10905793731077",
    "latitude": "29.944074487240353",
    "geocoded_column": {
      "latitude": "29.944074487240353",
      "longitude": "-90.10905793731077"
    }
  },
  {
    "service_request": "2025-1193844",
    "request_type": "Trash/Recycling",
    "request_reason": "Request a Large Item Pick Up",
    "date_created": "2025-05-20T17:11:03.000",
    "date_modified": "2025-05-20T17:11:05.000",
    "request_status": "Pending",
    "responsible_agency": "Department of Sanitation",
    "final_address": "3232 Jefferson Ave",
    "address_councildis": "A",
    "status": "Assigned to Contractor",
    "contractor": "IV Waste",
    "rowid": "1193844",
    "final_x": "3668565.46362",
    "final_y": "527225.824703",
    "longitude": "-90.10905793731077",
    "latitude": "29.944074487240353",
    "geocoded_column": {
      "latitude": "29.944074487240353",
      "longitude": "-90.10905793731077"
    }
  },
  {
    "service_request": "2025-1193843",
    "request_type": "Trash/Recycling",
    "request_reason": "Request a Large Item Pick Up",
    "date_created": "2025-05-20T17:08:01.000",
    "date_modified": "2025-05-20T17:08:03.000",
    "request_status": "Pending",
    "responsible_agency": "Department of Sanitation",
    "final_address": "2637 Milan St",
    "address_councildis": "B",
    "status": "Assigned to Contractor",
    "contractor": "IV Waste",
    "rowid": "1193843",
    "final_x": "3671265.52385",
    "final_y": "524732.00998",
    "longitude": "-90.10061778106343",
    "latitude": "29.937137706280648",
    "geocoded_column": {
      "latitude": "29.937137706280648",
      "longitude": "-90.10061778106343"
    }
  },
  {
    "service_request": "2025-1193842",
    "request_type": "Trash/Recycling",
    "request_reason": "Missed Trash Pick-Up",
    "date_created": "2025-05-20T17:04:23.000",
    "date_modified": "2025-05-20T17:04:25.000",
    "request_status": "Pending",
    "responsible_agency": "Department of Sanitation",
    "final_address": "330 40Th St",
    "address_councildis": "A",
    "status": "Assigned to Contractor",
    "contractor": "IV Waste",
    "rowid": "1193842",
    "final_x": "3665121.49908",
    "final_y": "553304.990423",
    "longitude": "-90.11905896821767",
    "latitude": "30.01588417436606",
    "geocoded_column": {
      "latitude": "30.01588417436606",
      "longitude": "-90.11905896821767"
    }
  },
  {
    "service_request": "2025-1193841",
    "request_type": "Trash/Recycling",
    "request_reason": "Order Recycling Cart",
    "date_created": "2025-05-20T17:02:31.000",
    "date_modified": "2025-05-20T17:02:37.000",
    "request_status": "Pending",
    "responsible_agency": "Department of Sanitation",
    "final_address": "330 40Th St",
    "address_councildis": "A",
    "status": "Pending",
    "rowid": "1193841",
    "final_x": "3665121.49908",
    "final_y": "553304.990423",
    "longitude": "-90.11905896821767",
    "latitude": "30.01588417436606",
    "geocoded_column": {
      "latitude": "30.01588417436606",
      "longitude": "-90.11905896821767"
    }
  },
  {
    "service_request": "2025-1193840",
    "request_type": "Roads and Streets",
    "request_reason": "Sidewalk Damaged or Missing",
    "date_created": "2025-05-20T16:52:49.000",
    "date_modified": "2025-05-20T16:52:52.000",
    "request_status": "Pending",
    "responsible_agency": "Department of Public Works",
    "final_address": "427 Royal St",
    "address_councildis": "C",
    "status": "Pending",
    "rowid": "1193840",
    "final_x": "3682002.21519",
    "final_y": "531781.935363",
    "longitude": "-90.06647536366056",
    "latitude": "29.956200658074405",
    "geocoded_column": {
      "latitude": "29.956200658074405",
      "longitude": "-90.06647536366056"
    }
  },
  {
    "service_request": "2025-1193839",
    "request_type": "Trash/Recycling",
    "request_reason": "Request a Large Item Pick Up",
    "date_created": "2025-05-20T16:51:25.000",
    "date_modified": "2025-05-20T16:51:27.000",
    "request_status": "Pending",
    "responsible_agency": "Department of Sanitation",
    "final_address": "231 N Anthony St",
    "address_councildis": "A",
    "status": "Assigned to Contractor",
    "contractor": "IV Waste",
    "rowid": "1193839",
    "final_x": "3668873.52564",
    "final_y": "540866.794379",
    "longitude": "-90.10762459303349",
    "latitude": "29.9815735769383",
    "geocoded_column": {
      "latitude": "29.9815735769383",
      "longitude": "-90.10762459303349"
    }
  },
  {
    "service_request": "2025-1193838",
    "request_type": "Trash/Recycling",
    "request_reason": "Return Recycling Cart",
    "date_created": "2025-05-20T16:48:48.000",
    "date_modified": "2025-05-20T16:48:49.000",
    "request_status": "Pending",
    "responsible_agency": "Department of Sanitation",
    "final_address": "235 S Olympia St",
    "address_councildis": "A",
    "status": "Pending",
    "rowid": "1193838",
    "final_x": "3668951.42094",
    "final_y": "539077.293258",
    "longitude": "-90.10743903232225",
    "latitude": "29.97665076237886",
    "geocoded_column": {
      "latitude": "29.97665076237886",
      "longitude": "-90.10743903232225"
    }
  },
  {
    "service_request": "2025-1193837",
    "request_type": "Street and Traffic Signs",
    "request_reason": "Additional Signage Request",
    "date_created": "2025-05-20T16:48:25.000",
    "date_modified": "2025-05-20T16:48:29.000",
    "request_status": "Pending",
    "responsible_agency": "Department of Public Works",
    "final_address": "Pontchartrain Expressway & South Carrollton Avenue",
    "address_councildis": "A",
    "status": "Pending",
    "rowid": "1193837",
    "final_x": "3668882.68372",
    "final_y": "535895.838087",
    "longitude": "-90.10776359827379",
    "latitude": "29.96790484911379",
    "geocoded_column": {
      "latitude": "29.96790484911379",
      "longitude": "-90.10776359827379"
    }
  },
  {
    "service_request": "2025-1193836",
    "request_type": "Trash/Recycling",
    "request_reason": "Repair Trash Cart",
    "date_created": "2025-05-20T16:44:56.000",
    "date_modified": "2025-05-20T16:44:59.000",
    "request_status": "Pending",
    "responsible_agency": "Department of Sanitation",
    "final_address": "6115 Wales St",
    "address_councildis": "E",
    "status": "Assigned to Contractor",
    "contractor": "Waste Pro",
    "rowid": "1193836",
    "final_x": "3695664.91773",
    "final_y": "559672.473565",
    "longitude": "-90.02232575261475",
    "latitude": "30.032466980889584",
    "geocoded_column": {
      "latitude": "30.032466980889584",
      "longitude": "-90.02232575261475"
    }
  },
  {
    "service_request": "2025-1193835",
    "request_type": "Trash/Recycling",
    "request_reason": "Request a Large Item Pick Up",
    "date_created": "2025-05-20T16:37:37.000",
    "date_modified": "2025-05-20T16:37:39.000",
    "request_status": "Pending",
    "responsible_agency": "Department of Sanitation",
    "final_address": "5734 Oxford Pl",
    "address_councildis": "C",
    "status": "Assigned to Contractor",
    "contractor": "Richards Disposal",
    "rowid": "1193835",
    "final_x": "3704697.72036",
    "final_y": "520028.8222",
    "longitude": "-89.99524457667796",
    "latitude": "29.92317427316268",
    "geocoded_column": {
      "latitude": "29.92317427316268",
      "longitude": "-89.99524457667796"
    }
  },
  {
    "service_request": "2025-1193834",
    "request_type": "Trash/Recycling",
    "request_reason": "Request a Large Item Pick Up",
    "date_created": "2025-05-20T16:24:47.000",
    "date_modified": "2025-05-20T16:24:50.000",
    "request_status": "Pending",
    "responsible_agency": "Department of Sanitation",
    "final_address": "6623 Foch Rd",
    "address_councildis": "D",
    "status": "Assigned to Contractor",
    "contractor": "Waste Pro",
    "rowid": "1193834",
    "final_x": "3696980.26282",
    "final_y": "555705.460121",
    "longitude": "-90.01831305289907",
    "latitude": "30.021517762753394",
    "geocoded_column": {
      "latitude": "30.021517762753394",
      "longitude": "-90.01831305289907"
    }
  },
  {
    "service_request": "2025-1193833",
    "request_type": "Trash/Recycling",
    "request_reason": "Order Trash Cart",
    "date_created": "2025-05-20T16:23:06.000",
    "date_modified": "2025-05-20T16:23:08.000",
    "request_status": "Pending",
    "responsible_agency": "Department of Sanitation",
    "final_address": "1851 Pratt Dr",
    "address_councildis": "D",
    "status": "Assigned to Contractor",
    "contractor": "IV Waste",
    "rowid": "1193833",
    "final_x": "3680503.87387",
    "final_y": "549831.308116",
    "longitude": "-90.07057852624389",
    "latitude": "30.005875610124114",
    "geocoded_column": {
      "latitude": "30.005875610124114",
      "longitude": "-90.07057852624389"
    }
  },
  {
    "service_request": "2025-1193832",
    "request_type": "Trash/Recycling",
    "request_reason": "Request a Large Item Pick Up",
    "date_created": "2025-05-20T16:21:27.000",
    "date_modified": "2025-05-20T16:21:30.000",
    "request_status": "Pending",
    "responsible_agency": "Department of Sanitation",
    "final_address": "2433 N Johnson St",
    "address_councildis": "D",
    "status": "Assigned to Contractor",
    "contractor": "IV Waste",
    "rowid": "1193832",
    "final_x": "3686537.81046",
    "final_y": "539796.916746",
    "longitude": "-90.05187047706515",
    "latitude": "29.978100404496303",
    "geocoded_column": {
      "latitude": "29.978100404496303",
      "longitude": "-90.05187047706515"
    }
  },
  {
    "service_request": "2025-1193831",
    "request_type": "Trash/Recycling",
    "request_reason": "Replace Trash Cart",
    "date_created": "2025-05-20T16:20:54.000",
    "date_modified": "2025-05-20T16:20:56.000",
    "request_status": "Pending",
    "responsible_agency": "Department of Sanitation",
    "final_address": "1208 Shirley Dr",
    "address_councildis": "C",
    "status": "Assigned to Contractor",
    "contractor": "Richards Disposal",
    "rowid": "1193831",
    "final_x": "3693205.96182",
    "final_y": "526749.093374",
    "longitude": "-90.0312784533957",
    "latitude": "29.94201672978545",
    "geocoded_column": {
      "latitude": "29.94201672978545",
      "longitude": "-90.0312784533957"
    }
  },
  {
    "service_request": "2025-1193830",
    "request_type": "Trash/Recycling",
    "request_reason": "Request a Large Item Pick Up",
    "date_created": "2025-05-20T16:11:29.000",
    "date_modified": "2025-05-20T16:11:31.000",
    "request_status": "Pending",
    "responsible_agency": "Department of Sanitation",
    "final_address": "5321 Edenboro Rd",
    "address_councildis": "E",
    "status": "Assigned to Contractor",
    "contractor": "Waste Pro",
    "rowid": "1193830",
    "final_x": "3708452.47089",
    "final_y": "557656.223963",
    "longitude": "-89.9819916087192",
    "latitude": "30.02651459445265",
    "geocoded_column": {
      "latitude": "30.02651459445265",
      "longitude": "-89.9819916087192"
    }
  },
  {
    "service_request": "2025-1193829",
    "request_type": "Trash/Recycling",
    "request_reason": "Repair Trash Cart",
    "date_created": "2025-05-20T16:08:44.000",
    "date_modified": "2025-05-20T16:08:46.000",
    "request_status": "Pending",
    "responsible_agency": "Department of Sanitation",
    "final_address": "5145 Montegut Dr",
    "address_councildis": "D",
    "status": "Assigned to Contractor",
    "contractor": "IV Waste",
    "rowid": "1193829",
    "final_x": "3689762.93475",
    "final_y": "552360.806806",
    "longitude": "-90.04123696086604",
    "latitude": "30.012546983698282",
    "geocoded_column": {
      "latitude": "30.012546983698282",
      "longitude": "-90.04123696086604"
    }
  },
  {
    "service_request": "2025-1193828",
    "request_type": "Roads and Streets",
    "request_reason": "Street Subsidence (Sinking)",
    "date_created": "2025-05-20T16:07:51.000",
    "date_modified": "2025-05-20T16:07:53.000",
    "request_status": "Pending",
    "responsible_agency": "Department of Public Works",
    "final_address": "N BROAD ST & BRUXELLES ST",
    "address_councildis": "D",
    "status": "Pending",
    "rowid": "1193828",
    "final_x": "3680390.7",
    "final_y": "541783.78",
    "longitude": "-90.07121610885085",
    "latitude": "29.98375118465391",
    "geocoded_column": {
      "latitude": "29.98375118465391",
      "longitude": "-90.07121610885085"
    }
  },
  {
    "service_request": "2025-1193827",
    "request_type": "Trash/Recycling",
    "request_reason": "Request a Large Item Pick Up",
    "date_created": "2025-05-20T16:07:23.000",
    "date_modified": "2025-05-20T16:07:26.000",
    "request_status": "Pending",
    "responsible_agency": "Department of Sanitation",
    "final_address": "3201 Iberville St",
    "address_councildis": "B",
    "status": "Assigned to Contractor",
    "contractor": "IV Waste",
    "rowid": "1193827",
    "final_x": "3674140.13012",
    "final_y": "536668.122055",
    "longitude": "-90.09113394591772",
    "latitude": "29.969872700782755",
    "geocoded_column": {
      "latitude": "29.969872700782755",
      "longitude": "-90.09113394591772"
    }
  },
  {
    "service_request": "2025-1193826",
    "request_type": "Trash/Recycling",
    "request_reason": "Missed Trash Pick-Up",
    "date_created": "2025-05-20T16:06:12.000",
    "date_modified": "2025-05-20T17:01:20.000",
    "request_status": "Pending",
    "responsible_agency": "Department of Sanitation",
    "final_address": "6933 Louisville St",
    "address_councildis": "A",
    "status": "Assigned to Contractor",
    "contractor": "IV Waste",
    "rowid": "1193826",
    "final_x": "3668411.58145",
    "final_y": "553597.987735",
    "longitude": "-90.1086538545582",
    "latitude": "30.01659353474216",
    "geocoded_column": {
      "latitude": "30.01659353474216",
      "longitude": "-90.1086538545582"
    }
  },
  {
    "service_request": "2025-1193825",
    "request_type": "Street and Traffic Signs",
    "request_reason": "Street Name Sign Damaged or Missing",
    "date_created": "2025-05-20T16:04:59.000",
    "date_modified": "2025-05-20T16:05:01.000",
    "request_status": "Pending",
    "responsible_agency": "Department of Public Works",
    "final_address": "N BROAD ST & BRUXELLES ST",
    "address_councildis": "D",
    "status": "Pending",
    "rowid": "1193825",
    "final_x": "3680390.7",
    "final_y": "541783.78",
    "longitude": "-90.07121610885085",
    "latitude": "29.98375118465391",
    "geocoded_column": {
      "latitude": "29.98375118465391",
      "longitude": "-90.07121610885085"
    }
  },
  {
    "service_request": "2025-1193824",
    "request_type": "Roads and Streets",
    "request_reason": "Street Subsidence (Sinking)",
    "date_created": "2025-05-20T16:02:14.000",
    "date_modified": "2025-05-20T16:02:16.000",
    "request_status": "Pending",
    "responsible_agency": "Department of Public Works",
    "final_address": "BIENVILLE ST & N GALVEZ ST",
    "address_councildis": "B",
    "status": "Pending",
    "rowid": "1193824",
    "final_x": "3677471.14",
    "final_y": "534457.37",
    "longitude": "-90.08069062036525",
    "latitude": "29.96369417032077",
    "geocoded_column": {
      "latitude": "29.96369417032077",
      "longitude": "-90.08069062036525"
    }
  },
  {
    "service_request": "2025-1193823",
    "request_type": "Parks & Parkways",
    "request_reason": "Request Tree Service (Right of Way/Public Property)",
    "date_created": "2025-05-20T16:00:13.000",
    "date_modified": "2025-05-20T16:00:14.000",
    "request_status": "Pending",
    "responsible_agency": "Department of Parks & Parkway",
    "final_address": "DABADIE ST & N BROAD ST",
    "address_councildis": "D",
    "status": "Pending",
    "rowid": "1193823",
    "final_x": "3679586.3",
    "final_y": "540713.38",
    "longitude": "-90.0737939971972",
    "latitude": "29.980832295385937",
    "geocoded_column": {
      "latitude": "29.980832295385937",
      "longitude": "-90.0737939971972"
    }
  },
  {
    "service_request": "2025-1193822",
    "request_type": "Streetlights",
    "request_reason": "Streetlight Outage/Malfunction",
    "date_created": "2025-05-20T15:59:47.000",
    "date_modified": "2025-05-20T15:59:49.000",
    "request_status": "Pending",
    "responsible_agency": "Department of Public Works",
    "final_address": "5400 St Bernard Ave",
    "address_councildis": "D",
    "status": "Pending",
    "contractor": "Legacy Professional Services",
    "rowid": "1193822",
    "final_x": "3676827.75189",
    "final_y": "552195.292886",
    "longitude": "-90.08211071448703",
    "latitude": "30.0124866058475",
    "geocoded_column": {
      "latitude": "30.0124866058475",
      "longitude": "-90.08211071448703"
    }
  },
  {
    "service_request": "2025-1193821",
    "request_type": "Trash/Recycling",
    "request_reason": "Request a Large Item Pick Up",
    "date_created": "2025-05-20T15:57:09.000",
    "date_modified": "2025-05-20T15:57:11.000",
    "request_status": "Pending",
    "responsible_agency": "Department of Sanitation",
    "final_address": "11413 Campbell Ln",
    "address_councildis": "E",
    "status": "Assigned to Contractor",
    "contractor": "Waste Pro",
    "rowid": "1193821",
    "final_x": "3717945.89017",
    "final_y": "561396.461726",
    "longitude": "-89.9518513384824",
    "latitude": "30.036487477477632",
    "geocoded_column": {
      "latitude": "30.036487477477632",
      "longitude": "-89.9518513384824"
    }
  },
  {
    "service_request": "2025-1193820",
    "request_type": "Trash/Recycling",
    "request_reason": "Request a Large Item Pick Up",
    "date_created": "2025-05-20T15:54:23.000",
    "date_modified": "2025-05-20T15:54:25.000",
    "request_status": "Pending",
    "responsible_agency": "Department of Sanitation",
    "final_address": "2200 Charbonnet St",
    "address_councildis": "E",
    "status": "Assigned to Contractor",
    "contractor": "Waste Pro",
    "rowid": "1193820",
    "final_x": "3699659.36304",
    "final_y": "537787.7458",
    "longitude": "-90.01050147225612",
    "latitude": "29.972165886684184",
    "geocoded_column": {
      "latitude": "29.972165886684184",
      "longitude": "-90.01050147225612"
    }
  },
  {
    "service_request": "2025-1193819",
    "request_type": "Drainage",
    "request_reason": "Drainage Manhole Cover Missing or Damaged",
    "date_created": "2025-05-20T15:53:28.000",
    "date_modified": "2025-05-20T15:53:30.000",
    "request_status": "Pending",
    "responsible_agency": "Sewerage & Water Board",
    "final_address": "2517 Cambronne St",
    "address_councildis": "A",
    "status": "Pending",
    "rowid": "1193819",
    "final_x": "3664452.73562",
    "final_y": "532658.326916",
    "longitude": "-90.12186167821777",
    "latitude": "29.959132296690953",
    "geocoded_column": {
      "latitude": "29.959132296690953",
      "longitude": "-90.12186167821777"
    }
  },
  {
    "service_request": "2025-1193818",
    "request_type": "Trash/Recycling",
    "request_reason": "Request a Large Item Pick Up",
    "date_created": "2025-05-20T15:49:44.000",
    "date_modified": "2025-05-20T17:01:32.000",
    "request_status": "Pending",
    "responsible_agency": "Department of Sanitation",
    "final_address": "5105 Arts St",
    "address_councildis": "D",
    "status": "Assigned to Contractor",
    "contractor": "IV Waste",
    "rowid": "1193818",
    "final_x": "3685923.80489",
    "final_y": "551569.414869",
    "longitude": "-90.05339438969244",
    "latitude": "30.010489422674272",
    "geocoded_column": {
      "latitude": "30.010489422674272",
      "longitude": "-90.05339438969244"
    }
  },
  {
    "service_request": "2025-1193817",
    "request_type": "Trash/Recycling",
    "request_reason": "Order Recycling Cart",
    "date_created": "2025-05-20T15:48:08.000",
    "date_modified": "2025-05-20T15:48:12.000",
    "request_status": "Pending",
    "responsible_agency": "Department of Sanitation",
    "final_address": "3421 Palmyra St",
    "address_councildis": "B",
    "status": "Pending",
    "rowid": "1193817",
    "final_x": "3672513.06964",
    "final_y": "536315.702919",
    "longitude": "-90.0962843832652",
    "latitude": "29.968952067520373",
    "geocoded_column": {
      "latitude": "29.968952067520373",
      "longitude": "-90.0962843832652"
    }
  },
  {
    "service_request": "2025-1193816",
    "request_type": "Trash/Recycling",
    "request_reason": "Request a Large Item Pick Up",
    "date_created": "2025-05-20T15:46:22.000",
    "date_modified": "2025-05-20T15:49:19.000",
    "request_status": "Pending",
    "responsible_agency": "Department of Sanitation",
    "final_address": "3701 Delgado Dr",
    "address_councildis": "A",
    "status": "Assigned to Contractor",
    "contractor": "IV Waste",
    "rowid": "1193816",
    "final_x": "3674311.29409",
    "final_y": "540561.876555",
    "longitude": "-90.09046001124534",
    "latitude": "29.980574095172003",
    "geocoded_column": {
      "latitude": "29.980574095172003",
      "longitude": "-90.09046001124534"
    }
  },
  {
    "service_request": "2025-1193815",
    "request_type": "Drainage",
    "request_reason": "Catch Basin Clogged",
    "date_created": "2025-05-20T15:43:03.000",
    "date_modified": "2025-05-20T15:43:05.000",
    "request_status": "Pending",
    "responsible_agency": "Sewerage & Water Board",
    "final_address": "1600 BLK Pine St",
    "address_councildis": "A",
    "status": "Pending",
    "rowid": "1193815",
    "final_x": "3664807.00664",
    "final_y": "527982.749268",
    "longitude": "-90.12089919654548",
    "latitude": "29.946265670655166",
    "geocoded_column": {
      "latitude": "29.946265670655166",
      "longitude": "-90.12089919654548"
    }
  },
  {
    "service_request": "2025-1193814",
    "request_type": "Trash/Recycling",
    "request_reason": "Request a Large Item Pick Up",
    "date_created": "2025-05-20T15:42:58.000",
    "date_modified": "2025-05-20T15:43:01.000",
    "request_status": "Pending",
    "responsible_agency": "Department of Sanitation",
    "final_address": "4950 Major Dr",
    "address_councildis": "E",
    "status": "Assigned to Contractor",
    "contractor": "Waste Pro",
    "rowid": "1193814",
    "final_x": "3718055.17106",
    "final_y": "558200.423579",
    "longitude": "-89.95162778419986",
    "latitude": "30.027696037188395",
    "geocoded_column": {
      "latitude": "30.027696037188395",
      "longitude": "-89.95162778419986"
    }
  },
  {
    "service_request": "2025-1193813",
    "request_type": "Trash/Recycling",
    "request_reason": "Missed Trash Pick-Up",
    "date_created": "2025-05-20T15:40:39.000",
    "date_modified": "2025-05-20T15:40:42.000",
    "request_status": "Pending",
    "responsible_agency": "Department of Sanitation",
    "final_address": "3421 Palmyra St",
    "address_councildis": "B",
    "status": "Assigned to Contractor",
    "contractor": "IV Waste",
    "rowid": "1193813",
    "final_x": "3672513.06964",
    "final_y": "536315.702919",
    "longitude": "-90.0962843832652",
    "latitude": "29.968952067520373",
    "geocoded_column": {
      "latitude": "29.968952067520373",
      "longitude": "-90.0962843832652"
    }
  },
  {
    "service_request": "2025-1193812",
    "request_type": "Trash/Recycling",
    "request_reason": "Request a Large Item Pick Up",
    "date_created": "2025-05-20T15:40:14.000",
    "date_modified": "2025-05-20T15:40:16.000",
    "request_status": "Pending",
    "responsible_agency": "Department of Sanitation",
    "final_address": "1524 St Mary St",
    "address_councildis": "B",
    "status": "Assigned to Contractor",
    "contractor": "IV Waste",
    "rowid": "1193812",
    "final_x": "3678520.29608",
    "final_y": "524047.648188",
    "longitude": "-90.07773770634712",
    "latitude": "29.935039336339152",
    "geocoded_column": {
      "latitude": "29.935039336339152",
      "longitude": "-90.07773770634712"
    }
  },
  {
    "service_request": "2025-1193811",
    "request_type": "Trash/Recycling",
    "request_reason": "Replace Recycling Cart",
    "date_created": "2025-05-20T15:37:54.000",
    "date_modified": "2025-05-20T15:37:55.000",
    "request_status": "Pending",
    "responsible_agency": "Department of Sanitation",
    "final_address": "1827 S Rampart St",
    "address_councildis": "B",
    "status": "Pending",
    "rowid": "1193811",
    "final_x": "3677111.03157",
    "final_y": "525601.886525",
    "longitude": "-90.08213316809328",
    "latitude": "29.939355367710505",
    "geocoded_column": {
      "latitude": "29.939355367710505",
      "longitude": "-90.08213316809328"
    }
  },
  {
    "service_request": "2025-1193810",
    "request_type": "Parks & Parkways",
    "request_reason": "Request Grass Cutting Service (City Owned Property)",
    "date_created": "2025-05-20T15:36:27.000",
    "date_modified": "2025-05-20T15:36:29.000",
    "request_status": "Pending",
    "responsible_agency": "Department of Parks & Parkway",
    "final_address": "11041 Lake Forest Blvd",
    "address_councildis": "E",
    "status": "Pending",
    "rowid": "1193810",
    "final_x": "3714565.06853",
    "final_y": "560688.57763",
    "longitude": "-89.96256206915868",
    "latitude": "30.034652723747598",
    "geocoded_column": {
      "latitude": "30.034652723747598",
      "longitude": "-89.96256206915868"
    }
  },
  {
    "service_request": "2025-1193809",
    "request_type": "Roads and Streets",
    "request_reason": "Push-up/Pavement Expansion",
    "date_created": "2025-05-20T15:32:51.000",
    "date_modified": "2025-05-20T15:32:54.000",
    "request_status": "Pending",
    "responsible_agency": "Department of Public Works",
    "final_address": "11041 Lake Forest Blvd",
    "address_councildis": "E",
    "status": "Pending",
    "rowid": "1193809",
    "final_x": "3714565.06853",
    "final_y": "560688.57763",
    "longitude": "-89.96256206915868",
    "latitude": "30.034652723747598",
    "geocoded_column": {
      "latitude": "30.034652723747598",
      "longitude": "-89.96256206915868"
    }
  },
  {
    "service_request": "2025-1193808",
    "request_type": "Trash/Recycling",
    "request_reason": "Request a Large Item Pick Up",
    "date_created": "2025-05-20T15:32:07.000",
    "date_modified": "2025-05-20T15:32:10.000",
    "request_status": "Pending",
    "responsible_agency": "Department of Sanitation",
    "final_address": "1012 Jefferson Ave",
    "address_councildis": "A",
    "status": "Assigned to Contractor",
    "contractor": "IV Waste",
    "rowid": "1193808",
    "final_x": "3666781.19469",
    "final_y": "519287.934583",
    "longitude": "-90.11495787901673",
    "latitude": "29.92230011833935",
    "geocoded_column": {
      "latitude": "29.92230011833935",
      "longitude": "-90.11495787901673"
    }
  },
  {
    "service_request": "2025-1193807",
    "request_type": "Abandoned Vehicles",
    "request_reason": "Abandoned/Junk Vehicles",
    "date_created": "2025-05-20T15:29:25.000",
    "date_modified": "2025-05-20T15:29:27.000",
    "request_status": "Pending",
    "responsible_agency": "Department of Public Works",
    "final_address": "1309 Bordeaux St",
    "address_councildis": "B",
    "status": "Pending",
    "rowid": "1193807",
    "final_x": "3669490.02938",
    "final_y": "520000.950392",
    "longitude": "-90.10638307377586",
    "latitude": "29.924181208395733",
    "geocoded_column": {
      "latitude": "29.924181208395733",
      "longitude": "-90.10638307377586"
    }
  },
  {
    "service_request": "2025-1193806",
    "request_type": "Utility Poles",
    "request_reason": "Utility Pole Down",
    "date_created": "2025-05-20T15:28:58.000",
    "date_modified": "2025-05-20T15:29:01.000",
    "request_status": "Pending",
    "responsible_agency": "Utility Company Collective",
    "final_address": "11041 Lake Forest Blvd",
    "address_councildis": "E",
    "status": "Pending",
    "rowid": "1193806",
    "final_x": "3714565.06853",
    "final_y": "560688.57763",
    "longitude": "-89.96256206915868",
    "latitude": "30.034652723747598",
    "geocoded_column": {
      "latitude": "30.034652723747598",
      "longitude": "-89.96256206915868"
    }
  },
  {
    "service_request": "2025-1193805",
    "request_type": "Trash/Recycling",
    "request_reason": "Start Trash Service",
    "date_created": "2025-05-20T15:27:30.000",
    "date_modified": "2025-05-20T15:27:33.000",
    "request_status": "Pending",
    "responsible_agency": "Department of Sanitation",
    "final_address": "1825 Gordon St",
    "address_councildis": "E",
    "status": "Assigned to Contractor",
    "contractor": "Waste Pro",
    "rowid": "1193805",
    "final_x": "3700287.1882",
    "final_y": "536124.832455",
    "longitude": "-90.00857942588374",
    "latitude": "29.9675735304615",
    "geocoded_column": {
      "latitude": "29.9675735304615",
      "longitude": "-90.00857942588374"
    }
  },
  {
    "service_request": "2025-1193804",
    "request_type": "Trash/Recycling",
    "request_reason": "Missed Trash Pick-Up",
    "date_created": "2025-05-20T15:26:39.000",
    "date_modified": "2025-05-20T15:35:55.000",
    "request_status": "Pending",
    "responsible_agency": "Department of Sanitation",
    "final_address": "10132 Lincoln Beach Blvd",
    "address_councildis": "E",
    "status": "Assigned to Contractor",
    "contractor": "Waste Pro",
    "rowid": "1193804",
    "final_x": "3707960.37867",
    "final_y": "565978.790563",
    "longitude": "-89.9832366891367",
    "latitude": "30.04941430103959",
    "geocoded_column": {
      "latitude": "30.04941430103959",
      "longitude": "-89.9832366891367"
    }
  },
  {
    "service_request": "2025-1193803",
    "request_type": "Trash/Recycling",
    "request_reason": "Order Trash Cart",
    "date_created": "2025-05-20T15:25:49.000",
    "date_modified": "2025-05-20T15:25:50.000",
    "request_status": "Pending",
    "responsible_agency": "Department of Sanitation",
    "final_address": "10821 Roger Dr Unit B",
    "address_councildis": "E",
    "status": "Assigned to Contractor",
    "contractor": "Waste Pro",
    "rowid": "1193803",
    "final_x": "3711705.66078",
    "final_y": "563207.36752",
    "longitude": "-89.97150352275621",
    "latitude": "30.041672135266495",
    "geocoded_column": {
      "latitude": "30.041672135266495",
      "longitude": "-89.97150352275621"
    }
  },
  {
    "service_request": "2025-1193802",
    "request_type": "Abandoned Vehicles",
    "request_reason": "Abandoned/Junk Vehicles",
    "date_created": "2025-05-20T15:25:12.000",
    "date_modified": "2025-05-20T15:25:14.000",
    "request_status": "Pending",
    "responsible_agency": "Department of Public Works",
    "final_address": "3900 BLK N dOrgenois St",
    "address_councildis": "D",
    "status": "Pending",
    "rowid": "1193802",
    "final_x": "3692958.4605",
    "final_y": "540618.551425",
    "longitude": "-90.03156238729468",
    "latitude": "29.98016060194618",
    "geocoded_column": {
      "latitude": "29.98016060194618",
      "longitude": "-90.03156238729468"
    }
  },
  {
    "service_request": "2025-1193801",
    "request_type": "Property Maintenance",
    "request_reason": "Property Maintenance",
    "date_created": "2025-05-20T15:24:55.000",
    "date_modified": "2025-05-20T15:29:13.000",
    "request_status": "Pending",
    "responsible_agency": "Department of Code Enforcement",
    "final_address": "ST BERNARD AVE & N DERBIGNY ST",
    "address_councildis": "D",
    "status": "Pending",
    "rowid": "1193801",
    "final_x": "3682026.3",
    "final_y": "538179.18",
    "longitude": "-90.06617592142399",
    "latitude": "29.97379015300242",
    "geocoded_column": {
      "latitude": "29.97379015300242",
      "longitude": "-90.06617592142399"
    }
  },
  {
    "service_request": "2025-1193800",
    "request_type": "Abandoned Vehicles",
    "request_reason": "Abandoned/Junk Vehicles",
    "date_created": "2025-05-20T15:24:15.000",
    "date_modified": "2025-05-20T15:24:17.000",
    "request_status": "Pending",
    "responsible_agency": "Department of Public Works",
    "final_address": "DREUX AVE & DOWNMAN RD",
    "address_councildis": "D",
    "status": "Pending",
    "rowid": "1193800",
    "final_x": "3695997.2",
    "final_y": "553769.58",
    "longitude": "-90.02148928044049",
    "latitude": "30.016225808033237",
    "geocoded_column": {
      "latitude": "30.016225808033237",
      "longitude": "-90.02148928044049"
    }
  },
  {
    "service_request": "2025-1193799",
    "request_type": "Trash/Recycling",
    "request_reason": "Request a Large Item Pick Up",
    "date_created": "2025-05-20T15:24:00.000",
    "date_modified": "2025-05-20T15:24:02.000",
    "request_status": "Pending",
    "responsible_agency": "Department of Sanitation",
    "final_address": "3518 General Meyer Ave",
    "address_councildis": "C",
    "status": "Assigned to Contractor",
    "contractor": "Richards Disposal",
    "rowid": "1193799",
    "final_x": "3697045.8392",
    "final_y": "525907.900285",
    "longitude": "-90.01918566686263",
    "latitude": "29.939583203833813",
    "geocoded_column": {
      "latitude": "29.939583203833813",
      "longitude": "-90.01918566686263"
    }
  },
  {
    "service_request": "2025-1193798",
    "request_type": "Trash/Recycling",
    "request_reason": "Order Trash Cart",
    "date_created": "2025-05-20T15:23:21.000",
    "date_modified": "2025-05-20T15:23:23.000",
    "request_status": "Pending",
    "responsible_agency": "Department of Sanitation",
    "final_address": "1825 Gordon St",
    "address_councildis": "E",
    "status": "Assigned to Contractor",
    "contractor": "Waste Pro",
    "rowid": "1193798",
    "final_x": "3700287.1882",
    "final_y": "536124.832455",
    "longitude": "-90.00857942588374",
    "latitude": "29.9675735304615",
    "geocoded_column": {
      "latitude": "29.9675735304615",
      "longitude": "-90.00857942588374"
    }
  },
  {
    "service_request": "2025-1193797",
    "request_type": "Abandoned Vehicles",
    "request_reason": "Abandoned/Junk Vehicles",
    "date_created": "2025-05-20T15:22:19.000",
    "date_modified": "2025-05-20T15:22:21.000",
    "request_status": "Pending",
    "responsible_agency": "Department of Public Works",
    "final_address": "1800 BLK N Robertson St",
    "address_councildis": "C",
    "status": "Pending",
    "rowid": "1193797",
    "final_x": "3683576.58721",
    "final_y": "537670.222019",
    "longitude": "-90.06129762589731",
    "latitude": "29.97234346365819",
    "geocoded_column": {
      "latitude": "29.97234346365819",
      "longitude": "-90.06129762589731"
    }
  },
  {
    "service_request": "2025-1193796",
    "request_type": "Trash/Recycling",
    "request_reason": "Request a Large Item Pick Up",
    "date_created": "2025-05-20T15:21:48.000",
    "date_modified": "2025-05-20T15:21:50.000",
    "request_status": "Pending",
    "responsible_agency": "Department of Sanitation",
    "final_address": "4910 Crowder Blvd",
    "address_councildis": "E",
    "status": "Assigned to Contractor",
    "contractor": "Waste Pro",
    "rowid": "1193796",
    "final_x": "3706262.54276",
    "final_y": "556337.98793",
    "longitude": "-89.98896035101382",
    "latitude": "30.022960790465675",
    "geocoded_column": {
      "latitude": "30.022960790465675",
      "longitude": "-89.98896035101382"
    }
  },
  {
    "service_request": "2025-1193795",
    "request_type": "Abandoned Vehicles",
    "request_reason": "Abandoned/Junk Vehicles",
    "date_created": "2025-05-20T15:19:55.000",
    "date_modified": "2025-05-20T15:19:57.000",
    "request_status": "Pending",
    "responsible_agency": "Department of Public Works",
    "final_address": "2600 BLK Alvar St",
    "address_councildis": "D",
    "status": "Pending",
    "rowid": "1193795",
    "final_x": "3693014.75731",
    "final_y": "541500.864949",
    "longitude": "-90.03135291455571",
    "latitude": "29.982584888596566",
    "geocoded_column": {
      "latitude": "29.982584888596566",
      "longitude": "-90.03135291455571"
    }
  },
  {
    "service_request": "2025-1193794",
    "request_type": "Trash/Recycling",
    "request_reason": "Illegal Dumping",
    "date_created": "2025-05-20T15:18:51.000",
    "date_modified": "2025-05-20T15:18:53.000",
    "request_status": "Pending",
    "responsible_agency": "Department of Sanitation",
    "final_address": "1800 BLK Old Roman St",
    "address_councildis": "D",
    "status": "Pending",
    "rowid": "1193794",
    "final_x": "3682401.06594",
    "final_y": "539259.842528",
    "longitude": "-90.06495455014746",
    "latitude": "29.976750198221154",
    "geocoded_column": {
      "latitude": "29.976750198221154",
      "longitude": "-90.06495455014746"
    }
  },
  {
    "service_request": "2025-1193793",
    "request_type": "Abandoned Vehicles",
    "request_reason": "Abandoned/Junk Vehicles",
    "date_created": "2025-05-20T15:17:00.000",
    "date_modified": "2025-05-20T15:17:02.000",
    "request_status": "Pending",
    "responsible_agency": "Department of Public Works",
    "final_address": "1800 BLK N Viller St",
    "address_councildis": "C",
    "status": "Pending",
    "rowid": "1193793",
    "final_x": "3683605.70165",
    "final_y": "537302.31265",
    "longitude": "-90.06121857725338",
    "latitude": "29.971330951894533",
    "geocoded_column": {
      "latitude": "29.971330951894533",
      "longitude": "-90.06121857725338"
    }
  },
  {
    "service_request": "2025-1193792",
    "request_type": "Parks & Parkways",
    "request_reason": "Request Tree Service (Right of Way/Public Property)",
    "date_created": "2025-05-20T15:16:45.000",
    "date_modified": "2025-05-20T15:16:47.000",
    "request_status": "Pending",
    "responsible_agency": "Department of Parks & Parkway",
    "final_address": "1113 Jena St",
    "address_councildis": "B",
    "status": "Pending",
    "rowid": "1193792",
    "final_x": "3670605.88929",
    "final_y": "519611.00876",
    "longitude": "-90.10287390431982",
    "latitude": "29.923076091422637",
    "geocoded_column": {
      "latitude": "29.923076091422637",
      "longitude": "-90.10287390431982"
    }
  },
  {
    "service_request": "2025-1193791",
    "request_type": "Streetlights",
    "request_reason": "Streetlight Outage/Malfunction",
    "date_created": "2025-05-20T15:16:08.000",
    "date_modified": "2025-05-20T15:16:10.000",
    "request_status": "Pending",
    "responsible_agency": "Department of Public Works",
    "final_address": "3436 River Oaks Dr",
    "address_councildis": "C",
    "status": "Pending",
    "contractor": "Legacy Professional Services",
    "rowid": "1193791",
    "final_x": "3701469.44311",
    "final_y": "518391.155254",
    "longitude": "-90.0054948484796",
    "latitude": "29.918774517008956",
    "geocoded_column": {
      "latitude": "29.918774517008956",
      "longitude": "-90.0054948484796"
    }
  },
  {
    "service_request": "2025-1193790",
    "request_type": "Property Maintenance",
    "request_reason": "Property Maintenance",
    "date_created": "2025-05-20T15:15:56.000",
    "date_modified": "2025-05-20T15:15:59.000",
    "request_status": "Pending",
    "responsible_agency": "Department of Code Enforcement",
    "final_address": "800 BLK Greenwood St",
    "address_councildis": "A",
    "status": "Pending",
    "rowid": "1193790",
    "final_x": "3668797.34642",
    "final_y": "542839.900984",
    "longitude": "-90.10779854883424",
    "latitude": "29.987001189697917",
    "geocoded_column": {
      "latitude": "29.987001189697917",
      "longitude": "-90.10779854883424"
    }
  },
  {
    "service_request": "2025-1193789",
    "request_type": "Streetlights",
    "request_reason": "Streetlight Outage/Malfunction",
    "date_created": "2025-05-20T15:14:26.000",
    "date_modified": "2025-05-20T15:14:29.000",
    "request_status": "Pending",
    "responsible_agency": "Department of Public Works",
    "final_address": "3318 River Oaks Dr",
    "address_councildis": "C",
    "status": "Pending",
    "contractor": "Legacy Professional Services",
    "rowid": "1193789",
    "final_x": "3701487.20426",
    "final_y": "518914.795959",
    "longitude": "-90.00541963123625",
    "latitude": "29.920213783405373",
    "geocoded_column": {
      "latitude": "29.920213783405373",
      "longitude": "-90.00541963123625"
    }
  },
  {
    "service_request": "2025-1193788",
    "request_type": "Streetlights",
    "request_reason": "Streetlight Outage/Malfunction",
    "date_created": "2025-05-20T15:13:03.000",
    "date_modified": "2025-05-20T15:13:05.000",
    "request_status": "Pending",
    "responsible_agency": "Department of Public Works",
    "final_address": "3234 River Oaks Dr",
    "address_councildis": "C",
    "status": "Pending",
    "contractor": "Legacy Professional Services",
    "rowid": "1193788",
    "final_x": "3701495.42116",
    "final_y": "519215.877623",
    "longitude": "-90.00538268044542",
    "latitude": "29.921041392758315",
    "geocoded_column": {
      "latitude": "29.921041392758315",
      "longitude": "-90.00538268044542"
    }
  },
  {
    "service_request": "2025-1193787",
    "request_type": "Streetlights",
    "request_reason": "Streetlight Outage/Malfunction",
    "date_created": "2025-05-20T15:12:08.000",
    "date_modified": "2025-05-20T15:12:09.000",
    "request_status": "Pending",
    "responsible_agency": "Department of Public Works",
    "final_address": "3200 River Oaks Dr",
    "address_councildis": "C",
    "status": "Pending",
    "contractor": "Legacy Professional Services",
    "rowid": "1193787",
    "final_x": "3701501.84375",
    "final_y": "519451.431223",
    "longitude": "-90.00535379010971",
    "latitude": "29.921688879545165",
    "geocoded_column": {
      "latitude": "29.921688879545165",
      "longitude": "-90.00535379010971"
    }
  },
  {
    "service_request": "2025-1193786",
    "request_type": "Streetlights",
    "request_reason": "Streetlight Outage/Malfunction",
    "date_created": "2025-05-20T15:10:38.000",
    "date_modified": "2025-05-20T15:10:40.000",
    "request_status": "Pending",
    "responsible_agency": "Department of Public Works",
    "final_address": "3300 River Oaks Dr",
    "address_councildis": "C",
    "status": "Pending",
    "contractor": "Legacy Professional Services",
    "rowid": "1193786",
    "final_x": "3701491.70474",
    "final_y": "519042.768119",
    "longitude": "-90.00540074406511",
    "latitude": "29.920565519502517",
    "geocoded_column": {
      "latitude": "29.920565519502517",
      "longitude": "-90.00540074406511"
    }
  },
  {
    "service_request": "2025-1193785",
    "request_type": "Abandoned Vehicles",
    "request_reason": "Abandoned/Junk Vehicles",
    "date_created": "2025-05-20T15:10:30.000",
    "date_modified": "2025-05-20T15:20:13.000",
    "request_status": "Pending",
    "responsible_agency": "Department of Public Works",
    "final_address": "7800 BLK Buffalo St",
    "address_councildis": "E",
    "status": "Inspected",
    "rowid": "1193785",
    "final_x": "3719691.47429",
    "final_y": "573715.080048",
    "longitude": "-89.9458636229248",
    "latitude": "30.070300592445996",
    "geocoded_column": {
      "latitude": "30.070300592445996",
      "longitude": "-89.9458636229248"
    }
  },
  {
    "service_request": "2025-1193784",
    "request_type": "Streetlights",
    "request_reason": "Streetlight Outage/Malfunction",
    "date_created": "2025-05-20T15:09:33.000",
    "date_modified": "2025-05-20T15:09:34.000",
    "request_status": "Pending",
    "responsible_agency": "Department of Public Works",
    "final_address": "2039 Law St",
    "address_councildis": "D",
    "status": "Pending",
    "contractor": "Legacy Professional Services",
    "rowid": "1193784",
    "final_x": "3682786.54895",
    "final_y": "541721.326604",
    "longitude": "-90.06365093206777",
    "latitude": "29.983506679664536",
    "geocoded_column": {
      "latitude": "29.983506679664536",
      "longitude": "-90.06365093206777"
    }
  },
  {
    "service_request": "2025-1193783",
    "request_type": "Trash/Recycling",
    "request_reason": "Illegal Dumping",
    "date_created": "2025-05-20T15:05:59.000",
    "date_modified": "2025-05-20T15:06:01.000",
    "request_status": "Pending",
    "responsible_agency": "Department of Sanitation",
    "final_address": "MONTICELLO AVE & PRITCHARD PL",
    "address_councildis": "A",
    "status": "Pending",
    "rowid": "1193783",
    "final_x": "3662609.3",
    "final_y": "536032.98",
    "longitude": "-90.12757068855134",
    "latitude": "29.968464952479756",
    "geocoded_column": {
      "latitude": "29.968464952479756",
      "longitude": "-90.12757068855134"
    }
  },
  {
    "service_request": "2025-1193782",
    "request_type": "Abandoned Vehicles",
    "request_reason": "Abandoned/Junk Vehicles",
    "date_created": "2025-05-20T15:04:55.000",
    "date_modified": "2025-05-20T15:04:56.000",
    "request_status": "Pending",
    "responsible_agency": "Department of Public Works",
    "final_address": "900 BLK Desire St",
    "address_councildis": "C",
    "status": "Pending",
    "rowid": "1193782",
    "final_x": "3690030.71406",
    "final_y": "535094.711094",
    "longitude": "-90.04100618121612",
    "latitude": "29.965063124064216",
    "geocoded_column": {
      "latitude": "29.965063124064216",
      "longitude": "-90.04100618121612"
    }
  },
  {
    "service_request": "2025-1193781",
    "request_type": "Trash/Recycling",
    "request_reason": "Request a Large Item Pick Up",
    "date_created": "2025-05-20T15:02:29.000",
    "date_modified": "2025-05-20T15:02:30.000",
    "request_status": "Pending",
    "responsible_agency": "Department of Sanitation",
    "final_address": "4352 Ray Ave",
    "address_councildis": "E",
    "status": "Assigned to Contractor",
    "contractor": "Waste Pro",
    "rowid": "1193781",
    "final_x": "3698916.28298",
    "final_y": "552312.63599",
    "longitude": "-90.01231938164742",
    "latitude": "30.01212754724861",
    "geocoded_column": {
      "latitude": "30.01212754724861",
      "longitude": "-90.01231938164742"
    }
  },
  {
    "service_request": "2025-1193780",
    "request_type": "Property Maintenance",
    "request_reason": "Property Maintenance",
    "date_created": "2025-05-20T15:01:40.000",
    "date_modified": "2025-05-20T15:01:41.000",
    "request_status": "Pending",
    "responsible_agency": "Department of Code Enforcement",
    "final_address": "1501 Shirley Dr",
    "address_councildis": "C",
    "status": "Pending",
    "rowid": "1193780",
    "final_x": "3692978.92445",
    "final_y": "525395.751229",
    "longitude": "-90.03204378026496",
    "latitude": "29.938302595042455",
    "geocoded_column": {
      "latitude": "29.938302595042455",
      "longitude": "-90.03204378026496"
    }
  },
  {
    "service_request": "2025-1193779",
    "request_type": "Street and Traffic Signs",
    "request_reason": "Additional Signage Request",
    "date_created": "2025-05-20T15:00:28.000",
    "date_modified": "2025-05-20T15:00:30.000",
    "request_status": "Pending",
    "responsible_agency": "Department of Public Works",
    "final_address": "131 S Robertson St",
    "address_councildis": "B",
    "status": "Pending",
    "rowid": "1193779",
    "final_x": "3678477.12283",
    "final_y": "532316.255299",
    "longitude": "-90.0775879267066",
    "latitude": "29.957776552116357",
    "geocoded_column": {
      "latitude": "29.957776552116357",
      "longitude": "-90.0775879267066"
    }
  },
  {
    "service_request": "2025-1193778",
    "request_type": "Trash/Recycling",
    "request_reason": "Repair Recycling Cart",
    "date_created": "2025-05-20T14:56:41.000",
    "date_modified": "2025-05-20T14:56:43.000",
    "request_status": "Pending",
    "responsible_agency": "Department of Sanitation",
    "final_address": "1229 Touro St",
    "address_councildis": "C",
    "status": "Pending",
    "rowid": "1193778",
    "final_x": "3684212.59471",
    "final_y": "536850.520648",
    "longitude": "-90.05931779058334",
    "latitude": "29.970070140365426",
    "geocoded_column": {
      "latitude": "29.970070140365426",
      "longitude": "-90.05931779058334"
    }
  },
  {
    "service_request": "2025-1193777",
    "request_type": "Abandoned Vehicles",
    "request_reason": "Abandoned/Junk Vehicles",
    "date_created": "2025-05-20T14:53:32.000",
    "date_modified": "2025-05-20T14:53:34.000",
    "request_status": "Pending",
    "responsible_agency": "Department of Public Works",
    "final_address": "2514 Cambronne St",
    "address_councildis": "A",
    "status": "Pending",
    "rowid": "1193777",
    "final_x": "3664380.24896",
    "final_y": "532691.168772",
    "longitude": "-90.12208947807493",
    "latitude": "29.959224708177018",
    "geocoded_column": {
      "latitude": "29.959224708177018",
      "longitude": "-90.12208947807493"
    }
  },
  {
    "service_request": "2025-1193776",
    "request_type": "Trash/Recycling",
    "request_reason": "Replace Trash Cart",
    "date_created": "2025-05-20T14:51:20.000",
    "date_modified": "2025-05-20T14:51:23.000",
    "request_status": "Pending",
    "responsible_agency": "Department of Sanitation",
    "final_address": "2514 Cambronne St",
    "address_councildis": "A",
    "status": "Assigned to Contractor",
    "contractor": "IV Waste",
    "rowid": "1193776",
    "final_x": "3664380.24896",
    "final_y": "532691.168772",
    "longitude": "-90.12208947807493",
    "latitude": "29.959224708177018",
    "geocoded_column": {
      "latitude": "29.959224708177018",
      "longitude": "-90.12208947807493"
    }
  },
  {
    "service_request": "2025-1193775",
    "request_type": "Drainage",
    "request_reason": "Street Flooding",
    "date_created": "2025-05-20T14:50:28.000",
    "date_modified": "2025-05-20T14:50:29.000",
    "request_status": "Pending",
    "responsible_agency": "Sewerage & Water Board",
    "final_address": "11644 W Barrington Dr",
    "address_councildis": "E",
    "status": "Pending",
    "rowid": "1193775",
    "final_x": "3713696.90079",
    "final_y": "565272.899106",
    "longitude": "-89.96513259226992",
    "latitude": "30.04728628905967",
    "geocoded_column": {
      "latitude": "30.04728628905967",
      "longitude": "-89.96513259226992"
    }
  },
  {
    "service_request": "2025-1193774",
    "request_type": "Trash/Recycling",
    "request_reason": "Request a Large Item Pick Up",
    "date_created": "2025-05-20T14:49:47.000",
    "date_modified": "2025-05-20T14:49:49.000",
    "request_status": "Pending",
    "responsible_agency": "Department of Sanitation",
    "final_address": "6200 Eastover Dr",
    "address_councildis": "E",
    "status": "Assigned to Contractor",
    "contractor": "Waste Pro",
    "rowid": "1193774",
    "final_x": "3717498.93983",
    "final_y": "564868.848546",
    "longitude": "-89.95313159758682",
    "latitude": "30.046049938574868",
    "geocoded_column": {
      "latitude": "30.046049938574868",
      "longitude": "-89.95313159758682"
    }
  },
  {
    "service_request": "2025-1193773",
    "request_type": "Abandoned Vehicles",
    "request_reason": "Abandoned/Junk Vehicles",
    "date_created": "2025-05-20T14:48:30.000",
    "date_modified": "2025-05-20T14:48:31.000",
    "request_status": "Pending",
    "responsible_agency": "Department of Public Works",
    "final_address": "2514 Cambronne St",
    "address_councildis": "A",
    "status": "Pending",
    "rowid": "1193773",
    "final_x": "3664380.24896",
    "final_y": "532691.168772",
    "longitude": "-90.12208947807493",
    "latitude": "29.959224708177018",
    "geocoded_column": {
      "latitude": "29.959224708177018",
      "longitude": "-90.12208947807493"
    }
  },
  {
    "service_request": "2025-1193772",
    "request_type": "Trash/Recycling",
    "request_reason": "Request a Large Item Pick Up",
    "date_created": "2025-05-20T14:47:23.000",
    "date_modified": "2025-05-20T16:47:09.000",
    "request_status": "Pending",
    "responsible_agency": "Department of Sanitation",
    "final_address": "7323 Freret St",
    "address_councildis": "A",
    "status": "Assigned to Contractor",
    "contractor": "IV Waste",
    "rowid": "1193772",
    "final_x": "3663407.35904",
    "final_y": "526285.910782",
    "longitude": "-90.12537487123426",
    "latitude": "29.941640555868076",
    "geocoded_column": {
      "latitude": "29.941640555868076",
      "longitude": "-90.12537487123426"
    }
  },
  {
    "service_request": "2025-1193771",
    "request_type": "Property Maintenance",
    "request_reason": "Property Maintenance",
    "date_created": "2025-05-20T14:45:22.000",
    "date_modified": "2025-05-20T14:45:24.000",
    "request_status": "Pending",
    "responsible_agency": "Department of Code Enforcement",
    "final_address": "2461 N Galvez St",
    "address_councildis": "D",
    "status": "Pending",
    "rowid": "1193771",
    "final_x": "3686736.9455",
    "final_y": "540187.631883",
    "longitude": "-90.05122773162951",
    "latitude": "29.979168608253207",
    "geocoded_column": {
      "latitude": "29.979168608253207",
      "longitude": "-90.05122773162951"
    }
  },
  {
    "service_request": "2025-1193770",
    "request_type": "Trash/Recycling",
    "request_reason": "Repair Trash Cart",
    "date_created": "2025-05-20T14:43:44.000",
    "date_modified": "2025-05-20T14:43:46.000",
    "request_status": "Pending",
    "responsible_agency": "Department of Sanitation",
    "final_address": "300 BLK Board of Trade Pl",
    "address_councildis": "B",
    "status": "Assigned to Contractor",
    "contractor": "IV Waste",
    "rowid": "1193770",
    "final_x": "3681696.17889",
    "final_y": "529514.038529",
    "longitude": "-90.06752083268675",
    "latitude": "29.949974009232125",
    "geocoded_column": {
      "latitude": "29.949974009232125",
      "longitude": "-90.06752083268675"
    }
  },
  {
    "service_request": "2025-1193769",
    "request_type": "Trash/Recycling",
    "request_reason": "Request a Large Item Pick Up",
    "date_created": "2025-05-20T14:40:45.000",
    "date_modified": "2025-05-20T14:40:48.000",
    "request_status": "Pending",
    "responsible_agency": "Department of Sanitation",
    "final_address": "2722 Bruxelles St",
    "address_councildis": "D",
    "status": "Assigned to Contractor",
    "contractor": "IV Waste",
    "rowid": "1193769",
    "final_x": "3680294.07464",
    "final_y": "542416.112205",
    "longitude": "-90.07149930901475",
    "latitude": "29.985492803276276",
    "geocoded_column": {
      "latitude": "29.985492803276276",
      "longitude": "-90.07149930901475"
    }
  },
  {
    "service_request": "2025-1193768",
    "request_type": "Trash/Recycling",
    "request_reason": "Request a Large Item Pick Up",
    "date_created": "2025-05-20T14:36:44.000",
    "date_modified": "2025-05-20T14:36:45.000",
    "request_status": "Pending",
    "responsible_agency": "Department of Sanitation",
    "final_address": "7645 Alabama St",
    "address_councildis": "D",
    "status": "Assigned to Contractor",
    "contractor": "Waste Pro",
    "rowid": "1193768",
    "final_x": "3694924.49565",
    "final_y": "558691.51158",
    "longitude": "-90.02470093544538",
    "latitude": "30.029792982758337",
    "geocoded_column": {
      "latitude": "30.029792982758337",
      "longitude": "-90.02470093544538"
    }
  },
  {
    "service_request": "2025-1193767",
    "request_type": "Trash/Recycling",
    "request_reason": "Request a Large Item Pick Up",
    "date_created": "2025-05-20T14:36:19.000",
    "date_modified": "2025-05-20T16:40:47.000",
    "request_status": "Pending",
    "responsible_agency": "Department of Sanitation",
    "final_address": "5948 Annunciation St",
    "address_councildis": "A",
    "status": "Assigned to Contractor",
    "contractor": "IV Waste",
    "rowid": "1193767",
    "final_x": "3664537.46023",
    "final_y": "517715.73727",
    "longitude": "-90.12209291989407",
    "latitude": "29.918042476880032",
    "geocoded_column": {
      "latitude": "29.918042476880032",
      "longitude": "-90.12209291989407"
    }
  },
  {
    "service_request": "2025-1193766",
    "request_type": "Streetlights",
    "request_reason": "Streetlight Outage/Malfunction",
    "date_created": "2025-05-20T14:34:14.000",
    "date_modified": "2025-05-20T14:34:17.000",
    "request_status": "Pending",
    "responsible_agency": "Department of Public Works",
    "final_address": "1717 Oriole St",
    "address_councildis": "D",
    "status": "Pending",
    "contractor": "Legacy Professional Services",
    "rowid": "1193766",
    "final_x": "3678389.33749",
    "final_y": "557992.329371",
    "longitude": "-90.0769761513652",
    "latitude": "30.0283793716131",
    "geocoded_column": {
      "latitude": "30.0283793716131",
      "longitude": "-90.0769761513652"
    }
  },
  {
    "service_request": "2025-1193765",
    "request_type": "Trash/Recycling",
    "request_reason": "Return Recycling Cart",
    "date_created": "2025-05-20T14:30:37.000",
    "date_modified": "2025-05-20T14:30:39.000",
    "request_status": "Pending",
    "responsible_agency": "Department of Sanitation",
    "final_address": "724 Upperline St",
    "address_councildis": "B",
    "status": "Pending",
    "rowid": "1193765",
    "final_x": "3668934.85633",
    "final_y": "518042.966326",
    "longitude": "-90.10820164955834",
    "latitude": "29.91881370570614",
    "geocoded_column": {
      "latitude": "29.91881370570614",
      "longitude": "-90.10820164955834"
    }
  },
  {
    "service_request": "2025-1193764",
    "request_type": "Trash/Recycling",
    "request_reason": "Request a Large Item Pick Up",
    "date_created": "2025-05-20T14:29:16.000",
    "date_modified": "2025-05-20T15:55:46.000",
    "request_status": "Pending",
    "responsible_agency": "Department of Sanitation",
    "final_address": "1809 Hillary St Apt 1A",
    "address_councildis": "A",
    "status": "Assigned to Contractor",
    "contractor": "IV Waste",
    "rowid": "1193764",
    "final_x": "3664798.87629",
    "final_y": "528763.584576",
    "longitude": "-90.12089878044888",
    "latitude": "29.948412952635337",
    "geocoded_column": {
      "latitude": "29.948412952635337",
      "longitude": "-90.12089878044888"
    }
  },
  {
    "service_request": "2025-1193763",
    "request_type": "Trash/Recycling",
    "request_reason": "Request a Large Item Pick Up",
    "date_created": "2025-05-20T14:26:15.000",
    "date_modified": "2025-05-20T14:26:17.000",
    "request_status": "Pending",
    "responsible_agency": "Department of Sanitation",
    "final_address": "4437 America St",
    "address_councildis": "E",
    "status": "Assigned to Contractor",
    "contractor": "Waste Pro",
    "rowid": "1193763",
    "final_x": "3699919.47786",
    "final_y": "553422.655959",
    "longitude": "-90.0091093452634",
    "latitude": "30.01514784260083",
    "geocoded_column": {
      "latitude": "30.01514784260083",
      "longitude": "-90.0091093452634"
    }
  },
  {
    "service_request": "2025-1193762",
    "request_type": "Trash/Recycling",
    "request_reason": "Request a Large Item Pick Up",
    "date_created": "2025-05-20T14:22:30.000",
    "date_modified": "2025-05-20T14:22:31.000",
    "request_status": "Pending",
    "responsible_agency": "Department of Sanitation",
    "final_address": "4526 S Robertson St",
    "address_councildis": "B",
    "status": "Assigned to Contractor",
    "contractor": "IV Waste",
    "rowid": "1193762",
    "final_x": "3669873.20583",
    "final_y": "524296.392764",
    "longitude": "-90.10502816613644",
    "latitude": "29.935981012747455",
    "geocoded_column": {
      "latitude": "29.935981012747455",
      "longitude": "-90.10502816613644"
    }
  },
  {
    "service_request": "2025-1193761",
    "request_type": "Trash/Recycling",
    "request_reason": "Request a Large Item Pick Up",
    "date_created": "2025-05-20T14:20:29.000",
    "date_modified": "2025-05-20T14:20:31.000",
    "request_status": "Pending",
    "responsible_agency": "Department of Sanitation",
    "final_address": "409 Pelican Ave",
    "address_councildis": "C",
    "status": "Assigned to Contractor",
    "contractor": "Richards Disposal",
    "rowid": "1193761",
    "final_x": "3686603.99708",
    "final_y": "530507.983874",
    "longitude": "-90.05198950780117",
    "latitude": "29.95255702885355",
    "geocoded_column": {
      "latitude": "29.95255702885355",
      "longitude": "-90.05198950780117"
    }
  },
  {
    "service_request": "2025-1193760",
    "request_type": "Trash/Recycling",
    "request_reason": "Repair Recycling Cart",
    "date_created": "2025-05-20T14:17:58.000",
    "date_modified": "2025-05-20T14:18:01.000",
    "request_status": "Pending",
    "responsible_agency": "Department of Sanitation",
    "final_address": "7103 West End Blvd",
    "address_councildis": "A",
    "status": "Pending",
    "rowid": "1193760",
    "final_x": "3666932.10241",
    "final_y": "554623.376088",
    "longitude": "-90.1132938997277",
    "latitude": "30.01945638741908",
    "geocoded_column": {
      "latitude": "30.01945638741908",
      "longitude": "-90.1132938997277"
    }
  },
  {
    "service_request": "2025-1193759",
    "request_type": "Abandoned Vehicles",
    "request_reason": "Abandoned/Junk Vehicles",
    "date_created": "2025-05-20T14:15:12.000",
    "date_modified": "2025-05-20T14:15:14.000",
    "request_status": "Pending",
    "responsible_agency": "Department of Public Works",
    "final_address": "1428 Shirley Dr",
    "address_councildis": "C",
    "status": "Pending",
    "rowid": "1193759",
    "final_x": "3693167.56419",
    "final_y": "525798.486653",
    "longitude": "-90.03143378263648",
    "latitude": "29.939404087440185",
    "geocoded_column": {
      "latitude": "29.939404087440185",
      "longitude": "-90.03143378263648"
    }
  },
  {
    "service_request": "2025-1193758",
    "request_type": "Trash/Recycling",
    "request_reason": "Repair Trash Cart",
    "date_created": "2025-05-20T14:12:01.000",
    "date_modified": "2025-05-20T14:12:04.000",
    "request_status": "Pending",
    "responsible_agency": "Department of Sanitation",
    "final_address": "5220 Forest Park Ln",
    "address_councildis": "C",
    "status": "Assigned to Contractor",
    "contractor": "Richards Disposal",
    "rowid": "1193758",
    "final_x": "3703834.30711",
    "final_y": "510568.634415",
    "longitude": "-89.99831794393147",
    "latitude": "29.897189686252663",
    "geocoded_column": {
      "latitude": "29.897189686252663",
      "longitude": "-89.99831794393147"
    }
  },
  {
    "service_request": "2025-1193757",
    "request_type": "Abandoned Vehicles",
    "request_reason": "Abandoned/Junk Vehicles",
    "date_created": "2025-05-20T14:10:56.000",
    "date_modified": "2025-05-20T14:10:57.000",
    "request_status": "Pending",
    "responsible_agency": "Department of Public Works",
    "final_address": "7800 BLK Buffalo St",
    "address_councildis": "E",
    "status": "Pending",
    "rowid": "1193757",
    "final_x": "3719691.47429",
    "final_y": "573715.080048",
    "longitude": "-89.9458636229248",
    "latitude": "30.070300592445996",
    "geocoded_column": {
      "latitude": "30.070300592445996",
      "longitude": "-89.9458636229248"
    }
  },
  {
    "service_request": "2025-1193756",
    "request_type": "Roads and Streets",
    "request_reason": "Street Subsidence (Sinking)",
    "date_created": "2025-05-20T14:10:35.000",
    "date_modified": "2025-05-20T14:10:36.000",
    "request_status": "Pending",
    "responsible_agency": "Department of Public Works",
    "final_address": "7500 BLK Garnet St",
    "address_councildis": "D",
    "status": "Pending",
    "rowid": "1193756",
    "final_x": "3667410.35379",
    "final_y": "556589.227488",
    "longitude": "-90.11171655815102",
    "latitude": "30.02484777069104",
    "geocoded_column": {
      "latitude": "30.02484777069104",
      "longitude": "-90.11171655815102"
    }
  },