[
  {
    "service_request": "2023-1026339",
    "request_type": "Roads/Drainage",
    "request_reason": "WaterMain Break",
    "date_created": "2023-08-15T01:55:31.000",
    "date_modified": "2023-08-15T01:55:31.000",
    "request_status": "Pending",
    "responsible_agency": "Department of Public Works",
    "final_address": "3540 St Charles Ave",
    "address_councildis": "B",
    "status": "Pending",
    "rowid": "1026339",
    "final_x": "3673655.19713",
    "final_y": "521142.298041",
    "longitude": "-90.09319608433562",
    "latitude": "29.927196254695108",
    "geocoded_column": {
      "latitude": "29.927196254695108",
      "longitude": "-90.09319608433562"
    }
  },
  {
    "service_request": "2023-1026338",
    "request_type": "Roads/Drainage",
    "request_reason": "Pothole",
    "date_created": "2023-08-15T01:43:01.000",
    "date_modified": "2023-08-15T01:43:01.000",
    "request_status": "Pending",
    "responsible_agency": "Department of Public Works",
    "final_address": "1500 BLK Antonine St",
    "address_councildis": "B",
    "status": "Pending",
    "rowid": "1026338",
    "final_x": "3673294.16059",
    "final_y": "520875.624703",
    "longitude": "-90.09434488909022",
    "latitude": "29.92647372815397",
    "geocoded_column": {
      "latitude": "29.92647372815397",
      "longitude": "-90.09434488909022"
    }
  },
  {
    "service_request": "2023-1026337",
    "request_type": "Roads/Drainage",
    "request_reason": "Pothole",
    "date_created": "2023-08-15T01:14:07.000",
    "date_modified": "2023-08-15T01:14:07.000",
    "request_status": "Pending",
    "responsible_agency": "Department of Public Works",
    "final_address": "1303 Constantinople St",
    "address_councildis": "B",
    "status": "Pending",
    "rowid": "1026337",
    "final_x": "3672430.38529",
    "final_y": "520266.883704",
    "longitude": "-90.09709232535754",
    "latitude": "29.92482553905288",
    "geocoded_column": {
      "latitude": "29.92482553905288",
      "longitude": "-90.09709232535754"
    }
  },
  {
    "service_request": "2023-1026336",
    "request_type": "Roads/Drainage",
    "request_reason": "Street Flooding / Drainage",
    "date_created": "2023-08-14T23:10:36.000",
    "date_modified": "2023-08-14T23:10:36.000",
    "request_status": "Pending",
    "responsible_agency": "Department of Public Works",
    "final_address": "3540 St Charles Ave",
    "address_councildis": "B",
    "status": "Pending",
    "rowid": "1026336",
    "final_x": "3673655.19713",
    "final_y": "521142.298041",
    "longitude": "-90.09319608433562",
    "latitude": "29.927196254695108",
    "geocoded_column": {
      "latitude": "29.927196254695108",
      "longitude": "-90.09319608433562"
    }
  },
  {
    "service_request": "2023-1026335",
    "request_type": "Traffic Signals/Signs/Striping/Streetlights",
    "request_reason": "Street Light Outage/Malfunction",
    "date_created": "2023-08-14T23:08:26.000",
    "date_modified": "2023-08-14T23:08:27.000",
    "request_status": "Pending",
    "responsible_agency": "Department of Public Works",
    "final_address": "6362 Orleans Ave",
    "address_councildis": "A",
    "status": "Assigned to Contractor",
    "contractor": "Legacy Professional Services",
    "rowid": "1026335",
    "final_x": "3671053.85268",
    "final_y": "549580.288659",
    "longitude": "-90.1004419680292",
    "latitude": "30.005468364099222",
    "geocoded_column": {
      "latitude": "30.005468364099222",
      "longitude": "-90.1004419680292"
    }
  },
  {
    "service_request": "2023-1026334",
    "request_type": "Traffic Signals/Signs/Striping/Streetlights",
    "request_reason": "Street Light Outage/Malfunction",
    "date_created": "2023-08-14T23:04:47.000",
    "date_modified": "2023-08-14T23:04:48.000",
    "request_status": "Pending",
    "responsible_agency": "Department of Public Works",
    "final_address": "6450 Orleans Ave",
    "address_councildis": "A",
    "status": "Assigned to Contractor",
    "contractor": "Legacy Professional Services",
    "rowid": "1026334",
    "final_x": "3671119.11668",
    "final_y": "550297.442644",
    "longitude": "-90.10021140176629",
    "latitude": "30.00743835472846",
    "geocoded_column": {
      "latitude": "30.00743835472846",
      "longitude": "-90.10021140176629"
    }
  },
  {
    "service_request": "2023-1026333",
    "request_type": "Traffic Signals/Signs/Striping/Streetlights",
    "request_reason": "Street Light Outage/Malfunction",
    "date_created": "2023-08-14T22:55:23.000",
    "date_modified": "2023-08-14T22:55:24.000",
    "request_status": "Pending",
    "responsible_agency": "Department of Public Works",
    "final_address": "6773 General Haig St",
    "address_councildis": "A",
    "status": "Assigned to Contractor",
    "contractor": "Legacy Professional Services",
    "rowid": "1026333",
    "final_x": "3671066.94727",
    "final_y": "552407.005462",
    "longitude": "-90.10030450176092",
    "latitude": "30.013240451985652",
    "geocoded_column": {
      "latitude": "30.013240451985652",
      "longitude": "-90.10030450176092"
    }
  },
  {
    "service_request": "2023-1026332",
    "request_type": "Traffic Signals/Signs/Striping/Streetlights",
    "request_reason": "Street Light Outage/Malfunction",
    "date_created": "2023-08-14T22:51:53.000",
    "date_modified": "2023-08-14T22:51:54.000",
    "request_status": "Pending",
    "responsible_agency": "Department of Public Works",
    "final_address": "6954 General Haig St",
    "address_councildis": "A",
    "status": "Assigned to Contractor",
    "contractor": "Legacy Professional Services",
    "rowid": "1026332",
    "final_x": "3671001.86004",
    "final_y": "553417.312663",
    "longitude": "-90.10047579884402",
    "latitude": "30.016020364280113",
    "geocoded_column": {
      "latitude": "30.016020364280113",
      "longitude": "-90.10047579884402"
    }
  },
  {
    "service_request": "2023-1026331",
    "request_type": "Traffic Signals/Signs/Striping/Streetlights",
    "request_reason": "Street Light Outage/Malfunction",
    "date_created": "2023-08-14T22:40:22.000",
    "date_modified": "2023-08-14T22:40:23.000",
    "request_status": "Pending",
    "responsible_agency": "Department of Public Works",
    "final_address": "6819 Argonne Blvd",
    "address_councildis": "A",
    "status": "Assigned to Contractor",
    "contractor": "Legacy Professional Services",
    "rowid": "1026331",
    "final_x": "3670721.77819",
    "final_y": "552682.02991",
    "longitude": "-90.101385712923",
    "latitude": "30.014006880464816",
    "geocoded_column": {
      "latitude": "30.014006880464816",
      "longitude": "-90.101385712923"
    }
  },
  {
    "service_request": "2023-1026330",
    "request_type": "Traffic Signals/Signs/Striping/Streetlights",
    "request_reason": "Street Light Outage/Malfunction",
    "date_created": "2023-08-14T22:38:34.000",
    "date_modified": "2023-08-14T22:38:35.000",
    "request_status": "Pending",
    "responsible_agency": "Department of Public Works",
    "status": "Assigned to Contractor",
    "contractor": "Legacy Professional Services",
    "rowid": "1026330",
    "longitude": "0.0",
    "latitude": "0.0",
    "geocoded_column": {
      "latitude": "0.0",
      "longitude": "0.0"
    }
  },
  {
    "service_request": "2023-1026329",
    "request_type": "Traffic Signals/Signs/Striping/Streetlights",
    "request_reason": "Street Light Outage/Malfunction",
    "date_created": "2023-08-14T22:35:22.000",
    "date_modified": "2023-08-14T22:35:23.000",
    "request_status": "Pending",
    "responsible_agency": "Department of Public Works",
    "final_address": "956 Filmore Ave",
    "address_councildis": "A",
    "status": "Assigned to Contractor",
    "contractor": "Legacy Professional Services",
    "rowid": "1026329",
    "final_x": "3670739.1691",
    "final_y": "551756.985045",
    "longitude": "-90.10136219000378",
    "latitude": "30.011462819958457",
    "geocoded_column": {
      "latitude": "30.011462819958457",
      "longitude": "-90.10136219000378"
    }
  },
  {
    "service_request": "2023-1026328",
    "request_type": "Traffic Signals/Signs/Striping/Streetlights",
    "request_reason": "Street Light Outage/Malfunction",
    "date_created": "2023-08-14T22:32:01.000",
    "date_modified": "2023-08-14T22:32:02.000",
    "request_status": "Pending",
    "responsible_agency": "Department of Public Works",
    "final_address": "6575 Argonne Blvd",
    "address_councildis": "A",
    "status": "Assigned to Contractor",
    "contractor": "Legacy Professional Services",
    "rowid": "1026328",
    "final_x": "3670587.30222",
    "final_y": "551149.059669",
    "longitude": "-90.10186264349088",
    "latitude": "30.009795728261167",
    "geocoded_column": {
      "latitude": "30.009795728261167",
      "longitude": "-90.10186264349088"
    }
  },
  {
    "service_request": "2023-1026327",
    "request_type": "Traffic Signals/Signs/Striping/Streetlights",
    "request_reason": "Street Light Outage/Malfunction",
    "date_created": "2023-08-14T22:22:47.000",
    "date_modified": "2023-08-14T22:22:48.000",
    "request_status": "Pending",
    "responsible_agency": "Department of Public Works",
    "final_address": "7644 Lucerne St",
    "address_councildis": "E",
    "status": "Assigned to Contractor",
    "contractor": "Legacy Professional Services",
    "rowid": "1026327",
    "final_x": "3710613.20683",
    "final_y": "565959.030307",
    "longitude": "-89.97485294563732",
    "latitude": "30.049273756240908",
    "geocoded_column": {
      "latitude": "30.049273756240908",
      "longitude": "-89.97485294563732"
    }
  },
  {
    "service_request": "2023-1026326",
    "request_type": "Trash/Recycling",
    "request_reason": "MIssed Recycling Pick-Up",
    "date_created": "2023-08-14T22:18:15.000",
    "date_modified": "2023-08-14T22:18:16.000",
    "request_status": "Pending",
    "responsible_agency": "Department of Sanitation",
    "final_address": "7513 Founders Ct",
    "address_councildis": "E",
    "status": "Assigned to Contractor",
    "contractor": "Waste Pro",
    "rowid": "1026326",
    "final_x": "3726061.4206",
    "final_y": "570699.196583",
    "longitude": "-89.92584387340301",
    "latitude": "30.06179457617904",
    "geocoded_column": {
      "latitude": "30.06179457617904",
      "longitude": "-89.92584387340301"
    }
  },
  {
    "service_request": "2023-1026325",
    "request_type": "Roads/Drainage",
    "request_reason": "Service Cut",
    "date_created": "2023-08-14T22:18:15.000",
    "date_modified": "2023-08-14T22:18:15.000",
    "request_status": "Pending",
    "responsible_agency": "Department of Public Works",
    "final_address": "3800 BLK N Prieur St",
    "address_councildis": "D",
    "status": "Pending",
    "rowid": "1026325",
    "final_x": "3692097.95763",
    "final_y": "538420.380296",
    "longitude": "-90.03435891236715",
    "latitude": "29.974143267760468",
    "geocoded_column": {
      "latitude": "29.974143267760468",
      "longitude": "-90.03435891236715"
    }
  },
  {
    "service_request": "2023-1026324",
    "request_type": "Property Maintenance",
    "request_reason": "Property Maintenance",
    "date_created": "2023-08-14T22:18:04.000",
    "date_modified": "2023-08-14T22:18:04.000",
    "request_status": "Pending",
    "responsible_agency": "Department of Code Enforcement",
    "final_address": "8434 Willow St",
    "address_councildis": "A",
    "status": "Pending",
    "rowid": "1026324",
    "final_x": "3661407.46406",
    "final_y": "529773.807617",
    "longitude": "-90.13157348176145",
    "latitude": "29.95128897873345",
    "geocoded_column": {
      "latitude": "29.95128897873345",
      "longitude": "-90.13157348176145"
    }
  },
  {
    "service_request": "2023-1026323",
    "request_type": "Roads/Drainage",
    "request_reason": "Pothole",
    "date_created": "2023-08-14T22:16:08.000",
    "date_modified": "2023-08-14T22:16:08.000",
    "request_status": "Pending",
    "responsible_agency": "Department of Public Works",
    "final_address": "1401 Foucher St",
    "address_councildis": "B",
    "status": "Pending",
    "rowid": "1026323",
    "final_x": "3673950.68904",
    "final_y": "520582.149496",
    "longitude": "-90.09228244207547",
    "latitude": "29.925647229561278",
    "geocoded_column": {
      "latitude": "29.925647229561278",
      "longitude": "-90.09228244207547"
    }
  },
  {
    "service_request": "2023-1026322",
    "request_type": "Traffic Signals/Signs/Striping/Streetlights",
    "request_reason": "Street Light Outage/Malfunction",
    "date_created": "2023-08-14T22:13:52.000",
    "date_modified": "2023-08-14T22:13:53.000",
    "request_status": "Pending",
    "responsible_agency": "Department of Public Works",
    "final_address": "7684 Lucerne St",
    "address_councildis": "E",
    "status": "Assigned to Contractor",
    "contractor": "Legacy Professional Services",
    "rowid": "1026322",
    "final_x": "3710711.62513",
    "final_y": "565934.789923",
    "longitude": "-89.97454279539296",
    "latitude": "30.049203896298927",
    "geocoded_column": {
      "latitude": "30.049203896298927",
      "longitude": "-89.97454279539296"
    }
  },
  {
    "service_request": "2023-1026321",
    "request_type": "Traffic Signals/Signs/Striping/Streetlights",
    "request_reason": "Street Light Outage/Malfunction",
    "date_created": "2023-08-14T22:05:01.000",
    "date_modified": "2023-08-14T22:05:02.000",
    "request_status": "Pending",
    "responsible_agency": "Department of Public Works",
    "final_address": "343 Morgan St",
    "address_councildis": "C",
    "status": "Assigned to Contractor",
    "contractor": "Legacy Professional Services",
    "rowid": "1026321",
    "final_x": "3686347.09718",
    "final_y": "531263.000386",
    "longitude": "-90.05277403661977",
    "latitude": "29.954640962444863",
    "geocoded_column": {
      "latitude": "29.954640962444863",
      "longitude": "-90.05277403661977"
    }
  },
  {
    "service_request": "2023-1026320",
    "request_type": "Traffic Signals/Signs/Striping/Streetlights",
    "request_reason": "Street Light Outage/Malfunction",
    "date_created": "2023-08-14T22:04:47.000",
    "date_modified": "2023-08-14T22:04:47.000",
    "request_status": "Pending",
    "responsible_agency": "Department of Public Works",
    "final_address": "13815 Old Gentilly Rd",
    "address_councildis": "E",
    "status": "Assigned to Contractor",
    "contractor": "Legacy Professional Services",
    "rowid": "1026320",
    "final_x": "3728546.25984",
    "final_y": "557689.048347",
    "longitude": "-89.9184971975386",
    "latitude": "30.025937948159132",
    "geocoded_column": {
      "latitude": "30.025937948159132",
      "longitude": "-89.9184971975386"
    }
  },
  {
    "service_request": "2023-1026319",
    "request_type": "Health Related Request",
    "request_reason": "Noise Ordinance Complaint",
    "date_created": "2023-08-14T21:48:28.000",
    "date_modified": "2023-08-14T21:48:28.000",
    "request_status": "Pending",
    "responsible_agency": "Health Department",
    "final_address": "3116 Washington Ave",
    "address_councildis": "B",
    "status": "Pending",
    "rowid": "1026319",
    "final_x": "3672795.23329",
    "final_y": "527121.305151",
    "longitude": "-90.09570691479465",
    "latitude": "29.943662148981783",
    "geocoded_column": {
      "latitude": "29.943662148981783",
      "longitude": "-90.09570691479465"
    }
  },
  {
    "service_request": "2023-1026318",
    "request_type": "Roads/Drainage",
    "request_reason": "Debris in Roadway",
    "date_created": "2023-08-14T21:48:17.000",
    "date_modified": "2023-08-14T21:48:17.000",
    "request_status": "Pending",
    "responsible_agency": "Department of Public Works",
    "final_address": "2312 Napoleon Ave",
    "address_councildis": "B",
    "status": "Pending",
    "rowid": "1026318",
    "final_x": "3670487.19207",
    "final_y": "523452.829051",
    "longitude": "-90.10311838520992",
    "latitude": "29.93364337246079",
    "geocoded_column": {
      "latitude": "29.93364337246079",
      "longitude": "-90.10311838520992"
    }
  },
  {
    "service_request": "2023-1026317",
    "request_type": "Trash/Recycling",
    "request_reason": "Request a Large Item Pick Up",
    "date_created": "2023-08-14T21:46:20.000",
    "date_modified": "2023-08-14T21:46:20.000",
    "request_status": "Pending",
    "responsible_agency": "Department of Sanitation",
    "final_address": "1016 Joseph St",
    "address_councildis": "A",
    "status": "Assigned to Contractor",
    "contractor": "Richards Disposal",
    "rowid": "1026317",
    "final_x": "3666241.31847",
    "final_y": "519674.125944",
    "longitude": "-90.11664910922086",
    "latitude": "29.923377796667936",
    "geocoded_column": {
      "latitude": "29.923377796667936",
      "longitude": "-90.11664910922086"
    }
  },
  {
    "service_request": "2023-1026316",
    "request_type": "Abandoned Vehicles",
    "request_reason": "Abandoned/Junk Vehicles",
    "date_created": "2023-08-14T21:45:17.000",
    "date_modified": "2023-08-14T21:45:17.000",
    "request_status": "Pending",
    "responsible_agency": "Department of Public Works",
    "final_address": "1519 Dumaine St",
    "address_councildis": "C",
    "status": "Pending",
    "rowid": "1026316",
    "final_x": "3680647.47055",
    "final_y": "534896.62183",
    "longitude": "-90.0706448069808",
    "latitude": "29.964806101505243",
    "geocoded_column": {
      "latitude": "29.964806101505243",
      "longitude": "-90.0706448069808"
    }
  },
  {
    "service_request": "2023-1026315",
    "request_type": "Roads/Drainage",
    "request_reason": "Debris in Roadway",
    "date_created": "2023-08-14T21:41:57.000",
    "date_modified": "2023-08-14T21:41:57.000",
    "request_status": "Pending",
    "responsible_agency": "Department of Public Works",
    "final_address": "2520 Napoleon Ave",
    "address_councildis": "B",
    "status": "Pending",
    "rowid": "1026315",
    "final_x": "3670421.06318",
    "final_y": "524212.243964",
    "longitude": "-90.10330141537374",
    "latitude": "29.935733470881406",
    "geocoded_column": {
      "latitude": "29.935733470881406",
      "longitude": "-90.10330141537374"
    }
  },
  {
    "service_request": "2023-1026314",
    "request_type": "Abandoned Vehicles",
    "request_reason": "Abandoned/Junk Vehicles",
    "date_created": "2023-08-14T21:39:01.000",
    "date_modified": "2023-08-14T21:39:01.000",
    "request_status": "Pending",
    "responsible_agency": "Department of Public Works",
    "final_address": "1519 Dumaine St",
    "address_councildis": "C",
    "status": "Pending",
    "rowid": "1026314",
    "final_x": "3680647.47055",
    "final_y": "534896.62183",
    "longitude": "-90.0706448069808",
    "latitude": "29.964806101505243",
    "geocoded_column": {
      "latitude": "29.964806101505243",
      "longitude": "-90.0706448069808"
    }
  },
  {
    "service_request": "2023-1026313",
    "request_type": "Roads/Drainage",
    "request_reason": "Debris in Roadway",
    "date_created": "2023-08-14T21:37:48.000",
    "date_modified": "2023-08-14T21:37:48.000",
    "request_status": "Pending",
    "responsible_agency": "Department of Public Works",
    "final_address": "2325 Martin Luther King, Jr. Blvd",
    "address_councildis": "B",
    "status": "Pending",
    "rowid": "1026313",
    "final_x": "3676822.52213",
    "final_y": "527127.537279",
    "longitude": "-90.08299147072692",
    "latitude": "29.943559063322628",
    "geocoded_column": {
      "latitude": "29.943559063322628",
      "longitude": "-90.08299147072692"
    }
  },
  {
    "service_request": "2023-1026312",
    "request_type": "Roads/Drainage",
    "request_reason": "Debris in Roadway",
    "date_created": "2023-08-14T21:34:39.000",
    "date_modified": "2023-08-14T21:34:39.000",
    "request_status": "Pending",
    "responsible_agency": "Department of Public Works",
    "final_address": "2629 Martin Luther King, Jr. Blvd",
    "address_councildis": "B",
    "status": "Pending",
    "rowid": "1026312",
    "final_x": "3675979.14056",
    "final_y": "527656.617791",
    "longitude": "-90.08563606074253",
    "latitude": "29.94503913820511",
    "geocoded_column": {
      "latitude": "29.94503913820511",
      "longitude": "-90.08563606074253"
    }
  },
  {
    "service_request": "2023-1026311",
    "request_type": "Roads/Drainage",
    "request_reason": "Debris in Roadway",
    "date_created": "2023-08-14T21:24:29.000",
    "date_modified": "2023-08-14T21:24:29.000",
    "request_status": "Pending",
    "responsible_agency": "Department of Public Works",
    "final_address": "2621 Martin Luther King, Jr. Blvd",
    "address_councildis": "B",
    "status": "Pending",
    "rowid": "1026311",
    "final_x": "3676038.32264",
    "final_y": "527614.612159",
    "longitude": "-90.08545064880202",
    "latitude": "29.944921864503325",
    "geocoded_column": {
      "latitude": "29.944921864503325",
      "longitude": "-90.08545064880202"
    }
  },
  {
    "service_request": "2023-1026310",
    "request_type": "Roads/Drainage",
    "request_reason": "Debris in Roadway",
    "date_created": "2023-08-14T21:16:05.000",
    "date_modified": "2023-08-14T21:16:05.000",
    "request_status": "Pending",
    "responsible_agency": "Department of Public Works",
    "final_address": "2523 Martin Luther King, Jr. Blvd",
    "address_councildis": "B",
    "status": "Pending",
    "rowid": "1026310",
    "final_x": "3676329.58645",
    "final_y": "527444.033727",
    "longitude": "-90.08453690881058",
    "latitude": "29.944444105004674",
    "geocoded_column": {
      "latitude": "29.944444105004674",
      "longitude": "-90.08453690881058"
    }
  },
  {
    "service_request": "2023-1026309",
    "request_type": "Roads/Drainage",
    "request_reason": "Debris in Roadway",
    "date_created": "2023-08-14T21:12:35.000",
    "date_modified": "2023-08-14T21:12:35.000",
    "request_status": "Pending",
    "responsible_agency": "Department of Public Works",
    "final_address": "2629 Martin Luther King, Jr. Blvd",
    "address_councildis": "B",
    "status": "Pending",
    "rowid": "1026309",
    "final_x": "3675979.14056",
    "final_y": "527656.617791",
    "longitude": "-90.08563606074253",
    "latitude": "29.94503913820511",
    "geocoded_column": {
      "latitude": "29.94503913820511",
      "longitude": "-90.08563606074253"
    }
  },
  {
    "service_request": "2023-1026308",
    "request_type": "Mosquito, Termite & Rodent Control",
    "request_reason": "Rodent Complaint (Rats)",
    "date_created": "2023-08-14T21:10:48.000",
    "date_modified": "2023-08-14T21:10:48.000",
    "request_status": "Pending",
    "responsible_agency": "Mosquito, Termite & Rodent Control Board",
    "final_address": "5800 BLK Bellaire Dr",
    "address_councildis": "A",
    "status": "Pending",
    "rowid": "1026308",
    "final_x": "3664241.04058",
    "final_y": "547278.768091",
    "longitude": "-90.12204211262934",
    "latitude": "29.99933977438097",
    "geocoded_column": {
      "latitude": "29.99933977438097",
      "longitude": "-90.12204211262934"
    }
  },
  {
    "service_request": "2023-1026307",
    "request_type": "Property Maintenance",
    "request_reason": "Property Maintenance",
    "date_created": "2023-08-14T21:05:00.000",
    "date_modified": "2023-08-14T21:05:00.000",
    "request_status": "Pending",
    "responsible_agency": "Department of Code Enforcement",
    "final_address": "5800 BLK Bellaire Dr",
    "address_councildis": "A",
    "status": "Pending",
    "rowid": "1026307",
    "final_x": "3664241.04058",
    "final_y": "547278.768091",
    "longitude": "-90.12204211262934",
    "latitude": "29.99933977438097",
    "geocoded_column": {
      "latitude": "29.99933977438097",
      "longitude": "-90.12204211262934"
    }
  },
  {
    "service_request": "2023-1026306",
    "request_type": "Trash/Recycling",
    "request_reason": "Repair Recycling Cart",
    "date_created": "2023-08-14T21:04:19.000",
    "date_modified": "2023-08-14T21:04:19.000",
    "request_status": "Pending",
    "responsible_agency": "Department of Sanitation",
    "final_address": "950 Wilson Dr",
    "address_councildis": "A",
    "status": "Pending",
    "rowid": "1026306",
    "final_x": "3674182.00507",
    "final_y": "540254.494475",
    "longitude": "-90.09087888970289",
    "latitude": "29.97973275521195",
    "geocoded_column": {
      "latitude": "29.97973275521195",
      "longitude": "-90.09087888970289"
    }
  },
  {
    "service_request": "2023-1026305",
    "request_type": "Abandoned Vehicles",
    "request_reason": "Vehicle Blocking Your Driveway",
    "date_created": "2023-08-14T20:47:22.000",
    "date_modified": "2023-08-14T20:47:22.000",
    "request_status": "Pending",
    "responsible_agency": "Department of Public Works",
    "final_address": "336 Elmira Ave",
    "address_councildis": "C",
    "status": "Pending",
    "rowid": "1026305",
    "final_x": "3688273.51228",
    "final_y": "530449.455874",
    "longitude": "-90.0467200249357",
    "latitude": "29.952344656652205",
    "geocoded_column": {
      "latitude": "29.952344656652205",
      "longitude": "-90.0467200249357"
    }
  },
  {
    "service_request": "2023-1026304",
    "request_type": "Roads/Drainage",
    "request_reason": "Debris in Roadway",
    "date_created": "2023-08-14T20:44:11.000",
    "date_modified": "2023-08-14T20:44:11.000",
    "request_status": "Pending",
    "responsible_agency": "Department of Public Works",
    "final_address": "2701 Martin Luther King, Jr. Blvd",
    "address_councildis": "B",
    "status": "Pending",
    "rowid": "1026304",
    "final_x": "3675899.01531",
    "final_y": "527701.751999",
    "longitude": "-90.08588748978514",
    "latitude": "29.945165641141898",
    "geocoded_column": {
      "latitude": "29.945165641141898",
      "longitude": "-90.08588748978514"
    }
  },
  {
    "service_request": "2023-1026303",
    "request_type": "Roads/Drainage",
    "request_reason": "Debris in Roadway",
    "date_created": "2023-08-14T20:42:05.000",
    "date_modified": "2023-08-14T20:42:05.000",
    "request_status": "Pending",
    "responsible_agency": "Department of Public Works",
    "final_address": "2705 Martin Luther King, Jr. Blvd",
    "address_councildis": "B",
    "status": "Pending",
    "rowid": "1026303",
    "final_x": "3675868.68904",
    "final_y": "527716.775167",
    "longitude": "-90.08598272306092",
    "latitude": "29.945207857667675",
    "geocoded_column": {
      "latitude": "29.945207857667675",
      "longitude": "-90.08598272306092"
    }
  },
  {
    "service_request": "2023-1026302",
    "request_type": "Property Maintenance",
    "request_reason": "Property Maintenance",
    "date_created": "2023-08-14T20:41:21.000",
    "date_modified": "2023-08-14T20:41:21.000",
    "request_status": "Pending",
    "responsible_agency": "Department of Code Enforcement",
    "final_address": "2107 Conti St",
    "address_councildis": "B",
    "status": "Pending",
    "rowid": "1026302",
    "final_x": "3677921.87656",
    "final_y": "534667.423174",
    "longitude": "-90.07925997930383",
    "latitude": "29.964258188638468",
    "geocoded_column": {
      "latitude": "29.964258188638468",
      "longitude": "-90.07925997930383"
    }
  },
  {
    "service_request": "2023-1026301",
    "request_type": "Traffic Signals/Signs/Striping/Streetlights",
    "request_reason": "Street Light Outage/Malfunction",
    "date_created": "2023-08-14T20:39:44.000",
    "date_modified": "2023-08-14T20:39:44.000",
    "request_status": "Pending",
    "responsible_agency": "Department of Public Works",
    "final_address": "109 Lark St",
    "address_councildis": "D",
    "status": "Assigned to Contractor",
    "contractor": "Legacy Professional Services",
    "rowid": "1026301",
    "final_x": "3674864.29409",
    "final_y": "556196.748954",
    "longitude": "-90.08817677621316",
    "latitude": "30.023547979881883",
    "geocoded_column": {
      "latitude": "30.023547979881883",
      "longitude": "-90.08817677621316"
    }
  },
  {
    "service_request": "2023-1026299",
    "request_type": "Trash/Recycling",
    "request_reason": "Request a Large Item Pick Up",
    "date_created": "2023-08-14T20:33:35.000",
    "date_modified": "2023-08-14T20:33:36.000",
    "request_status": "Pending",
    "responsible_agency": "Department of Sanitation",
    "final_address": "214 Fairfax Pl, New Orleans, Louisiana, 70131",
    "address_councildis": "C",
    "status": "Assigned to Contractor",
    "contractor": "Richards Disposal",
    "rowid": "1026299",
    "final_x": "3706632.48683",
    "final_y": "517507.434486",
    "longitude": "-89.98923067289243",
    "latitude": "29.916179066069766",
    "geocoded_column": {
      "latitude": "29.916179066069766",
      "longitude": "-89.98923067289243"
    }
  },
  {
    "service_request": "2023-1026298",
    "request_type": "Roads/Drainage",
    "request_reason": "Debris in Roadway",
    "date_created": "2023-08-14T20:33:19.000",
    "date_modified": "2023-08-14T20:33:19.000",
    "request_status": "Pending",
    "responsible_agency": "Department of Public Works",
    "final_address": "2709 Martin Luther King, Jr. Blvd",
    "address_councildis": "B",
    "status": "Pending",
    "rowid": "1026298",
    "final_x": "3675843.0532",
    "final_y": "527733.783295",
    "longitude": "-90.08606307901461",
    "latitude": "29.945255391721297",
    "geocoded_column": {
      "latitude": "29.945255391721297",
      "longitude": "-90.08606307901461"
    }
  },
  {
    "service_request": "2023-1026297",
    "request_type": "Roads/Drainage",
    "request_reason": "Debris in Roadway",
    "date_created": "2023-08-14T20:30:41.000",
    "date_modified": "2023-08-14T20:30:41.000",
    "request_status": "Pending",
    "responsible_agency": "Department of Public Works",
    "final_address": "2709 Martin Luther King, Jr. Blvd",
    "address_councildis": "B",
    "status": "Pending",
    "rowid": "1026297",
    "final_x": "3675843.0532",
    "final_y": "527733.783295",
    "longitude": "-90.08606307901461",
    "latitude": "29.945255391721297",
    "geocoded_column": {
      "latitude": "29.945255391721297",
      "longitude": "-90.08606307901461"
    }
  },
  {
    "service_request": "2023-1026296",
    "request_type": "Trash/Recycling",
    "request_reason": "Missed Trash Pick-Up",
    "date_created": "2023-08-14T20:19:55.000",
    "date_modified": "2023-08-14T20:19:56.000",
    "request_status": "Pending",
    "responsible_agency": "Department of Sanitation",
    "final_address": "8222 Green St",
    "address_councildis": "A",
    "status": "Assigned to Contractor",
    "contractor": "Richards Disposal",
    "rowid": "1026296",
    "final_x": "3662717.35239",
    "final_y": "530008.017281",
    "longitude": "-90.1274296974035",
    "latitude": "29.951895139506732",
    "geocoded_column": {
      "latitude": "29.951895139506732",
      "longitude": "-90.1274296974035"
    }
  },
  {
    "service_request": "2023-1026295",
    "request_type": "Property Maintenance",
    "request_reason": "Property Maintenance",
    "date_created": "2023-08-14T20:10:13.000",
    "date_modified": "2023-08-14T20:10:13.000",
    "request_status": "Pending",
    "responsible_agency": "Department of Code Enforcement",
    "final_address": "4423 Arthur Dr",
    "address_councildis": "E",
    "status": "Pending",
    "rowid": "1026295",
    "final_x": "3707939.03275",
    "final_y": "553739.645527",
    "longitude": "-89.98375976526667",
    "latitude": "30.015762166641117",
    "geocoded_column": {
      "latitude": "30.015762166641117",
      "longitude": "-89.98375976526667"
    }
  },
  {
    "service_request": "2023-1026294",
    "request_type": "Trash/Recycling",
    "request_reason": "Repair Trash Cart",
    "date_created": "2023-08-14T20:01:17.000",
    "date_modified": "2023-08-14T20:01:17.000",
    "request_status": "Pending",
    "responsible_agency": "Department of Sanitation",
    "final_address": "2420 Valentine Ct",
    "address_councildis": "C",
    "status": "Assigned to Contractor",
    "contractor": "Richards Disposal",
    "rowid": "1026294",
    "final_x": "3699305.81514",
    "final_y": "522301.990586",
    "longitude": "-90.01218191973277",
    "latitude": "29.92959673857645",
    "geocoded_column": {
      "latitude": "29.92959673857645",
      "longitude": "-90.01218191973277"
    }
  },
  {
    "service_request": "2023-1026293",
    "request_type": "Abandoned Vehicles",
    "request_reason": "Abandoned/Junk Vehicles",
    "date_created": "2023-08-14T19:53:30.000",
    "date_modified": "2023-08-14T19:53:30.000",
    "request_status": "Pending",
    "responsible_agency": "Department of Public Works",
    "final_address": "7615 Jeannette St",
    "address_councildis": "A",
    "status": "Pending",
    "rowid": "1026293",
    "final_x": "3663985.94643",
    "final_y": "528075.111039",
    "longitude": "-90.12348850188727",
    "latitude": "29.9465434988518",
    "geocoded_column": {
      "latitude": "29.9465434988518",
      "longitude": "-90.12348850188727"
    }
  },
  {
    "service_request": "2023-1026292",
    "request_type": "Trash/Recycling",
    "request_reason": "Missed Trash Pick-Up",
    "date_created": "2023-08-14T19:39:10.000",
    "date_modified": "2023-08-14T19:39:10.000",
    "request_status": "Pending",
    "responsible_agency": "Department of Sanitation",
    "final_address": "7664 Anne Marie Ct",
    "address_councildis": "E",
    "status": "Assigned to Contractor",
    "contractor": "Waste Pro",
    "rowid": "1026292",
    "final_x": "3717697.7669",
    "final_y": "571345.029032",
    "longitude": "-89.9522565115918",
    "latitude": "30.063850173020324",
    "geocoded_column": {
      "latitude": "30.063850173020324",
      "longitude": "-89.9522565115918"
    }
  },
  {
    "service_request": "2023-1026291",
    "request_type": "Traffic Signals/Signs/Striping/Streetlights",
    "request_reason": "Street Light Outage/Malfunction",
    "date_created": "2023-08-14T19:25:37.000",
    "date_modified": "2023-08-14T19:25:37.000",
    "request_status": "Pending",
    "responsible_agency": "Department of Public Works",
    "final_address": "3017 Lafitte Ave",
    "address_councildis": "A",
    "status": "Assigned to Contractor",
    "contractor": "Legacy Professional Services",
    "rowid": "1026291",
    "final_x": "3675188.15841",
    "final_y": "537223.564168",
    "longitude": "-90.08780510165865",
    "latitude": "29.97136869570758",
    "geocoded_column": {
      "latitude": "29.97136869570758",
      "longitude": "-90.08780510165865"
    }
  },
  {
    "service_request": "2023-1026290",
    "request_type": "Trash/Recycling",
    "request_reason": "Missed Trash Pick-Up",
    "date_created": "2023-08-14T19:22:18.000",
    "date_modified": "2023-08-14T19:22:19.000",
    "request_status": "Pending",
    "responsible_agency": "Department of Sanitation",
    "final_address": "8918 Green St",
    "address_councildis": "A",
    "status": "Assigned to Contractor",
    "contractor": "Richards Disposal",
    "rowid": "1026290",
    "final_x": "3660931.1609",
    "final_y": "531637.541571",
    "longitude": "-90.13301577489959",
    "latitude": "29.956427374879706",
    "geocoded_column": {
      "latitude": "29.956427374879706",
      "longitude": "-90.13301577489959"
    }
  },
  {
    "service_request": "2023-1026289",
    "request_type": "Traffic Signals/Signs/Striping/Streetlights",
    "request_reason": "Street Light Outage/Malfunction",
    "date_created": "2023-08-14T19:12:01.000",
    "date_modified": "2023-08-14T19:12:02.000",
    "request_status": "Pending",
    "responsible_agency": "Department of Public Works",
    "final_address": "MAYO RD & FARWOOD DR",
    "address_councildis": "E",
    "status": "Assigned to Contractor",
    "contractor": "Legacy Professional Services",
    "rowid": "1026289",
    "final_x": "3702072.1",
    "final_y": "557033.68",
    "longitude": "-90.00217557975101",
    "latitude": "30.025008195388786",
    "geocoded_column": {
      "latitude": "30.025008195388786",
      "longitude": "-90.00217557975101"
    }
  },
  {
    "service_request": "2023-1026288",
    "request_type": "Trash/Recycling",
    "request_reason": "Request a Large Item Pick Up",
    "date_created": "2023-08-14T19:08:35.000",
    "date_modified": "2023-08-14T19:08:36.000",
    "request_status": "Pending",
    "responsible_agency": "Department of Sanitation",
    "final_address": "1715 Abundance St",
    "address_councildis": "D",
    "status": "Assigned to Contractor",
    "contractor": "IV Waste",
    "rowid": "1026288",
    "final_x": "3680765.44635",
    "final_y": "543401.141134",
    "longitude": "-90.06997613612313",
    "latitude": "29.988187005647266",
    "geocoded_column": {
      "latitude": "29.988187005647266",
      "longitude": "-90.06997613612313"
    }
  },
  {
    "service_request": "2023-1026287",
    "request_type": "Trash/Recycling",
    "request_reason": "Return Recycling Cart",
    "date_created": "2023-08-14T19:04:08.000",
    "date_modified": "2023-08-14T19:04:08.000",
    "request_status": "Pending",
    "responsible_agency": "Department of Sanitation",
    "final_address": "4505 Patterson St",
    "address_councildis": "C",
    "status": "Pending",
    "rowid": "1026287",
    "final_x": "3700462.91088",
    "final_y": "525614.158397",
    "longitude": "-90.0084082995761",
    "latitude": "29.938667314876675",
    "geocoded_column": {
      "latitude": "29.938667314876675",
      "longitude": "-90.0084082995761"
    }
  },
  {
    "service_request": "2023-1026286",
    "request_type": "Trash/Recycling",
    "request_reason": "Order Recycling Cart",
    "date_created": "2023-08-14T18:59:08.000",
    "date_modified": "2023-08-14T18:59:08.000",
    "request_status": "Pending",
    "responsible_agency": "Department of Sanitation",
    "final_address": "7440 Northgate Dr",
    "address_councildis": "E",
    "status": "Pending",
    "rowid": "1026286",
    "final_x": "3713176.22206",
    "final_y": "566066.728355",
    "longitude": "-89.96674828149989",
    "latitude": "30.04948608191033",
    "geocoded_column": {
      "latitude": "30.04948608191033",
      "longitude": "-89.96674828149989"
    }
  },
  {
    "service_request": "2023-1026285",
    "request_type": "Trash/Recycling",
    "request_reason": "MIssed Recycling Pick-Up",
    "date_created": "2023-08-14T18:58:42.000",
    "date_modified": "2023-08-14T18:58:43.000",
    "request_status": "Pending",
    "responsible_agency": "Department of Sanitation",
    "final_address": "1430 Urania St",
    "address_councildis": "B",
    "status": "Assigned to Contractor",
    "contractor": "Richards Disposal",
    "rowid": "1026285",
    "final_x": "3679124.03253",
    "final_y": "524044.04134",
    "longitude": "-90.07583183965485",
    "latitude": "29.93501121400894",
    "geocoded_column": {
      "latitude": "29.93501121400894",
      "longitude": "-90.07583183965485"
    }
  },
  {
    "service_request": "2023-1026284",
    "request_type": "Mosquito, Termite & Rodent Control",
    "request_reason": "Non-Rodent Complaint (Mice, Possums, Snakes)",
    "date_created": "2023-08-14T18:51:11.000",
    "date_modified": "2023-08-14T18:51:11.000",
    "request_status": "Pending",
    "responsible_agency": "Mosquito, Termite & Rodent Control Board",
    "final_address": "5216 Perrier St",
    "address_councildis": "B",
    "status": "Pending",
    "rowid": "1026284",
    "final_x": "3667929.72321",
    "final_y": "519877.845496",
    "longitude": "-90.11131257420458",
    "latitude": "29.923888557013875",
    "geocoded_column": {
      "latitude": "29.923888557013875",
      "longitude": "-90.11131257420458"
    }
  },
  {
    "service_request": "2023-1026283",
    "request_type": "Trash/Recycling",
    "request_reason": "Request a Large Item Pick Up",
    "date_created": "2023-08-14T18:50:12.000",
    "date_modified": "2023-08-14T18:50:12.000",
    "request_status": "Pending",
    "responsible_agency": "Department of Sanitation",
    "final_address": "7081 W Tamaron Blvd",
    "address_councildis": "E",
    "status": "Assigned to Contractor",
    "contractor": "Waste Pro",
    "rowid": "1026283",
    "final_x": "3718589.707",
    "final_y": "568575.908069",
    "longitude": "-89.94954277106267",
    "latitude": "30.056206653240945",
    "geocoded_column": {
      "latitude": "30.056206653240945",
      "longitude": "-89.94954277106267"
    }
  },
  {
    "service_request": "2023-1026282",
    "request_type": "Trash/Recycling",
    "request_reason": "Order Trash Cart",
    "date_created": "2023-08-14T18:43:05.000",
    "date_modified": "2023-08-14T18:43:05.000",
    "request_status": "Pending",
    "responsible_agency": "Department of Sanitation",
    "final_address": "5216 Perrier St",
    "address_councildis": "B",
    "status": "Assigned to Contractor",
    "contractor": "Richards Disposal",
    "rowid": "1026282",
    "final_x": "3667929.72321",
    "final_y": "519877.845496",
    "longitude": "-90.11131257420458",
    "latitude": "29.923888557013875",
    "geocoded_column": {
      "latitude": "29.923888557013875",
      "longitude": "-90.11131257420458"
    }
  },
  {
    "service_request": "2023-1026281",
    "request_type": "Trash/Recycling",
    "request_reason": "Request a Large Item Pick Up",
    "date_created": "2023-08-14T18:32:30.000",
    "date_modified": "2023-08-14T18:32:31.000",
    "request_status": "Pending",
    "responsible_agency": "Department of Sanitation",
    "final_address": "3809 Carondelet St",
    "address_councildis": "B",
    "status": "Assigned to Contractor",
    "contractor": "Richards Disposal",
    "rowid": "1026281",
    "final_x": "3672697.53051",
    "final_y": "521490.280889",
    "longitude": "-90.09620733921763",
    "latitude": "29.928181560688603",
    "geocoded_column": {
      "latitude": "29.928181560688603",
      "longitude": "-90.09620733921763"
    }
  },
  {
    "service_request": "2023-1026280",
    "request_type": "Trash/Recycling",
    "request_reason": "Request a Large Item Pick Up",
    "date_created": "2023-08-14T18:32:29.000",
    "date_modified": "2023-08-14T18:32:29.000",
    "request_status": "Pending",
    "responsible_agency": "Department of Sanitation",
    "final_address": "4017 State Street Dr",
    "address_councildis": "B",
    "status": "Assigned to Contractor",
    "contractor": "Richards Disposal",
    "rowid": "1026280",
    "final_x": "3668280.02497",
    "final_y": "530392.705666",
    "longitude": "-90.10985238721167",
    "latitude": "29.95279076178802",
    "geocoded_column": {
      "latitude": "29.95279076178802",
      "longitude": "-90.10985238721167"
    }
  },
  {
    "service_request": "2023-1026279",
    "request_type": "Trash/Recycling",
    "request_reason": "Missed Trash Pick-Up",
    "date_created": "2023-08-14T18:30:27.000",
    "date_modified": "2023-08-14T18:30:28.000",
    "request_status": "Pending",
    "responsible_agency": "Department of Sanitation",
    "final_address": "729 S Salcedo St",
    "address_councildis": "B",
    "status": "Assigned to Contractor",
    "contractor": "Richards Disposal",
    "rowid": "1026279",
    "final_x": "3672346.32219",
    "final_y": "533912.451333",
    "longitude": "-90.0968928810933",
    "latitude": "29.962348880715187",
    "geocoded_column": {
      "latitude": "29.962348880715187",
      "longitude": "-90.0968928810933"
    }
  },
  {
    "service_request": "2023-1026278",
    "request_type": "Trash/Recycling",
    "request_reason": "Request a Large Item Pick Up",
    "date_created": "2023-08-14T18:26:44.000",
    "date_modified": "2023-08-14T18:26:45.000",
    "request_status": "Pending",
    "responsible_agency": "Department of Sanitation",
    "final_address": "4700 BLK Annunciation St",
    "address_councildis": "B",
    "status": "Assigned to Contractor",
    "contractor": "Richards Disposal",
    "rowid": "1026278",
    "final_x": "3669872.8341",
    "final_y": "517619.143683",
    "longitude": "-90.1052552715598",
    "latitude": "29.917620717838293",
    "geocoded_column": {
      "latitude": "29.917620717838293",
      "longitude": "-90.1052552715598"
    }
  },
  {
    "service_request": "2023-1026277",
    "request_type": "Traffic Signals/Signs/Striping/Streetlights",
    "request_reason": "Street Light Outage/Malfunction",
    "date_created": "2023-08-14T18:16:44.000",
    "date_modified": "2023-08-14T18:16:44.000",
    "request_status": "Pending",
    "responsible_agency": "Department of Public Works",
    "final_address": "2761 Banks St",
    "address_councildis": "B",
    "status": "Assigned to Contractor",
    "contractor": "Legacy Professional Services",
    "rowid": "1026277",
    "final_x": "3674252.60635",
    "final_y": "534513.144389",
    "longitude": "-90.09085253092961",
    "latitude": "29.963943886233192",
    "geocoded_column": {
      "latitude": "29.963943886233192",
      "longitude": "-90.09085253092961"
    }
  },
  {
    "service_request": "2023-1026276",
    "request_type": "Roads/Drainage",
    "request_reason": "Pothole",
    "date_created": "2023-08-14T18:14:24.000",
    "date_modified": "2023-08-14T18:14:24.000",
    "request_status": "Pending",
    "responsible_agency": "Department of Public Works",
    "final_address": "CLOVER ST & LOTUS ST",
    "address_councildis": "D",
    "status": "Pending",
    "rowid": "1026276",
    "final_x": "3687847.4",
    "final_y": "546698.18",
    "longitude": "-90.04748974087086",
    "latitude": "29.99703607733337",
    "geocoded_column": {
      "latitude": "29.99703607733337",
      "longitude": "-90.04748974087086"
    }
  },
  {
    "service_request": "2023-1026275",
    "request_type": "Traffic Signals/Signs/Striping/Streetlights",
    "request_reason": "Street Light Outage/Malfunction",
    "date_created": "2023-08-14T18:07:00.000",
    "date_modified": "2023-08-14T18:07:01.000",
    "request_status": "Pending",
    "responsible_agency": "Department of Public Works",
    "final_address": "1319 Gardena Dr",
    "address_councildis": "D",
    "status": "Assigned to Contractor",
    "contractor": "Legacy Professional Services",
    "rowid": "1026275",
    "final_x": "3677318.97998",
    "final_y": "551495.953301",
    "longitude": "-90.08058286265646",
    "latitude": "30.010548914238353",
    "geocoded_column": {
      "latitude": "30.010548914238353",
      "longitude": "-90.08058286265646"
    }
  },
  {
    "service_request": "2023-1026274",
    "request_type": "Trash/Recycling",
    "request_reason": "Request a Large Item Pick Up",
    "date_created": "2023-08-14T17:58:43.000",
    "date_modified": "2023-08-14T17:58:43.000",
    "request_status": "Pending",
    "responsible_agency": "Department of Sanitation",
    "final_address": "2433 Dreux Ave",
    "address_councildis": "D",
    "status": "Assigned to Contractor",
    "contractor": "IV Waste",
    "rowid": "1026274",
    "final_x": "3685549.84687",
    "final_y": "552185.162454",
    "longitude": "-90.05455415243752",
    "latitude": "30.012193984217504",
    "geocoded_column": {
      "latitude": "30.012193984217504",
      "longitude": "-90.05455415243752"
    }
  },
  {
    "service_request": "2023-1026273",
    "request_type": "Roads/Drainage",
    "request_reason": "Pothole",
    "date_created": "2023-08-14T17:55:53.000",
    "date_modified": "2023-08-14T17:55:53.000",
    "request_status": "Pending",
    "responsible_agency": "Department of Public Works",
    "final_address": "1423 General Pershing St",
    "address_councildis": "B",
    "status": "Pending",
    "rowid": "1026273",
    "final_x": "3671330.69185",
    "final_y": "520571.244024",
    "longitude": "-90.1005533659415",
    "latitude": "29.925695010510914",
    "geocoded_column": {
      "latitude": "29.925695010510914",
      "longitude": "-90.1005533659415"
    }
  },
  {
    "service_request": "2023-1026272",
    "request_type": "Trash/Recycling",
    "request_reason": "Repair Trash Cart",
    "date_created": "2023-08-14T17:51:01.000",
    "date_modified": "2023-08-14T17:51:01.000",
    "request_status": "Pending",
    "responsible_agency": "Department of Sanitation",
    "final_address": "2032 Cadiz St",
    "address_councildis": "B",
    "status": "Assigned to Contractor",
    "contractor": "Richards Disposal",
    "rowid": "1026272",
    "final_x": "3669897.46503",
    "final_y": "522482.724858",
    "longitude": "-90.10501295858153",
    "latitude": "29.93099329363694",
    "geocoded_column": {
      "latitude": "29.93099329363694",
      "longitude": "-90.10501295858153"
    }
  },
  {
    "service_request": "2023-1026271",
    "request_type": "Abandoned Vehicles",
    "request_reason": "Abandoned/Junk Vehicles",
    "date_created": "2023-08-14T17:49:22.000",
    "date_modified": "2023-08-14T17:49:23.000",
    "request_status": "Pending",
    "responsible_agency": "Department of Public Works",
    "final_address": "4723 Banks St",
    "address_councildis": "A",
    "status": "Pending",
    "rowid": "1026271",
    "final_x": "3668261.99597",
    "final_y": "539063.144778",
    "longitude": "-90.1096169340328",
    "latitude": "29.976632122046503",
    "geocoded_column": {
      "latitude": "29.976632122046503",
      "longitude": "-90.1096169340328"
    }
  },
  {
    "service_request": "2023-1026270",
    "request_type": "Trash/Recycling",
    "request_reason": "Request a Large Item Pick Up",
    "date_created": "2023-08-14T17:44:21.000",
    "date_modified": "2023-08-14T17:44:22.000",
    "request_status": "Pending",
    "responsible_agency": "Department of Sanitation",
    "final_address": "4510 Eden St",
    "address_councildis": "B",
    "status": "Assigned to Contractor",
    "contractor": "Richards Disposal",
    "rowid": "1026270",
    "final_x": "3669561.45831",
    "final_y": "530836.02189",
    "longitude": "-90.10579118412008",
    "latitude": "29.953972050968808",
    "geocoded_column": {
      "latitude": "29.953972050968808",
      "longitude": "-90.10579118412008"
    }
  },
  {
    "service_request": "2023-1026269",
    "request_type": "Trash/Recycling",
    "request_reason": "Request a Large Item Pick Up",
    "date_created": "2023-08-14T17:32:35.000",
    "date_modified": "2023-08-14T17:32:36.000",
    "request_status": "Pending",
    "responsible_agency": "Department of Sanitation",
    "final_address": "13237 St Helena Pl",
    "address_councildis": "E",
    "status": "Assigned to Contractor",
    "contractor": "Waste Pro",
    "rowid": "1026269",
    "final_x": "3726934.04313",
    "final_y": "564221.260065",
    "longitude": "-89.92333752255193",
    "latitude": "30.04395347426982",
    "geocoded_column": {
      "latitude": "30.04395347426982",
      "longitude": "-89.92333752255193"
    }
  },
  {
    "service_request": "2023-1026268",
    "request_type": "Traffic Signals/Signs/Striping/Streetlights",
    "request_reason": "Street Light Outage/Malfunction",
    "date_created": "2023-08-14T17:12:52.000",
    "date_modified": "2023-08-14T17:12:53.000",
    "request_status": "Pending",
    "responsible_agency": "Department of Public Works",
    "final_address": "PATTERSON DR & MICHAEL ST",
    "address_councildis": "C",
    "status": "Assigned to Contractor",
    "contractor": "Legacy Professional Services",
    "rowid": "1026268",
    "final_x": "3697260.3",
    "final_y": "527722.98",
    "longitude": "-90.01844282986103",
    "latitude": "29.944567277518903",
    "geocoded_column": {
      "latitude": "29.944567277518903",
      "longitude": "-90.01844282986103"
    }
  },
  {
    "service_request": "2023-1026267",
    "request_type": "Trash/Recycling",
    "request_reason": "Request a Large Item Pick Up",
    "date_created": "2023-08-14T17:09:33.000",
    "date_modified": "2023-08-14T17:09:34.000",
    "request_status": "Pending",
    "responsible_agency": "Department of Sanitation",
    "final_address": "5414 General Diaz St",
    "address_councildis": "A",
    "status": "Assigned to Contractor",
    "contractor": "IV Waste",
    "rowid": "1026267",
    "final_x": "3668926.5538",
    "final_y": "542958.937485",
    "longitude": "-90.10738640556369",
    "latitude": "29.987324698966198",
    "geocoded_column": {
      "latitude": "29.987324698966198",
      "longitude": "-90.10738640556369"
    }
  },
  {
    "service_request": "2023-1026266",
    "request_type": "Abandoned Vehicles",
    "request_reason": "Abandoned/Junk Vehicles",
    "date_created": "2023-08-14T17:08:38.000",
    "date_modified": "2023-08-14T17:08:38.000",
    "request_status": "Pending",
    "responsible_agency": "Department of Public Works",
    "final_address": "7651 Pineridge St",
    "address_councildis": "E",
    "status": "Pending",
    "rowid": "1026266",
    "final_x": "3718916.74745",
    "final_y": "572204.613481",
    "longitude": "-89.94837043247651",
    "latitude": "30.066173215703",
    "geocoded_column": {
      "latitude": "30.066173215703",
      "longitude": "-89.94837043247651"
    }
  },
  {
    "service_request": "2023-1026265",
    "request_type": "Roads/Drainage",
    "request_reason": "Damaged Sidewalk",
    "date_created": "2023-08-14T17:07:18.000",
    "date_modified": "2023-08-14T17:07:18.000",
    "request_status": "Pending",
    "responsible_agency": "Department of Public Works",
    "final_address": "1403 S Prieur St",
    "address_councildis": "B",
    "status": "Pending",
    "rowid": "1026265",
    "final_x": "3674266.06369",
    "final_y": "528926.10304",
    "longitude": "-90.09100132503448",
    "latitude": "29.948580983912546",
    "geocoded_column": {
      "latitude": "29.948580983912546",
      "longitude": "-90.09100132503448"
    }
  },
  {
    "service_request": "2023-1026264",
    "request_type": "Trash/Recycling",
    "request_reason": "Request a Large Item Pick Up",
    "date_created": "2023-08-14T17:04:23.000",
    "date_modified": "2023-08-14T17:04:24.000",
    "request_status": "Pending",
    "responsible_agency": "Department of Sanitation",
    "final_address": "7641 Hansbrough Ave",
    "address_councildis": "E",
    "status": "Assigned to Contractor",
    "contractor": "Waste Pro",
    "rowid": "1026264",
    "final_x": "3707591.89016",
    "final_y": "564650.248033",
    "longitude": "-89.9844507594385",
    "latitude": "30.045773274198638",
    "geocoded_column": {
      "latitude": "30.045773274198638",
      "longitude": "-89.9844507594385"
    }
  },
  {
    "service_request": "2023-1026263",
    "request_type": "Parks & Parkways",
    "request_reason": "Request Tree Service (Right of Way/Public Property)",
    "date_created": "2023-08-14T17:01:11.000",
    "date_modified": "2023-08-14T17:01:11.000",
    "request_status": "Pending",
    "responsible_agency": "Department of Parks & Parkway",
    "final_address": "BULLARD AVE & E BARRINGTON DR",
    "address_councildis": "E",
    "status": "Pending",
    "rowid": "1026263",
    "final_x": "3714340.2",
    "final_y": "565805.38",
    "longitude": "-89.96307931226046",
    "latitude": "30.04872925841226",
    "geocoded_column": {
      "latitude": "30.04872925841226",
      "longitude": "-89.96307931226046"
    }
  },
  {
    "service_request": "2023-1026262",
    "request_type": "Roads/Drainage",
    "request_reason": "Debris in Roadway",
    "date_created": "2023-08-14T16:56:57.000",
    "date_modified": "2023-08-14T16:56:58.000",
    "request_status": "Pending",
    "responsible_agency": "Department of Public Works",
    "final_address": "11327 Will Stutley Dr",
    "address_councildis": "E",
    "status": "Pending",
    "rowid": "1026262",
    "final_x": "3717054.97868",
    "final_y": "558323.433116",
    "longitude": "-89.95478360379498",
    "latitude": "30.028067388811493",
    "geocoded_column": {
      "latitude": "30.028067388811493",
      "longitude": "-89.95478360379498"
    }
  },
  {
    "service_request": "2023-1026261",
    "request_type": "Property Maintenance",
    "request_reason": "Property Maintenance",
    "date_created": "2023-08-14T16:53:26.000",
    "date_modified": "2023-08-14T16:55:41.000",
    "request_status": "Pending",
    "responsible_agency": "Department of Code Enforcement",
    "final_address": "11327 Will Stutley Dr",
    "address_councildis": "E",
    "status": "Pending",
    "rowid": "1026261",
    "final_x": "3717054.97868",
    "final_y": "558323.433116",
    "longitude": "-89.95478360379498",
    "latitude": "30.028067388811493",
    "geocoded_column": {
      "latitude": "30.028067388811493",
      "longitude": "-89.95478360379498"
    }
  },
  {
    "service_request": "2023-1026260",
    "request_type": "Trash/Recycling",
    "request_reason": "Replace Trash Cart",
    "date_created": "2023-08-14T16:51:31.000",
    "date_modified": "2023-08-14T16:51:33.000",
    "request_status": "Pending",
    "responsible_agency": "Department of Sanitation",
    "final_address": "3369 State Street Dr",
    "address_councildis": "A",
    "status": "Assigned to Contractor",
    "contractor": "Richards Disposal",
    "rowid": "1026260",
    "final_x": "3667858.05236",
    "final_y": "528807.869824",
    "longitude": "-90.11123816553213",
    "latitude": "29.948445362173977",
    "geocoded_column": {
      "latitude": "29.948445362173977",
      "longitude": "-90.11123816553213"
    }
  },
  {
    "service_request": "2023-1026259",
    "request_type": "Trash/Recycling",
    "request_reason": "Order Trash Cart",
    "date_created": "2023-08-14T16:49:01.000",
    "date_modified": "2023-08-14T16:49:02.000",
    "request_status": "Pending",
    "responsible_agency": "Department of Sanitation",
    "final_address": "2521 Philip St",
    "address_councildis": "B",
    "status": "Assigned to Contractor",
    "contractor": "Richards Disposal",
    "rowid": "1026259",
    "final_x": "3675261.8011",
    "final_y": "526257.726206",
    "longitude": "-90.08794893018113",
    "latitude": "29.94121410522304",
    "geocoded_column": {
      "latitude": "29.94121410522304",
      "longitude": "-90.08794893018113"
    }
  },
  {
    "service_request": "2023-1026258",
    "request_type": "Property Maintenance",
    "request_reason": "Property Maintenance",
    "date_created": "2023-08-14T16:48:47.000",
    "date_modified": "2023-08-14T16:48:47.000",
    "request_status": "Pending",
    "responsible_agency": "Department of Code Enforcement",
    "final_address": "2203 Pauline St",
    "address_councildis": "D",
    "status": "Pending",
    "rowid": "1026258",
    "final_x": "3692294.24003",
    "final_y": "539627.32289",
    "longitude": "-90.03369577564719",
    "latitude": "29.97745581016261",
    "geocoded_column": {
      "latitude": "29.97745581016261",
      "longitude": "-90.03369577564719"
    }
  },
  {
    "service_request": "2023-1026257",
    "request_type": "Trash/Recycling",
    "request_reason": "Order Recycling Cart",
    "date_created": "2023-08-14T16:46:58.000",
    "date_modified": "2023-08-14T16:46:58.000",
    "request_status": "Pending",
    "responsible_agency": "Department of Sanitation",
    "final_address": "31 Forest Oaks Dr",
    "address_councildis": "C",
    "status": "Pending",
    "rowid": "1026257",
    "final_x": "3722310.30566",
    "final_y": "510053.102703",
    "longitude": "-89.94003204000121",
    "latitude": "29.89516732690676",
    "geocoded_column": {
      "latitude": "29.89516732690676",
      "longitude": "-89.94003204000121"
    }
  },
  {
    "service_request": "2023-1026256",
    "request_type": "Trash/Recycling",
    "request_reason": "Missed Trash Pick-Up",
    "date_created": "2023-08-14T16:46:20.000",
    "date_modified": "2023-08-14T16:46:21.000",
    "request_status": "Pending",
    "responsible_agency": "Department of Sanitation",
    "final_address": "3126 St Philip St",
    "address_councildis": "A",
    "status": "Assigned to Contractor",
    "contractor": "Richards Disposal",
    "rowid": "1026256",
    "final_x": "3675744.91483",
    "final_y": "539071.514314",
    "longitude": "-90.08598325279056",
    "latitude": "29.976433275037547",
    "geocoded_column": {
      "latitude": "29.976433275037547",
      "longitude": "-90.08598325279056"
    }
  },
  {
    "service_request": "2023-1026255",
    "request_type": "Trash/Recycling",
    "request_reason": "Order Trash Cart",
    "date_created": "2023-08-14T16:45:42.000",
    "date_modified": "2023-08-14T16:45:42.000",
    "request_status": "Pending",
    "responsible_agency": "Department of Sanitation",
    "final_address": "31 Forest Oaks Dr",
    "address_councildis": "C",
    "status": "Assigned to Contractor",
    "contractor": "Richards Disposal",
    "rowid": "1026255",
    "final_x": "3722310.30566",
    "final_y": "510053.102703",
    "longitude": "-89.94003204000121",
    "latitude": "29.89516732690676",
    "geocoded_column": {
      "latitude": "29.89516732690676",
      "longitude": "-89.94003204000121"
    }
  },
  {
    "service_request": "2023-1026254",
    "request_type": "Trash/Recycling",
    "request_reason": "Missed Trash Pick-Up",
    "date_created": "2023-08-14T16:44:39.000",
    "date_modified": "2023-08-14T16:44:40.000",
    "request_status": "Pending",
    "responsible_agency": "Department of Sanitation",
    "final_address": "1540 Paula St",
    "address_councildis": "D",
    "status": "Assigned to Contractor",
    "contractor": "IV Waste",
    "rowid": "1026254",
    "final_x": "3679192.41083",
    "final_y": "549234.312467",
    "longitude": "-90.07474246229255",
    "latitude": "30.004273760073684",
    "geocoded_column": {
      "latitude": "30.004273760073684",
      "longitude": "-90.07474246229255"
    }
  },
  {
    "service_request": "2023-1026253",
    "request_type": "Property Maintenance",
    "request_reason": "Property Maintenance",
    "date_created": "2023-08-14T16:44:15.000",
    "date_modified": "2023-08-14T16:44:15.000",
    "request_status": "Pending",
    "responsible_agency": "Department of Code Enforcement",
    "final_address": "7915 Edward St",
    "address_councildis": "E",
    "status": "Pending",
    "rowid": "1026253",
    "final_x": "3700723.71415",
    "final_y": "561790.108831",
    "longitude": "-90.00626216935078",
    "latitude": "30.038129535978392",
    "geocoded_column": {
      "latitude": "30.038129535978392",
      "longitude": "-90.00626216935078"
    }
  },
  {
    "service_request": "2023-1026252",
    "request_type": "Property Maintenance",
    "request_reason": "Property Maintenance",
    "date_created": "2023-08-14T16:41:58.000",
    "date_modified": "2023-08-14T16:41:58.000",
    "request_status": "Pending",
    "responsible_agency": "Department of Code Enforcement",
    "final_address": "7915 Edward St",
    "address_councildis": "E",
    "status": "Pending",
    "rowid": "1026252",
    "final_x": "3700723.71415",
    "final_y": "561790.108831",
    "longitude": "-90.00626216935078",
    "latitude": "30.038129535978392",
    "geocoded_column": {
      "latitude": "30.038129535978392",
      "longitude": "-90.00626216935078"
    }
  },
  {
    "service_request": "2023-1026251",
    "request_type": "Trash/Recycling",
    "request_reason": "Request a Large Item Pick Up",
    "date_created": "2023-08-14T16:38:38.000",
    "date_modified": "2023-08-14T16:38:38.000",
    "request_status": "Pending",
    "responsible_agency": "Department of Sanitation",
    "final_address": "5899 Bellaire Dr",
    "address_councildis": "A",
    "status": "Assigned to Contractor",
    "contractor": "IV Waste",
    "rowid": "1026251",
    "final_x": "3664296.73076",
    "final_y": "547249.109777",
    "longitude": "-90.1218671755993",
    "latitude": "29.999256605308016",
    "geocoded_column": {
      "latitude": "29.999256605308016",
      "longitude": "-90.1218671755993"
    }
  },
  {
    "service_request": "2023-1026250",
    "request_type": "Property Maintenance",
    "request_reason": "Property Maintenance",
    "date_created": "2023-08-14T16:38:31.000",
    "date_modified": "2023-08-14T16:38:31.000",
    "request_status": "Pending",
    "responsible_agency": "Department of Code Enforcement",
    "final_address": "2220 Pauline St",
    "address_councildis": "D",
    "status": "Pending",
    "rowid": "1026250",
    "final_x": "3692242.69904",
    "final_y": "539777.186826",
    "longitude": "-90.03385319085329",
    "latitude": "29.97786948981616",
    "geocoded_column": {
      "latitude": "29.97786948981616",
      "longitude": "-90.03385319085329"
    }
  },
  {
    "service_request": "2023-1026249",
    "request_type": "Trash/Recycling",
    "request_reason": "Replace Trash Cart",
    "date_created": "2023-08-14T16:37:41.000",
    "date_modified": "2023-08-14T16:37:41.000",
    "request_status": "Pending",
    "responsible_agency": "Department of Sanitation",
    "final_address": "2635 Dublin St",
    "address_councildis": "A",
    "status": "Assigned to Contractor",
    "contractor": "Richards Disposal",
    "rowid": "1026249",
    "final_x": "3665301.83975",
    "final_y": "532511.207556",
    "longitude": "-90.11918532696454",
    "latitude": "29.958703054442754",
    "geocoded_column": {
      "latitude": "29.958703054442754",
      "longitude": "-90.11918532696454"
    }
  },
  {
    "service_request": "2023-1026248",
    "request_type": "Trash/Recycling",
    "request_reason": "Request a Large Item Pick Up",
    "date_created": "2023-08-14T16:34:53.000",
    "date_modified": "2023-08-14T16:34:53.000",
    "request_status": "Pending",
    "responsible_agency": "Department of Sanitation",
    "final_address": "13135 Cherbourg St",
    "address_councildis": "E",
    "status": "Assigned to Contractor",
    "contractor": "Waste Pro",
    "rowid": "1026248",
    "final_x": "3724712.84761",
    "final_y": "561284.82275",
    "longitude": "-89.93047099899937",
    "latitude": "30.03595445023929",
    "geocoded_column": {
      "latitude": "30.03595445023929",
      "longitude": "-89.93047099899937"
    }
  },
  {
    "service_request": "2023-1026247",
    "request_type": "Property Maintenance",
    "request_reason": "Property Maintenance",
    "date_created": "2023-08-14T16:32:40.000",
    "date_modified": "2023-08-14T16:32:40.000",
    "request_status": "Pending",
    "responsible_agency": "Department of Code Enforcement",
    "final_address": "4001 Macarthur Blvd",
    "address_councildis": "C",
    "status": "Pending",
    "rowid": "1026247",
    "final_x": "3698439.17604",
    "final_y": "520358.581176",
    "longitude": "-90.01498831360624",
    "latitude": "29.92428047632193",
    "geocoded_column": {
      "latitude": "29.92428047632193",
      "longitude": "-90.01498831360624"
    }
  },
  {
    "service_request": "2023-1026246",
    "request_type": "Trash/Recycling",
    "request_reason": "Order Recycling Cart",
    "date_created": "2023-08-14T16:28:41.000",
    "date_modified": "2023-08-14T16:34:51.000",
    "request_status": "Pending",
    "responsible_agency": "Department of Sanitation",
    "final_address": "1515 Pine St, New Orleans, Louisiana, 70118",
    "address_councildis": "A",
    "rowid": "1026246",
    "final_x": "3664658.90349",
    "final_y": "527662.848575",
    "longitude": "-90.12137749492102",
    "latitude": "29.94539035482988",
    "geocoded_column": {
      "latitude": "29.94539035482988",
      "longitude": "-90.12137749492102"
    }
  },
  {
    "service_request": "2023-1026245",
    "request_type": "Parks & Parkways",
    "request_reason": "Request Tree Service (Right of Way/Public Property)",
    "date_created": "2023-08-14T16:21:32.000",
    "date_modified": "2023-08-14T16:23:45.000",
    "request_status": "Pending",
    "responsible_agency": "Department of Parks & Parkway",
    "final_address": "7621 Trapier Ave",
    "address_councildis": "E",
    "status": "Pending",
    "rowid": "1026245",
    "final_x": "3706651.40574",
    "final_y": "563587.773793",
    "longitude": "-89.98746257530478",
    "latitude": "30.042882301616974",
    "geocoded_column": {
      "latitude": "30.042882301616974",
      "longitude": "-89.98746257530478"
    }
  },
  {
    "service_request": "2023-1026244",
    "request_type": "Trash/Recycling",
    "request_reason": "Request a Large Item Pick Up",
    "date_created": "2023-08-14T16:20:13.000",
    "date_modified": "2023-08-14T16:20:13.000",
    "request_status": "Pending",
    "responsible_agency": "Department of Sanitation",
    "final_address": "4517 S Derbigny St",
    "address_councildis": "B",
    "status": "Assigned to Contractor",
    "contractor": "Richards Disposal",
    "rowid": "1026244",
    "final_x": "3669745.31598",
    "final_y": "526228.358846",
    "longitude": "-90.10536655420252",
    "latitude": "29.941297064358356",
    "geocoded_column": {
      "latitude": "29.941297064358356",
      "longitude": "-90.10536655420252"
    }
  },
  {
    "service_request": "2023-1026243",
    "request_type": "Trash/Recycling",
    "request_reason": "Order Recycling Cart",
    "date_created": "2023-08-14T16:18:35.000",
    "date_modified": "2023-08-14T16:18:35.000",
    "request_status": "Pending",
    "responsible_agency": "Department of Sanitation",
    "final_address": "4211 S Robertson St",
    "address_councildis": "B",
    "status": "Pending",
    "rowid": "1026243",
    "final_x": "3671130.03278",
    "final_y": "524488.171068",
    "longitude": "-90.10105381429074",
    "latitude": "29.936471235483637",
    "geocoded_column": {
      "latitude": "29.936471235483637",
      "longitude": "-90.10105381429074"
    }
  },
  {
    "service_request": "2023-1026242",
    "request_type": "Trash/Recycling",
    "request_reason": "Order Recycling Cart",
    "date_created": "2023-08-14T16:18:31.000",
    "date_modified": "2023-08-14T16:18:31.000",
    "request_status": "Pending",
    "responsible_agency": "Department of Sanitation",
    "final_address": "3832 Banks St",
    "address_councildis": "B",
    "status": "Pending",
    "rowid": "1026242",
    "final_x": "3671083.11931",
    "final_y": "536750.980744",
    "longitude": "-90.10078548480784",
    "latitude": "29.970191306349232",
    "geocoded_column": {
      "latitude": "29.970191306349232",
      "longitude": "-90.10078548480784"
    }
  },
  {
    "service_request": "2023-1026241",
    "request_type": "Roads/Drainage",
    "request_reason": "Pothole",
    "date_created": "2023-08-14T16:17:24.000",
    "date_modified": "2023-08-14T16:17:24.000",
    "request_status": "Pending",
    "responsible_agency": "Department of Public Works",
    "final_address": "1312 Milan St",
    "address_councildis": "B",
    "status": "Pending",
    "rowid": "1026241",
    "final_x": "3671625.82823",
    "final_y": "520286.919608",
    "longitude": "-90.09963137110304",
    "latitude": "29.92490447494246",
    "geocoded_column": {
      "latitude": "29.92490447494246",
      "longitude": "-90.09963137110304"
    }
  },
  {
    "service_request": "2023-1026240",
    "request_type": "Trash/Recycling",
    "request_reason": "Missed Trash Pick-Up",
    "date_created": "2023-08-14T16:11:40.000",
    "date_modified": "2023-08-14T16:11:41.000",
    "request_status": "Pending",
    "responsible_agency": "Department of Sanitation",
    "final_address": "315 N Bernadotte St",
    "address_councildis": "A",
    "status": "Assigned to Contractor",
    "contractor": "Richards Disposal",
    "rowid": "1026240",
    "final_x": "3669346.87566",
    "final_y": "540857.626891",
    "longitude": "-90.1061298391489",
    "latitude": "29.9815344382555",
    "geocoded_column": {
      "latitude": "29.9815344382555",
      "longitude": "-90.1061298391489"
    }
  },
  {
    "service_request": "2023-1026238",
    "request_type": "Trash/Recycling",
    "request_reason": "Request a Large Item Pick Up",
    "date_created": "2023-08-14T16:06:12.000",
    "date_modified": "2023-08-14T16:06:13.000",
    "request_status": "Pending",
    "responsible_agency": "Department of Sanitation",
    "final_address": "1441 St Andrew St",
    "address_councildis": "B",
    "status": "Assigned to Contractor",
    "contractor": "Richards Disposal",
    "rowid": "1026238",
    "final_x": "3678651.30504",
    "final_y": "523656.843963",
    "longitude": "-90.07733763567856",
    "latitude": "29.93396080521924",
    "geocoded_column": {
      "latitude": "29.93396080521924",
      "longitude": "-90.07733763567856"
    }
  },
  {
    "service_request": "2023-1026237",
    "request_type": "Roads/Drainage",
    "request_reason": "Pothole",
    "date_created": "2023-08-14T16:04:41.000",
    "date_modified": "2023-08-14T16:04:41.000",
    "request_status": "Pending",
    "responsible_agency": "Department of Public Works",
    "final_address": "1421 Constantinople St",
    "address_councildis": "B",
    "status": "Pending",
    "rowid": "1026237",
    "final_x": "3672433.24257",
    "final_y": "520667.657465",
    "longitude": "-90.09706965638372",
    "latitude": "29.925927453713577",
    "geocoded_column": {
      "latitude": "29.925927453713577",
      "longitude": "-90.09706965638372"
    }
  },
  {
    "service_request": "2023-1026236",
    "request_type": "Trash/Recycling",
    "request_reason": "MIssed Recycling Pick-Up",
    "date_created": "2023-08-14T16:03:08.000",
    "date_modified": "2023-08-14T16:03:09.000",
    "request_status": "Pending",
    "responsible_agency": "Department of Sanitation",
    "final_address": "4755 Babylon St",
    "address_councildis": "D",
    "status": "Assigned to Contractor",
    "contractor": "Waste Pro",
    "rowid": "1026236",
    "final_x": "3696680.97175",
    "final_y": "554315.409624",
    "longitude": "-90.01930909535523",
    "latitude": "30.017705090855813",
    "geocoded_column": {
      "latitude": "30.017705090855813",
      "longitude": "-90.01930909535523"
    }
  },
  {
    "service_request": "2023-1026235",
    "request_type": "Trash/Recycling",
    "request_reason": "Request a Large Item Pick Up",
    "date_created": "2023-08-14T15:59:56.000",
    "date_modified": "2023-08-14T15:59:57.000",
    "request_status": "Pending",
    "responsible_agency": "Department of Sanitation",
    "final_address": "126 S Roadway St",
    "address_councildis": "A",
    "status": "Assigned to Contractor",
    "contractor": "IV Waste",
    "rowid": "1026235",
    "final_x": "3666405.78081",
    "final_y": "556216.911962",
    "longitude": "-90.11490336581548",
    "latitude": "30.02385344574261",
    "geocoded_column": {
      "latitude": "30.02385344574261",
      "longitude": "-90.11490336581548"
    }
  },
  {
    "service_request": "2023-1026234",
    "request_type": "Traffic Signals/Signs/Striping/Streetlights",
    "request_reason": "Street Light Outage/Malfunction",
    "date_created": "2023-08-14T15:58:47.000",
    "date_modified": "2023-08-14T15:58:47.000",
    "request_status": "Pending",
    "responsible_agency": "Department of Public Works",
    "final_address": "6100 BLK Coliseum St",
    "address_councildis": "A",
    "status": "Assigned to Contractor",
    "contractor": "Legacy Professional Services",
    "rowid": "1026234",
    "final_x": "3664317.38294",
    "final_y": "520453.169183",
    "longitude": "-90.12269629494145",
    "latitude": "29.92557595392138",
    "geocoded_column": {
      "latitude": "29.92557595392138",
      "longitude": "-90.12269629494145"
    }
  },
  {
    "service_request": "2023-1026233",
    "request_type": "Roads/Drainage",
    "request_reason": "Pothole",
    "date_created": "2023-08-14T15:52:58.000",
    "date_modified": "2023-08-14T15:52:58.000",
    "request_status": "Pending",
    "responsible_agency": "Department of Public Works",
    "final_address": "1300 BLK Jefferson Ave",
    "address_councildis": "B",
    "status": "Pending",
    "rowid": "1026233",
    "final_x": "3667094.61525",
    "final_y": "520185.991568",
    "longitude": "-90.11393836753265",
    "latitude": "29.924760324448933",
    "geocoded_column": {
      "latitude": "29.924760324448933",
      "longitude": "-90.11393836753265"
    }
  },
  {
    "service_request": "2023-1026232",
    "request_type": "Trash/Recycling",
    "request_reason": "Repair Trash Cart",
    "date_created": "2023-08-14T15:51:56.000",
    "date_modified": "2023-08-14T15:51:56.000",
    "request_status": "Pending",
    "responsible_agency": "Department of Sanitation",
    "final_address": "900 Peniston St",
    "address_councildis": "B",
    "status": "Assigned to Contractor",
    "contractor": "Richards Disposal",
    "rowid": "1026232",
    "final_x": "3673327.86324",
    "final_y": "519140.475575",
    "longitude": "-90.09429772781856",
    "latitude": "29.921701622416034",
    "geocoded_column": {
      "latitude": "29.921701622416034",
      "longitude": "-90.09429772781856"
    }
  },
  {
    "service_request": "2023-1026231",
    "request_type": "Roads/Drainage",
    "request_reason": "Damaged Sidewalk",
    "date_created": "2023-08-14T15:50:41.000",
    "date_modified": "2023-08-14T15:50:41.000",
    "request_status": "Pending",
    "responsible_agency": "Department of Public Works",
    "final_address": "1300 BLK Jefferson Ave",
    "address_councildis": "B",
    "status": "Pending",
    "rowid": "1026231",
    "final_x": "3667094.61525",
    "final_y": "520185.991568",
    "longitude": "-90.11393836753265",
    "latitude": "29.924760324448933",
    "geocoded_column": {
      "latitude": "29.924760324448933",
      "longitude": "-90.11393836753265"
    }
  },
  {
    "service_request": "2023-1026230",
    "request_type": "Roads/Drainage",
    "request_reason": "Pothole",
    "date_created": "2023-08-14T15:49:46.000",
    "date_modified": "2023-08-14T15:49:46.000",
    "request_status": "Pending",
    "responsible_agency": "Department of Public Works",
    "final_address": "1315 Peniston St",
    "address_councildis": "B",
    "status": "Pending",
    "rowid": "1026230",
    "final_x": "3673101.31451",
    "final_y": "520423.11276",
    "longitude": "-90.09496908964098",
    "latitude": "29.925235197927364",
    "geocoded_column": {
      "latitude": "29.925235197927364",
      "longitude": "-90.09496908964098"
    }
  },
  {
    "service_request": "2023-1026229",
    "request_type": "Trash/Recycling",
    "request_reason": "Request a Large Item Pick Up",
    "date_created": "2023-08-14T15:47:03.000",
    "date_modified": "2023-08-14T15:47:03.000",
    "request_status": "Pending",
    "responsible_agency": "Department of Sanitation",
    "final_address": "1309 Leontine St",
    "address_councildis": "B",
    "status": "Assigned to Contractor",
    "contractor": "Richards Disposal",
    "rowid": "1026229",
    "final_x": "3667402.1929",
    "final_y": "520074.555768",
    "longitude": "-90.11297119012383",
    "latitude": "29.92444490734079",
    "geocoded_column": {
      "latitude": "29.92444490734079",
      "longitude": "-90.11297119012383"
    }
  },
  {
    "service_request": "2023-1026226",
    "request_type": "Parks & Parkways",
    "request_reason": "Request Tree Service (Right of Way/Public Property)",
    "date_created": "2023-08-14T15:44:25.000",
    "date_modified": "2023-08-14T15:44:26.000",
    "request_status": "Pending",
    "responsible_agency": "Department of Parks & Parkway",
    "final_address": "1613 N Lopez St",
    "address_councildis": "A",
    "status": "Pending",
    "rowid": "1026226",
    "final_x": "3676560.78459",
    "final_y": "540647.454283",
    "longitude": "-90.0833521905969",
    "latitude": "29.98074212154528",
    "geocoded_column": {
      "latitude": "29.98074212154528",
      "longitude": "-90.0833521905969"
    }
  },
  {
    "service_request": "2023-1026225",
    "request_type": "Trash/Recycling",
    "request_reason": "Replace Trash Cart",
    "date_created": "2023-08-14T15:42:09.000",
    "date_modified": "2023-08-14T15:42:10.000",
    "request_status": "Pending",
    "responsible_agency": "Department of Sanitation",
    "final_address": "5215 Prytania St",
    "address_councildis": "B",
    "status": "Assigned to Contractor",
    "contractor": "Richards Disposal",
    "rowid": "1026225",
    "final_x": "3667974.1586",
    "final_y": "520217.583864",
    "longitude": "-90.11116086845186",
    "latitude": "29.92482142688381",
    "geocoded_column": {
      "latitude": "29.92482142688381",
      "longitude": "-90.11116086845186"
    }
  },
  {
    "service_request": "2023-1026224",
    "request_type": "Traffic Signals/Signs/Striping/Streetlights",
    "request_reason": "Street Light Outage/Malfunction",
    "date_created": "2023-08-14T15:41:50.000",
    "date_modified": "2023-08-14T15:41:51.000",
    "request_status": "Pending",
    "responsible_agency": "Department of Public Works",
    "final_address": "4514 Montegut Dr",
    "address_councildis": "D",
    "status": "Assigned to Contractor",
    "contractor": "Legacy Professional Services",
    "rowid": "1026224",
    "final_x": "3690059.70172",
    "final_y": "550086.6685",
    "longitude": "-90.04038041954071",
    "latitude": "30.006284735827627",
    "geocoded_column": {
      "latitude": "30.006284735827627",
      "longitude": "-90.04038041954071"
    }
  },
  {
    "service_request": "2023-1026223",
    "request_type": "Property Maintenance",
    "request_reason": "Property Maintenance",
    "date_created": "2023-08-14T15:41:36.000",
    "date_modified": "2023-08-14T15:41:36.000",
    "request_status": "Pending",
    "responsible_agency": "Department of Code Enforcement",
    "final_address": "23 Eugenie Ct",
    "address_councildis": "C",
    "status": "Pending",
    "rowid": "1026223",
    "final_x": "3700056.87005",
    "final_y": "511777.589488",
    "longitude": "-90.01019463259988",
    "latitude": "29.900634383369695",
    "geocoded_column": {
      "latitude": "29.900634383369695",
      "longitude": "-90.01019463259988"
    }
  },
  {
    "service_request": "2023-1026222",
    "request_type": "Trash/Recycling",
    "request_reason": "Request a Large Item Pick Up",
    "date_created": "2023-08-14T15:39:30.000",
    "date_modified": "2023-08-14T15:39:45.000",
    "request_status": "Pending",
    "responsible_agency": "Department of Sanitation",
    "final_address": "7100 W Renaissance Ct",
    "address_councildis": "E",
    "status": "Assigned to Contractor",
    "contractor": "Waste Pro",
    "rowid": "1026222",
    "final_x": "3716682.47039",
    "final_y": "567474.793124",
    "longitude": "-89.95561299703873",
    "latitude": "30.05324223470412",
    "geocoded_column": {
      "latitude": "30.05324223470412",
      "longitude": "-89.95561299703873"
    }
  },
  {
    "service_request": "2023-1026221",
    "request_type": "Roads/Drainage",
    "request_reason": "Damaged Sidewalk",
    "date_created": "2023-08-14T15:37:58.000",
    "date_modified": "2023-08-14T15:39:02.000",
    "request_status": "Pending",
    "responsible_agency": "Department of Public Works",
    "final_address": "2020 Easter Ln",
    "address_councildis": "C",
    "status": "Inspected",
    "rowid": "1026221",
    "final_x": "3699553.84983",
    "final_y": "523942.253116",
    "longitude": "-90.01133918330446",
    "latitude": "29.934099027585148",
    "geocoded_column": {
      "latitude": "29.934099027585148",
      "longitude": "-90.01133918330446"
    }
  },
  {
    "service_request": "2023-1026220",
    "request_type": "Property Maintenance",
    "request_reason": "Property Maintenance",
    "date_created": "2023-08-14T15:37:34.000",
    "date_modified": "2023-08-14T15:37:34.000",
    "request_status": "Pending",
    "responsible_agency": "Department of Code Enforcement",
    "final_address": "23 Eugenie Ct",
    "address_councildis": "C",
    "status": "Pending",
    "rowid": "1026220",
    "final_x": "3700056.87005",
    "final_y": "511777.589488",
    "longitude": "-90.01019463259988",
    "latitude": "29.900634383369695",
    "geocoded_column": {
      "latitude": "29.900634383369695",
      "longitude": "-90.01019463259988"
    }
  },
  {
    "service_request": "2023-1026219",
    "request_type": "Trash/Recycling",
    "request_reason": "Replace Trash Cart",
    "date_created": "2023-08-14T15:35:52.000",
    "date_modified": "2023-08-14T15:35:53.000",
    "request_status": "Pending",
    "responsible_agency": "Department of Sanitation",
    "final_address": "7719 Reindeer St",
    "address_councildis": "E",
    "status": "Assigned to Contractor",
    "contractor": "Waste Pro",
    "rowid": "1026219",
    "final_x": "3716843.41208",
    "final_y": "571059.366439",
    "longitude": "-89.95496801892277",
    "latitude": "30.063093006206298",
    "geocoded_column": {
      "latitude": "30.063093006206298",
      "longitude": "-89.95496801892277"
    }
  },
  {
    "service_request": "2023-1026218",
    "request_type": "Property Maintenance",
    "request_reason": "Property Maintenance",
    "date_created": "2023-08-14T15:35:45.000",
    "date_modified": "2023-08-14T15:35:45.000",
    "request_status": "Pending",
    "responsible_agency": "Department of Code Enforcement",
    "final_address": "23 Eugenie Ct",
    "address_councildis": "C",
    "status": "Pending",
    "rowid": "1026218",
    "final_x": "3700056.87005",
    "final_y": "511777.589488",
    "longitude": "-90.01019463259988",
    "latitude": "29.900634383369695",
    "geocoded_column": {
      "latitude": "29.900634383369695",
      "longitude": "-90.01019463259988"
    }
  },
  {
    "service_request": "2023-1026217",
    "request_type": "Trash/Recycling",
    "request_reason": "Request a Large Item Pick Up",
    "date_created": "2023-08-14T15:33:41.000",
    "date_modified": "2023-08-14T15:33:41.000",
    "request_status": "Pending",
    "responsible_agency": "Department of Sanitation",
    "final_address": "4626 Viola St",
    "address_councildis": "E",
    "status": "Assigned to Contractor",
    "contractor": "Waste Pro",
    "rowid": "1026217",
    "final_x": "3703994.38596",
    "final_y": "554486.931608",
    "longitude": "-89.99619541685381",
    "latitude": "30.01794407507393",
    "geocoded_column": {
      "latitude": "30.01794407507393",
      "longitude": "-89.99619541685381"
    }
  },
  {
    "service_request": "2023-1026216",
    "request_type": "Trash/Recycling",
    "request_reason": "Replace Trash Cart",
    "date_created": "2023-08-14T15:29:32.000",
    "date_modified": "2023-08-14T15:29:33.000",
    "request_status": "Pending",
    "responsible_agency": "Department of Sanitation",
    "final_address": "2626 Felicity St",
    "address_councildis": "B",
    "status": "Assigned to Contractor",
    "contractor": "Richards Disposal",
    "rowid": "1026216",
    "final_x": "3675509.30145",
    "final_y": "527472.199295",
    "longitude": "-90.08712582236795",
    "latitude": "29.94454610726678",
    "geocoded_column": {
      "latitude": "29.94454610726678",
      "longitude": "-90.08712582236795"
    }
  },
  {
    "service_request": "2023-1026215",
    "request_type": "Abandoned Vehicles",
    "request_reason": "Abandoned/Junk Vehicles",
    "date_created": "2023-08-14T15:27:03.000",
    "date_modified": "2023-08-14T15:28:19.000",
    "request_status": "Pending",
    "responsible_agency": "Department of Public Works",
    "final_address": "ELYSIAN FIELDS AVE & STEPHEN GIRARD AVE",
    "address_councildis": "D",
    "status": "Pending",
    "rowid": "1026215",
    "final_x": "3683958.1",
    "final_y": "548822.18",
    "longitude": "-90.0597012668891",
    "latitude": "30.002995749824063",
    "geocoded_column": {
      "latitude": "30.002995749824063",
      "longitude": "-90.0597012668891"
    }
  },
  {
    "service_request": "2023-1026214",
    "request_type": "Trash/Recycling",
    "request_reason": "Order Recycling Cart",
    "date_created": "2023-08-14T15:16:28.000",
    "date_modified": "2023-08-14T15:16:28.000",
    "request_status": "Pending",
    "responsible_agency": "Department of Sanitation",
    "final_address": "8323 Jeannette St",
    "address_councildis": "A",
    "status": "Pending",
    "rowid": "1026214",
    "final_x": "3662006.15712",
    "final_y": "529814.639233",
    "longitude": "-90.12968174041735",
    "latitude": "29.951383973505543",
    "geocoded_column": {
      "latitude": "29.951383973505543",
      "longitude": "-90.12968174041735"
    }
  },
  {
    "service_request": "2023-1026213",
    "request_type": "Trash/Recycling",
    "request_reason": "Missed Trash Pick-Up",
    "date_created": "2023-08-14T15:13:49.000",
    "date_modified": "2023-08-14T15:13:50.000",
    "request_status": "Pending",
    "responsible_agency": "Department of Sanitation",
    "final_address": "13720 PierreS Ct",
    "address_councildis": "E",
    "status": "Assigned to Contractor",
    "contractor": "Waste Pro",
    "rowid": "1026213",
    "final_x": "3725148.80435",
    "final_y": "570012.60919",
    "longitude": "-89.92875522082699",
    "latitude": "30.059937542822425",
    "geocoded_column": {
      "latitude": "30.059937542822425",
      "longitude": "-89.92875522082699"
    }
  },
  {
    "service_request": "2023-1026212",
    "request_type": "Trash/Recycling",
    "request_reason": "MIssed Recycling Pick-Up",
    "date_created": "2023-08-14T15:13:06.000",
    "date_modified": "2023-08-14T15:13:07.000",
    "request_status": "Pending",
    "responsible_agency": "Department of Sanitation",
    "final_address": "13031 New Hampshire Dr",
    "address_councildis": "E",
    "status": "Assigned to Contractor",
    "contractor": "Waste Pro",
    "rowid": "1026212",
    "final_x": "3723470.53382",
    "final_y": "564857.397218",
    "longitude": "-89.93425903756426",
    "latitude": "30.045819320914184",
    "geocoded_column": {
      "latitude": "30.045819320914184",
      "longitude": "-89.93425903756426"
    }
  },
  {
    "service_request": "2023-1026211",
    "request_type": "Trash/Recycling",
    "request_reason": "Missed Trash Pick-Up",
    "date_created": "2023-08-14T15:12:02.000",
    "date_modified": "2023-08-14T15:12:03.000",
    "request_status": "Pending",
    "responsible_agency": "Department of Sanitation",
    "final_address": "8316 Green St",
    "address_councildis": "A",
    "status": "Assigned to Contractor",
    "contractor": "Richards Disposal",
    "rowid": "1026211",
    "final_x": "3662461.66554",
    "final_y": "530240.506561",
    "longitude": "-90.12822931868018",
    "latitude": "29.95254180669457",
    "geocoded_column": {
      "latitude": "29.95254180669457",
      "longitude": "-90.12822931868018"
    }
  },
  {
    "service_request": "2023-1026210",
    "request_type": "Trash/Recycling",
    "request_reason": "Missed Trash Pick-Up",
    "date_created": "2023-08-14T15:05:13.000",
    "date_modified": "2023-08-14T15:05:22.000",
    "request_status": "Pending",
    "responsible_agency": "Department of Sanitation",
    "final_address": "8316 Green St",
    "address_councildis": "A",
    "status": "Assigned to Contractor",
    "contractor": "Richards Disposal",
    "rowid": "1026210",
    "final_x": "3662461.66554",
    "final_y": "530240.506561",
    "longitude": "-90.12822931868018",
    "latitude": "29.95254180669457",
    "geocoded_column": {
      "latitude": "29.95254180669457",
      "longitude": "-90.12822931868018"
    }
  },
  {
    "service_request": "2023-1026209",
    "request_type": "Roads/Drainage",
    "request_reason": "Street Flooding / Drainage",
    "date_created": "2023-08-14T15:02:38.000",
    "date_modified": "2023-08-14T15:02:38.000",
    "request_status": "Pending",
    "responsible_agency": "Department of Public Works",
    "final_address": "1200 BLK Poydras St",
    "address_councildis": "B",
    "status": "Pending",
    "rowid": "1026209",
    "final_x": "3678902.51158",
    "final_y": "529821.195067",
    "longitude": "-90.0763311015713",
    "latitude": "29.95090315047534",
    "geocoded_column": {
      "latitude": "29.95090315047534",
      "longitude": "-90.0763311015713"
    }
  },
  {
    "service_request": "2023-1026208",
    "request_type": "Trash/Recycling",
    "request_reason": "Repair Recycling Cart",
    "date_created": "2023-08-14T15:00:49.000",
    "date_modified": "2023-08-14T15:00:50.000",
    "request_status": "Pending",
    "responsible_agency": "Department of Sanitation",
    "final_address": "4160 Orleans Ave",
    "address_councildis": "A",
    "status": "Pending",
    "rowid": "1026208",
    "final_x": "3672171.21223",
    "final_y": "540327.509003",
    "longitude": "-90.09722731747877",
    "latitude": "29.97999331879271",
    "geocoded_column": {
      "latitude": "29.97999331879271",
      "longitude": "-90.09722731747877"
    }
  },
  {
    "service_request": "2023-1026207",
    "request_type": "Trash/Recycling",
    "request_reason": "Request a Large Item Pick Up",
    "date_created": "2023-08-14T14:59:16.000",
    "date_modified": "2023-08-14T15:01:25.000",
    "request_status": "Pending",
    "responsible_agency": "Department of Sanitation",
    "final_address": "3225 Bringier St",
    "address_councildis": "C",
    "status": "Assigned to Contractor",
    "contractor": "Richards Disposal",
    "rowid": "1026207",
    "final_x": "3696105.25219",
    "final_y": "525078.940157",
    "longitude": "-90.02218515998094",
    "latitude": "29.937333477933628",
    "geocoded_column": {
      "latitude": "29.937333477933628",
      "longitude": "-90.02218515998094"
    }
  },
  {
    "service_request": "2023-1026206",
    "request_type": "Trash/Recycling",
    "request_reason": "Order Recycling Cart",
    "date_created": "2023-08-14T14:56:21.000",
    "date_modified": "2023-08-14T14:56:21.000",
    "request_status": "Pending",
    "responsible_agency": "Department of Sanitation",
    "final_address": "2800 OReilly St",
    "address_councildis": "D",
    "status": "Pending",
    "rowid": "1026206",
    "final_x": "3679353.50683",
    "final_y": "541773.020684",
    "longitude": "-90.0744924921459",
    "latitude": "29.983752972763355",
    "geocoded_column": {
      "latitude": "29.983752972763355",
      "longitude": "-90.0744924921459"
    }
  },
  {
    "service_request": "2023-1026205",
    "request_type": "Trash/Recycling",
    "request_reason": "Repair Trash Cart",
    "date_created": "2023-08-14T14:53:58.000",
    "date_modified": "2023-08-14T14:53:59.000",
    "request_status": "Pending",
    "responsible_agency": "Department of Sanitation",
    "final_address": "322 S Clark St",
    "address_councildis": "B",
    "status": "Assigned to Contractor",
    "contractor": "Richards Disposal",
    "rowid": "1026205",
    "final_x": "3672294.9803",
    "final_y": "536180.894151",
    "longitude": "-90.09697771882522",
    "latitude": "29.96858786103702",
    "geocoded_column": {
      "latitude": "29.96858786103702",
      "longitude": "-90.09697771882522"
    }
  },
  {
    "service_request": "2023-1026204",
    "request_type": "Trash/Recycling",
    "request_reason": "Repair Trash Cart",
    "date_created": "2023-08-14T14:53:27.000",
    "date_modified": "2023-08-14T14:53:28.000",
    "request_status": "Pending",
    "responsible_agency": "Department of Sanitation",
    "final_address": "320 S Clark St",
    "address_councildis": "B",
    "status": "Assigned to Contractor",
    "contractor": "Richards Disposal",
    "rowid": "1026204",
    "final_x": "3672303.44353",
    "final_y": "536191.736839",
    "longitude": "-90.0969506219553",
    "latitude": "29.968617423684165",
    "geocoded_column": {
      "latitude": "29.968617423684165",
      "longitude": "-90.0969506219553"
    }
  },
  {
    "service_request": "2023-1026203",
    "request_type": "Trash/Recycling",
    "request_reason": "Missed Trash Pick-Up",
    "date_created": "2023-08-14T14:50:20.000",
    "date_modified": "2023-08-14T14:50:21.000",
    "request_status": "Pending",
    "responsible_agency": "Department of Sanitation",
    "final_address": "4220 Darby St",
    "address_councildis": "E",
    "status": "Assigned to Contractor",
    "contractor": "Waste Pro",
    "rowid": "1026203",
    "final_x": "3711724.86181",
    "final_y": "553782.870103",
    "longitude": "-89.97179675663008",
    "latitude": "30.01575786920723",
    "geocoded_column": {
      "latitude": "30.01575786920723",
      "longitude": "-89.97179675663008"
    }
  },
  {
    "service_request": "2023-1026202",
    "request_type": "Trash/Recycling",
    "request_reason": "Repair Trash Cart",
    "date_created": "2023-08-14T14:49:39.000",
    "date_modified": "2023-08-14T14:49:39.000",
    "request_status": "Pending",
    "responsible_agency": "Department of Sanitation",
    "final_address": "4557 Chantilly Dr",
    "address_councildis": "E",
    "status": "Assigned to Contractor",
    "contractor": "Waste Pro",
    "rowid": "1026202",
    "final_x": "3701047.05053",
    "final_y": "553299.091927",
    "longitude": "-90.00555129542579",
    "latitude": "30.01477220948557",
    "geocoded_column": {
      "latitude": "30.01477220948557",
      "longitude": "-90.00555129542579"
    }
  },
  {
    "service_request": "2023-1026201",
    "request_type": "Trash/Recycling",
    "request_reason": "Request a Large Item Pick Up",
    "date_created": "2023-08-14T14:48:29.000",
    "date_modified": "2023-08-14T14:48:30.000",
    "request_status": "Pending",
    "responsible_agency": "Department of Sanitation",
    "final_address": "822 Jena St",
    "address_councildis": "B",
    "status": "Assigned to Contractor",
    "contractor": "Richards Disposal",
    "rowid": "1026201",
    "final_x": "3670636.04039",
    "final_y": "518561.896055",
    "longitude": "-90.10281429248332",
    "latitude": "29.92019047439104",
    "geocoded_column": {
      "latitude": "29.92019047439104",
      "longitude": "-90.10281429248332"
    }
  },
  {
    "service_request": "2023-1026200",
    "request_type": "Trash/Recycling",
    "request_reason": "MIssed Recycling Pick-Up",
    "date_created": "2023-08-14T14:47:23.000",
    "date_modified": "2023-08-14T14:47:23.000",
    "request_status": "Pending",
    "responsible_agency": "Department of Sanitation",
    "final_address": "206 River Oaks Dr",
    "address_councildis": "C",
    "status": "Assigned to Contractor",
    "contractor": "Richards Disposal",
    "rowid": "1026200",
    "final_x": "3701640.07473",
    "final_y": "523168.076091",
    "longitude": "-90.00478143194462",
    "latitude": "29.93190396229803",
    "geocoded_column": {
      "latitude": "29.93190396229803",
      "longitude": "-90.00478143194462"
    }
  },
  {
    "service_request": "2023-1026199",
    "request_type": "Property Maintenance",
    "request_reason": "Property Maintenance",
    "date_created": "2023-08-14T14:47:13.000",
    "date_modified": "2023-08-14T14:47:14.000",
    "request_status": "Pending",
    "responsible_agency": "Department of Code Enforcement",
    "final_address": "5170 Metropolitan Dr",
    "address_councildis": "D",
    "status": "Pending",
    "rowid": "1026199",
    "final_x": "3690263.05475",
    "final_y": "552574.641686",
    "longitude": "-90.03964923635453",
    "latitude": "30.013119434316227",
    "geocoded_column": {
      "latitude": "30.013119434316227",
      "longitude": "-90.03964923635453"
    }
  },