[
  {
    "service_request": "2024-1126353",
    "request_type": "Roads/Drainage",
    "request_reason": "Catch Basin - Clogged",
    "date_created": "2024-08-29T23:57:02.000",
    "date_modified": "2024-08-29T23:57:02.000",
    "request_status": "Pending",
    "responsible_agency": "Department of Public Works",
    "final_address": "2520 First St",
    "address_councildis": "B",
    "status": "Pending",
    "rowid": "1126353",
    "final_x": "3674993.43592",
    "final_y": "526092.337342",
    "longitude": "-90.08880188198135",
    "latitude": "29.940767357614646",
    "geocoded_column": {
      "latitude": "29.940767357614646",
      "longitude": "-90.08880188198135"
    }
  },
  {
    "service_request": "2024-1126352",
    "request_type": "Traffic Signals/Signs/Striping/Streetlights",
    "request_reason": "Street Light Outage/Malfunction",
    "date_created": "2024-08-29T23:43:22.000",
    "date_modified": "2024-08-29T23:43:23.000",
    "request_status": "Pending",
    "responsible_agency": "Department of Public Works",
    "final_address": "5124 Willow St",
    "address_councildis": "B",
    "status": "Assigned to Contractor",
    "contractor": "Legacy Professional Services",
    "rowid": "1126352",
    "final_x": "3668362.95444",
    "final_y": "525194.639229",
    "longitude": "-90.10976579774695",
    "latitude": "29.938495331026367",
    "geocoded_column": {
      "latitude": "29.938495331026367",
      "longitude": "-90.10976579774695"
    }
  },
  {
    "service_request": "2024-1126351",
    "request_type": "Trash/Recycling",
    "request_reason": "Order Recycling Cart",
    "date_created": "2024-08-29T23:03:50.000",
    "date_modified": "2024-08-29T23:03:50.000",
    "request_status": "Pending",
    "responsible_agency": "Department of Sanitation",
    "final_address": "3408 Dauphine St",
    "address_councildis": "C",
    "status": "Pending",
    "rowid": "1126351",
    "final_x": "3689992.93705",
    "final_y": "534511.483717",
    "longitude": "-90.04114624875932",
    "latitude": "29.96346062418514",
    "geocoded_column": {
      "latitude": "29.96346062418514",
      "longitude": "-90.04114624875932"
    }
  },
  {
    "service_request": "2024-1126350",
    "request_type": "Abandoned Vehicles",
    "request_reason": "Abandoned/Junk Vehicles",
    "date_created": "2024-08-29T23:02:05.000",
    "date_modified": "2024-08-29T23:02:05.000",
    "request_status": "Pending",
    "responsible_agency": "Department of Public Works",
    "final_address": "300 BLK S Genois St",
    "address_councildis": "B",
    "status": "Pending",
    "rowid": "1126350",
    "final_x": "3671998.5933",
    "final_y": "536407.328876",
    "longitude": "-90.09790601703168",
    "latitude": "29.969219270431264",
    "geocoded_column": {
      "latitude": "29.969219270431264",
      "longitude": "-90.09790601703168"
    }
  },
  {
    "service_request": "2024-1126348",
    "request_type": "Trash/Recycling",
    "request_reason": "Replace Trash Cart",
    "date_created": "2024-08-29T23:00:42.000",
    "date_modified": "2024-08-29T23:00:43.000",
    "request_status": "Pending",
    "responsible_agency": "Department of Sanitation",
    "final_address": "3408 Dauphine St",
    "address_councildis": "C",
    "status": "Assigned to Contractor",
    "contractor": "IV Waste",
    "rowid": "1126348",
    "final_x": "3689992.93705",
    "final_y": "534511.483717",
    "longitude": "-90.04114624875932",
    "latitude": "29.96346062418514",
    "geocoded_column": {
      "latitude": "29.96346062418514",
      "longitude": "-90.04114624875932"
    }
  },
  {
    "service_request": "2024-1126347",
    "request_type": "Traffic Signals/Signs/Striping/Streetlights",
    "request_reason": "Street Light Outage/Malfunction",
    "date_created": "2024-08-29T22:36:15.000",
    "date_modified": "2024-08-29T22:36:16.000",
    "request_status": "Pending",
    "responsible_agency": "Department of Public Works",
    "final_address": "3415 Camphor St",
    "address_councildis": "A",
    "status": "Assigned to Contractor",
    "contractor": "Legacy Professional Services",
    "rowid": "1126347",
    "final_x": "3663630.31187",
    "final_y": "537783.682888",
    "longitude": "-90.12428792892919",
    "latitude": "29.973249224882725",
    "geocoded_column": {
      "latitude": "29.973249224882725",
      "longitude": "-90.12428792892919"
    }
  },
  {
    "service_request": "2024-1126346",
    "request_type": "Trash/Recycling",
    "request_reason": "Replace Trash Cart",
    "date_created": "2024-08-29T22:13:18.000",
    "date_modified": "2024-08-29T22:13:19.000",
    "request_status": "Pending",
    "responsible_agency": "Department of Sanitation",
    "final_address": "709 Milan St",
    "address_councildis": "B",
    "status": "Assigned to Contractor",
    "contractor": "IV Waste",
    "rowid": "1126346",
    "final_x": "3671905.12974",
    "final_y": "518227.057462",
    "longitude": "-90.09881976092578",
    "latitude": "29.919232239026904",
    "geocoded_column": {
      "latitude": "29.919232239026904",
      "longitude": "-90.09881976092578"
    }
  },
  {
    "service_request": "2024-1126345",
    "request_type": "Traffic Signals/Signs/Striping/Streetlights",
    "request_reason": "Street Light Outage/Malfunction",
    "date_created": "2024-08-29T21:43:21.000",
    "date_modified": "2024-08-29T21:43:22.000",
    "request_status": "Pending",
    "responsible_agency": "Department of Public Works",
    "final_address": "7263 Canal Blvd",
    "address_councildis": "D",
    "status": "Assigned to Contractor",
    "contractor": "Legacy Professional Services",
    "rowid": "1126345",
    "final_x": "3669371.82766",
    "final_y": "555282.053849",
    "longitude": "-90.10556286244523",
    "latitude": "30.021195863670865",
    "geocoded_column": {
      "latitude": "30.021195863670865",
      "longitude": "-90.10556286244523"
    }
  },
  {
    "service_request": "2024-1126344",
    "request_type": "Trash/Recycling",
    "request_reason": "Missed Trash Pick-Up",
    "date_created": "2024-08-29T21:03:33.000",
    "date_modified": "2024-08-29T21:03:35.000",
    "request_status": "Pending",
    "responsible_agency": "Department of Sanitation",
    "final_address": "1417 Dufossat St",
    "address_councildis": "B",
    "status": "Assigned to Contractor",
    "contractor": "IV Waste",
    "rowid": "1126344",
    "final_x": "3668172.86554",
    "final_y": "520317.064312",
    "longitude": "-90.11053026302999",
    "latitude": "29.92508913732497",
    "geocoded_column": {
      "latitude": "29.92508913732497",
      "longitude": "-90.11053026302999"
    }
  },
  {
    "service_request": "2024-1126343",
    "request_type": "Roads/Drainage",
    "request_reason": "Catch Basin - Clogged",
    "date_created": "2024-08-29T20:57:48.000",
    "date_modified": "2024-08-29T20:57:48.000",
    "request_status": "Pending",
    "responsible_agency": "Department of Public Works",
    "final_address": "520 First St",
    "address_councildis": "B",
    "status": "Pending",
    "rowid": "1126343",
    "final_x": "3679199.34491",
    "final_y": "519733.921336",
    "longitude": "-90.07574341961637",
    "latitude": "29.923157522008854",
    "geocoded_column": {
      "latitude": "29.923157522008854",
      "longitude": "-90.07574341961637"
    }
  },
  {
    "service_request": "2024-1126342",
    "request_type": "Property Maintenance",
    "request_reason": "Property Maintenance",
    "date_created": "2024-08-29T20:37:50.000",
    "date_modified": "2024-08-29T20:37:50.000",
    "request_status": "Pending",
    "responsible_agency": "Department of Code Enforcement",
    "final_address": "1021 Felicity St",
    "address_councildis": "B",
    "status": "Pending",
    "rowid": "1126342",
    "final_x": "3680166.55055",
    "final_y": "522916.401275",
    "longitude": "-90.07257978934604",
    "latitude": "29.931879075199287",
    "geocoded_column": {
      "latitude": "29.931879075199287",
      "longitude": "-90.07257978934604"
    }
  },
  {
    "service_request": "2024-1126341",
    "request_type": "Traffic Signals/Signs/Striping/Streetlights",
    "request_reason": "Street Light Outage/Malfunction",
    "date_created": "2024-08-29T20:35:48.000",
    "date_modified": "2024-08-29T20:35:49.000",
    "request_status": "Pending",
    "responsible_agency": "Department of Public Works",
    "final_address": "10901 N Hardy St",
    "address_councildis": "E",
    "status": "Assigned to Contractor",
    "contractor": "Legacy Professional Services",
    "rowid": "1126341",
    "final_x": "3712355.88702",
    "final_y": "562005.562399",
    "longitude": "-89.96949379680007",
    "latitude": "30.038346388623403",
    "geocoded_column": {
      "latitude": "30.038346388623403",
      "longitude": "-89.96949379680007"
    }
  },
  {
    "service_request": "2024-1126340",
    "request_type": "Trash/Recycling",
    "request_reason": "Request a Large Item Pick Up",
    "date_created": "2024-08-29T20:29:10.000",
    "date_modified": "2024-08-29T20:29:11.000",
    "request_status": "Pending",
    "responsible_agency": "Department of Sanitation",
    "final_address": "4633 Rosemont Pl",
    "address_councildis": "E",
    "status": "Assigned to Contractor",
    "contractor": "Waste Pro",
    "rowid": "1126340",
    "final_x": "3702860.69278",
    "final_y": "554322.21692",
    "longitude": "-89.99978348366908",
    "latitude": "30.01752750061859",
    "geocoded_column": {
      "latitude": "30.01752750061859",
      "longitude": "-89.99978348366908"
    }
  },
  {
    "service_request": "2024-1126339",
    "request_type": "Roads/Drainage",
    "request_reason": "Accessibility Ramps, Curbs and Sidewalk Repair",
    "date_created": "2024-08-29T20:21:37.000",
    "date_modified": "2024-08-29T20:21:37.000",
    "request_status": "Pending",
    "responsible_agency": "Department of Public Works",
    "final_address": "307 S Scott St",
    "address_councildis": "A",
    "status": "Pending",
    "rowid": "1126339",
    "final_x": "3671219.71348",
    "final_y": "537154.498952",
    "longitude": "-90.1003403922403",
    "latitude": "29.971296804832445",
    "geocoded_column": {
      "latitude": "29.971296804832445",
      "longitude": "-90.1003403922403"
    }
  },
  {
    "service_request": "2024-1126338",
    "request_type": "Trash/Recycling",
    "request_reason": "Order Recycling Cart",
    "date_created": "2024-08-29T19:56:58.000",
    "date_modified": "2024-08-29T19:56:58.000",
    "request_status": "Pending",
    "responsible_agency": "Department of Sanitation",
    "final_address": "7702 Plum St",
    "address_councildis": "A",
    "status": "Pending",
    "rowid": "1126338",
    "final_x": "3663214.36826",
    "final_y": "527658.977535",
    "longitude": "-90.12593850557617",
    "latitude": "29.945421643477527",
    "geocoded_column": {
      "latitude": "29.945421643477527",
      "longitude": "-90.12593850557617"
    }
  },
  {
    "service_request": "2024-1126337",
    "request_type": "Abandoned Vehicles",
    "request_reason": "Abandoned/Junk Vehicles",
    "date_created": "2024-08-29T19:38:20.000",
    "date_modified": "2024-08-29T19:38:20.000",
    "request_status": "Pending",
    "responsible_agency": "Department of Public Works",
    "final_address": "2473 Cumberland Ct",
    "address_councildis": "C",
    "status": "Pending",
    "rowid": "1126337",
    "final_x": "3704816.12439",
    "final_y": "521987.37881",
    "longitude": "-89.99479860260959",
    "latitude": "29.928555819456015",
    "geocoded_column": {
      "latitude": "29.928555819456015",
      "longitude": "-89.99479860260959"
    }
  },
  {
    "service_request": "2024-1126336",
    "request_type": "Abandoned Vehicles",
    "request_reason": "Vehicle Blocking Your Driveway",
    "date_created": "2024-08-29T19:35:15.000",
    "date_modified": "2024-08-29T19:35:15.000",
    "request_status": "Pending",
    "responsible_agency": "Department of Public Works",
    "final_address": "4705 Venus St",
    "address_councildis": "D",
    "status": "Pending",
    "rowid": "1126336",
    "final_x": "3686596.79401",
    "final_y": "550376.865172",
    "longitude": "-90.05131032056786",
    "latitude": "30.00718965874292",
    "geocoded_column": {
      "latitude": "30.00718965874292",
      "longitude": "-90.05131032056786"
    }
  },
  {
    "service_request": "2024-1126335",
    "request_type": "Trash/Recycling",
    "request_reason": "Request a Large Item Pick Up",
    "date_created": "2024-08-29T18:57:54.000",
    "date_modified": "2024-08-29T18:57:55.000",
    "request_status": "Pending",
    "responsible_agency": "Department of Sanitation",
    "final_address": "6772 Bellaire Dr",
    "address_councildis": "A",
    "status": "Assigned to Contractor",
    "contractor": "IV Waste",
    "rowid": "1126335",
    "final_x": "3664547.57236",
    "final_y": "553330.336343",
    "longitude": "-90.12087147995771",
    "latitude": "30.015970577718683",
    "geocoded_column": {
      "latitude": "30.015970577718683",
      "longitude": "-90.12087147995771"
    }
  },
  {
    "service_request": "2024-1126334",
    "request_type": "Trash/Recycling",
    "request_reason": "Request a Large Item Pick Up",
    "date_created": "2024-08-29T18:51:28.000",
    "date_modified": "2024-08-29T18:51:29.000",
    "request_status": "Pending",
    "responsible_agency": "Department of Sanitation",
    "final_address": "3401 Annunciation St",
    "address_councildis": "B",
    "status": "Assigned to Contractor",
    "contractor": "IV Waste",
    "rowid": "1126334",
    "final_x": "3675348.05326",
    "final_y": "518605.898231",
    "longitude": "-90.08793918760863",
    "latitude": "29.920171485210638",
    "geocoded_column": {
      "latitude": "29.920171485210638",
      "longitude": "-90.08793918760863"
    }
  },
  {
    "service_request": "2024-1126333",
    "request_type": "Traffic Signals/Signs/Striping/Streetlights",
    "request_reason": "Traffic Signal Malfunctioning/Damaged",
    "date_created": "2024-08-29T18:09:20.000",
    "date_modified": "2024-08-29T18:09:20.000",
    "request_status": "Pending",
    "responsible_agency": "Department of Public Works",
    "final_address": "CANAL ST & DAUPHINE ST & BARONNE ST",
    "address_councildis": "B",
    "status": "Pending",
    "rowid": "1126333",
    "final_x": "3680578.5",
    "final_y": "531065.88",
    "longitude": "-90.07099588286549",
    "latitude": "29.954274953103273",
    "geocoded_column": {
      "latitude": "29.954274953103273",
      "longitude": "-90.07099588286549"
    }
  },
  {
    "service_request": "2024-1126332",
    "request_type": "Trash/Recycling",
    "request_reason": "Request a Large Item Pick Up",
    "date_created": "2024-08-29T17:57:01.000",
    "date_modified": "2024-08-29T17:57:02.000",
    "request_status": "Pending",
    "responsible_agency": "Department of Sanitation",
    "final_address": "7015 Lake Willow Dr",
    "address_councildis": "E",
    "status": "Assigned to Contractor",
    "contractor": "Waste Pro",
    "rowid": "1126332",
    "final_x": "3702522.84855",
    "final_y": "558959.186396",
    "longitude": "-90.00068053410376",
    "latitude": "30.030288186723276",
    "geocoded_column": {
      "latitude": "30.030288186723276",
      "longitude": "-90.00068053410376"
    }
  },
  {
    "service_request": "2024-1126330",
    "request_type": "Abandoned Vehicles",
    "request_reason": "Abandoned/Junk Vehicles",
    "date_created": "2024-08-29T17:36:10.000",
    "date_modified": "2024-08-29T17:36:10.000",
    "request_status": "Pending",
    "responsible_agency": "Department of Public Works",
    "final_address": "5714 Vicksburg St",
    "address_councildis": "A",
    "status": "Pending",
    "rowid": "1126330",
    "final_x": "3668664.2299",
    "final_y": "545525.046032",
    "longitude": "-90.10812832836237",
    "latitude": "29.994388333011024",
    "geocoded_column": {
      "latitude": "29.994388333011024",
      "longitude": "-90.10812832836237"
    }
  },
  {
    "service_request": "2024-1126329",
    "request_type": "Roads/Drainage",
    "request_reason": "Catch Basin - Clogged",
    "date_created": "2024-08-29T17:23:58.000",
    "date_modified": "2024-08-29T17:23:58.000",
    "request_status": "Pending",
    "responsible_agency": "Department of Public Works",
    "final_address": "2757 Canal St",
    "address_councildis": "B",
    "status": "Pending",
    "rowid": "1126329",
    "final_x": "3675058.1844",
    "final_y": "535525.890502",
    "longitude": "-90.08827383610725",
    "latitude": "29.96670455276248",
    "geocoded_column": {
      "latitude": "29.96670455276248",
      "longitude": "-90.08827383610725"
    }
  },
  {
    "service_request": "2024-1126328",
    "request_type": "Roads/Drainage",
    "request_reason": "Catch Basin - Clogged",
    "date_created": "2024-08-29T17:22:50.000",
    "date_modified": "2024-08-29T17:22:50.000",
    "request_status": "Pending",
    "responsible_agency": "Department of Public Works",
    "final_address": "2515 Canal St",
    "address_councildis": "B",
    "status": "Pending",
    "rowid": "1126328",
    "final_x": "3676077.50619",
    "final_y": "534688.35079",
    "longitude": "-90.08508363373424",
    "latitude": "29.964371107828054",
    "geocoded_column": {
      "latitude": "29.964371107828054",
      "longitude": "-90.08508363373424"
    }
  },
  {
    "service_request": "2024-1126327",
    "request_type": "Roads/Drainage",
    "request_reason": "Catch Basin - Clogged",
    "date_created": "2024-08-29T17:21:40.000",
    "date_modified": "2024-08-29T17:21:40.000",
    "request_status": "Pending",
    "responsible_agency": "Department of Public Works",
    "final_address": "1939 Canal St",
    "address_councildis": "B",
    "status": "Pending",
    "rowid": "1126327",
    "final_x": "3677660.00949",
    "final_y": "533484.557316",
    "longitude": "-90.08012778820033",
    "latitude": "29.961013586088104",
    "geocoded_column": {
      "latitude": "29.961013586088104",
      "longitude": "-90.08012778820033"
    }
  },
  {
    "service_request": "2024-1126325",
    "request_type": "Trash/Recycling",
    "request_reason": "MIssed Recycling Pick-Up",
    "date_created": "2024-08-29T16:57:20.000",
    "date_modified": "2024-08-29T16:57:21.000",
    "request_status": "Pending",
    "responsible_agency": "Department of Sanitation",
    "final_address": "5043 E Lemans St",
    "address_councildis": "E",
    "status": "Assigned to Contractor",
    "contractor": "Waste Pro",
    "rowid": "1126325",
    "final_x": "3727319.73331",
    "final_y": "562948.93968",
    "longitude": "-89.92216811193978",
    "latitude": "30.040442067156807",
    "geocoded_column": {
      "latitude": "30.040442067156807",
      "longitude": "-89.92216811193978"
    }
  },
  {
    "service_request": "2024-1126324",
    "request_type": "Traffic Signals/Signs/Striping/Streetlights",
    "request_reason": "Street Light Outage/Malfunction",
    "date_created": "2024-08-29T16:53:59.000",
    "date_modified": "2024-08-29T16:54:00.000",
    "request_status": "Pending",
    "responsible_agency": "Department of Public Works",
    "final_address": "2660 Madrid St",
    "address_councildis": "D",
    "status": "Assigned to Contractor",
    "contractor": "Legacy Professional Services",
    "rowid": "1126324",
    "final_x": "3686972.35772",
    "final_y": "555567.267161",
    "longitude": "-90.04994014991293",
    "latitude": "30.021449796379464",
    "geocoded_column": {
      "latitude": "30.021449796379464",
      "longitude": "-90.04994014991293"
    }
  },
  {
    "service_request": "2024-1126323",
    "request_type": "Traffic Signals/Signs/Striping/Streetlights",
    "request_reason": "Street Light Outage/Malfunction",
    "date_created": "2024-08-29T16:51:45.000",
    "date_modified": "2024-08-29T16:51:46.000",
    "request_status": "Pending",
    "responsible_agency": "Department of Public Works",
    "final_address": "6040 Lafaye St",
    "address_councildis": "D",
    "status": "Assigned to Contractor",
    "contractor": "Legacy Professional Services",
    "rowid": "1126323",
    "final_x": "3687037.4415",
    "final_y": "555560.921817",
    "longitude": "-90.04973472795369",
    "latitude": "30.021430344481686",
    "geocoded_column": {
      "latitude": "30.021430344481686",
      "longitude": "-90.04973472795369"
    }
  },
  {
    "service_request": "2024-1126322",
    "request_type": "Traffic Signals/Signs/Striping/Streetlights",
    "request_reason": "Street Light Outage/Malfunction",
    "date_created": "2024-08-29T16:49:55.000",
    "date_modified": "2024-08-29T16:49:56.000",
    "request_status": "Pending",
    "responsible_agency": "Department of Public Works",
    "final_address": "2660 Madrid St",
    "address_councildis": "D",
    "status": "Assigned to Contractor",
    "contractor": "Legacy Professional Services",
    "rowid": "1126322",
    "final_x": "3686972.35772",
    "final_y": "555567.267161",
    "longitude": "-90.04994014991293",
    "latitude": "30.021449796379464",
    "geocoded_column": {
      "latitude": "30.021449796379464",
      "longitude": "-90.04994014991293"
    }
  },
  {
    "service_request": "2024-1126321",
    "request_type": "Traffic Signals/Signs/Striping/Streetlights",
    "request_reason": "Additional signage",
    "date_created": "2024-08-29T16:49:50.000",
    "date_modified": "2024-08-29T16:49:51.000",
    "request_status": "Pending",
    "responsible_agency": "Department of Public Works",
    "final_address": "1801 L. B. Landry Ave",
    "address_councildis": "C",
    "status": "Pending",
    "rowid": "1126321",
    "final_x": "3689900.27657",
    "final_y": "524128.37638",
    "longitude": "-90.04180843474808",
    "latitude": "29.934913521769634",
    "geocoded_column": {
      "latitude": "29.934913521769634",
      "longitude": "-90.04180843474808"
    }
  },
  {
    "service_request": "2024-1126320",
    "request_type": "Roads/Drainage",
    "request_reason": "Accessibility Ramps, Curbs and Sidewalk Repair",
    "date_created": "2024-08-29T16:48:27.000",
    "date_modified": "2024-08-29T16:48:27.000",
    "request_status": "Pending",
    "responsible_agency": "Department of Public Works",
    "final_address": "44 Grand Canyon Dr",
    "address_councildis": "C",
    "status": "Pending",
    "rowid": "1126320",
    "final_x": "3699475.80042",
    "final_y": "516614.764021",
    "longitude": "-90.01185236531828",
    "latitude": "29.913953420389934",
    "geocoded_column": {
      "latitude": "29.913953420389934",
      "longitude": "-90.01185236531828"
    }
  },
  {
    "service_request": "2024-1126319",
    "request_type": "Trash/Recycling",
    "request_reason": "Request a Large Item Pick Up",
    "date_created": "2024-08-29T16:47:31.000",
    "date_modified": "2024-08-29T16:47:32.000",
    "request_status": "Pending",
    "responsible_agency": "Department of Sanitation",
    "final_address": "7458 Briarheath Dr",
    "address_councildis": "E",
    "status": "Assigned to Contractor",
    "contractor": "Waste Pro",
    "rowid": "1126319",
    "final_x": "3714488.61234",
    "final_y": "567003.261988",
    "longitude": "-89.96256495460669",
    "latitude": "30.05201806429162",
    "geocoded_column": {
      "latitude": "30.05201806429162",
      "longitude": "-89.96256495460669"
    }
  },
  {
    "service_request": "2024-1126318",
    "request_type": "Traffic Signals/Signs/Striping/Streetlights",
    "request_reason": "Street Light Outage/Malfunction",
    "date_created": "2024-08-29T16:47:13.000",
    "date_modified": "2024-08-29T16:47:14.000",
    "request_status": "Pending",
    "responsible_agency": "Department of Public Works",
    "final_address": "2655 Mexico St",
    "address_councildis": "D",
    "status": "Assigned to Contractor",
    "contractor": "Legacy Professional Services",
    "rowid": "1126318",
    "final_x": "3686836.18678",
    "final_y": "556461.622746",
    "longitude": "-90.05033877032524",
    "latitude": "30.023913135198093",
    "geocoded_column": {
      "latitude": "30.023913135198093",
      "longitude": "-90.05033877032524"
    }
  },
  {
    "service_request": "2024-1126317",
    "request_type": "Traffic Signals/Signs/Striping/Streetlights",
    "request_reason": "Street Light Outage/Malfunction",
    "date_created": "2024-08-29T16:46:07.000",
    "date_modified": "2024-08-29T16:46:09.000",
    "request_status": "Pending",
    "responsible_agency": "Department of Public Works",
    "final_address": "2673 Mexico St",
    "address_councildis": "D",
    "status": "Assigned to Contractor",
    "contractor": "Legacy Professional Services",
    "rowid": "1126317",
    "final_x": "3686990.40438",
    "final_y": "556477.404186",
    "longitude": "-90.0498509151936",
    "latitude": "30.023951779402854",
    "geocoded_column": {
      "latitude": "30.023951779402854",
      "longitude": "-90.0498509151936"
    }
  },
  {
    "service_request": "2024-1126316",
    "request_type": "Trash/Recycling",
    "request_reason": "Illegal Dumping",
    "date_created": "2024-08-29T16:44:47.000",
    "date_modified": "2024-08-29T16:44:48.000",
    "request_status": "Pending",
    "responsible_agency": "Department of Sanitation",
    "final_address": "4500 BLK Virgilian St",
    "address_councildis": "D",
    "status": "Pending",
    "rowid": "1126316",
    "final_x": "3697586.29377",
    "final_y": "552635.34268",
    "longitude": "-90.01650965217888",
    "latitude": "30.013056962781384",
    "geocoded_column": {
      "latitude": "30.013056962781384",
      "longitude": "-90.01650965217888"
    }
  },
  {
    "service_request": "2024-1126314",
    "request_type": "Roads/Drainage",
    "request_reason": "Street Subsidence (Sinking)",
    "date_created": "2024-08-29T16:38:37.000",
    "date_modified": "2024-08-29T16:38:37.000",
    "request_status": "Pending",
    "responsible_agency": "Department of Public Works",
    "final_address": "727 First St",
    "address_councildis": "B",
    "status": "Pending",
    "rowid": "1126314",
    "final_x": "3678799.15707",
    "final_y": "520464.1326",
    "longitude": "-90.07698138646909",
    "latitude": "29.925177436454717",
    "geocoded_column": {
      "latitude": "29.925177436454717",
      "longitude": "-90.07698138646909"
    }
  },
  {
    "service_request": "2024-1126315",
    "request_type": "Utility Poles",
    "request_reason": "Utility Pole Leaning",
    "date_created": "2024-08-29T16:38:37.000",
    "date_modified": "2024-08-29T16:38:55.000",
    "request_status": "Pending",
    "responsible_agency": "Utility Company Collective",
    "final_address": "1414 Erato St",
    "address_councildis": "B",
    "status": "Pending",
    "rowid": "1126315",
    "final_x": "3680046.49218",
    "final_y": "525683.806333",
    "longitude": "-90.07286269673378",
    "latitude": "29.939492156371344",
    "geocoded_column": {
      "latitude": "29.939492156371344",
      "longitude": "-90.07286269673378"
    }
  },
  {
    "service_request": "2024-1126313",
    "request_type": "Trash/Recycling",
    "request_reason": "Return Trash Cart",
    "date_created": "2024-08-29T16:37:46.000",
    "date_modified": "2024-08-29T16:37:47.000",
    "request_status": "Pending",
    "responsible_agency": "Department of Sanitation",
    "final_address": "2918 Annunciation St",
    "address_councildis": "B",
    "status": "Assigned to Contractor",
    "contractor": "IV Waste",
    "rowid": "1126313",
    "final_x": "3677110.27349",
    "final_y": "519494.644663",
    "longitude": "-90.0823460683372",
    "latitude": "29.922562468081455",
    "geocoded_column": {
      "latitude": "29.922562468081455",
      "longitude": "-90.0823460683372"
    }
  },
  {
    "service_request": "2024-1126312",
    "request_type": "Trash/Recycling",
    "request_reason": "Request a Large Item Pick Up",
    "date_created": "2024-08-29T16:36:49.000",
    "date_modified": "2024-08-29T16:36:50.000",
    "request_status": "Pending",
    "responsible_agency": "Department of Sanitation",
    "final_address": "2523 Burgundy St",
    "address_councildis": "C",
    "status": "Assigned to Contractor",
    "contractor": "IV Waste",
    "rowid": "1126312",
    "final_x": "3686751.94543",
    "final_y": "535754.261127",
    "longitude": "-90.05133701751512",
    "latitude": "29.9669779305266",
    "geocoded_column": {
      "latitude": "29.9669779305266",
      "longitude": "-90.05133701751512"
    }
  },
  {
    "service_request": "2024-1126311",
    "request_type": "Abandoned Vehicles",
    "request_reason": "Abandoned/Junk Vehicles",
    "date_created": "2024-08-29T16:32:21.000",
    "date_modified": "2024-08-29T16:32:21.000",
    "request_status": "Pending",
    "responsible_agency": "Department of Public Works",
    "final_address": "4816 Viola St",
    "address_councildis": "E",
    "status": "Pending",
    "rowid": "1126311",
    "final_x": "3703832.07454",
    "final_y": "555679.305369",
    "longitude": "-89.99666430619664",
    "latitude": "30.021227851377475",
    "geocoded_column": {
      "latitude": "30.021227851377475",
      "longitude": "-89.99666430619664"
    }
  },
  {
    "service_request": "2024-1126310",
    "request_type": "Roads/Drainage",
    "request_reason": "Catch Basin - Clogged",
    "date_created": "2024-08-29T16:28:28.000",
    "date_modified": "2024-08-29T16:28:28.000",
    "request_status": "Pending",
    "responsible_agency": "Department of Public Works",
    "final_address": "719 S Solomon St",
    "address_councildis": "A",
    "status": "Pending",
    "rowid": "1126310",
    "final_x": "3669027.02126",
    "final_y": "536755.584391",
    "longitude": "-90.10727872243477",
    "latitude": "29.970264618481448",
    "geocoded_column": {
      "latitude": "29.970264618481448",
      "longitude": "-90.10727872243477"
    }
  },
  {
    "service_request": "2024-1126308",
    "request_type": "Trash/Recycling",
    "request_reason": "Missed Trash Pick-Up",
    "date_created": "2024-08-29T16:20:35.000",
    "date_modified": "2024-08-29T16:22:32.000",
    "request_status": "Pending",
    "responsible_agency": "Department of Sanitation",
    "final_address": "124 S Solomon St",
    "address_councildis": "A",
    "status": "Assigned to Contractor",
    "contractor": "IV Waste",
    "rowid": "1126308",
    "final_x": "3670488.55239",
    "final_y": "538443.536393",
    "longitude": "-90.10260578177494",
    "latitude": "29.97486283688435",
    "geocoded_column": {
      "latitude": "29.97486283688435",
      "longitude": "-90.10260578177494"
    }
  },
  {
    "service_request": "2024-1126307",
    "request_type": "Trash/Recycling",
    "request_reason": "Illegal Dumping",
    "date_created": "2024-08-29T16:14:35.000",
    "date_modified": "2024-08-29T16:14:35.000",
    "request_status": "Pending",
    "responsible_agency": "Department of Sanitation",
    "final_address": "1201 N Claiborne Ave",
    "address_councildis": "D",
    "status": "Pending",
    "rowid": "1126307",
    "final_x": "3680951.51867",
    "final_y": "536356.234567",
    "longitude": "-90.06963380872918",
    "latitude": "29.968810319533404",
    "geocoded_column": {
      "latitude": "29.968810319533404",
      "longitude": "-90.06963380872918"
    }
  },
  {
    "service_request": "2024-1126306",
    "request_type": "Property Maintenance",
    "request_reason": "Property Maintenance",
    "date_created": "2024-08-29T16:09:28.000",
    "date_modified": "2024-08-29T16:09:28.000",
    "request_status": "Pending",
    "responsible_agency": "Department of Code Enforcement",
    "final_address": "6952 Canal Blvd",
    "address_councildis": "A",
    "status": "Pending",
    "rowid": "1126306",
    "final_x": "3668903.7963",
    "final_y": "553749.221847",
    "longitude": "-90.10709354674012",
    "latitude": "30.01699490051345",
    "geocoded_column": {
      "latitude": "30.01699490051345",
      "longitude": "-90.10709354674012"
    }
  },
  {
    "service_request": "2024-1126305",
    "request_type": "Trash/Recycling",
    "request_reason": "Request a Large Item Pick Up",
    "date_created": "2024-08-29T16:08:13.000",
    "date_modified": "2024-08-29T16:08:14.000",
    "request_status": "Pending",
    "responsible_agency": "Department of Sanitation",
    "final_address": "5813 Oxford Pl",
    "address_councildis": "C",
    "status": "Assigned to Contractor",
    "contractor": "Richards Disposal",
    "rowid": "1126305",
    "final_x": "3704924.21841",
    "final_y": "519819.880696",
    "longitude": "-89.99453732081759",
    "latitude": "29.922592481763278",
    "geocoded_column": {
      "latitude": "29.922592481763278",
      "longitude": "-89.99453732081759"
    }
  },
  {
    "service_request": "2024-1126304",
    "request_type": "Traffic Signals/Signs/Striping/Streetlights",
    "request_reason": "Traffic Sign Missing/Damaged",
    "date_created": "2024-08-29T16:08:01.000",
    "date_modified": "2024-08-29T16:08:02.000",
    "request_status": "Pending",
    "responsible_agency": "Department of Public Works",
    "final_address": "DUBLIN ST & MAPLE ST",
    "address_councildis": "A",
    "status": "Pending",
    "rowid": "1126304",
    "final_x": "3660764.8",
    "final_y": "527581.28",
    "longitude": "-90.13367518986306",
    "latitude": "29.945278746055436",
    "geocoded_column": {
      "latitude": "29.945278746055436",
      "longitude": "-90.13367518986306"
    }
  },
  {
    "service_request": "2024-1126303",
    "request_type": "Roads/Drainage",
    "request_reason": "Damaged Sidewalk",
    "date_created": "2024-08-29T16:07:59.000",
    "date_modified": "2024-08-29T16:11:47.000",
    "request_status": "Pending",
    "responsible_agency": "Department of Public Works",
    "final_address": "44 Grand Canyon Dr",
    "address_councildis": "C",
    "rowid": "1126303",
    "final_x": "3699475.80042",
    "final_y": "516614.764021",
    "longitude": "-90.01185236531828",
    "latitude": "29.913953420389934",
    "geocoded_column": {
      "latitude": "29.913953420389934",
      "longitude": "-90.01185236531828"
    }
  },
  {
    "service_request": "2024-1126302",
    "request_type": "Trash/Recycling",
    "request_reason": "Repair Recycling Cart",
    "date_created": "2024-08-29T16:06:49.000",
    "date_modified": "2024-08-29T16:06:50.000",
    "request_status": "Pending",
    "responsible_agency": "Department of Sanitation",
    "final_address": "338 Hay Pl",
    "address_councildis": "A",
    "status": "Pending",
    "rowid": "1126302",
    "final_x": "3665161.87213",
    "final_y": "554168.185496",
    "longitude": "-90.11890250122786",
    "latitude": "30.018256481474825",
    "geocoded_column": {
      "latitude": "30.018256481474825",
      "longitude": "-90.11890250122786"
    }
  },
  {
    "service_request": "2024-1126298",
    "request_type": "Roads/Drainage",
    "request_reason": "Street Subsidence (Sinking)",
    "date_created": "2024-08-29T16:00:08.000",
    "date_modified": "2024-08-29T16:00:09.000",
    "request_status": "Pending",
    "responsible_agency": "Department of Public Works",
    "final_address": "2000 BLK Lauradale Dr",
    "address_councildis": "C",
    "status": "Pending",
    "rowid": "1126298",
    "final_x": "3692699.65295",
    "final_y": "523705.91235",
    "longitude": "-90.03298600706563",
    "latitude": "29.933664832652223",
    "geocoded_column": {
      "latitude": "29.933664832652223",
      "longitude": "-90.03298600706563"
    }
  },
  {
    "service_request": "2024-1126297",
    "request_type": "Property Maintenance",
    "request_reason": "Property Maintenance",
    "date_created": "2024-08-29T16:00:00.000",
    "date_modified": "2024-08-29T16:00:00.000",
    "request_status": "Pending",
    "responsible_agency": "Department of Code Enforcement",
    "final_address": "0 BLK Architect St",
    "address_councildis": "C",
    "status": "Pending",
    "rowid": "1126297",
    "final_x": "3687142.46885",
    "final_y": "534686.498656",
    "longitude": "-90.05014150821198",
    "latitude": "29.964029935213947",
    "geocoded_column": {
      "latitude": "29.964029935213947",
      "longitude": "-90.05014150821198"
    }
  },
  {
    "service_request": "2024-1126296",
    "request_type": "Trash/Recycling",
    "request_reason": "Dead Animal Pick Up",
    "date_created": "2024-08-29T15:56:07.000",
    "date_modified": "2024-08-29T15:56:08.000",
    "request_status": "Pending",
    "responsible_agency": "Department of Sanitation",
    "final_address": "2814 Mercedes Blvd",
    "address_councildis": "C",
    "status": "Assigned to Contractor",
    "contractor": "Richards Disposal",
    "rowid": "1126296",
    "final_x": "3698085.31965",
    "final_y": "520920.740537",
    "longitude": "-90.01608490880344",
    "latitude": "29.925837412280835",
    "geocoded_column": {
      "latitude": "29.925837412280835",
      "longitude": "-90.01608490880344"
    }
  },
  {
    "service_request": "2024-1126295",
    "request_type": "Trash/Recycling",
    "request_reason": "Request a Large Item Pick Up",
    "date_created": "2024-08-29T15:55:36.000",
    "date_modified": "2024-08-29T15:55:36.000",
    "request_status": "Pending",
    "responsible_agency": "Department of Sanitation",
    "final_address": "10816 Curran Rd",
    "address_councildis": "E",
    "status": "Assigned to Contractor",
    "contractor": "Waste Pro",
    "rowid": "1126295",
    "final_x": "3709925.87198",
    "final_y": "565682.515042",
    "longitude": "-89.97703566673633",
    "latitude": "30.04853583910742",
    "geocoded_column": {
      "latitude": "30.04853583910742",
      "longitude": "-89.97703566673633"
    }
  },
  {
    "service_request": "2024-1126294",
    "request_type": "Traffic Signals/Signs/Striping/Streetlights",
    "request_reason": "Street Light Outage/Malfunction",
    "date_created": "2024-08-29T15:49:21.000",
    "date_modified": "2024-08-29T15:49:22.000",
    "request_status": "Pending",
    "responsible_agency": "Department of Public Works",
    "final_address": "20 Newcomb Blvd",
    "address_councildis": "A",
    "status": "Assigned to Contractor",
    "contractor": "Legacy Professional Services",
    "rowid": "1126294",
    "final_x": "3663788.66253",
    "final_y": "525181.704765",
    "longitude": "-90.12420780125025",
    "latitude": "29.938593282846682",
    "geocoded_column": {
      "latitude": "29.938593282846682",
      "longitude": "-90.12420780125025"
    }
  },
  {
    "service_request": "2024-1126293",
    "request_type": "Trash/Recycling",
    "request_reason": "Order Recycling Cart",
    "date_created": "2024-08-29T15:48:37.000",
    "date_modified": "2024-08-29T15:48:38.000",
    "request_status": "Pending",
    "responsible_agency": "Department of Sanitation",
    "final_address": "2406 Robert St",
    "address_councildis": "B",
    "status": "Pending",
    "rowid": "1126293",
    "final_x": "3668741.92078",
    "final_y": "524322.249852",
    "longitude": "-90.10859879719165",
    "latitude": "29.936085408296353",
    "geocoded_column": {
      "latitude": "29.936085408296353",
      "longitude": "-90.10859879719165"
    }
  },
  {
    "service_request": "2024-1126292",
    "request_type": "Trash/Recycling",
    "request_reason": "Order Recycling Cart",
    "date_created": "2024-08-29T15:48:13.000",
    "date_modified": "2024-08-29T15:48:14.000",
    "request_status": "Pending",
    "responsible_agency": "Department of Sanitation",
    "final_address": "5351 St Anthony Ave",
    "address_councildis": "D",
    "status": "Pending",
    "rowid": "1126292",
    "final_x": "3682298.3606",
    "final_y": "552880.932887",
    "longitude": "-90.06480266588406",
    "latitude": "30.01420647602664",
    "geocoded_column": {
      "latitude": "30.01420647602664",
      "longitude": "-90.06480266588406"
    }
  },
  {
    "service_request": "2024-1126291",
    "request_type": "Trash/Recycling",
    "request_reason": "Replace Trash Cart",
    "date_created": "2024-08-29T15:47:19.000",
    "date_modified": "2024-08-29T15:47:20.000",
    "request_status": "Pending",
    "responsible_agency": "Department of Sanitation",
    "final_address": "2406 Robert St",
    "address_councildis": "B",
    "status": "Assigned to Contractor",
    "contractor": "IV Waste",
    "rowid": "1126291",
    "final_x": "3668741.92078",
    "final_y": "524322.249852",
    "longitude": "-90.10859879719165",
    "latitude": "29.936085408296353",
    "geocoded_column": {
      "latitude": "29.936085408296353",
      "longitude": "-90.10859879719165"
    }
  },
  {
    "service_request": "2024-1126290",
    "request_type": "Abandoned Vehicles",
    "request_reason": "Abandoned/Junk Vehicles",
    "date_created": "2024-08-29T15:45:10.000",
    "date_modified": "2024-08-29T15:45:10.000",
    "request_status": "Pending",
    "responsible_agency": "Department of Public Works",
    "final_address": "3019 Martin Luther King, Jr. Blvd",
    "address_councildis": "B",
    "status": "Pending",
    "rowid": "1126290",
    "final_x": "3674941.87841",
    "final_y": "528308.661248",
    "longitude": "-90.08888866350759",
    "latitude": "29.946863058356012",
    "geocoded_column": {
      "latitude": "29.946863058356012",
      "longitude": "-90.08888866350759"
    }
  },
  {
    "service_request": "2024-1126289",
    "request_type": "Roads/Drainage",
    "request_reason": "Road Shoulder Repair",
    "date_created": "2024-08-29T15:40:40.000",
    "date_modified": "2024-08-29T15:40:40.000",
    "request_status": "Pending",
    "responsible_agency": "Department of Public Works",
    "final_address": "5567 Cameron Blvd",
    "address_councildis": "D",
    "status": "Pending",
    "rowid": "1126289",
    "final_x": "3682612.5332",
    "final_y": "553645.031575",
    "longitude": "-90.06378329088707",
    "latitude": "30.016297901642982",
    "geocoded_column": {
      "latitude": "30.016297901642982",
      "longitude": "-90.06378329088707"
    }
  },
  {
    "service_request": "2024-1126288",
    "request_type": "Abandoned Vehicles",
    "request_reason": "Abandoned/Junk Vehicles",
    "date_created": "2024-08-29T15:38:11.000",
    "date_modified": "2024-08-29T15:38:11.000",
    "request_status": "Pending",
    "responsible_agency": "Department of Public Works",
    "final_address": "3019 Martin Luther King, Jr. Blvd",
    "address_councildis": "B",
    "status": "Pending",
    "rowid": "1126288",
    "final_x": "3674941.87841",
    "final_y": "528308.661248",
    "longitude": "-90.08888866350759",
    "latitude": "29.946863058356012",
    "geocoded_column": {
      "latitude": "29.946863058356012",
      "longitude": "-90.08888866350759"
    }
  },
  {
    "service_request": "2024-1126287",
    "request_type": "Trash/Recycling",
    "request_reason": "Repair Trash Cart",
    "date_created": "2024-08-29T15:34:43.000",
    "date_modified": "2024-08-29T15:34:44.000",
    "request_status": "Pending",
    "responsible_agency": "Department of Sanitation",
    "final_address": "820 Octavia St B",
    "address_councildis": "A",
    "status": "Assigned to Contractor",
    "contractor": "IV Waste",
    "rowid": "1126287",
    "final_x": "3666369.88801",
    "final_y": "519029.481271",
    "longitude": "-90.11626487595146",
    "latitude": "29.921601472094736",
    "geocoded_column": {
      "latitude": "29.921601472094736",
      "longitude": "-90.11626487595146"
    }
  },
  {
    "service_request": "2024-1126286",
    "request_type": "Roads/Drainage",
    "request_reason": "Catch Basin - Clogged",
    "date_created": "2024-08-29T15:32:43.000",
    "date_modified": "2024-08-29T15:32:43.000",
    "request_status": "Pending",
    "responsible_agency": "Department of Public Works",
    "final_address": "5531 Coliseum St",
    "address_councildis": "A",
    "status": "Pending",
    "rowid": "1126286",
    "final_x": "3666424.61319",
    "final_y": "519978.471928",
    "longitude": "-90.1160603085296",
    "latitude": "29.924209299363984",
    "geocoded_column": {
      "latitude": "29.924209299363984",
      "longitude": "-90.1160603085296"
    }
  },
  {
    "service_request": "2024-1126285",
    "request_type": "Trash/Recycling",
    "request_reason": "Replace Recycling Cart",
    "date_created": "2024-08-29T15:32:24.000",
    "date_modified": "2024-08-29T15:32:25.000",
    "request_status": "Pending",
    "responsible_agency": "Department of Sanitation",
    "final_address": "820 Octavia St A",
    "address_councildis": "A",
    "status": "Pending",
    "rowid": "1126285",
    "final_x": "3666386.55463",
    "final_y": "519025.731255",
    "longitude": "-90.11621239217014",
    "latitude": "29.921590673952245",
    "geocoded_column": {
      "latitude": "29.921590673952245",
      "longitude": "-90.11621239217014"
    }
  },
  {
    "service_request": "2024-1126284",
    "request_type": "Roads/Drainage",
    "request_reason": "Catch Basin - Clogged",
    "date_created": "2024-08-29T15:31:10.000",
    "date_modified": "2024-08-29T15:31:12.000",
    "request_status": "Pending",
    "responsible_agency": "Department of Public Works",
    "final_address": "5531 Coliseum St",
    "address_councildis": "A",
    "status": "Pending",
    "rowid": "1126284",
    "final_x": "3666424.61319",
    "final_y": "519978.471928",
    "longitude": "-90.1160603085296",
    "latitude": "29.924209299363984",
    "geocoded_column": {
      "latitude": "29.924209299363984",
      "longitude": "-90.1160603085296"
    }
  },
  {
    "service_request": "2024-1126283",
    "request_type": "Property Maintenance",
    "request_reason": "Property Maintenance",
    "date_created": "2024-08-29T15:30:57.000",
    "date_modified": "2024-08-29T15:30:57.000",
    "request_status": "Pending",
    "responsible_agency": "Department of Code Enforcement",
    "final_address": "13130 Maple Wood Dr",
    "address_councildis": "E",
    "status": "Pending",
    "rowid": "1126283",
    "final_x": "3724069.94291",
    "final_y": "563669.699041",
    "longitude": "-89.9324105254405",
    "latitude": "30.042533505092226",
    "geocoded_column": {
      "latitude": "30.042533505092226",
      "longitude": "-89.9324105254405"
    }
  },
  {
    "service_request": "2024-1126282",
    "request_type": "Trash/Recycling",
    "request_reason": "Repair Trash Cart",
    "date_created": "2024-08-29T15:30:39.000",
    "date_modified": "2024-08-29T15:30:40.000",
    "request_status": "Pending",
    "responsible_agency": "Department of Sanitation",
    "final_address": "820 Octavia St A",
    "address_councildis": "A",
    "status": "Assigned to Contractor",
    "contractor": "IV Waste",
    "rowid": "1126282",
    "final_x": "3666386.55463",
    "final_y": "519025.731255",
    "longitude": "-90.11621239217014",
    "latitude": "29.921590673952245",
    "geocoded_column": {
      "latitude": "29.921590673952245",
      "longitude": "-90.11621239217014"
    }
  },
  {
    "service_request": "2024-1126281",
    "request_type": "Roads/Drainage",
    "request_reason": "Catch Basin - Clogged",
    "date_created": "2024-08-29T15:22:47.000",
    "date_modified": "2024-08-29T15:22:49.000",
    "request_status": "Pending",
    "responsible_agency": "Department of Public Works",
    "final_address": "1614 S Carrollton Ave",
    "address_councildis": "A",
    "status": "Pending",
    "rowid": "1126281",
    "final_x": "3663019.54131",
    "final_y": "529568.014849",
    "longitude": "-90.12649015632432",
    "latitude": "29.950676526452746",
    "geocoded_column": {
      "latitude": "29.950676526452746",
      "longitude": "-90.12649015632432"
    }
  },
  {
    "service_request": "2024-1126280",
    "request_type": "Roads/Drainage",
    "request_reason": "Alley Way",
    "date_created": "2024-08-29T15:22:39.000",
    "date_modified": "2024-08-29T15:22:39.000",
    "request_status": "Pending",
    "responsible_agency": "Department of Public Works",
    "final_address": "6300 BLK Louis XIV St",
    "address_councildis": "A",
    "status": "Pending",
    "rowid": "1126280",
    "final_x": "3668296.65582",
    "final_y": "549720.193982",
    "longitude": "-90.10914787096537",
    "latitude": "30.005934339564423",
    "geocoded_column": {
      "latitude": "30.005934339564423",
      "longitude": "-90.10914787096537"
    }
  },
  {
    "service_request": "2024-1126279",
    "request_type": "Roads/Drainage",
    "request_reason": "Road Shoulder Repair",
    "date_created": "2024-08-29T15:16:50.000",
    "date_modified": "2024-08-29T15:16:50.000",
    "request_status": "Pending",
    "responsible_agency": "Department of Public Works",
    "final_address": "7427 Pitt St",
    "address_councildis": "A",
    "status": "Pending",
    "rowid": "1126279",
    "final_x": "3661193.14042",
    "final_y": "523574.383099",
    "longitude": "-90.13245536356102",
    "latitude": "29.93424871007761",
    "geocoded_column": {
      "latitude": "29.93424871007761",
      "longitude": "-90.13245536356102"
    }
  },
  {
    "service_request": "2024-1126278",
    "request_type": "Abandoned Vehicles",
    "request_reason": "Abandoned/Junk Vehicles",
    "date_created": "2024-08-29T15:16:22.000",
    "date_modified": "2024-08-29T15:17:22.000",
    "request_status": "Pending",
    "responsible_agency": "Department of Public Works",
    "final_address": "2300 BLK AP Tureaud Ave",
    "address_councildis": "D",
    "status": "Pending",
    "rowid": "1126278",
    "final_x": "3681603.06917",
    "final_y": "540665.984072",
    "longitude": "-90.0674258076459",
    "latitude": "29.98064086227227",
    "geocoded_column": {
      "latitude": "29.98064086227227",
      "longitude": "-90.0674258076459"
    }
  },
  {
    "service_request": "2024-1126277",
    "request_type": "Trash/Recycling",
    "request_reason": "Repair Recycling Cart",
    "date_created": "2024-08-29T15:15:59.000",
    "date_modified": "2024-08-29T15:16:00.000",
    "request_status": "Pending",
    "responsible_agency": "Department of Sanitation",
    "final_address": "1010 Joseph St",
    "address_councildis": "A",
    "status": "Pending",
    "rowid": "1126277",
    "final_x": "3666234.2626",
    "final_y": "519638.903736",
    "longitude": "-90.11667256258782",
    "latitude": "29.923281152686286",
    "geocoded_column": {
      "latitude": "29.923281152686286",
      "longitude": "-90.11667256258782"
    }
  },
  {
    "service_request": "2024-1126276",
    "request_type": "Traffic Signals/Signs/Striping/Streetlights",
    "request_reason": "Disabled Parking Sign ",
    "date_created": "2024-08-29T15:13:44.000",
    "date_modified": "2024-08-29T15:15:09.000",
    "request_status": "Pending",
    "responsible_agency": "Department of Public Works",
    "final_address": "1505 Mazant St",
    "address_councildis": "D",
    "rowid": "1126276",
    "final_x": "3692535.69475",
    "final_y": "536771.242632",
    "longitude": "-90.03303554776276",
    "latitude": "29.96959507227871",
    "geocoded_column": {
      "latitude": "29.96959507227871",
      "longitude": "-90.03303554776276"
    }
  },
  {
    "service_request": "2024-1126275",
    "request_type": "Trash/Recycling",
    "request_reason": "Request a Large Item Pick Up",
    "date_created": "2024-08-29T15:13:33.000",
    "date_modified": "2024-08-29T15:13:34.000",
    "request_status": "Pending",
    "responsible_agency": "Department of Sanitation",
    "final_address": "1302 Ptolemy St",
    "address_councildis": "C",
    "status": "Assigned to Contractor",
    "contractor": "Richards Disposal",
    "rowid": "1126275",
    "final_x": "3689404.98108",
    "final_y": "526063.347902",
    "longitude": "-90.04330329839522",
    "latitude": "29.94024937866843",
    "geocoded_column": {
      "latitude": "29.94024937866843",
      "longitude": "-90.04330329839522"
    }
  },
  {
    "service_request": "2024-1126274",
    "request_type": "Trash/Recycling",
    "request_reason": "Request a Large Item Pick Up",
    "date_created": "2024-08-29T15:03:40.000",
    "date_modified": "2024-08-29T15:03:41.000",
    "request_status": "Pending",
    "responsible_agency": "Department of Sanitation",
    "final_address": "2415 Lapeyrouse St",
    "address_councildis": "D",
    "status": "Assigned to Contractor",
    "contractor": "IV Waste",
    "rowid": "1126274",
    "final_x": "3679846.17979",
    "final_y": "539618.148426",
    "longitude": "-90.07301123054911",
    "latitude": "29.977812931267877",
    "geocoded_column": {
      "latitude": "29.977812931267877",
      "longitude": "-90.07301123054911"
    }
  },
  {
    "service_request": "2024-1126273",
    "request_type": "Trash/Recycling",
    "request_reason": "Request a Large Item Pick Up",
    "date_created": "2024-08-29T14:58:51.000",
    "date_modified": "2024-08-29T14:58:53.000",
    "request_status": "Pending",
    "responsible_agency": "Department of Sanitation",
    "final_address": "1217 Marengo St",
    "address_councildis": "B",
    "status": "Assigned to Contractor",
    "contractor": "IV Waste",
    "rowid": "1126273",
    "final_x": "3672091.94683",
    "final_y": "520091.662328",
    "longitude": "-90.09816662844591",
    "latitude": "29.92435377212842",
    "geocoded_column": {
      "latitude": "29.92435377212842",
      "longitude": "-90.09816662844591"
    }
  },
  {
    "service_request": "2024-1126272",
    "request_type": "Trash/Recycling",
    "request_reason": "Request a Large Item Pick Up",
    "date_created": "2024-08-29T14:55:37.000",
    "date_modified": "2024-08-29T14:55:37.000",
    "request_status": "Pending",
    "responsible_agency": "Department of Sanitation",
    "final_address": "1700 Alvar St",
    "address_councildis": "D",
    "status": "Assigned to Contractor",
    "contractor": "IV Waste",
    "rowid": "1126272",
    "final_x": "3692014.50998",
    "final_y": "537670.35636",
    "longitude": "-90.03464930532225",
    "latitude": "29.972083569009335",
    "geocoded_column": {
      "latitude": "29.972083569009335",
      "longitude": "-90.03464930532225"
    }
  },
  {
    "service_request": "2024-1126271",
    "request_type": "Trash/Recycling",
    "request_reason": "Request a Large Item Pick Up",
    "date_created": "2024-08-29T14:54:54.000",
    "date_modified": "2024-08-29T14:57:33.000",
    "request_status": "Pending",
    "responsible_agency": "Department of Sanitation",
    "final_address": "7934 Danube Rd",
    "address_councildis": "E",
    "status": "Assigned to Contractor",
    "contractor": "Waste Pro",
    "rowid": "1126271",
    "final_x": "3698922.92586",
    "final_y": "561175.11459",
    "longitude": "-90.01197550021803",
    "latitude": "30.036495763941346",
    "geocoded_column": {
      "latitude": "30.036495763941346",
      "longitude": "-90.01197550021803"
    }
  },
  {
    "service_request": "2024-1126270",
    "request_type": "Trash/Recycling",
    "request_reason": "Repair Recycling Cart",
    "date_created": "2024-08-29T14:51:07.000",
    "date_modified": "2024-08-29T14:51:07.000",
    "request_status": "Pending",
    "responsible_agency": "Department of Sanitation",
    "final_address": "408 Millaudon St",
    "address_councildis": "A",
    "status": "Pending",
    "rowid": "1126270",
    "final_x": "3661940.74592",
    "final_y": "524723.758012",
    "longitude": "-90.13005708076412",
    "latitude": "29.937387562900504",
    "geocoded_column": {
      "latitude": "29.937387562900504",
      "longitude": "-90.13005708076412"
    }
  },
  {
    "service_request": "2024-1126269",
    "request_type": "Trash/Recycling",
    "request_reason": "Order Recycling Cart",
    "date_created": "2024-08-29T14:48:29.000",
    "date_modified": "2024-08-29T14:48:30.000",
    "request_status": "Pending",
    "responsible_agency": "Department of Sanitation",
    "final_address": "3305 Louisiana Avenue Prkwy",
    "address_councildis": "B",
    "status": "Pending",
    "rowid": "1126269",
    "final_x": "3671909.80775",
    "final_y": "527282.526079",
    "longitude": "-90.09849695891045",
    "latitude": "29.944131720649615",
    "geocoded_column": {
      "latitude": "29.944131720649615",
      "longitude": "-90.09849695891045"
    }
  },
  {
    "service_request": "2024-1126268",
    "request_type": "Roads/Drainage",
    "request_reason": "Catch Basin - Clogged",
    "date_created": "2024-08-29T14:47:50.000",
    "date_modified": "2024-08-29T14:47:50.000",
    "request_status": "Pending",
    "responsible_agency": "Department of Public Works",
    "final_address": "7427 Pitt St",
    "address_councildis": "A",
    "status": "Pending",
    "rowid": "1126268",
    "final_x": "3661193.14042",
    "final_y": "523574.383099",
    "longitude": "-90.13245536356102",
    "latitude": "29.93424871007761",
    "geocoded_column": {
      "latitude": "29.93424871007761",
      "longitude": "-90.13245536356102"
    }
  },
  {
    "service_request": "2024-1126267",
    "request_type": "Trash/Recycling",
    "request_reason": "Repair Trash Cart",
    "date_created": "2024-08-29T14:47:49.000",
    "date_modified": "2024-08-29T14:47:50.000",
    "request_status": "Pending",
    "responsible_agency": "Department of Sanitation",
    "final_address": "3305 Louisiana Avenue Prkwy",
    "address_councildis": "B",
    "status": "Assigned to Contractor",
    "contractor": "IV Waste",
    "rowid": "1126267",
    "final_x": "3671909.80775",
    "final_y": "527282.526079",
    "longitude": "-90.09849695891045",
    "latitude": "29.944131720649615",
    "geocoded_column": {
      "latitude": "29.944131720649615",
      "longitude": "-90.09849695891045"
    }
  },
  {
    "service_request": "2024-1126266",
    "request_type": "Trash/Recycling",
    "request_reason": "MIssed Recycling Pick-Up",
    "date_created": "2024-08-29T14:46:55.000",
    "date_modified": "2024-08-29T16:24:22.000",
    "case_close_date": "2024-08-29T11:24:22.000",
    "request_status": "Closed",
    "responsible_agency": "Department of Sanitation",
    "final_address": "4321 S Derbigny St",
    "address_councildis": "B",
    "status": "Invalid Request",
    "contractor": "IV Waste",
    "contractor_action": "Invalid",
    "rowid": "1126266",
    "final_x": "3670512.79406",
    "final_y": "526316.016766",
    "longitude": "-90.10294050149241",
    "latitude": "29.941515457210745",
    "geocoded_column": {
      "latitude": "29.941515457210745",
      "longitude": "-90.10294050149241"
    }
  },
  {
    "service_request": "2024-1126265",
    "request_type": "Property Maintenance",
    "request_reason": "Property Maintenance",
    "date_created": "2024-08-29T14:45:52.000",
    "date_modified": "2024-08-29T14:45:52.000",
    "request_status": "Pending",
    "responsible_agency": "Department of Code Enforcement",
    "final_address": "3502 Cleveland Ave",
    "address_councildis": "B",
    "status": "Pending",
    "rowid": "1126265",
    "final_x": "3672551.17966",
    "final_y": "536644.011399",
    "longitude": "-90.09615283437647",
    "latitude": "29.96985367380935",
    "geocoded_column": {
      "latitude": "29.96985367380935",
      "longitude": "-90.09615283437647"
    }
  },
  {
    "service_request": "2024-1126264",
    "request_type": "Trash/Recycling",
    "request_reason": "Repair Recycling Cart",
    "date_created": "2024-08-29T14:40:16.000",
    "date_modified": "2024-08-29T14:40:17.000",
    "request_status": "Pending",
    "responsible_agency": "Department of Sanitation",
    "final_address": "3525 Vincennes Pl",
    "address_councildis": "A",
    "status": "Pending",
    "rowid": "1126264",
    "final_x": "3668152.84762",
    "final_y": "529066.73856",
    "longitude": "-90.11029864672616",
    "latitude": "29.949148518298138",
    "geocoded_column": {
      "latitude": "29.949148518298138",
      "longitude": "-90.11029864672616"
    }
  },
  {
    "service_request": "2024-1126263",
    "request_type": "Trash/Recycling",
    "request_reason": "Request a Large Item Pick Up",
    "date_created": "2024-08-29T14:40:03.000",
    "date_modified": "2024-08-29T14:40:04.000",
    "request_status": "Pending",
    "responsible_agency": "Department of Sanitation",
    "final_address": "922 Independence St",
    "address_councildis": "C",
    "status": "Assigned to Contractor",
    "contractor": "IV Waste",
    "rowid": "1126263",
    "final_x": "3690777.32995",
    "final_y": "534920.65799",
    "longitude": "-90.03865462987959",
    "latitude": "29.96456136403236",
    "geocoded_column": {
      "latitude": "29.96456136403236",
      "longitude": "-90.03865462987959"
    }
  },
  {
    "service_request": "2024-1126262",
    "request_type": "Trash/Recycling",
    "request_reason": "Request a Large Item Pick Up",
    "date_created": "2024-08-29T14:33:01.000",
    "date_modified": "2024-08-29T14:39:59.000",
    "request_status": "Pending",
    "responsible_agency": "Department of Sanitation",
    "final_address": "15 Five Oaks Dr",
    "address_councildis": "C",
    "status": "Assigned to Contractor",
    "contractor": "Richards Disposal",
    "rowid": "1126262",
    "final_x": "3699349.41943",
    "final_y": "526321.897662",
    "longitude": "-90.01189792167229",
    "latitude": "29.94064870678968",
    "geocoded_column": {
      "latitude": "29.94064870678968",
      "longitude": "-90.01189792167229"
    }
  },
  {
    "service_request": "2024-1126261",
    "request_type": "Trash/Recycling",
    "request_reason": "Illegal Dumping",
    "date_created": "2024-08-29T14:30:20.000",
    "date_modified": "2024-08-29T14:39:47.000",
    "case_close_date": "2024-08-29T09:39:47.000",
    "request_status": "Closed",
    "responsible_agency": "Department of Code Enforcement",
    "final_address": "7821 E Marchand Dr",
    "address_councildis": "E",
    "status": "Duplicate Request",
    "rowid": "1126261",
    "final_x": "3724060.35347",
    "final_y": "570387.432935",
    "longitude": "-89.93218122023974",
    "latitude": "30.061004791231476",
    "geocoded_column": {
      "latitude": "30.061004791231476",
      "longitude": "-89.93218122023974"
    }
  },
  {
    "service_request": "2024-1126260",
    "request_type": "Trash/Recycling",
    "request_reason": "Request a Large Item Pick Up",
    "date_created": "2024-08-29T14:26:48.000",
    "date_modified": "2024-08-29T14:27:14.000",
    "request_status": "Pending",
    "responsible_agency": "Department of Sanitation",
    "final_address": "7417 Dogwood Dr",
    "address_councildis": "E",
    "status": "Assigned to Contractor",
    "contractor": "Waste Pro",
    "rowid": "1126260",
    "final_x": "3701574.11645",
    "final_y": "560491.900702",
    "longitude": "-90.00362230856314",
    "latitude": "30.03453286139486",
    "geocoded_column": {
      "latitude": "30.03453286139486",
      "longitude": "-90.00362230856314"
    }
  },
  {
    "service_request": "2024-1126259",
    "request_type": "Trash/Recycling",
    "request_reason": "MIssed Recycling Pick-Up",
    "date_created": "2024-08-29T14:25:20.000",
    "date_modified": "2024-08-29T14:25:22.000",
    "request_status": "Pending",
    "responsible_agency": "Department of Sanitation",
    "final_address": "5317 Douglass St",
    "address_councildis": "E",
    "status": "Assigned to Contractor",
    "contractor": "Waste Pro",
    "rowid": "1126259",
    "final_x": "3696381.23191",
    "final_y": "531917.787075",
    "longitude": "-90.02106661305902",
    "latitude": "29.956129237803463",
    "geocoded_column": {
      "latitude": "29.956129237803463",
      "longitude": "-90.02106661305902"
    }
  },
  {
    "service_request": "2024-1126258",
    "request_type": "Trash/Recycling",
    "request_reason": "Replace Recycling Cart",
    "date_created": "2024-08-29T14:24:26.000",
    "date_modified": "2024-08-29T14:24:26.000",
    "request_status": "Pending",
    "responsible_agency": "Department of Sanitation",
    "final_address": "4717 Chestnut St",
    "address_councildis": "B",
    "status": "Pending",
    "rowid": "1126258",
    "final_x": "3669723.01786",
    "final_y": "519439.120823",
    "longitude": "-90.10566661023812",
    "latitude": "29.922629493494288",
    "geocoded_column": {
      "latitude": "29.922629493494288",
      "longitude": "-90.10566661023812"
    }
  },
  {
    "service_request": "2024-1126257",
    "request_type": "Trash/Recycling",
    "request_reason": "Repair Trash Cart",
    "date_created": "2024-08-29T14:22:41.000",
    "date_modified": "2024-08-29T14:22:42.000",
    "request_status": "Pending",
    "responsible_agency": "Department of Sanitation",
    "final_address": "1033 Port St",
    "address_councildis": "C",
    "status": "Assigned to Contractor",
    "contractor": "IV Waste",
    "rowid": "1126257",
    "final_x": "3687404.56297",
    "final_y": "536208.620615",
    "longitude": "-90.04925997468645",
    "latitude": "29.968207167477644",
    "geocoded_column": {
      "latitude": "29.968207167477644",
      "longitude": "-90.04925997468645"
    }
  },
  {
    "service_request": "2024-1126256",
    "request_type": "Traffic Signals/Signs/Striping/Streetlights",
    "request_reason": "Traffic Signal Malfunctioning/Damaged",
    "date_created": "2024-08-29T14:20:03.000",
    "date_modified": "2024-08-29T14:20:04.000",
    "request_status": "Pending",
    "responsible_agency": "Department of Public Works",
    "final_address": "N VILLERE ST & BASIN ST",
    "address_councildis": "C",
    "status": "Pending",
    "rowid": "1126256",
    "final_x": "3680385.0",
    "final_y": "534263.88",
    "longitude": "-90.0714956758671",
    "latitude": "29.963074227900595",
    "geocoded_column": {
      "latitude": "29.963074227900595",
      "longitude": "-90.0714956758671"
    }
  },
  {
    "service_request": "2024-1126255",
    "request_type": "Trash/Recycling",
    "request_reason": "Request a Large Item Pick Up",
    "date_created": "2024-08-29T14:19:14.000",
    "date_modified": "2024-08-29T14:19:15.000",
    "request_status": "Pending",
    "responsible_agency": "Department of Sanitation",
    "final_address": "2201 Bartholomew St A",
    "address_councildis": "D",
    "status": "Assigned to Contractor",
    "contractor": "IV Waste",
    "rowid": "1126255",
    "final_x": "3692882.69878",
    "final_y": "539466.705994",
    "longitude": "-90.0318429955652",
    "latitude": "29.976995805612496",
    "geocoded_column": {
      "latitude": "29.976995805612496",
      "longitude": "-90.0318429955652"
    }
  },
  {
    "service_request": "2024-1126254",
    "request_type": "Trash/Recycling",
    "request_reason": "Return Recycling Cart",
    "date_created": "2024-08-29T14:18:24.000",
    "date_modified": "2024-08-29T14:18:26.000",
    "request_status": "Pending",
    "responsible_agency": "Department of Sanitation",
    "final_address": "8111 Aberdeen Rd",
    "address_councildis": "E",
    "status": "Pending",
    "rowid": "1126254",
    "final_x": "3702660.82564",
    "final_y": "561351.785822",
    "longitude": "-90.0001565613646",
    "latitude": "30.036862489465953",
    "geocoded_column": {
      "latitude": "30.036862489465953",
      "longitude": "-90.0001565613646"
    }
  },
  {
    "service_request": "2024-1126253",
    "request_type": "Trash/Recycling",
    "request_reason": "Order Recycling Cart",
    "date_created": "2024-08-29T14:17:24.000",
    "date_modified": "2024-08-29T14:17:25.000",
    "request_status": "Pending",
    "responsible_agency": "Department of Sanitation",
    "final_address": "8111 Aberdeen Rd",
    "address_councildis": "E",
    "status": "Pending",
    "rowid": "1126253",
    "final_x": "3702660.82564",
    "final_y": "561351.785822",
    "longitude": "-90.0001565613646",
    "latitude": "30.036862489465953",
    "geocoded_column": {
      "latitude": "30.036862489465953",
      "longitude": "-90.0001565613646"
    }
  },
  {
    "service_request": "2024-1126252",
    "request_type": "Roads/Drainage",
    "request_reason": "Catch Basin - Broken/Damage",
    "date_created": "2024-08-29T14:17:03.000",
    "date_modified": "2024-08-29T14:17:03.000",
    "request_status": "Pending",
    "responsible_agency": "Department of Public Works",
    "final_address": "1902 St Bernard Ave",
    "address_councildis": "D",
    "status": "Pending",
    "rowid": "1126252",
    "final_x": "3681524.95215",
    "final_y": "538843.166921",
    "longitude": "-90.06773612470646",
    "latitude": "29.975631122228073",
    "geocoded_column": {
      "latitude": "29.975631122228073",
      "longitude": "-90.06773612470646"
    }
  },
  {
    "service_request": "2024-1126251",
    "request_type": "Trash/Recycling",
    "request_reason": "Request a Large Item Pick Up",
    "date_created": "2024-08-29T14:15:08.000",
    "date_modified": "2024-08-29T14:15:09.000",
    "request_status": "Pending",
    "responsible_agency": "Department of Sanitation",
    "final_address": "7032 Bunker Hill Rd",
    "address_councildis": "E",
    "status": "Assigned to Contractor",
    "contractor": "Waste Pro",
    "rowid": "1126251",
    "final_x": "3705886.16401",
    "final_y": "560398.887646",
    "longitude": "-89.9899991826343",
    "latitude": "30.03413881610401",
    "geocoded_column": {
      "latitude": "30.03413881610401",
      "longitude": "-89.9899991826343"
    }
  },
  {
    "service_request": "2024-1126250",
    "request_type": "Roads/Drainage",
    "request_reason": "Man hole cover issue",
    "date_created": "2024-08-29T14:12:42.000",
    "date_modified": "2024-08-29T14:12:43.000",
    "request_status": "Pending",
    "responsible_agency": "Department of Public Works",
    "final_address": "N BROAD ST & ST BERNARD AVE",
    "address_councildis": "D",
    "status": "Pending",
    "rowid": "1126250",
    "final_x": "3680224.3",
    "final_y": "541673.38",
    "longitude": "-90.07174552804194",
    "latitude": "29.98345266186846",
    "geocoded_column": {
      "latitude": "29.98345266186846",
      "longitude": "-90.07174552804194"
    }
  },
  {
    "service_request": "2024-1126249",
    "request_type": "Roads/Drainage",
    "request_reason": "Street Subsidence (Sinking)",
    "date_created": "2024-08-29T14:12:29.000",
    "date_modified": "2024-08-29T14:12:29.000",
    "request_status": "Pending",
    "responsible_agency": "Department of Public Works",
    "final_address": "5700 BLK Danneel St",
    "address_councildis": "A",
    "status": "Pending",
    "rowid": "1126249",
    "final_x": "3666513.37166",
    "final_y": "522552.349696",
    "longitude": "-90.11569378852867",
    "latitude": "29.93128405564599",
    "geocoded_column": {
      "latitude": "29.93128405564599",
      "longitude": "-90.11569378852867"
    }
  },
  {
    "service_request": "2024-1126248",
    "request_type": "Parks & Parkways",
    "request_reason": "Request Tree Service (Right of Way/Public Property)",
    "date_created": "2024-08-29T14:11:07.000",
    "date_modified": "2024-08-29T14:11:08.000",
    "request_status": "Pending",
    "responsible_agency": "Department of Parks & Parkway",
    "final_address": "4061 Piedmont Dr",
    "address_councildis": "D",
    "status": "Pending",
    "rowid": "1126248",
    "final_x": "3685166.86089",
    "final_y": "547646.893586",
    "longitude": "-90.0559240168407",
    "latitude": "29.99972713727435",
    "geocoded_column": {
      "latitude": "29.99972713727435",
      "longitude": "-90.0559240168407"
    }
  },
  {
    "service_request": "2024-1126247",
    "request_type": "Trash/Recycling",
    "request_reason": "Repair Trash Cart",
    "date_created": "2024-08-29T14:05:24.000",
    "date_modified": "2024-08-29T14:05:25.000",
    "request_status": "Pending",
    "responsible_agency": "Department of Sanitation",
    "final_address": "5108 Wentworth Dr",
    "address_councildis": "E",
    "status": "Assigned to Contractor",
    "contractor": "Waste Pro",
    "rowid": "1126247",
    "final_x": "3704824.73982",
    "final_y": "556666.839066",
    "longitude": "-89.99349129965633",
    "latitude": "30.02391130946168",
    "geocoded_column": {
      "latitude": "30.02391130946168",
      "longitude": "-89.99349129965633"
    }
  },
  {
    "service_request": "2024-1126246",
    "request_type": "Trash/Recycling",
    "request_reason": "Request a Large Item Pick Up",
    "date_created": "2024-08-29T14:02:03.000",
    "date_modified": "2024-08-29T14:02:04.000",
    "request_status": "Pending",
    "responsible_agency": "Department of Sanitation",
    "final_address": "2812 Chippewa St",
    "address_councildis": "B",
    "status": "Assigned to Contractor",
    "contractor": "IV Waste",
    "rowid": "1126246",
    "final_x": "3677796.41051",
    "final_y": "519474.433015",
    "longitude": "-90.08018090628264",
    "latitude": "29.922486276955226",
    "geocoded_column": {
      "latitude": "29.922486276955226",
      "longitude": "-90.08018090628264"
    }
  },
  {
    "service_request": "2024-1126245",
    "request_type": "Roads/Drainage",
    "request_reason": "Pothole",
    "date_created": "2024-08-29T13:54:28.000",
    "date_modified": "2024-08-29T13:54:28.000",
    "request_status": "Pending",
    "responsible_agency": "Department of Public Works",
    "final_address": "1532 Allen Toussaint Blvd",
    "address_councildis": "D",
    "status": "Pending",
    "rowid": "1126245",
    "final_x": "3678704.43829",
    "final_y": "555093.575897",
    "longitude": "-90.07608095458257",
    "latitude": "30.02039935449533",
    "geocoded_column": {
      "latitude": "30.02039935449533",
      "longitude": "-90.07608095458257"
    }
  },
  {
    "service_request": "2024-1126244",
    "request_type": "Roads/Drainage",
    "request_reason": "Pothole",
    "date_created": "2024-08-29T13:53:00.000",
    "date_modified": "2024-08-29T13:53:00.000",
    "request_status": "Pending",
    "responsible_agency": "Department of Public Works",
    "final_address": "6701 Canal Blvd",
    "address_councildis": "A",
    "status": "Pending",
    "rowid": "1126244",
    "final_x": "3669081.8139",
    "final_y": "552067.508118",
    "longitude": "-90.10658796994825",
    "latitude": "30.012365541896422",
    "geocoded_column": {
      "latitude": "30.012365541896422",
      "longitude": "-90.10658796994825"
    }
  },
  {
    "service_request": "2024-1126243",
    "request_type": "Trash/Recycling",
    "request_reason": "Repair Trash Cart",
    "date_created": "2024-08-29T13:51:48.000",
    "date_modified": "2024-08-29T13:51:49.000",
    "request_status": "Pending",
    "responsible_agency": "Department of Sanitation",
    "final_address": "161 30Th St",
    "address_councildis": "A",
    "status": "Assigned to Contractor",
    "contractor": "IV Waste",
    "rowid": "1126243",
    "final_x": "3665639.30925",
    "final_y": "550561.471892",
    "longitude": "-90.11751489038201",
    "latitude": "30.008325357734297",
    "geocoded_column": {
      "latitude": "30.008325357734297",
      "longitude": "-90.11751489038201"
    }
  },
  {
    "service_request": "2024-1126242",
    "request_type": "Traffic Signals/Signs/Striping/Streetlights",
    "request_reason": "Traffic Signal Malfunctioning/Damaged",
    "date_created": "2024-08-29T13:49:20.000",
    "date_modified": "2024-08-29T13:49:20.000",
    "request_status": "Pending",
    "responsible_agency": "Department of Public Works",
    "final_address": "1243 St Charles Ave",
    "address_councildis": "B",
    "status": "Pending",
    "rowid": "1126242",
    "final_x": "3679495.41634",
    "final_y": "526131.335422",
    "longitude": "-90.07458699533005",
    "latitude": "29.94073937009951",
    "geocoded_column": {
      "latitude": "29.94073937009951",
      "longitude": "-90.07458699533005"
    }
  },
  {
    "service_request": "2024-1126241",
    "request_type": "Roads/Drainage",
    "request_reason": "Catch Basin - Clogged",
    "date_created": "2024-08-29T13:45:50.000",
    "date_modified": "2024-08-29T13:45:51.000",
    "request_status": "Pending",
    "responsible_agency": "Department of Public Works",
    "final_address": "1639 Franklin Ave",
    "address_councildis": "D",
    "status": "Pending",
    "rowid": "1126241",
    "final_x": "3687709.44783",
    "final_y": "538659.504329",
    "longitude": "-90.0482103297489",
    "latitude": "29.974936840283316",
    "geocoded_column": {
      "latitude": "29.974936840283316",
      "longitude": "-90.0482103297489"
    }
  },
  {
    "service_request": "2024-1126240",
    "request_type": "Trash/Recycling",
    "request_reason": "Request a Large Item Pick Up",
    "date_created": "2024-08-29T13:44:57.000",
    "date_modified": "2024-08-29T14:56:50.000",
    "request_status": "Pending",
    "responsible_agency": "Department of Sanitation",
    "final_address": "211 Finland Pl",
    "address_councildis": "C",
    "status": "Assigned to Contractor",
    "contractor": "Richards Disposal",
    "rowid": "1126240",
    "final_x": "3706600.69431",
    "final_y": "520703.525561",
    "longitude": "-89.98921268401787",
    "latitude": "29.924968230142504",
    "geocoded_column": {
      "latitude": "29.924968230142504",
      "longitude": "-89.98921268401787"
    }
  },
  {
    "service_request": "2024-1126239",
    "request_type": "Roads/Drainage",
    "request_reason": "Catch Basin - Clogged",
    "date_created": "2024-08-29T13:37:04.000",
    "date_modified": "2024-08-29T13:37:04.000",
    "request_status": "Pending",
    "responsible_agency": "Department of Public Works",
    "final_address": "200 BLK N Diamond St",
    "address_councildis": "B",
    "status": "Pending",
    "rowid": "1126239",
    "final_x": "3682365.08766",
    "final_y": "526771.66967",
    "longitude": "-90.06550458630316",
    "latitude": "29.942413081604556",
    "geocoded_column": {
      "latitude": "29.942413081604556",
      "longitude": "-90.06550458630316"
    }
  },
  {
    "service_request": "2024-1126238",
    "request_type": "Trash/Recycling",
    "request_reason": "Repair Trash Cart",
    "date_created": "2024-08-29T13:29:10.000",
    "date_modified": "2024-08-29T13:29:11.000",
    "request_status": "Pending",
    "responsible_agency": "Department of Sanitation",
    "final_address": "4660 Werner Dr",
    "address_councildis": "E",
    "status": "Assigned to Contractor",
    "contractor": "Waste Pro",
    "rowid": "1126238",
    "final_x": "3704777.89047",
    "final_y": "554826.483864",
    "longitude": "-89.99370731947597",
    "latitude": "30.01885254965806",
    "geocoded_column": {
      "latitude": "30.01885254965806",
      "longitude": "-89.99370731947597"
    }
  },
  {
    "service_request": "2024-1126237",
    "request_type": "Trash/Recycling",
    "request_reason": "Request a Large Item Pick Up",
    "date_created": "2024-08-29T13:28:59.000",
    "date_modified": "2024-08-29T13:29:00.000",
    "request_status": "Pending",
    "responsible_agency": "Department of Sanitation",
    "final_address": "7822 Hickman St",
    "address_councildis": "E",
    "status": "Assigned to Contractor",
    "contractor": "Waste Pro",
    "rowid": "1126237",
    "final_x": "3705763.85092",
    "final_y": "563853.198497",
    "longitude": "-89.99025775434757",
    "latitude": "30.043640748992516",
    "geocoded_column": {
      "latitude": "30.043640748992516",
      "longitude": "-89.99025775434757"
    }
  },
  {
    "service_request": "2024-1126236",
    "request_type": "Trash/Recycling",
    "request_reason": "MIssed Recycling Pick-Up",
    "date_created": "2024-08-29T13:27:19.000",
    "date_modified": "2024-08-29T13:27:20.000",
    "request_status": "Pending",
    "responsible_agency": "Department of Sanitation",
    "final_address": "4948 Chrysler St",
    "address_councildis": "E",
    "status": "Assigned to Contractor",
    "contractor": "Waste Pro",
    "rowid": "1126236",
    "final_x": "3715130.14245",
    "final_y": "557801.687899",
    "longitude": "-89.96088564470875",
    "latitude": "30.026696331180947",
    "geocoded_column": {
      "latitude": "30.026696331180947",
      "longitude": "-89.96088564470875"
    }
  },
  {
    "service_request": "2024-1126235",
    "request_type": "Trash/Recycling",
    "request_reason": "Request a Large Item Pick Up",
    "date_created": "2024-08-29T13:24:18.000",
    "date_modified": "2024-08-29T13:24:19.000",
    "request_status": "Pending",
    "responsible_agency": "Department of Sanitation",
    "final_address": "1818 Flood St",
    "address_councildis": "E",
    "status": "Assigned to Contractor",
    "contractor": "Waste Pro",
    "rowid": "1126235",
    "final_x": "3698415.42551",
    "final_y": "536618.399111",
    "longitude": "-90.01447251811317",
    "latitude": "29.968990032167795",
    "geocoded_column": {
      "latitude": "29.968990032167795",
      "longitude": "-90.01447251811317"
    }
  },
  {
    "service_request": "2024-1126233",
    "request_type": "Roads/Drainage",
    "request_reason": "Pothole",
    "date_created": "2024-08-29T13:17:46.000",
    "date_modified": "2024-08-29T13:17:47.000",
    "request_status": "Pending",
    "responsible_agency": "Department of Public Works",
    "final_address": "3100 BLK Diana St",
    "address_councildis": "C",
    "status": "Pending",
    "rowid": "1126233",
    "final_x": "3695934.54707",
    "final_y": "527412.080134",
    "longitude": "-90.02263982845507",
    "latitude": "29.94375417609139",
    "geocoded_column": {
      "latitude": "29.94375417609139",
      "longitude": "-90.02263982845507"
    }
  },
  {
    "service_request": "2024-1126232",
    "request_type": "Trash/Recycling",
    "request_reason": "Request a Large Item Pick Up",
    "date_created": "2024-08-29T13:14:36.000",
    "date_modified": "2024-08-29T13:14:37.000",
    "request_status": "Pending",
    "responsible_agency": "Department of Sanitation",
    "final_address": "1215 Clouet St",
    "address_councildis": "C",
    "status": "Assigned to Contractor",
    "contractor": "IV Waste",
    "rowid": "1126232",
    "final_x": "3689155.68809",
    "final_y": "536478.011783",
    "longitude": "-90.04372028965683",
    "latitude": "29.968893823889516",
    "geocoded_column": {
      "latitude": "29.968893823889516",
      "longitude": "-90.04372028965683"
    }
  },
  {
    "service_request": "2024-1126231",
    "request_type": "Abandoned Vehicles",
    "request_reason": "Abandoned/Junk Vehicles",
    "date_created": "2024-08-29T13:14:27.000",
    "date_modified": "2024-08-29T13:18:38.000",
    "request_status": "Pending",
    "responsible_agency": "Department of Public Works",
    "final_address": "8870 Chef Menteur Hwy",
    "address_councildis": "E",
    "status": "Pending",
    "rowid": "1126231",
    "final_x": "3708341.20548",
    "final_y": "553377.934871",
    "longitude": "-89.98250256578213",
    "latitude": "30.014754571641472",
    "geocoded_column": {
      "latitude": "30.014754571641472",
      "longitude": "-89.98250256578213"
    }
  },
  {
    "service_request": "2024-1126230",
    "request_type": "Parks & Parkways",
    "request_reason": "Request Tree Service (Right of Way/Public Property)",
    "date_created": "2024-08-29T13:11:11.000",
    "date_modified": "2024-08-29T13:11:12.000",
    "request_status": "Pending",
    "responsible_agency": "Department of Parks & Parkway",
    "final_address": "512 Washington Ave",
    "address_councildis": "B",
    "status": "Pending",
    "rowid": "1126230",
    "final_x": "3678109.19496",
    "final_y": "519150.511095",
    "longitude": "-90.07920476309067",
    "latitude": "29.921586186860587",
    "geocoded_column": {
      "latitude": "29.921586186860587",
      "longitude": "-90.07920476309067"
    }
  },
  {
    "service_request": "2024-1126229",
    "request_type": "Trash/Recycling",
    "request_reason": "Order Recycling Cart",
    "date_created": "2024-08-29T13:10:14.000",
    "date_modified": "2024-08-29T13:10:14.000",
    "request_status": "Pending",
    "responsible_agency": "Department of Sanitation",
    "final_address": "1774 Gentilly Blvd",
    "address_councildis": "D",
    "status": "Pending",
    "rowid": "1126229",
    "final_x": "3678742.76526",
    "final_y": "541997.843212",
    "longitude": "-90.0764137510946",
    "latitude": "29.98438959170625",
    "geocoded_column": {
      "latitude": "29.98438959170625",
      "longitude": "-90.0764137510946"
    }
  },
  {
    "service_request": "2024-1126228",
    "request_type": "Trash/Recycling",
    "request_reason": "Start Trash Service",
    "date_created": "2024-08-29T13:08:51.000",
    "date_modified": "2024-08-29T14:04:38.000",
    "case_close_date": "2024-08-29T09:04:38.000",
    "request_status": "Closed",
    "responsible_agency": "Department of Sanitation",
    "final_address": "1774 Gentilly Blvd",
    "address_councildis": "D",
    "status": "Invalid Request",
    "contractor": "IV Waste",
    "contractor_action": "Invalid",
    "rowid": "1126228",
    "final_x": "3678742.76526",
    "final_y": "541997.843212",
    "longitude": "-90.0764137510946",
    "latitude": "29.98438959170625",
    "geocoded_column": {
      "latitude": "29.98438959170625",
      "longitude": "-90.0764137510946"
    }
  },
  {
    "service_request": "2024-1126227",
    "request_type": "Abandoned Vehicles",
    "request_reason": "Abandoned/Junk Vehicles",
    "date_created": "2024-08-29T13:02:50.000",
    "date_modified": "2024-08-29T13:04:15.000",
    "request_status": "Pending",
    "responsible_agency": "Department of Public Works",
    "final_address": "6400 St Claude Ave",
    "address_councildis": "E",
    "status": "Pending",
    "rowid": "1126227",
    "final_x": "3700702.5578",
    "final_y": "532735.782596",
    "longitude": "-90.0073915372427",
    "latitude": "29.958241646904376",
    "geocoded_column": {
      "latitude": "29.958241646904376",
      "longitude": "-90.0073915372427"
    }
  },
  {
    "service_request": "2024-1126226",
    "request_type": "Trash/Recycling",
    "request_reason": "Return Trash Cart",
    "date_created": "2024-08-29T12:58:06.000",
    "date_modified": "2024-08-29T12:58:07.000",
    "request_status": "Pending",
    "responsible_agency": "Department of Sanitation",
    "final_address": "3815 Magazine St",
    "address_councildis": "B",
    "status": "Assigned to Contractor",
    "contractor": "IV Waste",
    "rowid": "1126226",
    "final_x": "3673234.21172",
    "final_y": "519088.571639",
    "longitude": "-90.09459511723476",
    "latitude": "29.92156168741294",
    "geocoded_column": {
      "latitude": "29.92156168741294",
      "longitude": "-90.09459511723476"
    }
  },
  {
    "service_request": "2024-1126225",
    "request_type": "Trash/Recycling",
    "request_reason": "Order Trash Cart",
    "date_created": "2024-08-29T12:57:33.000",
    "date_modified": "2024-08-29T12:57:34.000",
    "request_status": "Pending",
    "responsible_agency": "Department of Sanitation",
    "final_address": "3815 Magazine St",
    "address_councildis": "B",
    "status": "Assigned to Contractor",
    "contractor": "IV Waste",
    "rowid": "1126225",
    "final_x": "3673234.21172",
    "final_y": "519088.571639",
    "longitude": "-90.09459511723476",
    "latitude": "29.92156168741294",
    "geocoded_column": {
      "latitude": "29.92156168741294",
      "longitude": "-90.09459511723476"
    }
  },
  {
    "service_request": "2024-1126224",
    "request_type": "Property Maintenance",
    "request_reason": "Property Maintenance",
    "date_created": "2024-08-29T12:56:03.000",
    "date_modified": "2024-08-29T12:56:03.000",
    "request_status": "Pending",
    "responsible_agency": "Department of Code Enforcement",
    "final_address": "4708 Werner Dr",
    "address_councildis": "E",
    "status": "Pending",
    "rowid": "1126224",
    "final_x": "3704753.59076",
    "final_y": "555067.256793",
    "longitude": "-89.99377520364364",
    "latitude": "30.01951536358443",
    "geocoded_column": {
      "latitude": "30.01951536358443",
      "longitude": "-89.99377520364364"
    }
  },
  {
    "service_request": "2024-1126223",
    "request_type": "Abandoned Vehicles",
    "request_reason": "Abandoned/Junk Vehicles",
    "date_created": "2024-08-29T12:54:58.000",
    "date_modified": "2024-08-29T12:54:58.000",
    "request_status": "Pending",
    "responsible_agency": "Department of Public Works",
    "final_address": "814 Poland Ave",
    "address_councildis": "C",
    "status": "Pending",
    "rowid": "1126223",
    "final_x": "3692729.89187",
    "final_y": "533990.372037",
    "longitude": "-90.03252195889397",
    "latitude": "29.96194259769555",
    "geocoded_column": {
      "latitude": "29.96194259769555",
      "longitude": "-90.03252195889397"
    }
  },
  {
    "service_request": "2024-1126222",
    "request_type": "Abandoned Vehicles",
    "request_reason": "Abandoned/Junk Vehicles",
    "date_created": "2024-08-29T12:52:48.000",
    "date_modified": "2024-08-29T12:52:48.000",
    "request_status": "Pending",
    "responsible_agency": "Department of Public Works",
    "final_address": "814 Poland Ave",
    "address_councildis": "C",
    "status": "Pending",
    "rowid": "1126222",
    "final_x": "3692729.89187",
    "final_y": "533990.372037",
    "longitude": "-90.03252195889397",
    "latitude": "29.96194259769555",
    "geocoded_column": {
      "latitude": "29.96194259769555",
      "longitude": "-90.03252195889397"
    }
  },
  {
    "service_request": "2024-1126221",
    "request_type": "Trash/Recycling",
    "request_reason": "Missed Trash Pick-Up",
    "date_created": "2024-08-29T12:51:19.000",
    "date_modified": "2024-08-29T12:51:20.000",
    "request_status": "Pending",
    "responsible_agency": "Department of Sanitation",
    "final_address": "926 Charbonnet St",
    "address_councildis": "E",
    "status": "Assigned to Contractor",
    "contractor": "Waste Pro",
    "rowid": "1126221",
    "final_x": "3698424.26788",
    "final_y": "533039.192324",
    "longitude": "-90.01457468483525",
    "latitude": "29.959148210945834",
    "geocoded_column": {
      "latitude": "29.959148210945834",
      "longitude": "-90.01457468483525"
    }
  },
  {
    "service_request": "2024-1126220",
    "request_type": "Trash/Recycling",
    "request_reason": "Missed Trash Pick-Up",
    "date_created": "2024-08-29T12:49:05.000",
    "date_modified": "2024-08-29T12:49:06.000",
    "request_status": "Pending",
    "responsible_agency": "Department of Sanitation",
    "final_address": "922 Charbonnet St",
    "address_councildis": "E",
    "status": "Assigned to Contractor",
    "contractor": "Waste Pro",
    "rowid": "1126220",
    "final_x": "3698410.3793",
    "final_y": "533004.47002",
    "longitude": "-90.01461980317758",
    "latitude": "29.959053176444797",
    "geocoded_column": {
      "latitude": "29.959053176444797",
      "longitude": "-90.01461980317758"
    }
  },
  {
    "service_request": "2024-1126219",
    "request_type": "Trash/Recycling",
    "request_reason": "Missed Trash Pick-Up",
    "date_created": "2024-08-29T12:47:19.000",
    "date_modified": "2024-08-29T12:47:20.000",
    "request_status": "Pending",
    "responsible_agency": "Department of Sanitation",
    "final_address": "926 Charbonnet St",
    "address_councildis": "E",
    "status": "Assigned to Contractor",
    "contractor": "Waste Pro",
    "rowid": "1126219",
    "final_x": "3698424.26788",
    "final_y": "533039.192324",
    "longitude": "-90.01457468483525",
    "latitude": "29.959148210945834",
    "geocoded_column": {
      "latitude": "29.959148210945834",
      "longitude": "-90.01457468483525"
    }
  },
  {
    "service_request": "2024-1126217",
    "request_type": "Trash/Recycling",
    "request_reason": "Missed Trash Pick-Up",
    "date_created": "2024-08-29T12:38:09.000",
    "date_modified": "2024-08-29T12:38:10.000",
    "request_status": "Pending",
    "responsible_agency": "Department of Sanitation",
    "final_address": "1214 Flanders St",
    "address_councildis": "C",
    "status": "Assigned to Contractor",
    "contractor": "Richards Disposal",
    "rowid": "1126217",
    "final_x": "3696791.11459",
    "final_y": "526836.008382",
    "longitude": "-90.01995627699576",
    "latitude": "29.942143209825232",
    "geocoded_column": {
      "latitude": "29.942143209825232",
      "longitude": "-90.01995627699576"
    }
  },
  {
    "service_request": "2024-1126216",
    "request_type": "Trash/Recycling",
    "request_reason": "Return Trash Cart",
    "date_created": "2024-08-29T12:36:18.000",
    "date_modified": "2024-08-29T12:36:19.000",
    "request_status": "Pending",
    "responsible_agency": "Department of Sanitation",
    "final_address": "2017 Valence St",
    "address_councildis": "B",
    "status": "Assigned to Contractor",
    "contractor": "IV Waste",
    "rowid": "1126216",
    "final_x": "3669625.86842",
    "final_y": "522333.432186",
    "longitude": "-90.10587540349071",
    "latitude": "29.93059078936777",
    "geocoded_column": {
      "latitude": "29.93059078936777",
      "longitude": "-90.10587540349071"
    }
  },
  {
    "service_request": "2024-1126215",
    "request_type": "Trash/Recycling",
    "request_reason": "Missed Trash Pick-Up",
    "date_created": "2024-08-29T12:35:33.000",
    "date_modified": "2024-08-29T12:39:53.000",
    "case_close_date": "2024-08-29T07:39:53.000",
    "request_status": "Closed",
    "responsible_agency": "Department of Sanitation",
    "final_address": "2421 Annunciation St",
    "address_councildis": "B",
    "status": "Invalid Request",
    "contractor": "IV Waste",
    "contractor_action": "Invalid",
    "rowid": "1126215",
    "final_x": "3678515.31784",
    "final_y": "520532.552312",
    "longitude": "-90.07787501011872",
    "latitude": "29.925374122727415",
    "geocoded_column": {
      "latitude": "29.925374122727415",
      "longitude": "-90.07787501011872"
    }
  },
  {
    "service_request": "2024-1126214",
    "request_type": "Trash/Recycling",
    "request_reason": "Order Recycling Cart",
    "date_created": "2024-08-29T12:34:49.000",
    "date_modified": "2024-08-29T12:34:50.000",
    "request_status": "Pending",
    "responsible_agency": "Department of Sanitation",
    "final_address": "4731 Canal St",
    "address_councildis": "A",
    "status": "Pending",
    "rowid": "1126214",
    "final_x": "3669015.67764",
    "final_y": "540110.791115",
    "longitude": "-90.10720116083343",
    "latitude": "29.97949064208057",
    "geocoded_column": {
      "latitude": "29.97949064208057",
      "longitude": "-90.10720116083343"
    }
  },
  {
    "service_request": "2024-1126213",
    "request_type": "Trash/Recycling",
    "request_reason": "Repair Trash Cart",
    "date_created": "2024-08-29T12:34:09.000",
    "date_modified": "2024-08-29T12:34:10.000",
    "request_status": "Pending",
    "responsible_agency": "Department of Sanitation",
    "final_address": "2017 Valence St",
    "address_councildis": "B",
    "status": "Assigned to Contractor",
    "contractor": "IV Waste",
    "rowid": "1126213",
    "final_x": "3669625.86842",
    "final_y": "522333.432186",
    "longitude": "-90.10587540349071",
    "latitude": "29.93059078936777",
    "geocoded_column": {
      "latitude": "29.93059078936777",
      "longitude": "-90.10587540349071"
    }
  },
  {
    "service_request": "2024-1126212",
    "request_type": "Trash/Recycling",
    "request_reason": "Order Trash Cart",
    "date_created": "2024-08-29T12:34:07.000",
    "date_modified": "2024-08-29T12:34:08.000",
    "request_status": "Pending",
    "responsible_agency": "Department of Sanitation",
    "final_address": "4731 Canal St",
    "address_councildis": "A",
    "status": "Assigned to Contractor",
    "contractor": "IV Waste",
    "rowid": "1126212",
    "final_x": "3669015.67764",
    "final_y": "540110.791115",
    "longitude": "-90.10720116083343",
    "latitude": "29.97949064208057",
    "geocoded_column": {
      "latitude": "29.97949064208057",
      "longitude": "-90.10720116083343"
    }
  },
  {
    "service_request": "2024-1126211",
    "request_type": "Traffic Signals/Signs/Striping/Streetlights",
    "request_reason": "Street Light Outage/Malfunction",
    "date_created": "2024-08-29T12:31:08.000",
    "date_modified": "2024-08-29T12:31:09.000",
    "request_status": "Pending",
    "responsible_agency": "Department of Public Works",
    "final_address": "1500 BLK Melpomene St",
    "address_councildis": "B",
    "status": "Assigned to Contractor",
    "contractor": "Legacy Professional Services",
    "rowid": "1126211",
    "final_x": "3679453.84381",
    "final_y": "525394.652739",
    "longitude": "-90.07474379392696",
    "latitude": "29.938714992562048",
    "geocoded_column": {
      "latitude": "29.938714992562048",
      "longitude": "-90.07474379392696"
    }
  },
  {
    "service_request": "2024-1126210",
    "request_type": "Trash/Recycling",
    "request_reason": "MIssed Recycling Pick-Up",
    "date_created": "2024-08-29T12:30:34.000",
    "date_modified": "2024-08-29T12:30:35.000",
    "request_status": "Pending",
    "responsible_agency": "Department of Sanitation",
    "final_address": "4653 Nottingham Dr",
    "address_councildis": "E",
    "status": "Assigned to Contractor",
    "contractor": "Waste Pro",
    "rowid": "1126210",
    "final_x": "3716522.37804",
    "final_y": "556423.04521",
    "longitude": "-89.95653872341263",
    "latitude": "30.02285968745562",
    "geocoded_column": {
      "latitude": "30.02285968745562",
      "longitude": "-89.95653872341263"
    }
  },
  {
    "service_request": "2024-1126209",
    "request_type": "Roads/Drainage",
    "request_reason": "Street Subsidence (Sinking)",
    "date_created": "2024-08-29T12:28:56.000",
    "date_modified": "2024-08-29T12:31:44.000",
    "request_status": "Pending",
    "responsible_agency": "Department of Public Works",
    "final_address": "5300 Berkley Dr",
    "address_councildis": "C",
    "status": "Pending",
    "rowid": "1126209",
    "final_x": "3703359.75998",
    "final_y": "518294.021686",
    "longitude": "-89.99953171787156",
    "latitude": "29.91844706456825",
    "geocoded_column": {
      "latitude": "29.91844706456825",
      "longitude": "-89.99953171787156"
    }
  },
  {
    "service_request": "2024-1126208",
    "request_type": "Trash/Recycling",
    "request_reason": "Missed Trash Pick-Up",
    "date_created": "2024-08-29T12:28:38.000",
    "date_modified": "2024-08-29T12:28:39.000",
    "request_status": "Pending",
    "responsible_agency": "Department of Sanitation",
    "final_address": "4616 Donna Dr",
    "address_councildis": "E",
    "status": "Assigned to Contractor",
    "contractor": "Waste Pro",
    "rowid": "1126208",
    "final_x": "3711003.44017",
    "final_y": "555168.491097",
    "longitude": "-89.9740241647289",
    "latitude": "30.019591337060504",
    "geocoded_column": {
      "latitude": "30.019591337060504",
      "longitude": "-89.9740241647289"
    }
  },
  {
    "service_request": "2024-1126207",
    "request_type": "Trash/Recycling",
    "request_reason": "Replace Trash Cart",
    "date_created": "2024-08-29T12:25:57.000",
    "date_modified": "2024-08-29T12:25:59.000",
    "request_status": "Pending",
    "responsible_agency": "Department of Sanitation",
    "final_address": "1504 Louisa St",
    "address_councildis": "D",
    "status": "Assigned to Contractor",
    "contractor": "IV Waste",
    "rowid": "1126207",
    "final_x": "3689917.33449",
    "final_y": "537415.79988",
    "longitude": "-90.0412815746156",
    "latitude": "29.971448818764028",
    "geocoded_column": {
      "latitude": "29.971448818764028",
      "longitude": "-90.0412815746156"
    }
  },