[
  {
    "service_request": "2023-1035393",
    "request_type": "Roads/Drainage",
    "request_reason": "Road Shoulder Repair",
    "date_created": "2023-09-15T01:23:05.000",
    "date_modified": "2023-09-15T01:23:05.000",
    "request_status": "Pending",
    "responsible_agency": "Department of Public Works",
    "final_address": "6023 Chestnut St",
    "address_councildis": "A",
    "status": "Pending",
    "rowid": "1035393",
    "final_x": "3664728.28551",
    "final_y": "519957.11468",
    "longitude": "-90.1214157578406",
    "latitude": "29.924200015989882",
    "geocoded_column": {
      "latitude": "29.924200015989882",
      "longitude": "-90.1214157578406"
    }
  },
  {
    "service_request": "2023-1035392",
    "request_type": "Roads/Drainage",
    "request_reason": "Pothole",
    "date_created": "2023-09-15T01:15:37.000",
    "date_modified": "2023-09-15T01:15:37.000",
    "request_status": "Pending",
    "responsible_agency": "Department of Public Works",
    "final_address": "1836 Valence St",
    "address_councildis": "B",
    "status": "Pending",
    "rowid": "1035392",
    "final_x": "3669548.88276",
    "final_y": "521749.076666",
    "longitude": "-90.10613819354518",
    "latitude": "29.928986265896693",
    "geocoded_column": {
      "latitude": "29.928986265896693",
      "longitude": "-90.10613819354518"
    }
  },
  {
    "service_request": "2023-1035391",
    "request_type": "Trash/Recycling",
    "request_reason": "Illegal Dumping",
    "date_created": "2023-09-15T01:10:32.000",
    "date_modified": "2023-09-15T01:10:32.000",
    "request_status": "Pending",
    "responsible_agency": "Department of Sanitation",
    "final_address": "1836 Valence St",
    "address_councildis": "B",
    "status": "Pending",
    "rowid": "1035391",
    "final_x": "3669548.88276",
    "final_y": "521749.076666",
    "longitude": "-90.10613819354518",
    "latitude": "29.928986265896693",
    "geocoded_column": {
      "latitude": "29.928986265896693",
      "longitude": "-90.10613819354518"
    }
  },
  {
    "service_request": "2023-1035390",
    "request_type": "Roads/Drainage",
    "request_reason": "Road Shoulder Repair",
    "date_created": "2023-09-15T01:07:42.000",
    "date_modified": "2023-09-15T01:07:42.000",
    "request_status": "Pending",
    "responsible_agency": "Department of Public Works",
    "final_address": "4814 Prytania St",
    "address_councildis": "B",
    "status": "Pending",
    "rowid": "1035390",
    "final_x": "3669270.429",
    "final_y": "520113.468024",
    "longitude": "-90.10707247616587",
    "latitude": "29.924497060065338",
    "geocoded_column": {
      "latitude": "29.924497060065338",
      "longitude": "-90.10707247616587"
    }
  },
  {
    "service_request": "2023-1035389",
    "request_type": "Roads/Drainage",
    "request_reason": "Street Subsidence (Sinking)",
    "date_created": "2023-09-15T00:56:17.000",
    "date_modified": "2023-09-15T00:56:17.000",
    "request_status": "Pending",
    "responsible_agency": "Department of Public Works",
    "final_address": "5731 Hurst St",
    "address_councildis": "A",
    "status": "Pending",
    "rowid": "1035389",
    "final_x": "3666265.75079",
    "final_y": "521691.120249",
    "longitude": "-90.11650437177222",
    "latitude": "29.928923180872253",
    "geocoded_column": {
      "latitude": "29.928923180872253",
      "longitude": "-90.11650437177222"
    }
  },
  {
    "service_request": "2023-1035388",
    "request_type": "Roads/Drainage",
    "request_reason": "Pothole",
    "date_created": "2023-09-15T00:42:58.000",
    "date_modified": "2023-09-15T00:42:58.000",
    "request_status": "Pending",
    "responsible_agency": "Department of Public Works",
    "final_address": "1330 Eleonore St",
    "address_councildis": "A",
    "status": "Pending",
    "rowid": "1035388",
    "final_x": "3665600.14682",
    "final_y": "520985.288057",
    "longitude": "-90.11862917929152",
    "latitude": "29.927001784297744",
    "geocoded_column": {
      "latitude": "29.927001784297744",
      "longitude": "-90.11862917929152"
    }
  },
  {
    "service_request": "2023-1035387",
    "request_type": "Roads/Drainage",
    "request_reason": "Street Flooding / Drainage",
    "date_created": "2023-09-15T00:41:05.000",
    "date_modified": "2023-09-15T00:41:05.000",
    "request_status": "Pending",
    "responsible_agency": "Department of Public Works",
    "final_address": "100 Allen Toussaint Blvd",
    "address_councildis": "A",
    "status": "Pending",
    "rowid": "1035387",
    "final_x": "3666940.75642",
    "final_y": "554786.392088",
    "longitude": "-90.11326107140346",
    "latitude": "30.01990437043757",
    "geocoded_column": {
      "latitude": "30.01990437043757",
      "longitude": "-90.11326107140346"
    }
  },
  {
    "service_request": "2023-1035386",
    "request_type": "Traffic Signals/Signs/Striping/Streetlights",
    "request_reason": "Street Light Outage/Malfunction",
    "date_created": "2023-09-15T00:09:48.000",
    "date_modified": "2023-09-15T00:09:49.000",
    "request_status": "Pending",
    "responsible_agency": "Department of Public Works",
    "final_address": "1409 Calhoun St",
    "address_councildis": "A",
    "status": "Assigned to Contractor",
    "contractor": "Legacy Professional Services",
    "rowid": "1035386",
    "final_x": "3664323.72167",
    "final_y": "521668.936633",
    "longitude": "-90.1226357350314",
    "latitude": "29.92891874785529",
    "geocoded_column": {
      "latitude": "29.92891874785529",
      "longitude": "-90.1226357350314"
    }
  },
  {
    "service_request": "2023-1035385",
    "request_type": "Roads/Drainage",
    "request_reason": "Pothole",
    "date_created": "2023-09-14T23:58:16.000",
    "date_modified": "2023-09-14T23:58:16.000",
    "request_status": "Pending",
    "responsible_agency": "Department of Public Works",
    "final_address": "6069 Chestnut St",
    "address_councildis": "A",
    "status": "Pending",
    "rowid": "1035385",
    "final_x": "3664488.81466",
    "final_y": "520067.26764",
    "longitude": "-90.12216801141484",
    "latitude": "29.92450986430655",
    "geocoded_column": {
      "latitude": "29.92450986430655",
      "longitude": "-90.12216801141484"
    }
  },
  {
    "service_request": "2023-1035384",
    "request_type": "Roads/Drainage",
    "request_reason": "Pothole",
    "date_created": "2023-09-14T23:36:46.000",
    "date_modified": "2023-09-14T23:36:46.000",
    "request_status": "Pending",
    "responsible_agency": "Department of Public Works",
    "final_address": "6306 Prytania St",
    "address_councildis": "A",
    "status": "Pending",
    "rowid": "1035384",
    "final_x": "3664024.77812",
    "final_y": "521278.310777",
    "longitude": "-90.12359246301736",
    "latitude": "29.927853331549347",
    "geocoded_column": {
      "latitude": "29.927853331549347",
      "longitude": "-90.12359246301736"
    }
  },
  {
    "service_request": "2023-1035383",
    "request_type": "Traffic Signals/Signs/Striping/Streetlights",
    "request_reason": "Street Light Outage/Malfunction",
    "date_created": "2023-09-14T22:32:07.000",
    "date_modified": "2023-09-14T22:32:08.000",
    "request_status": "Pending",
    "responsible_agency": "Department of Public Works",
    "final_address": "5900 BLK Memphis St",
    "address_councildis": "A",
    "status": "Assigned to Contractor",
    "contractor": "Legacy Professional Services",
    "rowid": "1035383",
    "final_x": "3669153.43922",
    "final_y": "546882.982137",
    "longitude": "-90.1065370484525",
    "latitude": "29.998107796207044",
    "geocoded_column": {
      "latitude": "29.998107796207044",
      "longitude": "-90.1065370484525"
    }
  },
  {
    "service_request": "2023-1035382",
    "request_type": "Roads/Drainage",
    "request_reason": "Pothole",
    "date_created": "2023-09-14T22:29:00.000",
    "date_modified": "2023-09-14T22:29:00.000",
    "request_status": "Pending",
    "responsible_agency": "Department of Public Works",
    "final_address": "5029 Magazine St",
    "address_councildis": "B",
    "status": "Pending",
    "rowid": "1035382",
    "final_x": "3668386.7915",
    "final_y": "518682.188151",
    "longitude": "-90.10991006756",
    "latitude": "29.92058746577478",
    "geocoded_column": {
      "latitude": "29.92058746577478",
      "longitude": "-90.10991006756"
    }
  },
  {
    "service_request": "2023-1035381",
    "request_type": "Roads/Drainage",
    "request_reason": "Street Subsidence (Sinking)",
    "date_created": "2023-09-14T22:26:46.000",
    "date_modified": "2023-09-14T22:26:46.000",
    "request_status": "Pending",
    "responsible_agency": "Department of Public Works",
    "final_address": "TENNYSON PL & WOODLAND DR & FAIRFAX PL",
    "address_councildis": "C",
    "status": "Pending",
    "rowid": "1035381",
    "final_x": "3705470.4",
    "final_y": "517449.48",
    "longitude": "-89.99290078938418",
    "latitude": "29.916057142497582",
    "geocoded_column": {
      "latitude": "29.916057142497582",
      "longitude": "-89.99290078938418"
    }
  },
  {
    "service_request": "2023-1035380",
    "request_type": "Roads/Drainage",
    "request_reason": "Street Subsidence (Sinking)",
    "date_created": "2023-09-14T22:26:10.000",
    "date_modified": "2023-09-14T22:26:10.000",
    "request_status": "Pending",
    "responsible_agency": "Department of Public Works",
    "final_address": "TENNYSON PL & WOODLAND DR & FAIRFAX PL",
    "address_councildis": "C",
    "status": "Pending",
    "rowid": "1035380",
    "final_x": "3705470.4",
    "final_y": "517449.48",
    "longitude": "-89.99290078938418",
    "latitude": "29.916057142497582",
    "geocoded_column": {
      "latitude": "29.916057142497582",
      "longitude": "-89.99290078938418"
    }
  },
  {
    "service_request": "2023-1035379",
    "request_type": "Trash/Recycling",
    "request_reason": "MIssed Recycling Pick-Up",
    "date_created": "2023-09-14T22:22:47.000",
    "date_modified": "2023-09-14T22:22:48.000",
    "request_status": "Pending",
    "responsible_agency": "Department of Sanitation",
    "final_address": "2236 Jefferson Ave",
    "address_councildis": "A",
    "status": "Assigned to Contractor",
    "contractor": "Richards Disposal",
    "rowid": "1035379",
    "final_x": "3667813.19559",
    "final_y": "523963.293884",
    "longitude": "-90.11154290008324",
    "latitude": "29.935125656901313",
    "geocoded_column": {
      "latitude": "29.935125656901313",
      "longitude": "-90.11154290008324"
    }
  },
  {
    "service_request": "2023-1035378",
    "request_type": "Roads/Drainage",
    "request_reason": "Pothole",
    "date_created": "2023-09-14T22:17:24.000",
    "date_modified": "2023-09-14T22:17:24.000",
    "request_status": "Pending",
    "responsible_agency": "Department of Public Works",
    "final_address": "Bienville Avenue & North Rendon Street",
    "address_councildis": "B",
    "status": "Pending",
    "rowid": "1035378",
    "final_x": "3674068.90817",
    "final_y": "537084.55412",
    "longitude": "-90.09134461707663",
    "latitude": "29.971019870753675",
    "geocoded_column": {
      "latitude": "29.971019870753675",
      "longitude": "-90.09134461707663"
    }
  },
  {
    "service_request": "2023-1035377",
    "request_type": "Trash/Recycling",
    "request_reason": "Request a Large Item Pick Up",
    "date_created": "2023-09-14T21:58:11.000",
    "date_modified": "2023-09-14T21:58:12.000",
    "request_status": "Pending",
    "responsible_agency": "Department of Sanitation",
    "final_address": "3327 General Taylor St",
    "address_councildis": "B",
    "status": "Assigned to Contractor",
    "contractor": "Richards Disposal",
    "rowid": "1035377",
    "final_x": "3671232.2578",
    "final_y": "527219.966783",
    "longitude": "-90.10063830407029",
    "latitude": "29.943979762985556",
    "geocoded_column": {
      "latitude": "29.943979762985556",
      "longitude": "-90.10063830407029"
    }
  },
  {
    "service_request": "2023-1035376",
    "request_type": "Roads/Drainage",
    "request_reason": "Pothole",
    "date_created": "2023-09-14T21:50:35.000",
    "date_modified": "2023-09-14T21:50:35.000",
    "request_status": "Pending",
    "responsible_agency": "Department of Public Works",
    "final_address": "1421 Constantinople St",
    "address_councildis": "B",
    "status": "Pending",
    "rowid": "1035376",
    "final_x": "3672433.24257",
    "final_y": "520667.657465",
    "longitude": "-90.09706965638372",
    "latitude": "29.925927453713577",
    "geocoded_column": {
      "latitude": "29.925927453713577",
      "longitude": "-90.09706965638372"
    }
  },
  {
    "service_request": "2023-1035375",
    "request_type": "Property Maintenance",
    "request_reason": "Property Maintenance",
    "date_created": "2023-09-14T21:46:53.000",
    "date_modified": "2023-09-14T21:46:53.000",
    "request_status": "Pending",
    "responsible_agency": "Department of Code Enforcement",
    "final_address": "1734 Seventh St",
    "address_councildis": "B",
    "status": "Pending",
    "rowid": "1035375",
    "final_x": "3674828.46574",
    "final_y": "522654.590394",
    "longitude": "-90.08944054558552",
    "latitude": "29.931319600892305",
    "geocoded_column": {
      "latitude": "29.931319600892305",
      "longitude": "-90.08944054558552"
    }
  },
  {
    "service_request": "2023-1035374",
    "request_type": "Roads/Drainage",
    "request_reason": "Pothole",
    "date_created": "2023-09-14T21:35:07.000",
    "date_modified": "2023-09-14T21:35:07.000",
    "request_status": "Pending",
    "responsible_agency": "Department of Public Works",
    "final_address": "1217 Foucher St",
    "address_councildis": "B",
    "status": "Pending",
    "rowid": "1035374",
    "final_x": "3674050.86318",
    "final_y": "519817.288376",
    "longitude": "-90.09199237897313",
    "latitude": "29.923541123641915",
    "geocoded_column": {
      "latitude": "29.923541123641915",
      "longitude": "-90.09199237897313"
    }
  },
  {
    "service_request": "2023-1035373",
    "request_type": "Trash/Recycling",
    "request_reason": "Order Recycling Cart",
    "date_created": "2023-09-14T20:49:26.000",
    "date_modified": "2023-09-14T20:49:26.000",
    "request_status": "Pending",
    "responsible_agency": "Department of Sanitation",
    "final_address": "3148 Maurepas St",
    "address_councildis": "A",
    "status": "Pending",
    "rowid": "1035373",
    "final_x": "3676189.96117",
    "final_y": "540720.699275",
    "longitude": "-90.08452089349295",
    "latitude": "29.980954637882682",
    "geocoded_column": {
      "latitude": "29.980954637882682",
      "longitude": "-90.08452089349295"
    }
  },
  {
    "service_request": "2023-1035372",
    "request_type": "Roads/Drainage",
    "request_reason": "Pothole",
    "date_created": "2023-09-14T20:29:11.000",
    "date_modified": "2023-09-14T20:29:11.000",
    "request_status": "Pending",
    "responsible_agency": "Department of Public Works",
    "final_address": "6218 Camp St",
    "address_councildis": "A",
    "status": "Pending",
    "rowid": "1035372",
    "final_x": "3663735.52493",
    "final_y": "519935.705976",
    "longitude": "-90.12455028280617",
    "latitude": "29.924169983324653",
    "geocoded_column": {
      "latitude": "29.924169983324653",
      "longitude": "-90.12455028280617"
    }
  },
  {
    "service_request": "2023-1035371",
    "request_type": "Roads/Drainage",
    "request_reason": "Pothole",
    "date_created": "2023-09-14T20:18:56.000",
    "date_modified": "2023-09-14T20:18:56.000",
    "request_status": "Pending",
    "responsible_agency": "Department of Public Works",
    "final_address": "5825 Pitt St",
    "address_councildis": "A",
    "status": "Pending",
    "rowid": "1035371",
    "final_x": "3665766.0368",
    "final_y": "521092.802169",
    "longitude": "-90.11810190642144",
    "latitude": "29.927292577550272",
    "geocoded_column": {
      "latitude": "29.927292577550272",
      "longitude": "-90.11810190642144"
    }
  },
  {
    "service_request": "2023-1035370",
    "request_type": "Traffic Signals/Signs/Striping/Streetlights",
    "request_reason": "Street Light Outage/Malfunction",
    "date_created": "2023-09-14T20:09:23.000",
    "date_modified": "2023-09-14T20:09:23.000",
    "request_status": "Pending",
    "responsible_agency": "Department of Public Works",
    "final_address": "1567 Maura Pl",
    "address_councildis": "C",
    "status": "Assigned to Contractor",
    "contractor": "Legacy Professional Services",
    "rowid": "1035370",
    "final_x": "3699194.83517",
    "final_y": "525179.729725",
    "longitude": "-90.01242753696253",
    "latitude": "29.93751304349365",
    "geocoded_column": {
      "latitude": "29.93751304349365",
      "longitude": "-90.01242753696253"
    }
  },
  {
    "service_request": "2023-1035369",
    "request_type": "Traffic Signals/Signs/Striping/Streetlights",
    "request_reason": "Street Light Outage/Malfunction",
    "date_created": "2023-09-14T19:30:51.000",
    "date_modified": "2023-09-14T19:30:51.000",
    "request_status": "Pending",
    "responsible_agency": "Department of Public Works",
    "final_address": "3721 Rue Nichole",
    "address_councildis": "C",
    "status": "Assigned to Contractor",
    "contractor": "Legacy Professional Services",
    "rowid": "1035369",
    "final_x": "3703926.39889",
    "final_y": "516806.285173",
    "longitude": "-89.99779788805958",
    "latitude": "29.914338152277136",
    "geocoded_column": {
      "latitude": "29.914338152277136",
      "longitude": "-89.99779788805958"
    }
  },
  {
    "service_request": "2023-1035368",
    "request_type": "Safety & Permits",
    "request_reason": "Licenses & Permits",
    "date_created": "2023-09-14T19:03:53.000",
    "date_modified": "2023-09-14T19:03:53.000",
    "request_status": "Pending",
    "responsible_agency": "Safety and Permits",
    "status": "Pending",
    "rowid": "1035368",
    "longitude": "0.0",
    "latitude": "0.0",
    "geocoded_column": {
      "latitude": "0.0",
      "longitude": "0.0"
    }
  },
  {
    "service_request": "2023-1035367",
    "request_type": "Trash/Recycling",
    "request_reason": "Missed Trash Pick-Up",
    "date_created": "2023-09-14T18:57:15.000",
    "date_modified": "2023-09-14T18:57:15.000",
    "request_status": "Pending",
    "responsible_agency": "Department of Sanitation",
    "final_address": "2018 N Tonti St",
    "address_councildis": "D",
    "status": "Assigned to Contractor",
    "contractor": "IV Waste",
    "rowid": "1035367",
    "final_x": "3682949.61173",
    "final_y": "540553.846027",
    "longitude": "-90.06317677042959",
    "latitude": "29.980291548267044",
    "geocoded_column": {
      "latitude": "29.980291548267044",
      "longitude": "-90.06317677042959"
    }
  },
  {
    "service_request": "2023-1035366",
    "request_type": "Trash/Recycling",
    "request_reason": "Replace Trash Cart",
    "date_created": "2023-09-14T18:29:26.000",
    "date_modified": "2023-09-14T18:29:27.000",
    "request_status": "Pending",
    "responsible_agency": "Department of Sanitation",
    "final_address": "6014 Kuebel Dr",
    "address_councildis": "E",
    "status": "Assigned to Contractor",
    "contractor": "Waste Pro",
    "rowid": "1035366",
    "final_x": "3694998.35088",
    "final_y": "559657.036829",
    "longitude": "-90.0244327023045",
    "latitude": "30.032445488926125",
    "geocoded_column": {
      "latitude": "30.032445488926125",
      "longitude": "-90.0244327023045"
    }
  },
  {
    "service_request": "2023-1035364",
    "request_type": "Property Maintenance",
    "request_reason": "Property Maintenance",
    "date_created": "2023-09-14T18:20:28.000",
    "date_modified": "2023-09-14T18:20:28.000",
    "request_status": "Pending",
    "responsible_agency": "Department of Code Enforcement",
    "final_address": "2516 Dumaine St",
    "address_councildis": "D",
    "status": "Pending",
    "rowid": "1035364",
    "final_x": "3677788.50254",
    "final_y": "536981.356808",
    "longitude": "-90.07960121104477",
    "latitude": "29.970624731001354",
    "geocoded_column": {
      "latitude": "29.970624731001354",
      "longitude": "-90.07960121104477"
    }
  },
  {
    "service_request": "2023-1035363",
    "request_type": "Trash/Recycling",
    "request_reason": "Request a Large Item Pick Up",
    "date_created": "2023-09-14T18:18:27.000",
    "date_modified": "2023-09-14T18:18:28.000",
    "request_status": "Pending",
    "responsible_agency": "Department of Sanitation",
    "final_address": "207 Eleonore St",
    "address_councildis": "A",
    "status": "Assigned to Contractor",
    "contractor": "Richards Disposal",
    "rowid": "1035363",
    "final_x": "3664843.27392",
    "final_y": "517050.901237",
    "longitude": "-90.12114982884566",
    "latitude": "29.91620549240268",
    "geocoded_column": {
      "latitude": "29.91620549240268",
      "longitude": "-90.12114982884566"
    }
  },
  {
    "service_request": "2023-1035362",
    "request_type": "Traffic Signals/Signs/Striping/Streetlights",
    "request_reason": "Street Light Outage/Malfunction",
    "date_created": "2023-09-14T18:12:27.000",
    "date_modified": "2023-09-14T18:13:01.000",
    "request_status": "Pending",
    "responsible_agency": "Department of Public Works",
    "final_address": "1902 Mirabeau Ave",
    "address_councildis": "D",
    "status": "Assigned to Contractor",
    "contractor": "Legacy Professional Services",
    "rowid": "1035362",
    "final_x": "3681671.90959",
    "final_y": "550448.533332",
    "longitude": "-90.06686687756583",
    "latitude": "30.007537311787203",
    "geocoded_column": {
      "latitude": "30.007537311787203",
      "longitude": "-90.06686687756583"
    }
  },
  {
    "service_request": "2023-1035361",
    "request_type": "Trash/Recycling",
    "request_reason": "Replace Trash Cart",
    "date_created": "2023-09-14T18:07:01.000",
    "date_modified": "2023-09-14T18:07:01.000",
    "request_status": "Pending",
    "responsible_agency": "Department of Sanitation",
    "final_address": "2620 Marais St",
    "address_councildis": "C",
    "status": "Assigned to Contractor",
    "contractor": "IV Waste",
    "rowid": "1035361",
    "final_x": "3687380.34422",
    "final_y": "536737.711495",
    "longitude": "-90.04931773452907",
    "latitude": "29.96966272885149",
    "geocoded_column": {
      "latitude": "29.96966272885149",
      "longitude": "-90.04931773452907"
    }
  },
  {
    "service_request": "2023-1035360",
    "request_type": "Trash/Recycling",
    "request_reason": "Request a Large Item Pick Up",
    "date_created": "2023-09-14T18:01:15.000",
    "date_modified": "2023-09-14T18:01:16.000",
    "request_status": "Pending",
    "responsible_agency": "Department of Sanitation",
    "status": "Assigned to Contractor",
    "rowid": "1035360",
    "longitude": "0.0",
    "latitude": "0.0",
    "geocoded_column": {
      "latitude": "0.0",
      "longitude": "0.0"
    }
  },
  {
    "service_request": "2023-1035359",
    "request_type": "Trash/Recycling",
    "request_reason": "Repair Recycling Cart",
    "date_created": "2023-09-14T17:48:35.000",
    "date_modified": "2023-09-14T17:48:35.000",
    "request_status": "Pending",
    "responsible_agency": "Department of Sanitation",
    "final_address": "7576 Pearl St",
    "address_councildis": "A",
    "status": "Pending",
    "rowid": "1035359",
    "final_x": "3661683.31942",
    "final_y": "525254.220989",
    "longitude": "-90.13085222275969",
    "latitude": "29.938853598944643",
    "geocoded_column": {
      "latitude": "29.938853598944643",
      "longitude": "-90.13085222275969"
    }
  },
  {
    "service_request": "2023-1035358",
    "request_type": "Traffic Signals/Signs/Striping/Streetlights",
    "request_reason": "Street Light Outage/Malfunction",
    "date_created": "2023-09-14T17:46:52.000",
    "date_modified": "2023-09-14T17:46:53.000",
    "request_status": "Pending",
    "responsible_agency": "Department of Public Works",
    "final_address": "7576 Pearl St",
    "address_councildis": "A",
    "status": "Assigned to Contractor",
    "contractor": "Legacy Professional Services",
    "rowid": "1035358",
    "final_x": "3661683.31942",
    "final_y": "525254.220989",
    "longitude": "-90.13085222275969",
    "latitude": "29.938853598944643",
    "geocoded_column": {
      "latitude": "29.938853598944643",
      "longitude": "-90.13085222275969"
    }
  },
  {
    "service_request": "2023-1035357",
    "request_type": "Traffic Signals/Signs/Striping/Streetlights",
    "request_reason": "Street Light Outage/Malfunction",
    "date_created": "2023-09-14T17:46:39.000",
    "date_modified": "2023-09-14T17:46:39.000",
    "request_status": "Pending",
    "responsible_agency": "Department of Public Works",
    "final_address": "2545 St Ann St",
    "address_councildis": "D",
    "status": "Assigned to Contractor",
    "contractor": "Legacy Professional Services",
    "rowid": "1035357",
    "final_x": "3677477.05474",
    "final_y": "536855.428552",
    "longitude": "-90.080589148676",
    "latitude": "29.970287837738734",
    "geocoded_column": {
      "latitude": "29.970287837738734",
      "longitude": "-90.080589148676"
    }
  },
  {
    "service_request": "2023-1035356",
    "request_type": "Trash/Recycling",
    "request_reason": "Repair Trash Cart",
    "date_created": "2023-09-14T17:43:07.000",
    "date_modified": "2023-09-14T17:43:08.000",
    "request_status": "Pending",
    "responsible_agency": "Department of Sanitation",
    "final_address": "4821 Bonita Dr",
    "address_councildis": "E",
    "status": "Assigned to Contractor",
    "contractor": "Waste Pro",
    "rowid": "1035356",
    "final_x": "3704487.1107",
    "final_y": "555801.834713",
    "longitude": "-89.99459006760722",
    "latitude": "30.021543732884435",
    "geocoded_column": {
      "latitude": "30.021543732884435",
      "longitude": "-89.99459006760722"
    }
  },
  {
    "service_request": "2023-1035355",
    "request_type": "Trash/Recycling",
    "request_reason": "Return Trash Cart",
    "date_created": "2023-09-14T17:42:33.000",
    "date_modified": "2023-09-14T17:42:33.000",
    "request_status": "Pending",
    "responsible_agency": "Department of Sanitation",
    "final_address": "4821 Bonita Dr",
    "address_councildis": "E",
    "status": "Assigned to Contractor",
    "contractor": "Waste Pro",
    "rowid": "1035355",
    "final_x": "3704487.1107",
    "final_y": "555801.834713",
    "longitude": "-89.99459006760722",
    "latitude": "30.021543732884435",
    "geocoded_column": {
      "latitude": "30.021543732884435",
      "longitude": "-89.99459006760722"
    }
  },
  {
    "service_request": "2023-1035354",
    "request_type": "Trash/Recycling",
    "request_reason": "MIssed Recycling Pick-Up",
    "date_created": "2023-09-14T17:37:57.000",
    "date_modified": "2023-09-14T17:37:58.000",
    "request_status": "Pending",
    "responsible_agency": "Department of Sanitation",
    "final_address": "1023 Dufossat St",
    "address_councildis": "B",
    "status": "Assigned to Contractor",
    "contractor": "Richards Disposal",
    "rowid": "1035354",
    "final_x": "3668147.42925",
    "final_y": "519194.491511",
    "longitude": "-90.11064837000087",
    "latitude": "29.92200316354626",
    "geocoded_column": {
      "latitude": "29.92200316354626",
      "longitude": "-90.11064837000087"
    }
  },
  {
    "service_request": "2023-1035352",
    "request_type": "Roads/Drainage",
    "request_reason": "Road Shoulder Repair",
    "date_created": "2023-09-14T17:27:43.000",
    "date_modified": "2023-09-14T17:27:43.000",
    "request_status": "Pending",
    "responsible_agency": "Department of Public Works",
    "final_address": "5002 S Claiborne Ave",
    "address_councildis": "B",
    "status": "Pending",
    "rowid": "1035352",
    "final_x": "3668824.421",
    "final_y": "525851.554109",
    "longitude": "-90.10828672308644",
    "latitude": "29.94028807741969",
    "geocoded_column": {
      "latitude": "29.94028807741969",
      "longitude": "-90.10828672308644"
    }
  },
  {
    "service_request": "2023-1035351",
    "request_type": "Property Maintenance",
    "request_reason": "Property Maintenance",
    "date_created": "2023-09-14T17:24:42.000",
    "date_modified": "2023-09-14T17:24:42.000",
    "request_status": "Pending",
    "responsible_agency": "Department of Code Enforcement",
    "final_address": "13839 Horizon Dr",
    "address_councildis": "E",
    "status": "Pending",
    "rowid": "1035351",
    "final_x": "3725487.27155",
    "final_y": "570490.083239",
    "longitude": "-89.92766684450478",
    "latitude": "30.06123898220611",
    "geocoded_column": {
      "latitude": "30.06123898220611",
      "longitude": "-89.92766684450478"
    }
  },
  {
    "service_request": "2023-1035349",
    "request_type": "Property Maintenance",
    "request_reason": "Property Maintenance",
    "date_created": "2023-09-14T17:21:11.000",
    "date_modified": "2023-09-14T17:21:11.000",
    "request_status": "Pending",
    "responsible_agency": "Department of Code Enforcement",
    "final_address": "7600 Horizon Dr",
    "address_councildis": "E",
    "status": "Pending",
    "rowid": "1035349",
    "final_x": "3725330.49446",
    "final_y": "570178.712039",
    "longitude": "-89.92817447769445",
    "latitude": "30.060388130382865",
    "geocoded_column": {
      "latitude": "30.060388130382865",
      "longitude": "-89.92817447769445"
    }
  },
  {
    "service_request": "2023-1035348",
    "request_type": "Trash/Recycling",
    "request_reason": "MIssed Recycling Pick-Up",
    "date_created": "2023-09-14T17:18:45.000",
    "date_modified": "2023-09-14T17:18:45.000",
    "request_status": "Pending",
    "responsible_agency": "Department of Sanitation",
    "final_address": "1839 Bordeaux St",
    "address_councildis": "B",
    "status": "Assigned to Contractor",
    "contractor": "Richards Disposal",
    "rowid": "1035348",
    "final_x": "3669329.85428",
    "final_y": "521753.37337",
    "longitude": "-90.10682947979618",
    "latitude": "29.92900452881874",
    "geocoded_column": {
      "latitude": "29.92900452881874",
      "longitude": "-90.10682947979618"
    }
  },
  {
    "service_request": "2023-1035346",
    "request_type": "Trash/Recycling",
    "request_reason": "Request a Large Item Pick Up",
    "date_created": "2023-09-14T17:10:04.000",
    "date_modified": "2023-09-14T17:12:58.000",
    "request_status": "Pending",
    "responsible_agency": "Department of Sanitation",
    "final_address": "2816 Baronne St",
    "address_councildis": "B",
    "status": "Assigned to Contractor",
    "contractor": "Richards Disposal",
    "rowid": "1035346",
    "final_x": "3675400.36667",
    "final_y": "523033.061563",
    "longitude": "-90.08762213446256",
    "latitude": "29.932343190080683",
    "geocoded_column": {
      "latitude": "29.932343190080683",
      "longitude": "-90.08762213446256"
    }
  },
  {
    "service_request": "2023-1035345",
    "request_type": "Property Maintenance",
    "request_reason": "Property Maintenance",
    "date_created": "2023-09-14T17:08:42.000",
    "date_modified": "2023-09-14T17:08:42.000",
    "request_status": "Pending",
    "responsible_agency": "Department of Code Enforcement",
    "status": "Pending",
    "rowid": "1035345",
    "longitude": "0.0",
    "latitude": "0.0",
    "geocoded_column": {
      "latitude": "0.0",
      "longitude": "0.0"
    }
  },
  {
    "service_request": "2023-1035344",
    "request_type": "Trash/Recycling",
    "request_reason": "MIssed Recycling Pick-Up",
    "date_created": "2023-09-14T16:59:20.000",
    "date_modified": "2023-09-14T17:10:27.000",
    "request_status": "Pending",
    "responsible_agency": "Department of Sanitation",
    "final_address": "32 Curtis Dr",
    "address_councildis": "E",
    "status": "Assigned to Contractor",
    "contractor": "Waste Pro",
    "rowid": "1035344",
    "final_x": "3697715.11165",
    "final_y": "560971.142686",
    "longitude": "-90.01579983051062",
    "latitude": "30.03597316219121",
    "geocoded_column": {
      "latitude": "30.03597316219121",
      "longitude": "-90.01579983051062"
    }
  },
  {
    "service_request": "2023-1035343",
    "request_type": "Trash/Recycling",
    "request_reason": "Request a Large Item Pick Up",
    "date_created": "2023-09-14T16:58:50.000",
    "date_modified": "2023-09-14T17:10:06.000",
    "request_status": "Pending",
    "responsible_agency": "Department of Sanitation",
    "final_address": "CHEF MENTEUR HWY & WILSON AVE",
    "address_councildis": "E",
    "status": "Assigned to Contractor",
    "contractor": "Waste Pro",
    "rowid": "1035343",
    "final_x": "3703246.7",
    "final_y": "552425.58",
    "longitude": "-89.99863366607299",
    "latitude": "30.012300115548967",
    "geocoded_column": {
      "latitude": "30.012300115548967",
      "longitude": "-89.99863366607299"
    }
  },
  {
    "service_request": "2023-1035342",
    "request_type": "Trash/Recycling",
    "request_reason": "Request a Large Item Pick Up",
    "date_created": "2023-09-14T16:56:09.000",
    "date_modified": "2023-09-14T17:07:09.000",
    "request_status": "Pending",
    "responsible_agency": "Department of Sanitation",
    "final_address": "4033 Dauphine St",
    "address_councildis": "C",
    "status": "Assigned to Contractor",
    "contractor": "IV Waste",
    "rowid": "1035342",
    "final_x": "3691779.51414",
    "final_y": "534126.196421",
    "longitude": "-90.03551823382323",
    "latitude": "29.96234569934402",
    "geocoded_column": {
      "latitude": "29.96234569934402",
      "longitude": "-90.03551823382323"
    }
  },
  {
    "service_request": "2023-1035341",
    "request_type": "Trash/Recycling",
    "request_reason": "Return Trash Cart",
    "date_created": "2023-09-14T16:55:19.000",
    "date_modified": "2023-09-14T17:06:11.000",
    "request_status": "Pending",
    "responsible_agency": "Department of Sanitation",
    "final_address": "528 Governor Nicholls St Apt A",
    "address_councildis": "C",
    "status": "Assigned to Contractor",
    "contractor": "Empire Services",
    "rowid": "1035341",
    "final_x": "3684042.79829",
    "final_y": "533562.384837",
    "longitude": "-90.05996942357035",
    "latitude": "29.961034091659933",
    "geocoded_column": {
      "latitude": "29.961034091659933",
      "longitude": "-90.05996942357035"
    }
  },
  {
    "service_request": "2023-1035340",
    "request_type": "Trash/Recycling",
    "request_reason": "Request a Large Item Pick Up",
    "date_created": "2023-09-14T16:44:19.000",
    "date_modified": "2023-09-14T16:53:05.000",
    "request_status": "Pending",
    "responsible_agency": "Department of Sanitation",
    "final_address": "1800 Felicity St",
    "address_councildis": "B",
    "status": "Assigned to Contractor",
    "contractor": "Richards Disposal",
    "rowid": "1035340",
    "final_x": "3677820.01038",
    "final_y": "525165.136573",
    "longitude": "-90.07990991277798",
    "latitude": "29.93813314320982",
    "geocoded_column": {
      "latitude": "29.93813314320982",
      "longitude": "-90.07990991277798"
    }
  },
  {
    "service_request": "2023-1035339",
    "request_type": "Abandoned Vehicles",
    "request_reason": "Abandoned/Junk Vehicles",
    "date_created": "2023-09-14T16:43:05.000",
    "date_modified": "2023-09-14T16:51:16.000",
    "request_status": "Pending",
    "responsible_agency": "Department of Public Works",
    "final_address": "3301 Montegut St",
    "address_councildis": "D",
    "status": "Pending",
    "rowid": "1035339",
    "final_x": "3690695.916",
    "final_y": "544836.681039",
    "longitude": "-90.03855788626656",
    "latitude": "29.991829428322053",
    "geocoded_column": {
      "latitude": "29.991829428322053",
      "longitude": "-90.03855788626656"
    }
  },
  {
    "service_request": "2023-1035338",
    "request_type": "Abandoned Vehicles",
    "request_reason": "Abandoned/Junk Vehicles",
    "date_created": "2023-09-14T16:42:55.000",
    "date_modified": "2023-09-14T16:42:55.000",
    "request_status": "Pending",
    "responsible_agency": "Department of Public Works",
    "final_address": "6609 Lake Willow Dr",
    "address_councildis": "E",
    "status": "Pending",
    "rowid": "1035338",
    "final_x": "3704166.72196",
    "final_y": "559735.496797",
    "longitude": "-89.9954572784548",
    "latitude": "30.032370065437135",
    "geocoded_column": {
      "latitude": "30.032370065437135",
      "longitude": "-89.9954572784548"
    }
  },
  {
    "service_request": "2023-1035337",
    "request_type": "Trash/Recycling",
    "request_reason": "Replace Trash Cart",
    "date_created": "2023-09-14T16:37:25.000",
    "date_modified": "2023-09-14T16:44:44.000",
    "request_status": "Pending",
    "responsible_agency": "Department of Sanitation",
    "final_address": "5256 Constance St",
    "address_councildis": "B",
    "status": "Assigned to Contractor",
    "contractor": "Richards Disposal",
    "rowid": "1035337",
    "final_x": "3667495.24346",
    "final_y": "518214.909942",
    "longitude": "-90.11273999272382",
    "latitude": "29.919328742104064",
    "geocoded_column": {
      "latitude": "29.919328742104064",
      "longitude": "-90.11273999272382"
    }
  },
  {
    "service_request": "2023-1035336",
    "request_type": "Traffic Signals/Signs/Striping/Streetlights",
    "request_reason": "Street Light Outage/Malfunction",
    "date_created": "2023-09-14T16:24:33.000",
    "date_modified": "2023-09-14T16:28:47.000",
    "request_status": "Pending",
    "responsible_agency": "Department of Public Works",
    "final_address": "52 Park Timbers Dr",
    "address_councildis": "C",
    "status": "Assigned to Contractor",
    "contractor": "Legacy Professional Services",
    "rowid": "1035336",
    "final_x": "3699374.53751",
    "final_y": "517090.297077",
    "longitude": "-90.01215467598277",
    "latitude": "29.915264185717916",
    "geocoded_column": {
      "latitude": "29.915264185717916",
      "longitude": "-90.01215467598277"
    }
  },
  {
    "service_request": "2023-1035335",
    "request_type": "Trash/Recycling",
    "request_reason": "Request a Large Item Pick Up",
    "date_created": "2023-09-14T16:23:37.000",
    "date_modified": "2023-09-14T16:27:33.000",
    "request_status": "Pending",
    "responsible_agency": "Department of Sanitation",
    "final_address": "5519 Stillwater Dr",
    "address_councildis": "E",
    "status": "Assigned to Contractor",
    "contractor": "Waste Pro",
    "rowid": "1035335",
    "final_x": "3716645.35884",
    "final_y": "560864.770718",
    "longitude": "-89.95598143215835",
    "latitude": "30.035068591113877",
    "geocoded_column": {
      "latitude": "30.035068591113877",
      "longitude": "-89.95598143215835"
    }
  },
  {
    "service_request": "2023-1035334",
    "request_type": "Traffic Signals/Signs/Striping/Streetlights",
    "request_reason": "Street Light Outage/Malfunction",
    "date_created": "2023-09-14T16:23:22.000",
    "date_modified": "2023-09-14T16:27:15.000",
    "request_status": "Pending",
    "responsible_agency": "Department of Public Works",
    "final_address": "301 Cherokee St",
    "address_councildis": "A",
    "status": "Assigned to Contractor",
    "contractor": "Legacy Professional Services",
    "rowid": "1035334",
    "final_x": "3661469.07974",
    "final_y": "524604.168124",
    "longitude": "-90.13155013019873",
    "latitude": "29.9370723394335",
    "geocoded_column": {
      "latitude": "29.9370723394335",
      "longitude": "-90.13155013019873"
    }
  },
  {
    "service_request": "2023-1035333",
    "request_type": "Trash/Recycling",
    "request_reason": "MIssed Recycling Pick-Up",
    "date_created": "2023-09-14T16:23:18.000",
    "date_modified": "2023-09-14T16:27:11.000",
    "request_status": "Pending",
    "responsible_agency": "Department of Sanitation",
    "final_address": "3005 Constance St",
    "address_councildis": "B",
    "status": "Assigned to Contractor",
    "contractor": "Richards Disposal",
    "rowid": "1035333",
    "final_x": "3676478.81313",
    "final_y": "520060.79884",
    "longitude": "-90.08431985624402",
    "latitude": "29.92413815050092",
    "geocoded_column": {
      "latitude": "29.92413815050092",
      "longitude": "-90.08431985624402"
    }
  },
  {
    "service_request": "2023-1035331",
    "request_type": "Trash/Recycling",
    "request_reason": "Request a Large Item Pick Up",
    "date_created": "2023-09-14T16:21:40.000",
    "date_modified": "2023-09-14T16:25:17.000",
    "request_status": "Pending",
    "responsible_agency": "Department of Sanitation",
    "final_address": "429 S Alexander St, New Orleans, Louisiana, 70119",
    "address_councildis": "A",
    "status": "Assigned to Contractor",
    "contractor": "Richards Disposal",
    "rowid": "1035331",
    "final_x": "3669053.11438",
    "final_y": "537987.409545",
    "longitude": "-90.10715468735414",
    "latitude": "29.973650956964146",
    "geocoded_column": {
      "latitude": "29.973650956964146",
      "longitude": "-90.10715468735414"
    }
  },
  {
    "service_request": "2023-1035332",
    "request_type": "Trash/Recycling",
    "request_reason": "Request a Large Item Pick Up",
    "date_created": "2023-09-14T16:21:40.000",
    "date_modified": "2023-09-14T16:25:19.000",
    "request_status": "Pending",
    "responsible_agency": "Department of Sanitation",
    "final_address": "5604 Annunciation St",
    "address_councildis": "A",
    "status": "Assigned to Contractor",
    "contractor": "Richards Disposal",
    "rowid": "1035332",
    "final_x": "3665731.29357",
    "final_y": "517485.98239",
    "longitude": "-90.11833231308269",
    "latitude": "29.917375968516925",
    "geocoded_column": {
      "latitude": "29.917375968516925",
      "longitude": "-90.11833231308269"
    }
  },
  {
    "service_request": "2023-1035330",
    "request_type": "Roads/Drainage",
    "request_reason": "Pothole",
    "date_created": "2023-09-14T16:15:48.000",
    "date_modified": "2023-09-14T16:15:48.000",
    "request_status": "Pending",
    "responsible_agency": "Department of Public Works",
    "final_address": "3730 Clermont Dr",
    "address_councildis": "D",
    "status": "Pending",
    "rowid": "1035330",
    "final_x": "3685484.19375",
    "final_y": "546247.210512",
    "longitude": "-90.05497088191703",
    "latitude": "29.99586878063454",
    "geocoded_column": {
      "latitude": "29.99586878063454",
      "longitude": "-90.05497088191703"
    }
  },
  {
    "service_request": "2023-1035329",
    "request_type": "Abandoned Vehicles",
    "request_reason": "Abandoned/Junk Vehicles",
    "date_created": "2023-09-14T16:15:31.000",
    "date_modified": "2023-09-14T16:16:48.000",
    "request_status": "Pending",
    "responsible_agency": "Department of Public Works",
    "final_address": "PINES BLVD & E LAVERNE ST",
    "address_councildis": "D",
    "status": "Pending",
    "rowid": "1035329",
    "final_x": "3697277.0",
    "final_y": "556478.98",
    "longitude": "-90.01734737834269",
    "latitude": "30.02363528116626",
    "geocoded_column": {
      "latitude": "30.02363528116626",
      "longitude": "-90.01734737834269"
    }
  },
  {
    "service_request": "2023-1035328",
    "request_type": "Trash/Recycling",
    "request_reason": "Repair Recycling Cart",
    "date_created": "2023-09-14T16:14:57.000",
    "date_modified": "2023-09-14T16:15:50.000",
    "request_status": "Pending",
    "responsible_agency": "Department of Sanitation",
    "final_address": "6928 Pontchartrain Blvd",
    "address_councildis": "A",
    "status": "Pending",
    "rowid": "1035328",
    "final_x": "3666376.01005",
    "final_y": "553818.550231",
    "longitude": "-90.11507800896625",
    "latitude": "30.017259668894013",
    "geocoded_column": {
      "latitude": "30.017259668894013",
      "longitude": "-90.11507800896625"
    }
  },
  {
    "service_request": "2023-1035327",
    "request_type": "Trash/Recycling",
    "request_reason": "Illegal Dumping",
    "date_created": "2023-09-14T16:09:02.000",
    "date_modified": "2023-09-14T16:12:02.000",
    "request_status": "Pending",
    "responsible_agency": "Department of Sanitation",
    "final_address": "PACIFIC AVE & SOCRATES ST",
    "address_councildis": "C",
    "status": "Pending",
    "rowid": "1035327",
    "final_x": "3688356.0",
    "final_y": "526417.38",
    "longitude": "-90.04660253598715",
    "latitude": "29.941255278189054",
    "geocoded_column": {
      "latitude": "29.941255278189054",
      "longitude": "-90.04660253598715"
    }
  },
  {
    "service_request": "2023-1035326",
    "request_type": "Trash/Recycling",
    "request_reason": "Repair Trash Cart",
    "date_created": "2023-09-14T16:06:52.000",
    "date_modified": "2023-09-14T16:06:53.000",
    "request_status": "Pending",
    "responsible_agency": "Department of Sanitation",
    "final_address": "1930 Annunciation St Unit M",
    "address_councildis": "B",
    "status": "Assigned to Contractor",
    "contractor": "Richards Disposal",
    "rowid": "1035326",
    "final_x": "3680581.53455",
    "final_y": "521734.415034",
    "longitude": "-90.07131082734999",
    "latitude": "29.928616440231863",
    "geocoded_column": {
      "latitude": "29.928616440231863",
      "longitude": "-90.07131082734999"
    }
  },
  {
    "service_request": "2023-1035325",
    "request_type": "Roads/Drainage",
    "request_reason": "Pothole",
    "date_created": "2023-09-14T16:04:13.000",
    "date_modified": "2023-09-14T16:08:18.000",
    "request_status": "Pending",
    "responsible_agency": "Department of Public Works",
    "final_address": "600 Block of Alix St, New Orleans, Louisiana, 70114",
    "address_councildis": "C",
    "status": "Pending",
    "rowid": "1035325",
    "final_x": "3687398.00279",
    "final_y": "530349.83771",
    "longitude": "-90.04948799874839",
    "latitude": "29.952097742928",
    "geocoded_column": {
      "latitude": "29.952097742928",
      "longitude": "-90.04948799874839"
    }
  },
  {
    "service_request": "2023-1035324",
    "request_type": "Trash/Recycling",
    "request_reason": "Missed Trash Pick-Up",
    "date_created": "2023-09-14T16:00:15.000",
    "date_modified": "2023-09-14T16:00:15.000",
    "request_status": "Pending",
    "responsible_agency": "Department of Sanitation",
    "final_address": "2518 Deers St",
    "address_councildis": "D",
    "status": "Assigned to Contractor",
    "contractor": "IV Waste",
    "rowid": "1035324",
    "final_x": "3688177.41551",
    "final_y": "541919.44334",
    "longitude": "-90.04661675725683",
    "latitude": "29.983886078249203",
    "geocoded_column": {
      "latitude": "29.983886078249203",
      "longitude": "-90.04661675725683"
    }
  },
  {
    "service_request": "2023-1035323",
    "request_type": "Trash/Recycling",
    "request_reason": "Repair Trash Cart",
    "date_created": "2023-09-14T15:51:56.000",
    "date_modified": "2023-09-14T15:51:58.000",
    "request_status": "Pending",
    "responsible_agency": "Department of Sanitation",
    "status": "Assigned to Contractor",
    "rowid": "1035323",
    "longitude": "0.0",
    "latitude": "0.0",
    "geocoded_column": {
      "latitude": "0.0",
      "longitude": "0.0"
    }
  },
  {
    "service_request": "2023-1035322",
    "request_type": "Trash/Recycling",
    "request_reason": "Repair Trash Cart",
    "date_created": "2023-09-14T15:50:53.000",
    "date_modified": "2023-09-14T15:50:54.000",
    "request_status": "Pending",
    "responsible_agency": "Department of Sanitation",
    "final_address": "1682 Southlawn Blvd",
    "address_councildis": "C",
    "status": "Assigned to Contractor",
    "contractor": "Richards Disposal",
    "rowid": "1035322",
    "final_x": "3695187.04816",
    "final_y": "524832.046012",
    "longitude": "-90.02509287512733",
    "latitude": "29.936683461914903",
    "geocoded_column": {
      "latitude": "29.936683461914903",
      "longitude": "-90.02509287512733"
    }
  },
  {
    "service_request": "2023-1035321",
    "request_type": "Trash/Recycling",
    "request_reason": "Missed Trash Pick-Up",
    "date_created": "2023-09-14T15:45:57.000",
    "date_modified": "2023-09-14T15:45:58.000",
    "request_status": "Pending",
    "responsible_agency": "Department of Sanitation",
    "final_address": "4637 Erickson Ave",
    "address_councildis": "C",
    "status": "Assigned to Contractor",
    "contractor": "Richards Disposal",
    "rowid": "1035321",
    "final_x": "3702284.28356",
    "final_y": "519417.579575",
    "longitude": "-90.00288522206203",
    "latitude": "29.921570841606762",
    "geocoded_column": {
      "latitude": "29.921570841606762",
      "longitude": "-90.00288522206203"
    }
  },
  {
    "service_request": "2023-1035320",
    "request_type": "Trash/Recycling",
    "request_reason": "Return Trash Cart",
    "date_created": "2023-09-14T15:30:35.000",
    "date_modified": "2023-09-14T15:30:36.000",
    "request_status": "Pending",
    "responsible_agency": "Department of Sanitation",
    "final_address": "5521 Eads St",
    "address_councildis": "D",
    "status": "Assigned to Contractor",
    "contractor": "IV Waste",
    "rowid": "1035320",
    "final_x": "3686967.48681",
    "final_y": "553515.632983",
    "longitude": "-90.05002814372027",
    "latitude": "30.015808710616184",
    "geocoded_column": {
      "latitude": "30.015808710616184",
      "longitude": "-90.05002814372027"
    }
  },
  {
    "service_request": "2023-1035319",
    "request_type": "Property Maintenance",
    "request_reason": "Property Maintenance",
    "date_created": "2023-09-14T15:29:05.000",
    "date_modified": "2023-09-14T15:29:05.000",
    "request_status": "Pending",
    "responsible_agency": "Department of Code Enforcement",
    "final_address": "7020 Yorktown Dr",
    "address_councildis": "E",
    "status": "Pending",
    "rowid": "1035319",
    "final_x": "3706147.81329",
    "final_y": "560502.181534",
    "longitude": "-89.98916851462484",
    "latitude": "30.034414396719963",
    "geocoded_column": {
      "latitude": "30.034414396719963",
      "longitude": "-89.98916851462484"
    }
  },
  {
    "service_request": "2023-1035318",
    "request_type": "Trash/Recycling",
    "request_reason": "Return Recycling Cart",
    "date_created": "2023-09-14T15:25:10.000",
    "date_modified": "2023-09-14T15:25:10.000",
    "request_status": "Pending",
    "responsible_agency": "Department of Sanitation",
    "final_address": "3756 Mimosa Ct",
    "address_councildis": "C",
    "status": "Pending",
    "rowid": "1035318",
    "final_x": "3703788.70967",
    "final_y": "513320.337394",
    "longitude": "-89.99836066769463",
    "latitude": "29.904757398451217",
    "geocoded_column": {
      "latitude": "29.904757398451217",
      "longitude": "-89.99836066769463"
    }
  },
  {
    "service_request": "2023-1035317",
    "request_type": "Abandoned Vehicles",
    "request_reason": "Abandoned/Junk Vehicles",
    "date_created": "2023-09-14T15:24:02.000",
    "date_modified": "2023-09-14T15:24:02.000",
    "request_status": "Pending",
    "responsible_agency": "Department of Public Works",
    "final_address": "921 Broadway St",
    "address_councildis": "A",
    "status": "Pending",
    "rowid": "1035317",
    "final_x": "3663696.87168",
    "final_y": "525708.713789",
    "longitude": "-90.12448004271445",
    "latitude": "29.94004505287439",
    "geocoded_column": {
      "latitude": "29.94004505287439",
      "longitude": "-90.12448004271445"
    }
  },
  {
    "service_request": "2023-1035316",
    "request_type": "Abandoned Vehicles",
    "request_reason": "Abandoned/Junk Vehicles",
    "date_created": "2023-09-14T15:12:59.000",
    "date_modified": "2023-09-14T15:12:59.000",
    "request_status": "Pending",
    "responsible_agency": "Department of Public Works",
    "final_address": "5350 Pratt Dr",
    "address_councildis": "D",
    "status": "Pending",
    "rowid": "1035316",
    "final_x": "3680308.32155",
    "final_y": "552074.866582",
    "longitude": "-90.07111824376224",
    "latitude": "30.01205051288932",
    "geocoded_column": {
      "latitude": "30.01205051288932",
      "longitude": "-90.07111824376224"
    }
  },
  {
    "service_request": "2023-1035315",
    "request_type": "Trash/Recycling",
    "request_reason": "Replace Trash Cart",
    "date_created": "2023-09-14T15:12:05.000",
    "date_modified": "2023-09-14T15:12:31.000",
    "request_status": "Pending",
    "responsible_agency": "Department of Sanitation",
    "final_address": "2920 Constance St",
    "address_councildis": "B",
    "status": "Assigned to Contractor",
    "contractor": "Richards Disposal",
    "rowid": "1035315",
    "final_x": "3676684.89864",
    "final_y": "520092.047544",
    "longitude": "-90.08366824054058",
    "latitude": "29.924217895802187",
    "geocoded_column": {
      "latitude": "29.924217895802187",
      "longitude": "-90.08366824054058"
    }
  },
  {
    "service_request": "2023-1035314",
    "request_type": "Trash/Recycling",
    "request_reason": "Request a Large Item Pick Up",
    "date_created": "2023-09-14T15:11:54.000",
    "date_modified": "2023-09-14T15:11:54.000",
    "request_status": "Pending",
    "responsible_agency": "Department of Sanitation",
    "final_address": "3302 Metropolitan St",
    "address_councildis": "D",
    "status": "Assigned to Contractor",
    "contractor": "IV Waste",
    "rowid": "1035314",
    "final_x": "3691428.76688",
    "final_y": "544669.985487",
    "longitude": "-90.03624893353735",
    "latitude": "29.991348285546795",
    "geocoded_column": {
      "latitude": "29.991348285546795",
      "longitude": "-90.03624893353735"
    }
  },
  {
    "service_request": "2023-1035313",
    "request_type": "Trash/Recycling",
    "request_reason": "Repair Recycling Cart",
    "date_created": "2023-09-14T15:08:58.000",
    "date_modified": "2023-09-14T15:08:58.000",
    "request_status": "Pending",
    "responsible_agency": "Department of Sanitation",
    "final_address": "4920 LaSalle St",
    "address_councildis": "B",
    "status": "Pending",
    "rowid": "1035313",
    "final_x": "3668969.52289",
    "final_y": "523513.924987",
    "longitude": "-90.10790754074502",
    "latitude": "29.93385608327327",
    "geocoded_column": {
      "latitude": "29.93385608327327",
      "longitude": "-90.10790754074502"
    }
  },
  {
    "service_request": "2023-1035312",
    "request_type": "Roads/Drainage",
    "request_reason": "Catch Basin - Clogged",
    "date_created": "2023-09-14T15:01:17.000",
    "date_modified": "2023-09-14T15:01:17.000",
    "request_status": "Pending",
    "responsible_agency": "Department of Public Works",
    "final_address": "6803 Press Dr",
    "address_councildis": "D",
    "status": "Pending",
    "rowid": "1035312",
    "final_x": "3688531.08899",
    "final_y": "558973.897436",
    "longitude": "-90.0448939610841",
    "latitude": "30.030768658375376",
    "geocoded_column": {
      "latitude": "30.030768658375376",
      "longitude": "-90.0448939610841"
    }
  },
  {
    "service_request": "2023-1035311",
    "request_type": "Trash/Recycling",
    "request_reason": "Order Trash Cart",
    "date_created": "2023-09-14T15:00:17.000",
    "date_modified": "2023-09-14T15:00:17.000",
    "request_status": "Pending",
    "responsible_agency": "Department of Sanitation",
    "final_address": "2205 St Maurice Ave",
    "address_councildis": "E",
    "status": "Assigned to Contractor",
    "contractor": "Waste Pro",
    "rowid": "1035311",
    "final_x": "3701486.3041",
    "final_y": "537137.107784",
    "longitude": "-90.0047555516357",
    "latitude": "29.9703187475045",
    "geocoded_column": {
      "latitude": "29.9703187475045",
      "longitude": "-90.0047555516357"
    }
  },
  {
    "service_request": "2023-1035310",
    "request_type": "Trash/Recycling",
    "request_reason": "Request a Large Item Pick Up",
    "date_created": "2023-09-14T15:00:01.000",
    "date_modified": "2023-09-14T15:00:02.000",
    "request_status": "Pending",
    "responsible_agency": "Department of Sanitation",
    "final_address": "7932 Haney Dr",
    "address_councildis": "E",
    "status": "Assigned to Contractor",
    "contractor": "Waste Pro",
    "rowid": "1035310",
    "final_x": "3711919.33861",
    "final_y": "568185.074597",
    "longitude": "-89.9706411438213",
    "latitude": "30.055351829984016",
    "geocoded_column": {
      "latitude": "30.055351829984016",
      "longitude": "-89.9706411438213"
    }
  },
  {
    "service_request": "2023-1035309",
    "request_type": "Trash/Recycling",
    "request_reason": "Return Trash Cart",
    "date_created": "2023-09-14T14:53:20.000",
    "date_modified": "2023-09-14T14:53:21.000",
    "request_status": "Pending",
    "responsible_agency": "Department of Sanitation",
    "final_address": "509 N Salcedo St",
    "address_councildis": "A",
    "status": "Assigned to Contractor",
    "contractor": "Richards Disposal",
    "rowid": "1035309",
    "final_x": "3675035.50581",
    "final_y": "537399.620744",
    "longitude": "-90.08828115934686",
    "latitude": "29.971857353147886",
    "geocoded_column": {
      "latitude": "29.971857353147886",
      "longitude": "-90.08828115934686"
    }
  },
  {
    "service_request": "2023-1035308",
    "request_type": "Traffic Signals/Signs/Striping/Streetlights",
    "request_reason": "Street Light Outage/Malfunction",
    "date_created": "2023-09-14T14:53:06.000",
    "date_modified": "2023-09-14T14:53:07.000",
    "request_status": "Pending",
    "responsible_agency": "Department of Public Works",
    "final_address": "2900 Danbury Dr",
    "address_councildis": "C",
    "status": "Assigned to Contractor",
    "contractor": "Legacy Professional Services",
    "rowid": "1035308",
    "final_x": "3703638.1354",
    "final_y": "520125.836024",
    "longitude": "-89.99858568847128",
    "latitude": "29.92347500839246",
    "geocoded_column": {
      "latitude": "29.92347500839246",
      "longitude": "-89.99858568847128"
    }
  },
  {
    "service_request": "2023-1035307",
    "request_type": "Trash/Recycling",
    "request_reason": "Repair Trash Cart",
    "date_created": "2023-09-14T14:52:51.000",
    "date_modified": "2023-09-14T14:52:52.000",
    "request_status": "Pending",
    "responsible_agency": "Department of Sanitation",
    "final_address": "509 N Salcedo St",
    "address_councildis": "A",
    "status": "Assigned to Contractor",
    "contractor": "Richards Disposal",
    "rowid": "1035307",
    "final_x": "3675035.50581",
    "final_y": "537399.620744",
    "longitude": "-90.08828115934686",
    "latitude": "29.971857353147886",
    "geocoded_column": {
      "latitude": "29.971857353147886",
      "longitude": "-90.08828115934686"
    }
  },
  {
    "service_request": "2023-1035306",
    "request_type": "Trash/Recycling",
    "request_reason": "Repair Trash Cart",
    "date_created": "2023-09-14T14:51:53.000",
    "date_modified": "2023-09-14T14:51:54.000",
    "request_status": "Pending",
    "responsible_agency": "Department of Sanitation",
    "final_address": "2523 Second St",
    "address_councildis": "B",
    "status": "Assigned to Contractor",
    "contractor": "Richards Disposal",
    "rowid": "1035306",
    "final_x": "3674801.72245",
    "final_y": "525979.231485",
    "longitude": "-90.0894110321736",
    "latitude": "29.940462077723677",
    "geocoded_column": {
      "latitude": "29.940462077723677",
      "longitude": "-90.0894110321736"
    }
  },
  {
    "service_request": "2023-1035304",
    "request_type": "Trash/Recycling",
    "request_reason": "Repair Trash Cart",
    "date_created": "2023-09-14T14:49:30.000",
    "date_modified": "2023-09-14T14:49:31.000",
    "request_status": "Pending",
    "responsible_agency": "Department of Sanitation",
    "final_address": "1527 Sixth St",
    "address_councildis": "B",
    "status": "Assigned to Contractor",
    "contractor": "Richards Disposal",
    "rowid": "1035304",
    "final_x": "3675695.43048",
    "final_y": "522026.24857",
    "longitude": "-90.08672522365224",
    "latitude": "29.929565957938408",
    "geocoded_column": {
      "latitude": "29.929565957938408",
      "longitude": "-90.08672522365224"
    }
  },
  {
    "service_request": "2023-1035303",
    "request_type": "Roads/Drainage",
    "request_reason": "Ditch Issue",
    "date_created": "2023-09-14T14:47:03.000",
    "date_modified": "2023-09-14T14:47:04.000",
    "request_status": "Pending",
    "responsible_agency": "Department of Public Works",
    "final_address": "3261 Henry St",
    "address_councildis": "C",
    "status": "Pending",
    "rowid": "1035303",
    "final_x": "3715768.3806",
    "final_y": "518440.805366",
    "longitude": "-89.9603592035085",
    "latitude": "29.918447671333354",
    "geocoded_column": {
      "latitude": "29.918447671333354",
      "longitude": "-89.9603592035085"
    }
  },
  {
    "service_request": "2023-1035302",
    "request_type": "Abandoned Vehicles",
    "request_reason": "Abandoned/Junk Vehicles",
    "date_created": "2023-09-14T14:46:12.000",
    "date_modified": "2023-09-14T14:46:13.000",
    "request_status": "Pending",
    "responsible_agency": "Department of Public Works",
    "final_address": "329 Lowerline St",
    "address_councildis": "A",
    "status": "Pending",
    "rowid": "1035302",
    "final_x": "3661536.41658",
    "final_y": "523552.803195",
    "longitude": "-90.13137236076453",
    "latitude": "29.93417947531416",
    "geocoded_column": {
      "latitude": "29.93417947531416",
      "longitude": "-90.13137236076453"
    }
  },
  {
    "service_request": "2023-1035301",
    "request_type": "Abandoned Vehicles",
    "request_reason": "Abandoned/Junk Vehicles",
    "date_created": "2023-09-14T14:45:34.000",
    "date_modified": "2023-09-14T14:45:34.000",
    "request_status": "Pending",
    "responsible_agency": "Department of Public Works",
    "final_address": "2009 Mandeville St",
    "address_councildis": "D",
    "status": "Pending",
    "rowid": "1035301",
    "final_x": "3685642.10479",
    "final_y": "539791.551626",
    "longitude": "-90.0546996173486",
    "latitude": "29.97811316576733",
    "geocoded_column": {
      "latitude": "29.97811316576733",
      "longitude": "-90.0546996173486"
    }
  },
  {
    "service_request": "2023-1035300",
    "request_type": "Trash/Recycling",
    "request_reason": "Repair Trash Cart",
    "date_created": "2023-09-14T14:45:13.000",
    "date_modified": "2023-09-14T14:45:14.000",
    "request_status": "Pending",
    "responsible_agency": "Department of Sanitation",
    "final_address": "5326 St Anthony Ave",
    "address_councildis": "D",
    "status": "Assigned to Contractor",
    "contractor": "IV Waste",
    "rowid": "1035300",
    "final_x": "3682089.19055",
    "final_y": "552853.349975",
    "longitude": "-90.06546450209258",
    "latitude": "30.014136998636218",
    "geocoded_column": {
      "latitude": "30.014136998636218",
      "longitude": "-90.06546450209258"
    }
  },
  {
    "service_request": "2023-1035299",
    "request_type": "Abandoned Vehicles",
    "request_reason": "Abandoned/Junk Vehicles",
    "date_created": "2023-09-14T14:43:35.000",
    "date_modified": "2023-09-14T14:43:36.000",
    "request_status": "Pending",
    "responsible_agency": "Department of Public Works",
    "final_address": "329 Lowerline St",
    "address_councildis": "A",
    "status": "Pending",
    "rowid": "1035299",
    "final_x": "3661536.41658",
    "final_y": "523552.803195",
    "longitude": "-90.13137236076453",
    "latitude": "29.93417947531416",
    "geocoded_column": {
      "latitude": "29.93417947531416",
      "longitude": "-90.13137236076453"
    }
  },
  {
    "service_request": "2023-1035298",
    "request_type": "Property Maintenance",
    "request_reason": "Property Maintenance",
    "date_created": "2023-09-14T14:41:24.000",
    "date_modified": "2023-09-14T14:41:24.000",
    "request_status": "Pending",
    "responsible_agency": "Department of Code Enforcement",
    "final_address": "5335 Forest Park Ln",
    "address_councildis": "C",
    "status": "Pending",
    "rowid": "1035298",
    "final_x": "3704259.58884",
    "final_y": "510418.854959",
    "longitude": "-89.99698136458302",
    "latitude": "29.896764211978194",
    "geocoded_column": {
      "latitude": "29.896764211978194",
      "longitude": "-89.99698136458302"
    }
  },
  {
    "service_request": "2023-1035297",
    "request_type": "Trash/Recycling",
    "request_reason": "Return Trash Cart",
    "date_created": "2023-09-14T14:41:08.000",
    "date_modified": "2023-09-14T14:41:09.000",
    "request_status": "Pending",
    "responsible_agency": "Department of Sanitation",
    "final_address": "1112 Thayer St",
    "address_councildis": "C",
    "status": "Assigned to Contractor",
    "contractor": "Richards Disposal",
    "rowid": "1035297",
    "final_x": "3689474.24687",
    "final_y": "527253.408703",
    "longitude": "-90.0430423074897",
    "latitude": "29.94351949601467",
    "geocoded_column": {
      "latitude": "29.94351949601467",
      "longitude": "-90.0430423074897"
    }
  },
  {
    "service_request": "2023-1035296",
    "request_type": "Trash/Recycling",
    "request_reason": "Repair Trash Cart",
    "date_created": "2023-09-14T14:40:21.000",
    "date_modified": "2023-09-14T14:40:22.000",
    "request_status": "Pending",
    "responsible_agency": "Department of Sanitation",
    "final_address": "1112 Thayer St",
    "address_councildis": "C",
    "status": "Assigned to Contractor",
    "contractor": "Richards Disposal",
    "rowid": "1035296",
    "final_x": "3689474.24687",
    "final_y": "527253.408703",
    "longitude": "-90.0430423074897",
    "latitude": "29.94351949601467",
    "geocoded_column": {
      "latitude": "29.94351949601467",
      "longitude": "-90.0430423074897"
    }
  },
  {
    "service_request": "2023-1035295",
    "request_type": "Abandoned Vehicles",
    "request_reason": "Abandoned/Junk Vehicles",
    "date_created": "2023-09-14T14:38:59.000",
    "date_modified": "2023-09-14T14:38:59.000",
    "request_status": "Pending",
    "responsible_agency": "Department of Public Works",
    "final_address": "3400 BLK Vespasian St",
    "address_councildis": "C",
    "status": "Inspected",
    "rowid": "1035295",
    "final_x": "3695912.58386",
    "final_y": "522631.753409",
    "longitude": "-90.02288178152959",
    "latitude": "29.93061061511939",
    "geocoded_column": {
      "latitude": "29.93061061511939",
      "longitude": "-90.02288178152959"
    }
  },
  {
    "service_request": "2023-1035294",
    "request_type": "Parks & Parkways",
    "request_reason": "Request Tree Service (Right of Way/Public Property)",
    "date_created": "2023-09-14T14:38:54.000",
    "date_modified": "2023-09-14T14:38:55.000",
    "request_status": "Pending",
    "responsible_agency": "Department of Parks & Parkway",
    "final_address": "801 Broadway St",
    "address_councildis": "A",
    "status": "Pending",
    "rowid": "1035294",
    "final_x": "3663458.18957",
    "final_y": "525318.347645",
    "longitude": "-90.12524659569888",
    "latitude": "29.938978591971413",
    "geocoded_column": {
      "latitude": "29.938978591971413",
      "longitude": "-90.12524659569888"
    }
  },
  {
    "service_request": "2023-1035293",
    "request_type": "Roads/Drainage",
    "request_reason": "Pothole",
    "date_created": "2023-09-14T14:37:40.000",
    "date_modified": "2023-09-14T14:38:01.000",
    "case_close_date": "2023-09-14T09:38:01.000",
    "request_status": "Closed",
    "responsible_agency": "Department of Public Works",
    "final_address": "107 Larchmont Pl",
    "address_councildis": "C",
    "status": "Resolved",
    "rowid": "1035293",
    "final_x": "3707267.14392",
    "final_y": "520902.595833",
    "longitude": "-89.98710155519882",
    "latitude": "29.92549409068828",
    "geocoded_column": {
      "latitude": "29.92549409068828",
      "longitude": "-89.98710155519882"
    }
  },
  {
    "service_request": "2023-1035292",
    "request_type": "Trash/Recycling",
    "request_reason": "Request a Large Item Pick Up",
    "date_created": "2023-09-14T14:37:06.000",
    "date_modified": "2023-09-14T14:37:06.000",
    "request_status": "Pending",
    "responsible_agency": "Department of Sanitation",
    "final_address": "8020 Oneida St",
    "address_councildis": "E",
    "status": "Assigned to Contractor",
    "contractor": "Waste Pro",
    "rowid": "1035292",
    "final_x": "3713073.40158",
    "final_y": "569141.982246",
    "longitude": "-89.96695735042924",
    "latitude": "30.057945145893754",
    "geocoded_column": {
      "latitude": "30.057945145893754",
      "longitude": "-89.96695735042924"
    }
  },
  {
    "service_request": "2023-1035291",
    "request_type": "Roads/Drainage",
    "request_reason": "Pothole",
    "date_created": "2023-09-14T14:36:18.000",
    "date_modified": "2023-09-14T14:36:38.000",
    "case_close_date": "2023-09-14T09:36:38.000",
    "request_status": "Closed",
    "responsible_agency": "Department of Public Works",
    "final_address": "329 Tricou St",
    "address_councildis": "E",
    "status": "Resolved",
    "rowid": "1035291",
    "final_x": "3699190.44746",
    "final_y": "530627.843778",
    "longitude": "-90.01224308222449",
    "latitude": "29.952493588065646",
    "geocoded_column": {
      "latitude": "29.952493588065646",
      "longitude": "-90.01224308222449"
    }
  },
  {
    "service_request": "2023-1035290",
    "request_type": "Trash/Recycling",
    "request_reason": "Request a Large Item Pick Up",
    "date_created": "2023-09-14T14:35:49.000",
    "date_modified": "2023-09-14T14:35:50.000",
    "request_status": "Pending",
    "responsible_agency": "Department of Sanitation",
    "final_address": "103 Finland Pl",
    "address_councildis": "C",
    "status": "Assigned to Contractor",
    "contractor": "Richards Disposal",
    "rowid": "1035290",
    "final_x": "3705787.26743",
    "final_y": "520688.797497",
    "longitude": "-89.99178093072136",
    "latitude": "29.924953944947312",
    "geocoded_column": {
      "latitude": "29.924953944947312",
      "longitude": "-89.99178093072136"
    }
  },
  {
    "service_request": "2023-1035289",
    "request_type": "Roads/Drainage",
    "request_reason": "Pothole",
    "date_created": "2023-09-14T14:35:22.000",
    "date_modified": "2023-09-14T14:35:46.000",
    "case_close_date": "2023-09-14T09:35:46.000",
    "request_status": "Closed",
    "responsible_agency": "Department of Public Works",
    "final_address": "823 Tricou St",
    "address_councildis": "E",
    "status": "Resolved",
    "rowid": "1035289",
    "final_x": "3699793.86525",
    "final_y": "532119.563267",
    "longitude": "-90.01028338954386",
    "latitude": "29.95657614468134",
    "geocoded_column": {
      "latitude": "29.95657614468134",
      "longitude": "-90.01028338954386"
    }
  },
  {
    "service_request": "2023-1035288",
    "request_type": "Roads/Drainage",
    "request_reason": "Pothole",
    "date_created": "2023-09-14T14:34:24.000",
    "date_modified": "2023-09-14T14:34:44.000",
    "case_close_date": "2023-09-14T09:34:44.000",
    "request_status": "Closed",
    "responsible_agency": "Department of Public Works",
    "final_address": "1931 Tricou St",
    "address_councildis": "E",
    "status": "Resolved",
    "rowid": "1035288",
    "final_x": "3701425.70538",
    "final_y": "536118.848455",
    "longitude": "-90.00498420739169",
    "latitude": "29.96752083418976",
    "geocoded_column": {
      "latitude": "29.96752083418976",
      "longitude": "-90.00498420739169"
    }
  },
  {
    "service_request": "2023-1035287",
    "request_type": "Traffic Signals/Signs/Striping/Streetlights",
    "request_reason": "Street Light Outage/Malfunction",
    "date_created": "2023-09-14T14:34:23.000",
    "date_modified": "2023-09-14T14:34:23.000",
    "request_status": "Pending",
    "responsible_agency": "Department of Public Works",
    "final_address": "103 Finland Pl",
    "address_councildis": "C",
    "status": "Assigned to Contractor",
    "contractor": "Legacy Professional Services",
    "rowid": "1035287",
    "final_x": "3705787.26743",
    "final_y": "520688.797497",
    "longitude": "-89.99178093072136",
    "latitude": "29.924953944947312",
    "geocoded_column": {
      "latitude": "29.924953944947312",
      "longitude": "-89.99178093072136"
    }
  },
  {
    "service_request": "2023-1035286",
    "request_type": "Trash/Recycling",
    "request_reason": "Order Recycling Cart",
    "date_created": "2023-09-14T14:32:37.000",
    "date_modified": "2023-09-14T14:32:38.000",
    "request_status": "Pending",
    "responsible_agency": "Department of Sanitation",
    "final_address": "103 Finland Pl",
    "address_councildis": "C",
    "status": "Pending",
    "rowid": "1035286",
    "final_x": "3705787.26743",
    "final_y": "520688.797497",
    "longitude": "-89.99178093072136",
    "latitude": "29.924953944947312",
    "geocoded_column": {
      "latitude": "29.924953944947312",
      "longitude": "-89.99178093072136"
    }
  },
  {
    "service_request": "2023-1035285",
    "request_type": "Roads/Drainage",
    "request_reason": "Pothole",
    "date_created": "2023-09-14T14:32:16.000",
    "date_modified": "2023-09-14T14:32:39.000",
    "case_close_date": "2023-09-14T09:32:39.000",
    "request_status": "Closed",
    "responsible_agency": "Department of Public Works",
    "final_address": "1002 Delery St",
    "address_councildis": "E",
    "status": "Resolved",
    "rowid": "1035285",
    "final_x": "3700239.02404",
    "final_y": "532581.428676",
    "longitude": "-90.00886087456489",
    "latitude": "29.957831969362832",
    "geocoded_column": {
      "latitude": "29.957831969362832",
      "longitude": "-90.00886087456489"
    }
  },
  {
    "service_request": "2023-1035284",
    "request_type": "Roads/Drainage",
    "request_reason": "Pothole",
    "date_created": "2023-09-14T14:30:53.000",
    "date_modified": "2023-09-14T14:31:24.000",
    "case_close_date": "2023-09-14T09:31:24.000",
    "request_status": "Closed",
    "responsible_agency": "Department of Public Works",
    "final_address": "6320 N Rampart St",
    "address_councildis": "E",
    "status": "Resolved",
    "rowid": "1035284",
    "final_x": "3700111.46602",
    "final_y": "532527.37498",
    "longitude": "-90.00926563602006",
    "latitude": "29.957687394516938",
    "geocoded_column": {
      "latitude": "29.957687394516938",
      "longitude": "-90.00926563602006"
    }
  },
  {
    "service_request": "2023-1035283",
    "request_type": "Trash/Recycling",
    "request_reason": "Replace Trash Cart",
    "date_created": "2023-09-14T14:26:44.000",
    "date_modified": "2023-09-14T14:26:45.000",
    "request_status": "Pending",
    "responsible_agency": "Department of Sanitation",
    "final_address": "7536 Briarwood Dr",
    "address_councildis": "E",
    "status": "Assigned to Contractor",
    "contractor": "Waste Pro",
    "rowid": "1035283",
    "final_x": "3717763.82367",
    "final_y": "570502.793383",
    "longitude": "-89.95207979732272",
    "latitude": "30.06153218667181",
    "geocoded_column": {
      "latitude": "30.06153218667181",
      "longitude": "-89.95207979732272"
    }
  },
  {
    "service_request": "2023-1035282",
    "request_type": "Roads/Drainage",
    "request_reason": "Pothole",
    "date_created": "2023-09-14T14:25:56.000",
    "date_modified": "2023-09-14T14:26:15.000",
    "case_close_date": "2023-09-14T09:26:15.000",
    "request_status": "Closed",
    "responsible_agency": "Department of Public Works",
    "final_address": "2700 Mandeville St",
    "address_councildis": "D",
    "status": "Resolved",
    "rowid": "1035282",
    "final_x": "3685182.3222",
    "final_y": "542655.261901",
    "longitude": "-90.0560509502771",
    "latitude": "29.986001458669477",
    "geocoded_column": {
      "latitude": "29.986001458669477",
      "longitude": "-90.0560509502771"
    }
  },
  {
    "service_request": "2023-1035281",
    "request_type": "Roads/Drainage",
    "request_reason": "Pothole",
    "date_created": "2023-09-14T14:24:48.000",
    "date_modified": "2023-09-14T14:25:25.000",
    "case_close_date": "2023-09-14T09:25:25.000",
    "request_status": "Closed",
    "responsible_agency": "Department of Public Works",
    "final_address": "2800 BLK Mandeville St",
    "address_councildis": "D",
    "status": "Resolved",
    "rowid": "1035281",
    "final_x": "3685229.12262",
    "final_y": "543178.649979",
    "longitude": "-90.05588469594043",
    "latitude": "29.98743915574579",
    "geocoded_column": {
      "latitude": "29.98743915574579",
      "longitude": "-90.05588469594043"
    }
  },
  {
    "service_request": "2023-1035280",
    "request_type": "Roads/Drainage",
    "request_reason": "Pothole",
    "date_created": "2023-09-14T14:23:42.000",
    "date_modified": "2023-09-14T14:24:02.000",
    "case_close_date": "2023-09-14T09:24:02.000",
    "request_status": "Closed",
    "responsible_agency": "Department of Public Works",
    "final_address": "2843 Marigny St",
    "address_councildis": "D",
    "status": "Resolved",
    "rowid": "1035280",
    "final_x": "3684900.72898",
    "final_y": "543305.830222",
    "longitude": "-90.05691750006373",
    "latitude": "29.987798919012562",
    "geocoded_column": {
      "latitude": "29.987798919012562",
      "longitude": "-90.05691750006373"
    }
  },
  {
    "service_request": "2023-1035279",
    "request_type": "Roads/Drainage",
    "request_reason": "Pothole",
    "date_created": "2023-09-14T14:22:22.000",
    "date_modified": "2023-09-14T14:22:43.000",
    "case_close_date": "2023-09-14T09:22:43.000",
    "request_status": "Closed",
    "responsible_agency": "Department of Public Works",
    "final_address": "2615 Almonaster Ave",
    "address_councildis": "D",
    "status": "Resolved",
    "rowid": "1035279",
    "final_x": "3688638.78019",
    "final_y": "542224.195661",
    "longitude": "-90.04514870190049",
    "latitude": "29.984709784835058",
    "geocoded_column": {
      "latitude": "29.984709784835058",
      "longitude": "-90.04514870190049"
    }
  },
  {
    "service_request": "2023-1035278",
    "request_type": "Trash/Recycling",
    "request_reason": "MIssed Recycling Pick-Up",
    "date_created": "2023-09-14T14:20:52.000",
    "date_modified": "2023-09-14T14:20:53.000",
    "request_status": "Pending",
    "responsible_agency": "Department of Sanitation",
    "final_address": "1822 Industry St",
    "address_councildis": "D",
    "status": "Assigned to Contractor",
    "contractor": "IV Waste",
    "rowid": "1035278",
    "final_x": "3681704.7124",
    "final_y": "542661.523085",
    "longitude": "-90.0670351206135",
    "latitude": "29.986124807500516",
    "geocoded_column": {
      "latitude": "29.986124807500516",
      "longitude": "-90.0670351206135"
    }
  },
  {
    "service_request": "2023-1035277",
    "request_type": "Roads/Drainage",
    "request_reason": "Road Shoulder Repair",
    "date_created": "2023-09-14T14:20:40.000",
    "date_modified": "2023-09-14T14:21:03.000",
    "case_close_date": "2023-09-14T09:21:03.000",
    "request_status": "Closed",
    "responsible_agency": "Department of Public Works",
    "final_address": "5700 BLK Vicksburg St",
    "address_councildis": "A",
    "status": "Resolved",
    "rowid": "1035277",
    "final_x": "3668705.61564",
    "final_y": "545500.366464",
    "longitude": "-90.1079984294209",
    "latitude": "29.994319255843447",
    "geocoded_column": {
      "latitude": "29.994319255843447",
      "longitude": "-90.1079984294209"
    }
  },
  {
    "service_request": "2023-1035276",
    "request_type": "Roads/Drainage",
    "request_reason": "Road Shoulder Repair",
    "date_created": "2023-09-14T14:17:19.000",
    "date_modified": "2023-09-14T14:17:53.000",
    "case_close_date": "2023-09-14T09:17:53.000",
    "request_status": "Closed",
    "responsible_agency": "Department of Public Works",
    "final_address": "6100 BLK Milne Blvd",
    "address_councildis": "A",
    "status": "Resolved",
    "rowid": "1035276",
    "final_x": "3667135.66668",
    "final_y": "548824.001877",
    "longitude": "-90.112845880958",
    "latitude": "30.003504177079293",
    "geocoded_column": {
      "latitude": "30.003504177079293",
      "longitude": "-90.112845880958"
    }
  },
  {
    "service_request": "2023-1035275",
    "request_type": "Trash/Recycling",
    "request_reason": "MIssed Recycling Pick-Up",
    "date_created": "2023-09-14T14:16:49.000",
    "date_modified": "2023-09-14T14:16:50.000",
    "request_status": "Pending",
    "responsible_agency": "Department of Sanitation",
    "final_address": "1820 Industry St",
    "address_councildis": "D",
    "status": "Assigned to Contractor",
    "contractor": "IV Waste",
    "rowid": "1035275",
    "final_x": "3681692.0918",
    "final_y": "542659.922253",
    "longitude": "-90.06707504000629",
    "latitude": "29.986120789272423",
    "geocoded_column": {
      "latitude": "29.986120789272423",
      "longitude": "-90.06707504000629"
    }
  },
  {
    "service_request": "2023-1035274",
    "request_type": "Trash/Recycling",
    "request_reason": "Missed Trash Pick-Up",
    "date_created": "2023-09-14T14:16:42.000",
    "date_modified": "2023-09-14T15:18:40.000",
    "case_close_date": "2023-09-14T10:18:40.000",
    "request_status": "Closed",
    "responsible_agency": "Department of Sanitation",
    "final_address": "1811 St Roch Ave",
    "address_councildis": "D",
    "status": "Invalid Request",
    "contractor": "IV Waste",
    "contractor_action": "Invalid Pick-Up",
    "rowid": "1035274",
    "final_x": "3686484.61775",
    "final_y": "539126.349194",
    "longitude": "-90.05206216026383",
    "latitude": "29.976258215249334",
    "geocoded_column": {
      "latitude": "29.976258215249334",
      "longitude": "-90.05206216026383"
    }
  },
  {
    "service_request": "2023-1035273",
    "request_type": "Roads/Drainage",
    "request_reason": "Pothole",
    "date_created": "2023-09-14T14:10:42.000",
    "date_modified": "2023-09-14T14:11:33.000",
    "case_close_date": "2023-09-14T09:11:33.000",
    "request_status": "Closed",
    "responsible_agency": "Department of Public Works",
    "final_address": "2237 Piety St",
    "address_councildis": "D",
    "status": "Resolved",
    "rowid": "1035273",
    "final_x": "3690996.0568",
    "final_y": "540228.691147",
    "longitude": "-90.03777438328643",
    "latitude": "29.979149781492705",
    "geocoded_column": {
      "latitude": "29.979149781492705",
      "longitude": "-90.03777438328643"
    }
  },
  {
    "service_request": "2023-1035272",
    "request_type": "EMS",
    "request_reason": "EMS Lost & Found",
    "date_created": "2023-09-14T14:10:16.000",
    "date_modified": "2023-09-14T14:10:17.000",
    "request_status": "Pending",
    "responsible_agency": "Emergency Medical Services",
    "status": "Pending",
    "rowid": "1035272",
    "longitude": "0.0",
    "latitude": "0.0",
    "geocoded_column": {
      "latitude": "0.0",
      "longitude": "0.0"
    }
  },
  {
    "service_request": "2023-1035271",
    "request_type": "Trash/Recycling",
    "request_reason": "Replace Recycling Cart",
    "date_created": "2023-09-14T14:08:57.000",
    "date_modified": "2023-09-14T14:08:57.000",
    "request_status": "Pending",
    "responsible_agency": "Department of Sanitation",
    "final_address": "5203 Pitt St",
    "address_councildis": "B",
    "status": "Pending",
    "rowid": "1035271",
    "final_x": "3668056.60557",
    "final_y": "520488.290616",
    "longitude": "-90.11089149314375",
    "latitude": "29.925563366387376",
    "geocoded_column": {
      "latitude": "29.925563366387376",
      "longitude": "-90.11089149314375"
    }
  },
  {
    "service_request": "2023-1035270",
    "request_type": "Trash/Recycling",
    "request_reason": "Illegal Dumping",
    "date_created": "2023-09-14T14:08:44.000",
    "date_modified": "2023-09-14T14:12:09.000",
    "request_status": "Pending",
    "responsible_agency": "Department of Code Enforcement",
    "final_address": "7815 Bass St",
    "address_councildis": "E",
    "rowid": "1035270",
    "final_x": "3720002.25586",
    "final_y": "573827.471146",
    "longitude": "-89.94487686390335",
    "latitude": "30.070599269575496",
    "geocoded_column": {
      "latitude": "30.070599269575496",
      "longitude": "-89.94487686390335"
    }
  },
  {
    "service_request": "2023-1035269",
    "request_type": "Roads/Drainage",
    "request_reason": "Pothole",
    "date_created": "2023-09-14T14:06:20.000",
    "date_modified": "2023-09-14T14:06:39.000",
    "case_close_date": "2023-09-14T09:06:39.000",
    "request_status": "Closed",
    "responsible_agency": "Department of Public Works",
    "final_address": "1815 Piety St",
    "address_councildis": "D",
    "status": "Resolved",
    "rowid": "1035269",
    "final_x": "3690560.84374",
    "final_y": "538537.394121",
    "longitude": "-90.03920928090339",
    "latitude": "29.974512838568657",
    "geocoded_column": {
      "latitude": "29.974512838568657",
      "longitude": "-90.03920928090339"
    }
  },
  {
    "service_request": "2023-1035268",
    "request_type": "Property Maintenance",
    "request_reason": "Property Maintenance",
    "date_created": "2023-09-14T14:05:17.000",
    "date_modified": "2023-09-14T14:05:18.000",
    "request_status": "Pending",
    "responsible_agency": "Department of Code Enforcement",
    "final_address": "1935 Annette St",
    "address_councildis": "D",
    "status": "Pending",
    "rowid": "1035268",
    "final_x": "3682922.71861",
    "final_y": "539383.789706",
    "longitude": "-90.06330267090995",
    "latitude": "29.977075121854725",
    "geocoded_column": {
      "latitude": "29.977075121854725",
      "longitude": "-90.06330267090995"
    }
  },
  {
    "service_request": "2023-1035267",
    "request_type": "Trash/Recycling",
    "request_reason": "Request a Large Item Pick Up",
    "date_created": "2023-09-14T13:57:03.000",
    "date_modified": "2023-09-14T13:57:04.000",
    "request_status": "Pending",
    "responsible_agency": "Department of Sanitation",
    "final_address": "7710 Mullet St",
    "address_councildis": "E",
    "status": "Assigned to Contractor",
    "contractor": "Waste Pro",
    "rowid": "1035267",
    "final_x": "3698920.99223",
    "final_y": "560479.756318",
    "longitude": "-90.01200695098497",
    "latitude": "30.034583859367398",
    "geocoded_column": {
      "latitude": "30.034583859367398",
      "longitude": "-90.01200695098497"
    }
  },
  {
    "service_request": "2023-1035266",
    "request_type": "Roads/Drainage",
    "request_reason": "Accessibility Ramps, Curbs and Sidewalk Repair",
    "date_created": "2023-09-14T13:57:02.000",
    "date_modified": "2023-09-14T13:57:02.000",
    "request_status": "Pending",
    "responsible_agency": "Department of Public Works",
    "final_address": "3611 Rue Nichole",
    "address_councildis": "C",
    "status": "Pending",
    "rowid": "1035266",
    "final_x": "3703936.42058",
    "final_y": "517311.340725",
    "longitude": "-89.99774767545854",
    "latitude": "29.915726560347572",
    "geocoded_column": {
      "latitude": "29.915726560347572",
      "longitude": "-89.99774767545854"
    }
  },
  {
    "service_request": "2023-1035263",
    "request_type": "Traffic Signals/Signs/Striping/Streetlights",
    "request_reason": "Traffic Sign Missing/Damaged",
    "date_created": "2023-09-14T13:56:27.000",
    "date_modified": "2023-09-14T13:56:27.000",
    "request_status": "Pending",
    "responsible_agency": "Department of Public Works",
    "final_address": "6411 Milne Blvd",
    "address_councildis": "A",
    "status": "Pending",
    "rowid": "1035263",
    "final_x": "3667429.61575",
    "final_y": "550326.433428",
    "longitude": "-90.11186664870782",
    "latitude": "30.0076267289975",
    "geocoded_column": {
      "latitude": "30.0076267289975",
      "longitude": "-90.11186664870782"
    }
  },
  {
    "service_request": "2023-1035262",
    "request_type": "Parks & Parkways",
    "request_reason": "Request Tree Service (Right of Way/Public Property)",
    "date_created": "2023-09-14T13:55:31.000",
    "date_modified": "2023-09-14T13:55:31.000",
    "request_status": "Pending",
    "responsible_agency": "Department of Parks & Parkway",
    "final_address": "6520 Congress Dr",
    "address_councildis": "D",
    "status": "Pending",
    "rowid": "1035262",
    "final_x": "3690557.38883",
    "final_y": "557767.340891",
    "longitude": "-90.03853391240037",
    "latitude": "30.027388277841048",
    "geocoded_column": {
      "latitude": "30.027388277841048",
      "longitude": "-90.03853391240037"
    }
  },
  {
    "service_request": "2023-1035261",
    "request_type": "Trash/Recycling",
    "request_reason": "Missed Trash Pick-Up",
    "date_created": "2023-09-14T13:52:50.000",
    "date_modified": "2023-09-14T15:24:57.000",
    "case_close_date": "2023-09-14T10:24:57.000",
    "request_status": "Closed",
    "responsible_agency": "Department of Sanitation",
    "final_address": "5445 Bellaire Dr",
    "address_councildis": "A",
    "status": "Invalid Request",
    "contractor": "IV Waste",
    "contractor_action": "Invalid Pick-Up",
    "rowid": "1035261",
    "final_x": "3664100.25671",
    "final_y": "543938.41595",
    "longitude": "-90.12259835387134",
    "latitude": "29.99015903488623",
    "geocoded_column": {
      "latitude": "29.99015903488623",
      "longitude": "-90.12259835387134"
    }
  },
  {
    "service_request": "2023-1035260",
    "request_type": "Roads/Drainage",
    "request_reason": "Pothole",
    "date_created": "2023-09-14T13:52:46.000",
    "date_modified": "2023-09-14T13:53:51.000",
    "case_close_date": "2023-09-14T08:53:51.000",
    "request_status": "Closed",
    "responsible_agency": "Department of Public Works",
    "final_address": "1708 Piety St",
    "address_councildis": "D",
    "status": "Resolved",
    "rowid": "1035260",
    "final_x": "3690384.39747",
    "final_y": "538148.551369",
    "longitude": "-90.03978040265999",
    "latitude": "29.973449136918724",
    "geocoded_column": {
      "latitude": "29.973449136918724",
      "longitude": "-90.03978040265999"
    }
  },
  {
    "service_request": "2023-1035259",
    "request_type": "Roads/Drainage",
    "request_reason": "Pothole",
    "date_created": "2023-09-14T13:51:55.000",
    "date_modified": "2023-09-14T13:52:19.000",
    "case_close_date": "2023-09-14T08:52:19.000",
    "request_status": "Closed",
    "responsible_agency": "Department of Public Works",
    "final_address": "1634 Piety St",
    "address_councildis": "D",
    "status": "Resolved",
    "rowid": "1035259",
    "final_x": "3690341.91888",
    "final_y": "537978.605257",
    "longitude": "-90.03992061691812",
    "latitude": "29.97298316370079",
    "geocoded_column": {
      "latitude": "29.97298316370079",
      "longitude": "-90.03992061691812"
    }
  },
  {
    "service_request": "2023-1035258",
    "request_type": "Roads/Drainage",
    "request_reason": "WaterMain Break",
    "date_created": "2023-09-14T13:51:32.000",
    "date_modified": "2023-09-14T13:51:32.000",
    "request_status": "Pending",
    "responsible_agency": "Department of Public Works",
    "final_address": "HAYNE BLVD & CONGRESS DR",
    "address_councildis": "D",
    "status": "Pending",
    "rowid": "1035258",
    "final_x": "3690423.8",
    "final_y": "558659.28",
    "longitude": "-90.03892420159148",
    "latitude": "30.029844924240702",
    "geocoded_column": {
      "latitude": "30.029844924240702",
      "longitude": "-90.03892420159148"
    }
  },
  {
    "service_request": "2023-1035257",
    "request_type": "Traffic Signals/Signs/Striping/Streetlights",
    "request_reason": "Traffic Sign Missing/Damaged",
    "date_created": "2023-09-14T13:51:18.000",
    "date_modified": "2023-09-14T13:51:18.000",
    "request_status": "Pending",
    "responsible_agency": "Department of Public Works",
    "final_address": "6380 Milne Blvd",
    "address_councildis": "A",
    "status": "Pending",
    "rowid": "1035257",
    "final_x": "3667188.02298",
    "final_y": "550181.74946",
    "longitude": "-90.11263478274454",
    "latitude": "30.00723597765564",
    "geocoded_column": {
      "latitude": "30.00723597765564",
      "longitude": "-90.11263478274454"
    }
  },
  {
    "service_request": "2023-1035256",
    "request_type": "Traffic Signals/Signs/Striping/Streetlights",
    "request_reason": "Street Name Sign Damaged or Missing",
    "date_created": "2023-09-14T13:48:33.000",
    "date_modified": "2023-09-14T13:48:33.000",
    "request_status": "Pending",
    "responsible_agency": "Department of Public Works",
    "final_address": "6341 Milne Blvd",
    "address_councildis": "A",
    "status": "Pending",
    "rowid": "1035256",
    "final_x": "3667384.3177",
    "final_y": "549856.797332",
    "longitude": "-90.11202557329219",
    "latitude": "30.006336720977977",
    "geocoded_column": {
      "latitude": "30.006336720977977",
      "longitude": "-90.11202557329219"
    }
  },
  {
    "service_request": "2023-1035255",
    "request_type": "Trash/Recycling",
    "request_reason": "Illegal Dumping",
    "date_created": "2023-09-14T13:47:38.000",
    "date_modified": "2023-09-14T13:47:38.000",
    "request_status": "Pending",
    "responsible_agency": "Department of Sanitation",
    "final_address": "3111 Cleveland Ave",
    "address_councildis": "B",
    "status": "Pending",
    "rowid": "1035255",
    "final_x": "3673791.22126",
    "final_y": "535861.845767",
    "longitude": "-90.09226341417832",
    "latitude": "29.96766610937116",
    "geocoded_column": {
      "latitude": "29.96766610937116",
      "longitude": "-90.09226341417832"
    }
  },
  {
    "service_request": "2023-1035254",
    "request_type": "Roads/Drainage",
    "request_reason": "Alley Way",
    "date_created": "2023-09-14T13:47:14.000",
    "date_modified": "2023-09-14T13:47:33.000",
    "case_close_date": "2023-09-14T08:47:33.000",
    "request_status": "Closed",
    "responsible_agency": "Department of Public Works",
    "final_address": "5700 BLK Memphis St",
    "address_councildis": "A",
    "status": "Resolved",
    "rowid": "1035254",
    "final_x": "3669025.21441",
    "final_y": "545485.8327",
    "longitude": "-90.10698934712242",
    "latitude": "29.99426989160626",
    "geocoded_column": {
      "latitude": "29.99426989160626",
      "longitude": "-90.10698934712242"
    }
  },
  {
    "service_request": "2023-1035253",
    "request_type": "Roads/Drainage",
    "request_reason": "Alley Way",
    "date_created": "2023-09-14T13:46:16.000",
    "date_modified": "2023-09-14T13:46:36.000",
    "case_close_date": "2023-09-14T08:46:36.000",
    "request_status": "Closed",
    "responsible_agency": "Department of Public Works",
    "final_address": "6800 BLK Argonne Blvd",
    "address_councildis": "A",
    "status": "Resolved",
    "rowid": "1035253",
    "final_x": "3670698.84295",
    "final_y": "552846.778608",
    "longitude": "-90.10145258073942",
    "latitude": "30.0144605590517",
    "geocoded_column": {
      "latitude": "30.0144605590517",
      "longitude": "-90.10145258073942"
    }
  },
  {
    "service_request": "2023-1035252",
    "request_type": "Trash/Recycling",
    "request_reason": "Illegal Dumping",
    "date_created": "2023-09-14T13:43:25.000",
    "date_modified": "2023-09-14T13:44:29.000",
    "request_status": "Pending",
    "responsible_agency": "Department of Code Enforcement",
    "final_address": "1483 Harrison Ave",
    "address_councildis": "D",
    "status": "Pending",
    "rowid": "1035252",
    "final_x": "3678676.55822",
    "final_y": "547707.502354",
    "longitude": "-90.07642504610469",
    "latitude": "30.00009114483491",
    "geocoded_column": {
      "latitude": "30.00009114483491",
      "longitude": "-90.07642504610469"
    }
  },
  {
    "service_request": "2023-1035250",
    "request_type": "Parks & Parkways",
    "request_reason": "Request Tree Service (Right of Way/Public Property)",
    "date_created": "2023-09-14T13:37:37.000",
    "date_modified": "2023-09-14T13:56:35.000",
    "case_close_date": "2023-09-14T08:56:35.000",
    "request_status": "Closed",
    "responsible_agency": "Department of Parks & Parkway",
    "final_address": "6760 General Haig St",
    "address_councildis": "A",
    "status": "Duplicate Request",
    "rowid": "1035250",
    "final_x": "3670903.34075",
    "final_y": "552322.489558",
    "longitude": "-90.10082428485133",
    "latitude": "30.013012903033637",
    "geocoded_column": {
      "latitude": "30.013012903033637",
      "longitude": "-90.10082428485133"
    }
  },
  {
    "service_request": "2023-1035249",
    "request_type": "Trash/Recycling",
    "request_reason": "Replace Trash Cart",
    "date_created": "2023-09-14T13:34:08.000",
    "date_modified": "2023-09-14T13:34:09.000",
    "request_status": "Pending",
    "responsible_agency": "Department of Sanitation",
    "final_address": "1245 Annunciation St",
    "address_councildis": "B",
    "status": "Assigned to Contractor",
    "contractor": "Richards Disposal",
    "rowid": "1035249",
    "final_x": "3681297.67445",
    "final_y": "525089.937405",
    "longitude": "-90.06893323883664",
    "latitude": "29.937821309937412",
    "geocoded_column": {
      "latitude": "29.937821309937412",
      "longitude": "-90.06893323883664"
    }
  },
  {
    "service_request": "2023-1035248",
    "request_type": "Traffic Signals/Signs/Striping/Streetlights",
    "request_reason": "Street Light Outage/Malfunction",
    "date_created": "2023-09-14T13:34:03.000",
    "date_modified": "2023-09-14T13:34:04.000",
    "request_status": "Pending",
    "responsible_agency": "Department of Public Works",
    "final_address": "6760 General Haig St",
    "address_councildis": "A",
    "status": "Assigned to Contractor",
    "contractor": "Legacy Professional Services",
    "rowid": "1035248",
    "final_x": "3670903.34075",
    "final_y": "552322.489558",
    "longitude": "-90.10082428485133",
    "latitude": "30.013012903033637",
    "geocoded_column": {
      "latitude": "30.013012903033637",
      "longitude": "-90.10082428485133"
    }
  },
  {
    "service_request": "2023-1035247",
    "request_type": "Trash/Recycling",
    "request_reason": "Repair Trash Cart",
    "date_created": "2023-09-14T13:27:58.000",
    "date_modified": "2023-09-14T13:27:59.000",
    "request_status": "Pending",
    "responsible_agency": "Department of Sanitation",
    "final_address": "2710 Dublin St",
    "address_councildis": "A",
    "status": "Assigned to Contractor",
    "contractor": "Richards Disposal",
    "rowid": "1035247",
    "final_x": "3665376.84794",
    "final_y": "532713.9465",
    "longitude": "-90.11894168453877",
    "latitude": "29.95925833456378",
    "geocoded_column": {
      "latitude": "29.95925833456378",
      "longitude": "-90.11894168453877"
    }
  },