[
  {
    "service_request": "2025-1245547",
    "request_type": "General Services",
    "request_reason": "General Service Request",
    "date_created": "2025-12-14T22:53:01.000",
    "date_modified": "2025-12-14T22:53:02.000",
    "request_status": "Pending",
    "responsible_agency": "Orleans Parish Communication District",
    "final_address": "7500 Scottwood Dr",
    "address_councildis": "E",
    "status": "Pending",
    "rowid": "1245547",
    "final_x": "3717688.27673",
    "final_y": "570038.038503",
    "longitude": "-89.95233630395649",
    "latitude": "30.060256807824853",
    "geocoded_column": {
      "latitude": "30.060256807824853",
      "longitude": "-89.95233630395649"
    }
  },
  {
    "service_request": "2025-1245546",
    "request_type": "Trash/Recycling",
    "request_reason": "Request a Large Item Pick Up",
    "date_created": "2025-12-14T22:40:47.000",
    "date_modified": "2025-12-14T22:40:48.000",
    "request_status": "Pending",
    "responsible_agency": "Department of Sanitation",
    "final_address": "4228 Baudin St",
    "address_councildis": "A",
    "status": "Assigned to Contractor",
    "contractor": "IV Waste",
    "rowid": "1245546",
    "final_x": "3669406.98055",
    "final_y": "537565.866312",
    "longitude": "-90.1060513583263",
    "latitude": "29.972481437638073",
    "geocoded_column": {
      "latitude": "29.972481437638073",
      "longitude": "-90.1060513583263"
    }
  },
  {
    "service_request": "2025-1245545",
    "request_type": "Health Related Request",
    "request_reason": "Noise Ordinance Complaint",
    "date_created": "2025-12-14T22:28:09.000",
    "date_modified": "2025-12-14T22:28:11.000",
    "request_status": "Pending",
    "responsible_agency": "Health Department",
    "final_address": "1906 Magazine St, New Orleans, Louisiana, 70130",
    "address_councildis": "B",
    "status": "Pending",
    "rowid": "1245545",
    "final_x": "3679728.28987",
    "final_y": "522728.293498",
    "longitude": "-90.07396985782103",
    "latitude": "29.931375092629494",
    "geocoded_column": {
      "latitude": "29.931375092629494",
      "longitude": "-90.07396985782103"
    }
  },
  {
    "service_request": "2025-1245544",
    "request_type": "Health Related Request",
    "request_reason": "Noise Ordinance Complaint",
    "date_created": "2025-12-14T22:19:22.000",
    "date_modified": "2025-12-14T22:19:24.000",
    "request_status": "Pending",
    "responsible_agency": "Health Department",
    "final_address": "1906 Magazine St, New Orleans, Louisiana, 70130",
    "address_councildis": "B",
    "status": "Pending",
    "rowid": "1245544",
    "final_x": "3679728.28987",
    "final_y": "522728.293498",
    "longitude": "-90.07396985782103",
    "latitude": "29.931375092629494",
    "geocoded_column": {
      "latitude": "29.931375092629494",
      "longitude": "-90.07396985782103"
    }
  },
  {
    "service_request": "2025-1245543",
    "request_type": "Health Related Request",
    "request_reason": "Noise Ordinance Complaint",
    "date_created": "2025-12-14T22:16:32.000",
    "date_modified": "2025-12-14T22:16:33.000",
    "request_status": "Pending",
    "responsible_agency": "Health Department",
    "final_address": "1906 Magazine St, New Orleans, Louisiana, 70130",
    "address_councildis": "B",
    "status": "Pending",
    "rowid": "1245543",
    "final_x": "3679728.28987",
    "final_y": "522728.293498",
    "longitude": "-90.07396985782103",
    "latitude": "29.931375092629494",
    "geocoded_column": {
      "latitude": "29.931375092629494",
      "longitude": "-90.07396985782103"
    }
  },
  {
    "service_request": "2025-1245542",
    "request_type": "Health Related Request",
    "request_reason": "Noise Ordinance Complaint",
    "date_created": "2025-12-14T22:10:59.000",
    "date_modified": "2025-12-14T22:11:00.000",
    "request_status": "Pending",
    "responsible_agency": "Health Department",
    "final_address": "1906 Magazine St, New Orleans, Louisiana, 70130",
    "address_councildis": "B",
    "status": "Pending",
    "rowid": "1245542",
    "final_x": "3679728.28987",
    "final_y": "522728.293498",
    "longitude": "-90.07396985782103",
    "latitude": "29.931375092629494",
    "geocoded_column": {
      "latitude": "29.931375092629494",
      "longitude": "-90.07396985782103"
    }
  },
  {
    "service_request": "2025-1245541",
    "request_type": "Abandoned Vehicles",
    "request_reason": "Abandoned/Junk Vehicles",
    "date_created": "2025-12-14T21:41:07.000",
    "date_modified": "2025-12-14T21:41:08.000",
    "request_status": "Pending",
    "responsible_agency": "Department of Public Works",
    "final_address": "100 32Nd St",
    "address_councildis": "A",
    "status": "Pending",
    "rowid": "1245541",
    "final_x": "3666216.12007",
    "final_y": "550637.657428",
    "longitude": "-90.11568999999261",
    "latitude": "30.008517999978153",
    "geocoded_column": {
      "latitude": "30.008517999978153",
      "longitude": "-90.11568999999261"
    }
  },
  {
    "service_request": "2025-1245540",
    "request_type": "Trash/Recycling",
    "request_reason": "Request a Large Item Pick Up",
    "date_created": "2025-12-14T21:17:47.000",
    "date_modified": "2025-12-14T21:17:48.000",
    "request_status": "Pending",
    "responsible_agency": "Department of Sanitation",
    "final_address": "2900 Banks St",
    "address_councildis": "B",
    "status": "Assigned to Contractor",
    "contractor": "IV Waste",
    "rowid": "1245540",
    "final_x": "3673817.75444",
    "final_y": "534673.22855",
    "longitude": "-90.09222027950189",
    "latitude": "29.96439702211562",
    "geocoded_column": {
      "latitude": "29.96439702211562",
      "longitude": "-90.09222027950189"
    }
  },
  {
    "service_request": "2025-1245539",
    "request_type": "Trash/Recycling",
    "request_reason": "Request a Large Item Pick Up",
    "date_created": "2025-12-14T21:12:46.000",
    "date_modified": "2025-12-14T21:12:48.000",
    "request_status": "Pending",
    "responsible_agency": "Department of Sanitation",
    "final_address": "733 Patterson St",
    "address_councildis": "C",
    "status": "Assigned to Contractor",
    "contractor": "IV Waste",
    "rowid": "1245539",
    "final_x": "3687881.32156",
    "final_y": "531403.226563",
    "longitude": "-90.04792459572786",
    "latitude": "29.954979301128315",
    "geocoded_column": {
      "latitude": "29.954979301128315",
      "longitude": "-90.04792459572786"
    }
  },
  {
    "service_request": "2025-1245538",
    "request_type": "Parks & Parkways",
    "request_reason": "Park Maintenance/Clean Up",
    "date_created": "2025-12-14T20:35:51.000",
    "date_modified": "2025-12-14T20:35:53.000",
    "request_status": "Pending",
    "responsible_agency": "Department of Parks & Parkway",
    "final_address": "0 BLK Carriage Ln",
    "address_councildis": "C",
    "status": "Pending",
    "rowid": "1245538",
    "final_x": "3695939.92632",
    "final_y": "519939.617389",
    "longitude": "-90.0228926608212",
    "latitude": "29.923207298588075",
    "geocoded_column": {
      "latitude": "29.923207298588075",
      "longitude": "-90.0228926608212"
    }
  },
  {
    "service_request": "2025-1245537",
    "request_type": "Property Maintenance",
    "request_reason": "Property Maintenance",
    "date_created": "2025-12-14T20:21:00.000",
    "date_modified": "2025-12-14T20:21:01.000",
    "request_status": "Pending",
    "responsible_agency": "Department of Code Enforcement",
    "final_address": "2544 Ursulines Ave",
    "address_councildis": "D",
    "status": "Pending",
    "rowid": "1245537",
    "final_x": "3678110.5099",
    "final_y": "537687.326664",
    "longitude": "-90.07855985830436",
    "latitude": "29.97255621456378",
    "geocoded_column": {
      "latitude": "29.97255621456378",
      "longitude": "-90.07855985830436"
    }
  },
  {
    "service_request": "2025-1245536",
    "request_type": "Trash/Recycling",
    "request_reason": "Request a Large Item Pick Up",
    "date_created": "2025-12-14T20:16:31.000",
    "date_modified": "2025-12-14T20:16:33.000",
    "request_status": "Pending",
    "responsible_agency": "Department of Sanitation",
    "final_address": "0 BLK Bear Creek Dr",
    "address_councildis": "C",
    "status": "Assigned to Contractor",
    "contractor": "IV Waste",
    "rowid": "1245536",
    "final_x": "3718454.79698",
    "final_y": "514946.598503",
    "longitude": "-89.95201268061304",
    "latitude": "29.908751063533877",
    "geocoded_column": {
      "latitude": "29.908751063533877",
      "longitude": "-89.95201268061304"
    }
  },
  {
    "service_request": "2025-1245535",
    "request_type": "General Services",
    "request_reason": "General Service Request",
    "date_created": "2025-12-14T20:08:37.000",
    "date_modified": "2025-12-14T20:08:38.000",
    "request_status": "Pending",
    "responsible_agency": "Orleans Parish Communication District",
    "final_address": "6120 Coliseum St",
    "address_councildis": "A",
    "status": "Pending",
    "rowid": "1245535",
    "final_x": "3664298.97773",
    "final_y": "520357.785976",
    "longitude": "-90.12275757587184",
    "latitude": "29.92531421472985",
    "geocoded_column": {
      "latitude": "29.92531421472985",
      "longitude": "-90.12275757587184"
    }
  },
  {
    "service_request": "2025-1245534",
    "request_type": "Trash/Recycling",
    "request_reason": "Request a Large Item Pick Up",
    "date_created": "2025-12-14T19:46:49.000",
    "date_modified": "2025-12-14T19:46:51.000",
    "request_status": "Pending",
    "responsible_agency": "Department of Sanitation",
    "final_address": "7860 Means Ave",
    "address_councildis": "E",
    "status": "Assigned to Contractor",
    "contractor": "Waste Pro",
    "rowid": "1245534",
    "final_x": "3707652.16299",
    "final_y": "565376.757474",
    "longitude": "-89.98423323458805",
    "latitude": "30.047768933330353",
    "geocoded_column": {
      "latitude": "30.047768933330353",
      "longitude": "-89.98423323458805"
    }
  },
  {
    "service_request": "2025-1245533",
    "request_type": "Streetlights",
    "request_reason": "Streetlight Outage/Malfunction",
    "date_created": "2025-12-14T18:59:55.000",
    "date_modified": "2025-12-14T18:59:57.000",
    "request_status": "Pending",
    "responsible_agency": "Department of Public Works",
    "final_address": "6752 General Diaz St",
    "address_councildis": "A",
    "status": "Pending",
    "rowid": "1245533",
    "final_x": "3669884.57351",
    "final_y": "552388.978518",
    "longitude": "-90.10404079537115",
    "latitude": "30.013225816104487",
    "geocoded_column": {
      "latitude": "30.013225816104487",
      "longitude": "-90.10404079537115"
    }
  },
  {
    "service_request": "2025-1245532",
    "request_type": "Abandoned Vehicles",
    "request_reason": "Abandoned/Junk Vehicles",
    "date_created": "2025-12-14T18:47:05.000",
    "date_modified": "2025-12-14T18:47:07.000",
    "request_status": "Pending",
    "responsible_agency": "Department of Public Works",
    "final_address": "1628 Elizardi Blvd",
    "address_councildis": "C",
    "status": "Pending",
    "rowid": "1245532",
    "final_x": "3694744.33066",
    "final_y": "525108.449085",
    "longitude": "-90.02648059505415",
    "latitude": "29.937457366581793",
    "geocoded_column": {
      "latitude": "29.937457366581793",
      "longitude": "-90.02648059505415"
    }
  },
  {
    "service_request": "2025-1245531",
    "request_type": "General Services",
    "request_reason": "General Service Request",
    "date_created": "2025-12-14T18:44:59.000",
    "date_modified": "2025-12-14T18:45:01.000",
    "request_status": "Pending",
    "responsible_agency": "Orleans Parish Communication District",
    "final_address": "1717 Governor Nicholls St",
    "address_councildis": "D",
    "status": "Pending",
    "rowid": "1245531",
    "final_x": "3680734.20283",
    "final_y": "536220.357255",
    "longitude": "-90.07032483501789",
    "latitude": "29.968443291879804",
    "geocoded_column": {
      "latitude": "29.968443291879804",
      "longitude": "-90.07032483501789"
    }
  },
  {
    "service_request": "2025-1245530",
    "request_type": "Trash/Recycling",
    "request_reason": "Request a Large Item Pick Up",
    "date_created": "2025-12-14T18:23:38.000",
    "date_modified": "2025-12-14T18:23:40.000",
    "request_status": "Pending",
    "responsible_agency": "Department of Sanitation",
    "final_address": "2347 Martin Luther King, Jr. Blvd",
    "address_councildis": "B",
    "status": "Assigned to Contractor",
    "contractor": "IV Waste",
    "rowid": "1245530",
    "final_x": "3676734.24801",
    "final_y": "527186.663487",
    "longitude": "-90.08326813891227",
    "latitude": "29.943724289161807",
    "geocoded_column": {
      "latitude": "29.943724289161807",
      "longitude": "-90.08326813891227"
    }
  },
  {
    "service_request": "2025-1245529",
    "request_type": "Trash/Recycling",
    "request_reason": "Request a Large Item Pick Up",
    "date_created": "2025-12-14T18:15:57.000",
    "date_modified": "2025-12-14T18:16:00.000",
    "request_status": "Pending",
    "responsible_agency": "Department of Sanitation",
    "final_address": "921 Jefferson Ave",
    "address_councildis": "B",
    "status": "Assigned to Contractor",
    "contractor": "IV Waste",
    "rowid": "1245529",
    "final_x": "3666857.88788",
    "final_y": "518934.396471",
    "longitude": "-90.11472765762586",
    "latitude": "29.921325757231923",
    "geocoded_column": {
      "latitude": "29.921325757231923",
      "longitude": "-90.11472765762586"
    }
  },
  {
    "service_request": "2025-1245528",
    "request_type": "Abandoned Vehicles",
    "request_reason": "Abandoned/Junk Vehicles",
    "date_created": "2025-12-14T17:45:03.000",
    "date_modified": "2025-12-14T17:45:04.000",
    "request_status": "Pending",
    "responsible_agency": "Department of Public Works",
    "final_address": "4418 Marais St",
    "address_councildis": "D",
    "status": "Pending",
    "rowid": "1245528",
    "final_x": "3693282.78128",
    "final_y": "535212.192006",
    "longitude": "-90.03073216641008",
    "latitude": "29.965284902022262",
    "geocoded_column": {
      "latitude": "29.965284902022262",
      "longitude": "-90.03073216641008"
    }
  },
  {
    "service_request": "2025-1245527",
    "request_type": "Trash/Recycling",
    "request_reason": "Request a Large Item Pick Up",
    "date_created": "2025-12-14T17:14:33.000",
    "date_modified": "2025-12-14T17:14:34.000",
    "request_status": "Pending",
    "responsible_agency": "Department of Sanitation",
    "final_address": "2200 BLK Burgundy St",
    "address_councildis": "C",
    "status": "Assigned to Contractor",
    "contractor": "IV Waste",
    "rowid": "1245527",
    "final_x": "3685290.5805",
    "final_y": "535602.939737",
    "longitude": "-90.05595733145998",
    "latitude": "29.966606725492138",
    "geocoded_column": {
      "latitude": "29.966606725492138",
      "longitude": "-90.05595733145998"
    }
  },
  {
    "service_request": "2025-1245526",
    "request_type": "Trash/Recycling",
    "request_reason": "Request a Large Item Pick Up",
    "date_created": "2025-12-14T17:07:38.000",
    "date_modified": "2025-12-14T17:07:40.000",
    "request_status": "Pending",
    "responsible_agency": "Department of Sanitation",
    "final_address": "13111 Deauville Ct",
    "address_councildis": "E",
    "status": "Assigned to Contractor",
    "contractor": "Waste Pro",
    "rowid": "1245526",
    "final_x": "3724559.14182",
    "final_y": "560973.258398",
    "longitude": "-89.9309687813321",
    "latitude": "30.035102949584697",
    "geocoded_column": {
      "latitude": "30.035102949584697",
      "longitude": "-89.9309687813321"
    }
  },
  {
    "service_request": "2025-1245525",
    "request_type": "Trash/Recycling",
    "request_reason": "Request a Large Item Pick Up",
    "date_created": "2025-12-14T16:57:07.000",
    "date_modified": "2025-12-14T16:57:09.000",
    "request_status": "Pending",
    "responsible_agency": "Department of Sanitation",
    "final_address": "1206 Touro St",
    "address_councildis": "C",
    "status": "Assigned to Contractor",
    "contractor": "IV Waste",
    "rowid": "1245525",
    "final_x": "3684168.95804",
    "final_y": "536683.043271",
    "longitude": "-90.05946147947584",
    "latitude": "29.96961096968141",
    "geocoded_column": {
      "latitude": "29.96961096968141",
      "longitude": "-90.05946147947584"
    }
  },
  {
    "service_request": "2025-1245524",
    "request_type": "Trash/Recycling",
    "request_reason": "Request a Large Item Pick Up",
    "date_created": "2025-12-14T16:18:52.000",
    "date_modified": "2025-12-14T16:18:54.000",
    "request_status": "Pending",
    "responsible_agency": "Department of Sanitation",
    "final_address": "1510 Sumner St",
    "address_councildis": "C",
    "status": "Assigned to Contractor",
    "contractor": "IV Waste",
    "rowid": "1245524",
    "final_x": "3691060.00483",
    "final_y": "525811.519741",
    "longitude": "-90.03808713392915",
    "latitude": "29.93950559923464",
    "geocoded_column": {
      "latitude": "29.93950559923464",
      "longitude": "-90.03808713392915"
    }
  },
  {
    "service_request": "2025-1245523",
    "request_type": "Trash/Recycling",
    "request_reason": "Replace Trash Cart",
    "date_created": "2025-12-14T15:56:20.000",
    "date_modified": "2025-12-14T15:56:22.000",
    "request_status": "Pending",
    "responsible_agency": "Department of Sanitation",
    "final_address": "3323 Jefferson Ave",
    "address_councildis": "B",
    "status": "Assigned to Contractor",
    "contractor": "IV Waste",
    "rowid": "1245523",
    "final_x": "3668744.55041",
    "final_y": "527476.585087",
    "longitude": "-90.10848404553705",
    "latitude": "29.94475873436549",
    "geocoded_column": {
      "latitude": "29.94475873436549",
      "longitude": "-90.10848404553705"
    }
  },
  {
    "service_request": "2025-1245522",
    "request_type": "Trash/Recycling",
    "request_reason": "Replace Recycling Cart",
    "date_created": "2025-12-14T15:50:10.000",
    "date_modified": "2025-12-14T15:50:11.000",
    "request_status": "Pending",
    "responsible_agency": "Department of Sanitation",
    "final_address": "3603 Delgado Dr",
    "address_councildis": "A",
    "status": "Pending",
    "rowid": "1245522",
    "final_x": "3674516.6004",
    "final_y": "540380.688459",
    "longitude": "-90.08981777451031",
    "latitude": "29.98006976520302",
    "geocoded_column": {
      "latitude": "29.98006976520302",
      "longitude": "-90.08981777451031"
    }
  },
  {
    "service_request": "2025-1245521",
    "request_type": "Roads and Streets",
    "request_reason": "Pothole",
    "date_created": "2025-12-14T15:47:26.000",
    "date_modified": "2025-12-14T15:47:27.000",
    "request_status": "Pending",
    "responsible_agency": "Department of Public Works",
    "final_address": "612 Andrew Higgins Dr HM",
    "address_councildis": "B",
    "status": "Pending",
    "rowid": "1245521",
    "final_x": "3680470.70504",
    "final_y": "526972.044094",
    "longitude": "-90.0714786112888",
    "latitude": "29.9430215432483",
    "geocoded_column": {
      "latitude": "29.9430215432483",
      "longitude": "-90.0714786112888"
    }
  },
  {
    "service_request": "2025-1245520",
    "request_type": "Property Maintenance",
    "request_reason": "Property Maintenance",
    "date_created": "2025-12-14T15:33:07.000",
    "date_modified": "2025-12-14T15:33:09.000",
    "request_status": "Pending",
    "responsible_agency": "Department of Code Enforcement",
    "final_address": "2225 Foucher St",
    "address_councildis": "B",
    "status": "Pending",
    "rowid": "1245520",
    "final_x": "3672754.76334",
    "final_y": "523519.593979",
    "longitude": "-90.09595748924494",
    "latitude": "29.933759817609364",
    "geocoded_column": {
      "latitude": "29.933759817609364",
      "longitude": "-90.09595748924494"
    }
  },
  {
    "service_request": "2025-1245519",
    "request_type": "Trash/Recycling",
    "request_reason": "Dead Animal Pick Up",
    "date_created": "2025-12-14T15:04:32.000",
    "date_modified": "2025-12-14T15:04:34.000",
    "request_status": "Pending",
    "responsible_agency": "Department of Sanitation",
    "final_address": "BUNDY RD & CHEF MENTEUR HWY",
    "address_councildis": "E",
    "status": "Assigned to Contractor",
    "contractor": "Waste Pro",
    "rowid": "1245519",
    "final_x": "3709528.2",
    "final_y": "553799.58",
    "longitude": "-89.97873652435173",
    "latitude": "30.015875401942854",
    "geocoded_column": {
      "latitude": "30.015875401942854",
      "longitude": "-89.97873652435173"
    }
  },
  {
    "service_request": "2025-1245518",
    "request_type": "Trash/Recycling",
    "request_reason": "Missed Trash Pick-Up",
    "date_created": "2025-12-14T15:03:03.000",
    "date_modified": "2025-12-14T15:03:04.000",
    "request_status": "Pending",
    "responsible_agency": "Department of Sanitation",
    "final_address": "7511 Fieldston Rd, New Orleans, Louisiana, 70126",
    "address_councildis": "E",
    "status": "Assigned to Contractor",
    "contractor": "Waste Pro",
    "rowid": "1245518",
    "final_x": "3700682.84522",
    "final_y": "560370.615646",
    "longitude": "-90.00644327240218",
    "latitude": "30.034227783607353",
    "geocoded_column": {
      "latitude": "30.034227783607353",
      "longitude": "-90.00644327240218"
    }
  },
  {
    "service_request": "2025-1245517",
    "request_type": "Trash/Recycling",
    "request_reason": "Request a Large Item Pick Up",
    "date_created": "2025-12-14T15:02:26.000",
    "date_modified": "2025-12-14T15:02:28.000",
    "request_status": "Pending",
    "responsible_agency": "Department of Sanitation",
    "final_address": "8833 Dinkins St",
    "address_councildis": "E",
    "status": "Assigned to Contractor",
    "contractor": "Waste Pro",
    "rowid": "1245517",
    "final_x": "3704576.71409",
    "final_y": "563405.023904",
    "longitude": "-89.99402614482487",
    "latitude": "30.042446653196894",
    "geocoded_column": {
      "latitude": "30.042446653196894",
      "longitude": "-89.99402614482487"
    }
  },
  {
    "service_request": "2025-1245516",
    "request_type": "Trash/Recycling",
    "request_reason": "Request a Large Item Pick Up",
    "date_created": "2025-12-14T14:51:53.000",
    "date_modified": "2025-12-14T14:51:55.000",
    "request_status": "Pending",
    "responsible_agency": "Department of Sanitation",
    "final_address": "4715 Donna Dr",
    "address_councildis": "E",
    "status": "Assigned to Contractor",
    "contractor": "Waste Pro",
    "rowid": "1245516",
    "final_x": "3711081.06917",
    "final_y": "555607.619161",
    "longitude": "-89.97376242222252",
    "latitude": "30.020796234996308",
    "geocoded_column": {
      "latitude": "30.020796234996308",
      "longitude": "-89.97376242222252"
    }
  },
  {
    "service_request": "2025-1245515",
    "request_type": "Trash/Recycling",
    "request_reason": "Request a Large Item Pick Up",
    "date_created": "2025-12-14T14:47:42.000",
    "date_modified": "2025-12-14T14:47:44.000",
    "request_status": "Pending",
    "responsible_agency": "Department of Sanitation",
    "final_address": "4715 Donna Dr",
    "address_councildis": "E",
    "status": "Assigned to Contractor",
    "contractor": "Waste Pro",
    "rowid": "1245515",
    "final_x": "3711081.06917",
    "final_y": "555607.619161",
    "longitude": "-89.97376242222252",
    "latitude": "30.020796234996308",
    "geocoded_column": {
      "latitude": "30.020796234996308",
      "longitude": "-89.97376242222252"
    }
  },
  {
    "service_request": "2025-1245514",
    "request_type": "Trash/Recycling",
    "request_reason": "Request a Large Item Pick Up",
    "date_created": "2025-12-14T14:39:03.000",
    "date_modified": "2025-12-14T14:39:04.000",
    "request_status": "Pending",
    "responsible_agency": "Department of Sanitation",
    "final_address": "3624 Havana St",
    "address_councildis": "D",
    "status": "Assigned to Contractor",
    "contractor": "IV Waste",
    "rowid": "1245514",
    "final_x": "3680729.4013",
    "final_y": "545801.6356",
    "longitude": "-90.07000639241251",
    "latitude": "29.994788611300248",
    "geocoded_column": {
      "latitude": "29.994788611300248",
      "longitude": "-90.07000639241251"
    }
  },
  {
    "service_request": "2025-1245513",
    "request_type": "Trash/Recycling",
    "request_reason": "Order Trash Cart",
    "date_created": "2025-12-14T14:13:15.000",
    "date_modified": "2025-12-14T14:13:18.000",
    "request_status": "Pending",
    "responsible_agency": "Department of Sanitation",
    "final_address": "2553 Elder St",
    "address_councildis": "D",
    "status": "Assigned to Contractor",
    "contractor": "IV Waste",
    "rowid": "1245513",
    "final_x": "3686986.78082",
    "final_y": "545804.454032",
    "longitude": "-90.05024000568503",
    "latitude": "29.99460517977343",
    "geocoded_column": {
      "latitude": "29.99460517977343",
      "longitude": "-90.05024000568503"
    }
  },
  {
    "service_request": "2025-1245512",
    "request_type": "Trash/Recycling",
    "request_reason": "Order Recycling Cart",
    "date_created": "2025-12-14T14:08:10.000",
    "date_modified": "2025-12-14T14:08:11.000",
    "request_status": "Pending",
    "responsible_agency": "Department of Sanitation",
    "final_address": "1038 Soniat St",
    "address_councildis": "B",
    "status": "Pending",
    "rowid": "1245512",
    "final_x": "3668319.92705",
    "final_y": "519275.657463",
    "longitude": "-90.11010112992098",
    "latitude": "29.92222128191854",
    "geocoded_column": {
      "latitude": "29.92222128191854",
      "longitude": "-90.11010112992098"
    }
  },
  {
    "service_request": "2025-1245511",
    "request_type": "Trash/Recycling",
    "request_reason": "Request a Large Item Pick Up",
    "date_created": "2025-12-14T13:33:38.000",
    "date_modified": "2025-12-14T13:33:41.000",
    "request_status": "Pending",
    "responsible_agency": "Department of Sanitation",
    "final_address": "934 Delery St",
    "address_councildis": "E",
    "status": "Assigned to Contractor",
    "contractor": "Waste Pro",
    "rowid": "1245511",
    "final_x": "3700184.84528",
    "final_y": "532452.293571",
    "longitude": "-90.00903666725098",
    "latitude": "29.957478615645986",
    "geocoded_column": {
      "latitude": "29.957478615645986",
      "longitude": "-90.00903666725098"
    }
  },
  {
    "service_request": "2025-1245510",
    "request_type": "General Services",
    "request_reason": "General Service Request",
    "date_created": "2025-12-14T13:26:40.000",
    "date_modified": "2025-12-14T13:26:42.000",
    "request_status": "Pending",
    "responsible_agency": "Orleans Parish Communication District",
    "final_address": "38TH ST & FLEUR DE LIS DR",
    "address_councildis": "A",
    "status": "Pending",
    "rowid": "1245510",
    "final_x": "3665395.9",
    "final_y": "552681.78",
    "longitude": "-90.11821286194981",
    "latitude": "30.014162565412736",
    "geocoded_column": {
      "latitude": "30.014162565412736",
      "longitude": "-90.11821286194981"
    }
  },
  {
    "service_request": "2025-1245509",
    "request_type": "Trash/Recycling",
    "request_reason": "Order Recycling Cart",
    "date_created": "2025-12-14T13:18:45.000",
    "date_modified": "2025-12-14T13:18:47.000",
    "request_status": "Pending",
    "responsible_agency": "Department of Sanitation",
    "final_address": "3135 St Philip St",
    "address_councildis": "A",
    "status": "Pending",
    "rowid": "1245509",
    "final_x": "3675752.26069",
    "final_y": "539164.040906",
    "longitude": "-90.0859568710972",
    "latitude": "29.976687471587557",
    "geocoded_column": {
      "latitude": "29.976687471587557",
      "longitude": "-90.0859568710972"
    }
  },
  {
    "service_request": "2025-1245508",
    "request_type": "Trash/Recycling",
    "request_reason": "Request a Large Item Pick Up",
    "date_created": "2025-12-14T12:57:59.000",
    "date_modified": "2025-12-14T12:58:02.000",
    "request_status": "Pending",
    "responsible_agency": "Department of Sanitation",
    "final_address": "4601 Murano Rd",
    "address_councildis": "E",
    "status": "Assigned to Contractor",
    "contractor": "Waste Pro",
    "rowid": "1245508",
    "final_x": "3761457.84086",
    "final_y": "573989.479402",
    "longitude": "-89.81382068365772",
    "latitude": "30.06959832373683",
    "geocoded_column": {
      "latitude": "30.06959832373683",
      "longitude": "-89.81382068365772"
    }
  },
  {
    "service_request": "2025-1245506",
    "request_type": "Streetlights",
    "request_reason": "Streetlight Outage/Malfunction",
    "date_created": "2025-12-14T11:57:19.000",
    "date_modified": "2025-12-14T11:57:21.000",
    "request_status": "Pending",
    "responsible_agency": "Department of Public Works",
    "final_address": "100 Basin St",
    "address_councildis": "C",
    "status": "Pending",
    "rowid": "1245506",
    "final_x": "3679941.82293",
    "final_y": "531760.289475",
    "longitude": "-90.0729821367956",
    "latitude": "29.956203615657458",
    "geocoded_column": {
      "latitude": "29.956203615657458",
      "longitude": "-90.0729821367956"
    }
  },
  {
    "service_request": "2025-1245505",
    "request_type": "Health Related Request",
    "request_reason": "Noise Ordinance Complaint",
    "date_created": "2025-12-14T11:51:22.000",
    "date_modified": "2025-12-14T11:51:24.000",
    "request_status": "Pending",
    "responsible_agency": "Health Department",
    "final_address": "5410 Peoples Ave",
    "address_councildis": "D",
    "status": "Pending",
    "rowid": "1245505",
    "final_x": "3687951.43017",
    "final_y": "553122.985751",
    "longitude": "-90.04693326205012",
    "latitude": "30.01469873829396",
    "geocoded_column": {
      "latitude": "30.01469873829396",
      "longitude": "-90.04693326205012"
    }
  },
  {
    "service_request": "2025-1245504",
    "request_type": "Health Related Request",
    "request_reason": "Noise Ordinance Complaint",
    "date_created": "2025-12-14T11:51:22.000",
    "date_modified": "2025-12-14T11:51:24.000",
    "request_status": "Pending",
    "responsible_agency": "Health Department",
    "final_address": "5410 Peoples Ave",
    "address_councildis": "D",
    "status": "Pending",
    "rowid": "1245504",
    "final_x": "3687951.43017",
    "final_y": "553122.985751",
    "longitude": "-90.04693326205012",
    "latitude": "30.01469873829396",
    "geocoded_column": {
      "latitude": "30.01469873829396",
      "longitude": "-90.04693326205012"
    }
  },
  {
    "service_request": "2025-1245503",
    "request_type": "General Services",
    "request_reason": "General Service Request",
    "date_created": "2025-12-14T11:50:15.000",
    "date_modified": "2025-12-14T11:50:16.000",
    "request_status": "Pending",
    "responsible_agency": "Orleans Parish Communication District",
    "final_address": "7657 Anne Marie Ct",
    "address_councildis": "E",
    "status": "Pending",
    "rowid": "1245503",
    "final_x": "3717858.35141",
    "final_y": "571381.805096",
    "longitude": "-89.95174749692524",
    "latitude": "30.063945968954243",
    "geocoded_column": {
      "latitude": "30.063945968954243",
      "longitude": "-89.95174749692524"
    }
  },
  {
    "service_request": "2025-1245502",
    "request_type": "Trash/Recycling",
    "request_reason": "Request a Large Item Pick Up",
    "date_created": "2025-12-14T11:47:33.000",
    "date_modified": "2025-12-14T11:47:35.000",
    "request_status": "Pending",
    "responsible_agency": "Department of Sanitation",
    "final_address": "5643 Charles Pl",
    "address_councildis": "A",
    "status": "Assigned to Contractor",
    "contractor": "IV Waste",
    "rowid": "1245502",
    "final_x": "3669009.3698",
    "final_y": "545112.222607",
    "longitude": "-90.10705202867341",
    "latitude": "29.993243058667105",
    "geocoded_column": {
      "latitude": "29.993243058667105",
      "longitude": "-90.10705202867341"
    }
  },
  {
    "service_request": "2025-1245501",
    "request_type": "Trash/Recycling",
    "request_reason": "Request a Large Item Pick Up",
    "date_created": "2025-12-14T11:46:24.000",
    "date_modified": "2025-12-14T11:46:26.000",
    "request_status": "Pending",
    "responsible_agency": "Department of Sanitation",
    "final_address": "1201 France St",
    "address_councildis": "D",
    "status": "Assigned to Contractor",
    "contractor": "IV Waste",
    "rowid": "1245501",
    "final_x": "3692512.02806",
    "final_y": "535531.658822",
    "longitude": "-90.0331547088587",
    "latitude": "29.966187393123523",
    "geocoded_column": {
      "latitude": "29.966187393123523",
      "longitude": "-90.0331547088587"
    }
  },
  {
    "service_request": "2025-1245500",
    "request_type": "Healthy Homes",
    "request_reason": "Healthy Homes",
    "date_created": "2025-12-14T11:16:54.000",
    "date_modified": "2025-12-14T11:16:57.000",
    "request_status": "Pending",
    "responsible_agency": "Department of Code Enforcement",
    "final_address": "2 Canal St Unit 2209",
    "address_councildis": "B",
    "status": "Pending",
    "rowid": "1245500",
    "final_x": "3682972.76584",
    "final_y": "529187.113472",
    "longitude": "-90.06350149797198",
    "latitude": "29.949036237001323",
    "geocoded_column": {
      "latitude": "29.949036237001323",
      "longitude": "-90.06350149797198"
    }
  },
  {
    "service_request": "2025-1245499",
    "request_type": "Trash/Recycling",
    "request_reason": "Replace Recycling Cart",
    "date_created": "2025-12-14T10:56:49.000",
    "date_modified": "2025-12-14T10:56:51.000",
    "request_status": "Pending",
    "responsible_agency": "Department of Sanitation",
    "final_address": "4123 S Saratoga St",
    "address_councildis": "B",
    "status": "Pending",
    "rowid": "1245499",
    "final_x": "3671573.82619",
    "final_y": "522774.359546",
    "longitude": "-90.09971098910938",
    "latitude": "29.931745676272435",
    "geocoded_column": {
      "latitude": "29.931745676272435",
      "longitude": "-90.09971098910938"
    }
  },
  {
    "service_request": "2025-1245498",
    "request_type": "Trash/Recycling",
    "request_reason": "Order Recycling Cart",
    "date_created": "2025-12-14T10:23:12.000",
    "date_modified": "2025-12-14T10:23:13.000",
    "request_status": "Pending",
    "responsible_agency": "Department of Sanitation",
    "final_address": "8202 Plum St",
    "address_councildis": "A",
    "status": "Pending",
    "rowid": "1245498",
    "final_x": "3661878.87264",
    "final_y": "528871.282368",
    "longitude": "-90.13011492267508",
    "latitude": "29.94879372082046",
    "geocoded_column": {
      "latitude": "29.94879372082046",
      "longitude": "-90.13011492267508"
    }
  },
  {
    "service_request": "2025-1245497",
    "request_type": "Trash/Recycling",
    "request_reason": "Missed Trash Pick-Up",
    "date_created": "2025-12-14T09:59:08.000",
    "date_modified": "2025-12-14T09:59:10.000",
    "request_status": "Pending",
    "responsible_agency": "Department of Sanitation",
    "final_address": "1518 Simon Bolivar Ave",
    "address_councildis": "B",
    "status": "Assigned to Contractor",
    "contractor": "IV Waste",
    "rowid": "1245497",
    "final_x": "3677266.96194",
    "final_y": "526520.972094",
    "longitude": "-90.08160917739548",
    "latitude": "29.941877867042155",
    "geocoded_column": {
      "latitude": "29.941877867042155",
      "longitude": "-90.08160917739548"
    }
  },
  {
    "service_request": "2025-1245496",
    "request_type": "Healthy Homes",
    "request_reason": "Healthy Homes",
    "date_created": "2025-12-14T09:38:07.000",
    "date_modified": "2025-12-14T09:38:09.000",
    "request_status": "Pending",
    "responsible_agency": "Department of Code Enforcement",
    "final_address": "1823 Marais St",
    "address_councildis": "C",
    "status": "Pending",
    "rowid": "1245496",
    "final_x": "3683681.06345",
    "final_y": "536597.960583",
    "longitude": "-90.06100527433433",
    "latitude": "29.969391927145153",
    "geocoded_column": {
      "latitude": "29.969391927145153",
      "longitude": "-90.06100527433433"
    }
  },
  {
    "service_request": "2025-1245495",
    "request_type": "Traffic Signals",
    "request_reason": "Traffic Signal Malfunctioning or Damaged",
    "date_created": "2025-12-14T08:34:46.000",
    "date_modified": "2025-12-14T08:34:48.000",
    "request_status": "Pending",
    "responsible_agency": "Department of Public Works",
    "final_address": "1000 Canal St",
    "address_councildis": "B",
    "status": "Pending",
    "rowid": "1245495",
    "final_x": "3680211.03253",
    "final_y": "531291.167618",
    "longitude": "-90.07214836848999",
    "latitude": "29.954905544263298",
    "geocoded_column": {
      "latitude": "29.954905544263298",
      "longitude": "-90.07214836848999"
    }
  },
  {
    "service_request": "2025-1245494",
    "request_type": "Abandoned Vehicles",
    "request_reason": "Abandoned/Junk Vehicles",
    "date_created": "2025-12-14T08:29:33.000",
    "date_modified": "2025-12-14T08:29:35.000",
    "request_status": "Pending",
    "responsible_agency": "Department of Public Works",
    "final_address": "1012 Valence St",
    "address_councildis": "B",
    "status": "Pending",
    "rowid": "1245494",
    "final_x": "3669845.02273",
    "final_y": "519154.534775",
    "longitude": "-90.10529111625263",
    "latitude": "29.92184337726024",
    "geocoded_column": {
      "latitude": "29.92184337726024",
      "longitude": "-90.10529111625263"
    }
  },
  {
    "service_request": "2025-1245493",
    "request_type": "Trash/Recycling",
    "request_reason": "Request a Large Item Pick Up",
    "date_created": "2025-12-14T07:49:49.000",
    "date_modified": "2025-12-14T07:49:51.000",
    "request_status": "Pending",
    "responsible_agency": "Department of Sanitation",
    "final_address": "7231 Queensway Dr",
    "address_councildis": "E",
    "status": "Assigned to Contractor",
    "contractor": "Waste Pro",
    "rowid": "1245493",
    "final_x": "3718634.65765",
    "final_y": "570269.282663",
    "longitude": "-89.9493360422512",
    "latitude": "30.06086123686576",
    "geocoded_column": {
      "latitude": "30.06086123686576",
      "longitude": "-89.9493360422512"
    }
  },
  {
    "service_request": "2025-1245492",
    "request_type": "General Services",
    "request_reason": "General Service Request",
    "date_created": "2025-12-14T07:03:00.000",
    "date_modified": "2025-12-14T07:03:01.000",
    "request_status": "Pending",
    "responsible_agency": "Orleans Parish Communication District",
    "final_address": "4617 Rosemont Pl",
    "address_councildis": "E",
    "status": "Pending",
    "rowid": "1245492",
    "final_x": "3702845.94417",
    "final_y": "554211.579032",
    "longitude": "-89.99983415130751",
    "latitude": "30.017223760732858",
    "geocoded_column": {
      "latitude": "30.017223760732858",
      "longitude": "-89.99983415130751"
    }
  },
  {
    "service_request": "2025-1245491",
    "request_type": "General Services",
    "request_reason": "General Service Request",
    "date_created": "2025-12-14T04:09:09.000",
    "date_modified": "2025-12-14T04:09:10.000",
    "request_status": "Pending",
    "responsible_agency": "Orleans Parish Communication District",
    "final_address": "2270 St. Claud Avenue",
    "status": "Pending",
    "rowid": "1245491",
    "longitude": "0.0",
    "latitude": "0.0",
    "geocoded_column": {
      "latitude": "0.0",
      "longitude": "0.0"
    }
  },
  {
    "service_request": "2025-1245490",
    "request_type": "Trash/Recycling",
    "request_reason": "Request a Large Item Pick Up",
    "date_created": "2025-12-14T04:00:03.000",
    "date_modified": "2025-12-14T04:00:06.000",
    "request_status": "Pending",
    "responsible_agency": "Department of Sanitation",
    "final_address": "4065 Fairmont Dr",
    "address_councildis": "D",
    "status": "Assigned to Contractor",
    "contractor": "IV Waste",
    "rowid": "1245490",
    "final_x": "3684657.04156",
    "final_y": "547346.741009",
    "longitude": "-90.05754511111616",
    "latitude": "29.998917443521695",
    "geocoded_column": {
      "latitude": "29.998917443521695",
      "longitude": "-90.05754511111616"
    }
  },
  {
    "service_request": "2025-1245489",
    "request_type": "General Services",
    "request_reason": "General Service Request",
    "date_created": "2025-12-14T03:53:50.000",
    "date_modified": "2025-12-14T03:53:52.000",
    "request_status": "Pending",
    "responsible_agency": "Orleans Parish Communication District",
    "final_address": "3600 Jumonville St",
    "address_councildis": "D",
    "status": "Pending",
    "rowid": "1245489",
    "final_x": "3678132.59259",
    "final_y": "545426.421072",
    "longitude": "-90.0782223945966",
    "latitude": "29.993835372011443",
    "geocoded_column": {
      "latitude": "29.993835372011443",
      "longitude": "-90.0782223945966"
    }
  },
  {
    "service_request": "2025-1245488",
    "request_type": "Safety & Permits",
    "request_reason": "Licenses & Permits",
    "date_created": "2025-12-14T03:29:44.000",
    "date_modified": "2025-12-14T03:29:46.000",
    "request_status": "Pending",
    "responsible_agency": "Safety and Permits",
    "final_address": "1353 Sere St",
    "address_councildis": "D",
    "status": "Pending",
    "rowid": "1245488",
    "final_x": "3677921.7179",
    "final_y": "545411.50184",
    "longitude": "-90.07888903304855",
    "latitude": "29.993800698935065",
    "geocoded_column": {
      "latitude": "29.993800698935065",
      "longitude": "-90.07888903304855"
    }
  },
  {
    "service_request": "2025-1245487",
    "request_type": "Trash/Recycling",
    "request_reason": "Request a Large Item Pick Up",
    "date_created": "2025-12-14T00:44:46.000",
    "date_modified": "2025-12-14T00:44:49.000",
    "request_status": "Pending",
    "responsible_agency": "Department of Sanitation",
    "final_address": "3719 Timber Bluff Ln",
    "address_councildis": "C",
    "status": "Assigned to Contractor",
    "contractor": "IV Waste",
    "rowid": "1245487",
    "final_x": "3703926.91108",
    "final_y": "510752.386095",
    "longitude": "-89.99801894924028",
    "latitude": "29.897691974330296",
    "geocoded_column": {
      "latitude": "29.897691974330296",
      "longitude": "-89.99801894924028"
    }
  },
  {
    "service_request": "2025-1245486",
    "request_type": "Health Related Request",
    "request_reason": "Noise Ordinance Complaint",
    "date_created": "2025-12-14T00:32:28.000",
    "date_modified": "2025-12-14T00:32:30.000",
    "request_status": "Pending",
    "responsible_agency": "Health Department",
    "final_address": "530 Lyons St",
    "address_councildis": "B",
    "status": "Pending",
    "rowid": "1245486",
    "final_x": "3669312.65748",
    "final_y": "517527.298038",
    "longitude": "-90.10702654441026",
    "latitude": "29.91738466791682",
    "geocoded_column": {
      "latitude": "29.91738466791682",
      "longitude": "-90.10702654441026"
    }
  },
  {
    "service_request": "2025-1245485",
    "request_type": "Trash/Recycling",
    "request_reason": "Request a Large Item Pick Up",
    "date_created": "2025-12-14T00:25:42.000",
    "date_modified": "2025-12-14T00:25:44.000",
    "request_status": "Pending",
    "responsible_agency": "Department of Sanitation",
    "final_address": "13220 Lincoln Beach Blvd",
    "address_councildis": "E",
    "status": "Assigned to Contractor",
    "contractor": "Waste Pro",
    "rowid": "1245485",
    "final_x": "3715717.61298",
    "final_y": "571416.11524",
    "longitude": "-89.95851315232396",
    "latitude": "30.064111105894032",
    "geocoded_column": {
      "latitude": "30.064111105894032",
      "longitude": "-89.95851315232396"
    }
  },
  {
    "service_request": "2025-1245484",
    "request_type": "Abandoned Vehicles",
    "request_reason": "Abandoned/Junk Vehicles",
    "date_created": "2025-12-14T00:00:53.000",
    "date_modified": "2025-12-14T00:00:54.000",
    "request_status": "Pending",
    "responsible_agency": "Department of Public Works",
    "final_address": "7500 Spring Lake Dr",
    "address_councildis": "E",
    "status": "Pending",
    "rowid": "1245484",
    "final_x": "3701130.94148",
    "final_y": "559180.81942",
    "longitude": "-90.00507082323156",
    "latitude": "30.03094203024028",
    "geocoded_column": {
      "latitude": "30.03094203024028",
      "longitude": "-90.00507082323156"
    }
  },
  {
    "service_request": "2025-1245483",
    "request_type": "Abandoned Vehicles",
    "request_reason": "Abandoned/Junk Vehicles",
    "date_created": "2025-12-13T23:58:04.000",
    "date_modified": "2025-12-13T23:58:05.000",
    "request_status": "Pending",
    "responsible_agency": "Department of Public Works",
    "final_address": "4611 Owens Blvd",
    "address_councildis": "D",
    "status": "Pending",
    "rowid": "1245483",
    "final_x": "3676496.32251",
    "final_y": "549254.572051",
    "longitude": "-90.08325921023265",
    "latitude": "30.0044106186866",
    "geocoded_column": {
      "latitude": "30.0044106186866",
      "longitude": "-90.08325921023265"
    }
  },
  {
    "service_request": "2025-1245482",
    "request_type": "Abandoned Vehicles",
    "request_reason": "Abandoned/Junk Vehicles",
    "date_created": "2025-12-13T23:54:00.000",
    "date_modified": "2025-12-13T23:54:02.000",
    "request_status": "Pending",
    "responsible_agency": "Department of Public Works",
    "final_address": "7400 Spring Lake Dr",
    "address_councildis": "E",
    "status": "Pending",
    "rowid": "1245482",
    "final_x": "3700826.70775",
    "final_y": "558969.759708",
    "longitude": "-90.00603992985664",
    "latitude": "30.030371391244962",
    "geocoded_column": {
      "latitude": "30.030371391244962",
      "longitude": "-90.00603992985664"
    }
  },
  {
    "service_request": "2025-1245481",
    "request_type": "Streetlights",
    "request_reason": "Streetlight Outage/Malfunction",
    "date_created": "2025-12-13T23:09:56.000",
    "date_modified": "2025-12-13T23:09:58.000",
    "request_status": "Pending",
    "responsible_agency": "Department of Public Works",
    "final_address": "4611 Owens Blvd",
    "address_councildis": "D",
    "status": "Pending",
    "rowid": "1245481",
    "final_x": "3676496.32251",
    "final_y": "549254.572051",
    "longitude": "-90.08325921023265",
    "latitude": "30.0044106186866",
    "geocoded_column": {
      "latitude": "30.0044106186866",
      "longitude": "-90.08325921023265"
    }
  },
  {
    "service_request": "2025-1245480",
    "request_type": "Drainage",
    "request_reason": "Catch Basin Not Draining",
    "date_created": "2025-12-13T22:05:16.000",
    "date_modified": "2025-12-13T22:05:18.000",
    "request_status": "Pending",
    "responsible_agency": "Sewerage & Water Board",
    "final_address": "233 Walnut St",
    "address_councildis": "A",
    "status": "Pending",
    "rowid": "1245480",
    "final_x": "3661448.78227",
    "final_y": "521325.549881",
    "longitude": "-90.13172275675723",
    "latitude": "29.92805775464452",
    "geocoded_column": {
      "latitude": "29.92805775464452",
      "longitude": "-90.13172275675723"
    }
  },
  {
    "service_request": "2025-1245479",
    "request_type": "Trash/Recycling",
    "request_reason": "Replace Trash Cart",
    "date_created": "2025-12-13T20:57:38.000",
    "date_modified": "2025-12-13T20:57:41.000",
    "request_status": "Pending",
    "responsible_agency": "Department of Sanitation",
    "final_address": "5503 Elysian Fields Ave",
    "address_councildis": "D",
    "status": "Assigned to Contractor",
    "contractor": "IV Waste",
    "rowid": "1245479",
    "final_x": "3683787.83881",
    "final_y": "553085.423447",
    "longitude": "-90.0600894887778",
    "latitude": "30.0147233257954",
    "geocoded_column": {
      "latitude": "30.0147233257954",
      "longitude": "-90.0600894887778"
    }
  },
  {
    "service_request": "2025-1245478",
    "request_type": "Mosquito, Termite & Rodent Control",
    "request_reason": "Mosquito Complaint",
    "date_created": "2025-12-13T20:23:11.000",
    "date_modified": "2025-12-13T20:23:14.000",
    "request_status": "Pending",
    "responsible_agency": "Mosquito, Termite & Rodent Control Board",
    "final_address": "1111 Third St",
    "address_councildis": "B",
    "status": "Pending",
    "rowid": "1245478",
    "final_x": "3677542.62907",
    "final_y": "521294.104249",
    "longitude": "-90.08091921001692",
    "latitude": "29.927497411636672",
    "geocoded_column": {
      "latitude": "29.927497411636672",
      "longitude": "-90.08091921001692"
    }
  },
  {
    "service_request": "2025-1245476",
    "request_type": "Trash/Recycling",
    "request_reason": "Repair Trash Cart",
    "date_created": "2025-12-13T18:56:54.000",
    "date_modified": "2025-12-13T18:56:57.000",
    "request_status": "Pending",
    "responsible_agency": "Department of Sanitation",
    "final_address": "1900 Wildair Dr",
    "address_councildis": "D",
    "status": "Assigned to Contractor",
    "contractor": "IV Waste",
    "rowid": "1245476",
    "final_x": "3681141.9389",
    "final_y": "551104.013909",
    "longitude": "-90.06851834760108",
    "latitude": "30.009355742945843",
    "geocoded_column": {
      "latitude": "30.009355742945843",
      "longitude": "-90.06851834760108"
    }
  },
  {
    "service_request": "2025-1245477",
    "request_type": "Trash/Recycling",
    "request_reason": "Repair Trash Cart",
    "date_created": "2025-12-13T18:56:54.000",
    "date_modified": "2025-12-13T18:56:56.000",
    "request_status": "Pending",
    "responsible_agency": "Department of Sanitation",
    "final_address": "1900 Wildair Dr",
    "address_councildis": "D",
    "status": "Assigned to Contractor",
    "contractor": "IV Waste",
    "rowid": "1245477",
    "final_x": "3681141.9389",
    "final_y": "551104.013909",
    "longitude": "-90.06851834760108",
    "latitude": "30.009355742945843",
    "geocoded_column": {
      "latitude": "30.009355742945843",
      "longitude": "-90.06851834760108"
    }
  },
  {
    "service_request": "2025-1245475",
    "request_type": "Trash/Recycling",
    "request_reason": "Request a Large Item Pick Up",
    "date_created": "2025-12-13T18:46:11.000",
    "date_modified": "2025-12-13T18:46:13.000",
    "request_status": "Pending",
    "responsible_agency": "Department of Sanitation",
    "final_address": "900 Seventh St",
    "address_councildis": "B",
    "status": "Assigned to Contractor",
    "contractor": "IV Waste",
    "rowid": "1245475",
    "final_x": "3676731.55733",
    "final_y": "519770.026936",
    "longitude": "-90.0835320425839",
    "latitude": "29.923331043972365",
    "geocoded_column": {
      "latitude": "29.923331043972365",
      "longitude": "-90.0835320425839"
    }
  },
  {
    "service_request": "2025-1245474",
    "request_type": "Property Maintenance",
    "request_reason": "Property Maintenance",
    "date_created": "2025-12-13T18:37:33.000",
    "date_modified": "2025-12-13T18:37:35.000",
    "request_status": "Pending",
    "responsible_agency": "Department of Code Enforcement",
    "final_address": "8923 Marks St",
    "address_councildis": "A",
    "status": "Pending",
    "rowid": "1245474",
    "final_x": "3666681.46081",
    "final_y": "538045.193289",
    "longitude": "-90.11464296494081",
    "latitude": "29.97387941442471",
    "geocoded_column": {
      "latitude": "29.97387941442471",
      "longitude": "-90.11464296494081"
    }
  },
  {
    "service_request": "2025-1245472",
    "request_type": "Safety & Permits",
    "request_reason": "Zoning Enforcement",
    "date_created": "2025-12-13T18:01:39.000",
    "date_modified": "2025-12-13T18:01:41.000",
    "request_status": "Pending",
    "responsible_agency": "Safety and Permits",
    "final_address": "8923 Marks St",
    "address_councildis": "A",
    "status": "Pending",
    "rowid": "1245472",
    "final_x": "3666681.46081",
    "final_y": "538045.193289",
    "longitude": "-90.11464296494081",
    "latitude": "29.97387941442471",
    "geocoded_column": {
      "latitude": "29.97387941442471",
      "longitude": "-90.11464296494081"
    }
  },
  {
    "service_request": "2025-1245471",
    "request_type": "Trash/Recycling",
    "request_reason": "Order Recycling Cart",
    "date_created": "2025-12-13T17:10:42.000",
    "date_modified": "2025-12-13T17:10:43.000",
    "request_status": "Pending",
    "responsible_agency": "Department of Sanitation",
    "final_address": "2050 Valentine Ct",
    "address_councildis": "C",
    "status": "Pending",
    "rowid": "1245471",
    "final_x": "3699795.65213",
    "final_y": "523664.264763",
    "longitude": "-90.01058595815529",
    "latitude": "29.933326982858944",
    "geocoded_column": {
      "latitude": "29.933326982858944",
      "longitude": "-90.01058595815529"
    }
  },
  {
    "service_request": "2025-1245470",
    "request_type": "Street and Traffic Signs",
    "request_reason": "Street Name Sign Damaged or Missing",
    "date_created": "2025-12-13T17:06:10.000",
    "date_modified": "2025-12-13T17:06:12.000",
    "request_status": "Pending",
    "responsible_agency": "Department of Public Works",
    "final_address": "10100 BLK Rosewood Pl",
    "address_councildis": "E",
    "status": "Pending",
    "rowid": "1245470",
    "final_x": "3712863.46039",
    "final_y": "557655.338217",
    "longitude": "-89.96805355461697",
    "latitude": "30.0263683836572",
    "geocoded_column": {
      "latitude": "30.0263683836572",
      "longitude": "-89.96805355461697"
    }
  },
  {
    "service_request": "2025-1245469",
    "request_type": "Trash/Recycling",
    "request_reason": "Replace Trash Cart",
    "date_created": "2025-12-13T16:50:46.000",
    "date_modified": "2025-12-13T16:50:48.000",
    "request_status": "Pending",
    "responsible_agency": "Department of Sanitation",
    "final_address": "2012 General Collins Ave",
    "address_councildis": "C",
    "status": "Assigned to Contractor",
    "contractor": "IV Waste",
    "rowid": "1245469",
    "final_x": "3698540.57508",
    "final_y": "523532.188283",
    "longitude": "-90.01455293450097",
    "latitude": "29.933003596978892",
    "geocoded_column": {
      "latitude": "29.933003596978892",
      "longitude": "-90.01455293450097"
    }
  },
  {
    "service_request": "2025-1245468",
    "request_type": "Trash/Recycling",
    "request_reason": "Replace Trash Cart",
    "date_created": "2025-12-13T16:33:54.000",
    "date_modified": "2025-12-13T16:33:56.000",
    "request_status": "Pending",
    "responsible_agency": "Department of Sanitation",
    "final_address": "5015 St Claude Ave",
    "address_councildis": "E",
    "status": "Assigned to Contractor",
    "contractor": "Waste Pro",
    "rowid": "1245468",
    "final_x": "3696113.05085",
    "final_y": "534351.361221",
    "longitude": "-90.02182547915295",
    "latitude": "29.962829149857008",
    "geocoded_column": {
      "latitude": "29.962829149857008",
      "longitude": "-90.02182547915295"
    }
  },
  {
    "service_request": "2025-1245467",
    "request_type": "Street and Traffic Signs",
    "request_reason": "Street Name Sign Damaged or Missing",
    "date_created": "2025-12-13T16:15:24.000",
    "date_modified": "2025-12-13T16:15:26.000",
    "request_status": "Pending",
    "responsible_agency": "Department of Public Works",
    "final_address": "N ROCHEBLAVE ST & MAZANT ST",
    "address_councildis": "D",
    "status": "Pending",
    "rowid": "1245467",
    "final_x": "3693325.7",
    "final_y": "540128.48",
    "longitude": "-90.03042009586488",
    "latitude": "29.978801604190252",
    "geocoded_column": {
      "latitude": "29.978801604190252",
      "longitude": "-90.03042009586488"
    }
  },
  {
    "service_request": "2025-1245466",
    "request_type": "Trash/Recycling",
    "request_reason": "Illegal Dumping",
    "date_created": "2025-12-13T16:10:44.000",
    "date_modified": "2025-12-13T16:10:45.000",
    "request_status": "Pending",
    "responsible_agency": "Department of Sanitation",
    "final_address": "4100 BLK N Rocheblave St",
    "address_councildis": "D",
    "status": "Pending",
    "rowid": "1245466",
    "final_x": "3693436.41657",
    "final_y": "540098.750299",
    "longitude": "-90.0300714806506",
    "latitude": "29.978716396066552",
    "geocoded_column": {
      "latitude": "29.978716396066552",
      "longitude": "-90.0300714806506"
    }
  },
  {
    "service_request": "2025-1245465",
    "request_type": "Trash/Recycling",
    "request_reason": "Request a Large Item Pick Up",
    "date_created": "2025-12-13T16:09:45.000",
    "date_modified": "2025-12-13T16:09:54.000",
    "request_status": "Pending",
    "responsible_agency": "Department of Sanitation",
    "final_address": "14912 Curran Rd",
    "address_councildis": "E",
    "status": "Assigned to Contractor",
    "contractor": "Waste Pro",
    "rowid": "1245465",
    "final_x": "3720665.19577",
    "final_y": "574116.672938",
    "longitude": "-89.94277005382037",
    "latitude": "30.071372347607458",
    "geocoded_column": {
      "latitude": "30.071372347607458",
      "longitude": "-89.94277005382037"
    }
  },
  {
    "service_request": "2025-1245464",
    "request_type": "General Services",
    "request_reason": "General Service Request",
    "date_created": "2025-12-13T15:58:01.000",
    "date_modified": "2025-12-13T15:58:03.000",
    "request_status": "Pending",
    "responsible_agency": "Orleans Parish Communication District",
    "final_address": "Hayne Blvd.",
    "address_councildis": "D",
    "status": "Pending",
    "rowid": "1245464",
    "final_x": "3688842.8",
    "final_y": "557721.28",
    "longitude": "-90.04395349141949",
    "latitude": "30.02731478987773",
    "geocoded_column": {
      "latitude": "30.02731478987773",
      "longitude": "-90.04395349141949"
    }
  },
  {
    "service_request": "2025-1245463",
    "request_type": "Streetlights",
    "request_reason": "Streetlight Outage/Malfunction",
    "date_created": "2025-12-13T15:47:37.000",
    "date_modified": "2025-12-13T15:47:38.000",
    "request_status": "Pending",
    "responsible_agency": "Department of Public Works",
    "final_address": "5632 Elysian Fields Ave",
    "address_councildis": "D",
    "status": "Pending",
    "rowid": "1245463",
    "final_x": "3683446.04124",
    "final_y": "553635.688599",
    "longitude": "-90.06115009926017",
    "latitude": "30.01624679272331",
    "geocoded_column": {
      "latitude": "30.01624679272331",
      "longitude": "-90.06115009926017"
    }
  },
  {
    "service_request": "2025-1245462",
    "request_type": "Traffic Signals",
    "request_reason": "Traffic Signal Malfunctioning or Damaged",
    "date_created": "2025-12-13T15:45:06.000",
    "date_modified": "2025-12-13T15:45:09.000",
    "request_status": "Pending",
    "responsible_agency": "Department of Public Works",
    "final_address": "5632 Elysian Fields Ave",
    "address_councildis": "D",
    "status": "Pending",
    "rowid": "1245462",
    "final_x": "3683446.04124",
    "final_y": "553635.688599",
    "longitude": "-90.06115009926017",
    "latitude": "30.01624679272331",
    "geocoded_column": {
      "latitude": "30.01624679272331",
      "longitude": "-90.06115009926017"
    }
  },
  {
    "service_request": "2025-1245461",
    "request_type": "Trash/Recycling",
    "request_reason": "Request a Large Item Pick Up",
    "date_created": "2025-12-13T15:38:14.000",
    "date_modified": "2025-12-13T15:38:15.000",
    "request_status": "Pending",
    "responsible_agency": "Department of Sanitation",
    "final_address": "4210 Dauphine St",
    "address_councildis": "C",
    "status": "Assigned to Contractor",
    "contractor": "IV Waste",
    "rowid": "1245461",
    "final_x": "3692195.18851",
    "final_y": "533956.233605",
    "longitude": "-90.03421168414127",
    "latitude": "29.9618654091134",
    "geocoded_column": {
      "latitude": "29.9618654091134",
      "longitude": "-90.03421168414127"
    }
  },
  {
    "service_request": "2025-1245460",
    "request_type": "Trash/Recycling",
    "request_reason": "Order Recycling Cart",
    "date_created": "2025-12-13T15:16:07.000",
    "date_modified": "2025-12-13T15:16:08.000",
    "request_status": "Pending",
    "responsible_agency": "Department of Sanitation",
    "final_address": "616 Andry St",
    "address_councildis": "E",
    "status": "Pending",
    "rowid": "1245460",
    "final_x": "3696640.22333",
    "final_y": "532304.949635",
    "longitude": "-90.02023480086243",
    "latitude": "29.95718564013923",
    "geocoded_column": {
      "latitude": "29.95718564013923",
      "longitude": "-90.02023480086243"
    }
  },
  {
    "service_request": "2025-1245459",
    "request_type": "Trash/Recycling",
    "request_reason": "Replace Trash Cart",
    "date_created": "2025-12-13T15:05:34.000",
    "date_modified": "2025-12-13T15:05:36.000",
    "request_status": "Pending",
    "responsible_agency": "Department of Sanitation",
    "final_address": "6220 Mckenna St",
    "address_councildis": "A",
    "status": "Assigned to Contractor",
    "contractor": "IV Waste",
    "rowid": "1245459",
    "final_x": "3667836.89818",
    "final_y": "529300.127489",
    "longitude": "-90.11128838201029",
    "latitude": "29.94979953092502",
    "geocoded_column": {
      "latitude": "29.94979953092502",
      "longitude": "-90.11128838201029"
    }
  },
  {
    "service_request": "2025-1245458",
    "request_type": "Street and Traffic Signs",
    "request_reason": "Traffic or Parking Sign Damaged or Missing",
    "date_created": "2025-12-13T15:01:15.000",
    "date_modified": "2025-12-13T15:01:17.000",
    "request_status": "Pending",
    "responsible_agency": "Department of Public Works",
    "final_address": "2513 Royal St",
    "address_councildis": "C",
    "status": "Pending",
    "rowid": "1245458",
    "final_x": "3686724.41449",
    "final_y": "535026.896454",
    "longitude": "-90.05144965749743",
    "latitude": "29.96497877739842",
    "geocoded_column": {
      "latitude": "29.96497877739842",
      "longitude": "-90.05144965749743"
    }
  },
  {
    "service_request": "2025-1245457",
    "request_type": "Trash/Recycling",
    "request_reason": "Start Trash Service",
    "date_created": "2025-12-13T14:29:44.000",
    "date_modified": "2025-12-13T14:29:46.000",
    "request_status": "Pending",
    "responsible_agency": "Department of Sanitation",
    "final_address": "1734 Amelia St",
    "address_councildis": "B",
    "status": "Assigned to Contractor",
    "contractor": "IV Waste",
    "rowid": "1245457",
    "final_x": "3672937.68731",
    "final_y": "521811.80473",
    "longitude": "-90.0954382513887",
    "latitude": "29.92905851592285",
    "geocoded_column": {
      "latitude": "29.92905851592285",
      "longitude": "-90.0954382513887"
    }
  },
  {
    "service_request": "2025-1245456",
    "request_type": "Drainage",
    "request_reason": "Ditch and Culvert Maintenance",
    "date_created": "2025-12-13T14:27:45.000",
    "date_modified": "2025-12-13T14:27:47.000",
    "request_status": "Pending",
    "responsible_agency": "Department of Public Works",
    "final_address": "3504 Pauger St",
    "address_councildis": "D",
    "status": "Pending",
    "rowid": "1245456",
    "final_x": "3683323.44098",
    "final_y": "542510.944141",
    "longitude": "-90.0619274732045",
    "latitude": "29.98566148073622",
    "geocoded_column": {
      "latitude": "29.98566148073622",
      "longitude": "-90.0619274732045"
    }
  },
  {
    "service_request": "2025-1245455",
    "request_type": "Street and Traffic Signs",
    "request_reason": "Street Name Sign Damaged or Missing",
    "date_created": "2025-12-13T14:19:38.000",
    "date_modified": "2025-12-13T14:19:40.000",
    "request_status": "Pending",
    "responsible_agency": "Department of Public Works",
    "final_address": "ST ROCH AVE & BURGUNDY ST",
    "address_councildis": "C",
    "status": "Pending",
    "rowid": "1245455",
    "final_x": "3686549.2",
    "final_y": "535704.58",
    "longitude": "-90.05197904128819",
    "latitude": "29.966847560382202",
    "geocoded_column": {
      "latitude": "29.966847560382202",
      "longitude": "-90.05197904128819"
    }
  },
  {
    "service_request": "2025-1245454",
    "request_type": "Trash/Recycling",
    "request_reason": "Request a Large Item Pick Up",
    "date_created": "2025-12-13T14:17:39.000",
    "date_modified": "2025-12-13T14:17:41.000",
    "request_status": "Pending",
    "responsible_agency": "Department of Sanitation",
    "final_address": "3212 Banks St",
    "address_councildis": "B",
    "status": "Assigned to Contractor",
    "contractor": "IV Waste",
    "rowid": "1245454",
    "final_x": "3673009.1524",
    "final_y": "535291.51559",
    "longitude": "-90.09475268075794",
    "latitude": "29.966121161535945",
    "geocoded_column": {
      "latitude": "29.966121161535945",
      "longitude": "-90.09475268075794"
    }
  },
  {
    "service_request": "2025-1245453",
    "request_type": "Trash/Recycling",
    "request_reason": "Request a Large Item Pick Up",
    "date_created": "2025-12-13T13:59:38.000",
    "date_modified": "2025-12-13T13:59:39.000",
    "request_status": "Pending",
    "responsible_agency": "Department of Sanitation",
    "final_address": "6209 Warrington Dr",
    "address_councildis": "D",
    "status": "Assigned to Contractor",
    "contractor": "IV Waste",
    "rowid": "1245453",
    "final_x": "3680885.9188",
    "final_y": "555714.165849",
    "longitude": "-90.0691665116654",
    "latitude": "30.022039754588647",
    "geocoded_column": {
      "latitude": "30.022039754588647",
      "longitude": "-90.0691665116654"
    }
  },
  {
    "service_request": "2025-1245452",
    "request_type": "Streetlights",
    "request_reason": "Streetlight Outage/Malfunction",
    "date_created": "2025-12-13T13:59:11.000",
    "date_modified": "2025-12-13T13:59:12.000",
    "request_status": "Pending",
    "responsible_agency": "Department of Public Works",
    "final_address": "0 E Interstate 510 Service Rd",
    "address_councildis": "E",
    "status": "Pending",
    "rowid": "1245452",
    "final_x": "3722359.28767",
    "final_y": "561268.320926",
    "longitude": "-89.93790922288747",
    "latitude": "30.035988096688126",
    "geocoded_column": {
      "latitude": "30.035988096688126",
      "longitude": "-89.93790922288747"
    }
  },
  {
    "service_request": "2025-1245451",
    "request_type": "Trash/Recycling",
    "request_reason": "Order Trash Cart",
    "date_created": "2025-12-13T13:57:18.000",
    "date_modified": "2025-12-13T13:57:20.000",
    "request_status": "Pending",
    "responsible_agency": "Department of Sanitation",
    "final_address": "1704 Desire St",
    "address_councildis": "D",
    "status": "Assigned to Contractor",
    "contractor": "IV Waste",
    "rowid": "1245451",
    "final_x": "3690718.21238",
    "final_y": "538028.643337",
    "longitude": "-90.03873042803586",
    "latitude": "29.9731090660349",
    "geocoded_column": {
      "latitude": "29.9731090660349",
      "longitude": "-90.03873042803586"
    }
  },
  {
    "service_request": "2025-1245450",
    "request_type": "Trash/Recycling",
    "request_reason": "Dead Animal Pick Up",
    "date_created": "2025-12-13T13:45:37.000",
    "date_modified": "2025-12-13T13:45:39.000",
    "request_status": "Pending",
    "responsible_agency": "Department of Sanitation",
    "final_address": "1814 Elysian Fields Ave",
    "address_councildis": "D",
    "status": "Assigned to Contractor",
    "contractor": "IV Waste",
    "rowid": "1245450",
    "final_x": "3684679.89724",
    "final_y": "539016.437834",
    "longitude": "-90.0577658584428",
    "latitude": "29.976011362762804",
    "geocoded_column": {
      "latitude": "29.976011362762804",
      "longitude": "-90.0577658584428"
    }
  },
  {
    "service_request": "2025-1245449",
    "request_type": "Trash/Recycling",
    "request_reason": "Order Trash Cart",
    "date_created": "2025-12-13T13:19:28.000",
    "date_modified": "2025-12-13T13:19:31.000",
    "request_status": "Pending",
    "responsible_agency": "Department of Sanitation",
    "final_address": "2519 Cleveland Ave",
    "address_councildis": "B",
    "status": "Assigned to Contractor",
    "contractor": "IV Waste",
    "rowid": "1245449",
    "final_x": "3675782.61697",
    "final_y": "534302.254085",
    "longitude": "-90.0860281437797",
    "latitude": "29.963318302068597",
    "geocoded_column": {
      "latitude": "29.963318302068597",
      "longitude": "-90.0860281437797"
    }
  },
  {
    "service_request": "2025-1245448",
    "request_type": "Trash/Recycling",
    "request_reason": "Request a Large Item Pick Up",
    "date_created": "2025-12-13T12:44:09.000",
    "date_modified": "2025-12-13T12:44:14.000",
    "request_status": "Pending",
    "responsible_agency": "Department of Sanitation",
    "final_address": "410 N Tonti St",
    "address_councildis": "B",
    "status": "Assigned to Contractor",
    "contractor": "IV Waste",
    "rowid": "1245448",
    "final_x": "3677257.98683",
    "final_y": "535283.551366",
    "longitude": "-90.08133522989658",
    "latitude": "29.965972294425352",
    "geocoded_column": {
      "latitude": "29.965972294425352",
      "longitude": "-90.08133522989658"
    }
  },
  {
    "service_request": "2025-1245447",
    "request_type": "Trash/Recycling",
    "request_reason": "Request a Large Item Pick Up",
    "date_created": "2025-12-13T12:11:20.000",
    "date_modified": "2025-12-13T12:11:22.000",
    "request_status": "Pending",
    "responsible_agency": "Department of Sanitation",
    "final_address": "4809 Francisco Verrett Dr",
    "address_councildis": "E",
    "status": "Assigned to Contractor",
    "contractor": "Waste Pro",
    "rowid": "1245447",
    "final_x": "3704205.8458",
    "final_y": "555649.893465",
    "longitude": "-89.99548438753806",
    "latitude": "30.02113498577698",
    "geocoded_column": {
      "latitude": "30.02113498577698",
      "longitude": "-89.99548438753806"
    }
  },
  {
    "service_request": "2025-1245446",
    "request_type": "Trash/Recycling",
    "request_reason": "Order Trash Cart",
    "date_created": "2025-12-13T11:59:37.000",
    "date_modified": "2025-12-13T11:59:39.000",
    "request_status": "Pending",
    "responsible_agency": "Department of Sanitation",
    "final_address": "2031 General Taylor St",
    "address_councildis": "B",
    "status": "Assigned to Contractor",
    "contractor": "IV Waste",
    "rowid": "1245446",
    "final_x": "3672280.28308",
    "final_y": "522697.74457",
    "longitude": "-90.09748338741674",
    "latitude": "29.93151407748461",
    "geocoded_column": {
      "latitude": "29.93151407748461",
      "longitude": "-90.09748338741674"
    }
  },
  {
    "service_request": "2025-1245445",
    "request_type": "General Services",
    "request_reason": "General Service Request",
    "date_created": "2025-12-13T11:44:21.000",
    "date_modified": "2025-12-13T11:44:23.000",
    "request_status": "Pending",
    "responsible_agency": "Orleans Parish Communication District",
    "final_address": "6341 Canal Blvd",
    "address_councildis": "A",
    "status": "Pending",
    "rowid": "1245445",
    "final_x": "3668835.28961",
    "final_y": "549711.503956",
    "longitude": "-90.10744648779763",
    "latitude": "30.005894610863592",
    "geocoded_column": {
      "latitude": "30.005894610863592",
      "longitude": "-90.10744648779763"
    }
  },
  {
    "service_request": "2025-1245444",
    "request_type": "Trash/Recycling",
    "request_reason": "Replace Trash Cart",
    "date_created": "2025-12-13T11:41:22.000",
    "date_modified": "2025-12-13T11:41:24.000",
    "request_status": "Pending",
    "responsible_agency": "Department of Sanitation",
    "final_address": "721 Short St",
    "address_councildis": "A",
    "status": "Assigned to Contractor",
    "contractor": "IV Waste",
    "rowid": "1245444",
    "final_x": "3661288.63936",
    "final_y": "526885.025342",
    "longitude": "-90.13204430114482",
    "latitude": "29.943349176632033",
    "geocoded_column": {
      "latitude": "29.943349176632033",
      "longitude": "-90.13204430114482"
    }
  },
  {
    "service_request": "2025-1245443",
    "request_type": "Road Striping",
    "request_reason": "Crosswalks",
    "date_created": "2025-12-13T11:37:55.000",
    "date_modified": "2025-12-13T11:37:57.000",
    "request_status": "Pending",
    "responsible_agency": "Department of Public Works",
    "final_address": "2855 Carondelet St",
    "address_councildis": "B",
    "status": "Pending",
    "rowid": "1245443",
    "final_x": "3675317.29678",
    "final_y": "522632.80441",
    "longitude": "-90.08789811276228",
    "latitude": "29.931245096008535",
    "geocoded_column": {
      "latitude": "29.931245096008535",
      "longitude": "-90.08789811276228"
    }
  },
  {
    "service_request": "2025-1245442",
    "request_type": "General Services",
    "request_reason": "General Service Request",
    "date_created": "2025-12-13T11:37:39.000",
    "date_modified": "2025-12-13T11:37:41.000",
    "request_status": "Pending",
    "responsible_agency": "Orleans Parish Communication District",
    "final_address": "2748 Palmyra St",
    "address_councildis": "B",
    "status": "Pending",
    "rowid": "1245442",
    "final_x": "3674482.83656",
    "final_y": "534668.327814",
    "longitude": "-90.09012016725505",
    "latitude": "29.964363721937996",
    "geocoded_column": {
      "latitude": "29.964363721937996",
      "longitude": "-90.09012016725505"
    }
  },
  {
    "service_request": "2025-1245441",
    "request_type": "Streetlights",
    "request_reason": "Streetlight Outage/Malfunction",
    "date_created": "2025-12-13T11:30:54.000",
    "date_modified": "2025-12-13T11:30:56.000",
    "request_status": "Pending",
    "responsible_agency": "Department of Public Works",
    "final_address": "2748 Palmyra St",
    "address_councildis": "B",
    "status": "Pending",
    "rowid": "1245441",
    "final_x": "3674482.83656",
    "final_y": "534668.327814",
    "longitude": "-90.09012016725505",
    "latitude": "29.964363721937996",
    "geocoded_column": {
      "latitude": "29.964363721937996",
      "longitude": "-90.09012016725505"
    }
  },
  {
    "service_request": "2025-1245440",
    "request_type": "Parks & Parkways",
    "request_reason": "Request Tree Service (Right of Way/Public Property)",
    "date_created": "2025-12-13T11:27:38.000",
    "date_modified": "2025-12-13T11:27:40.000",
    "request_status": "Pending",
    "responsible_agency": "Department of Parks & Parkway",
    "final_address": "1537 Sixth St",
    "address_councildis": "B",
    "status": "Pending",
    "rowid": "1245440",
    "final_x": "3675652.28987",
    "final_y": "522097.623546",
    "longitude": "-90.08685895985762",
    "latitude": "29.929763506428145",
    "geocoded_column": {
      "latitude": "29.929763506428145",
      "longitude": "-90.08685895985762"
    }
  },
  {
    "service_request": "2025-1245439",
    "request_type": "General Services",
    "request_reason": "General Service Request",
    "date_created": "2025-12-13T11:20:42.000",
    "date_modified": "2025-12-13T11:20:44.000",
    "request_status": "Pending",
    "responsible_agency": "Orleans Parish Communication District",
    "final_address": "406 Tricou St",
    "address_councildis": "E",
    "status": "Pending",
    "rowid": "1245439",
    "final_x": "3699180.75095",
    "final_y": "530744.117378",
    "longitude": "-90.0122694663844",
    "latitude": "29.952813606803037",
    "geocoded_column": {
      "latitude": "29.952813606803037",
      "longitude": "-90.0122694663844"
    }
  },
  {
    "service_request": "2025-1245438",
    "request_type": "Trash/Recycling",
    "request_reason": "Return Trash Cart",
    "date_created": "2025-12-13T11:14:28.000",
    "date_modified": "2025-12-13T11:14:30.000",
    "request_status": "Pending",
    "responsible_agency": "Department of Sanitation",
    "final_address": "3631 Camp St",
    "address_councildis": "B",
    "status": "Assigned to Contractor",
    "contractor": "IV Waste",
    "rowid": "1245438",
    "final_x": "3673792.68129",
    "final_y": "519605.25996",
    "longitude": "-90.09281461075642",
    "latitude": "29.922965801835826",
    "geocoded_column": {
      "latitude": "29.922965801835826",
      "longitude": "-90.09281461075642"
    }
  },
  {
    "service_request": "2025-1245437",
    "request_type": "Property Maintenance",
    "request_reason": "Property Maintenance",
    "date_created": "2025-12-13T11:04:14.000",
    "date_modified": "2025-12-13T11:04:16.000",
    "request_status": "Pending",
    "responsible_agency": "Department of Code Enforcement",
    "final_address": "7733 Alabama St",
    "address_councildis": "D",
    "status": "Pending",
    "rowid": "1245437",
    "final_x": "3694805.70115",
    "final_y": "559009.49078",
    "longitude": "-90.02506485089944",
    "latitude": "30.030671034214354",
    "geocoded_column": {
      "latitude": "30.030671034214354",
      "longitude": "-90.02506485089944"
    }
  },
  {
    "service_request": "2025-1245436",
    "request_type": "Roads and Streets",
    "request_reason": "Push-up/Pavement Expansion",
    "date_created": "2025-12-13T10:55:15.000",
    "date_modified": "2025-12-13T10:55:16.000",
    "request_status": "Pending",
    "responsible_agency": "Department of Public Works",
    "final_address": "190 Walnut St",
    "address_councildis": "A",
    "status": "Pending",
    "rowid": "1245436",
    "final_x": "3661084.21792",
    "final_y": "520912.653241",
    "longitude": "-90.13288726482598",
    "latitude": "29.926932924939972",
    "geocoded_column": {
      "latitude": "29.926932924939972",
      "longitude": "-90.13288726482598"
    }
  },
  {
    "service_request": "2025-1245435",
    "request_type": "Trash/Recycling",
    "request_reason": "Request a Large Item Pick Up",
    "date_created": "2025-12-13T10:51:14.000",
    "date_modified": "2025-12-13T10:51:17.000",
    "request_status": "Pending",
    "responsible_agency": "Department of Sanitation",
    "final_address": "11 Kings Canyon Dr",
    "address_councildis": "C",
    "status": "Assigned to Contractor",
    "contractor": "IV Waste",
    "rowid": "1245435",
    "final_x": "3699394.932",
    "final_y": "515743.146292",
    "longitude": "-90.01213933200555",
    "latitude": "29.911559331126558",
    "geocoded_column": {
      "latitude": "29.911559331126558",
      "longitude": "-90.01213933200555"
    }
  },
  {
    "service_request": "2025-1245434",
    "request_type": "Trash/Recycling",
    "request_reason": "Order Recycling Cart",
    "date_created": "2025-12-13T09:58:51.000",
    "date_modified": "2025-12-13T09:58:52.000",
    "request_status": "Pending",
    "responsible_agency": "Department of Sanitation",
    "final_address": "325 N Bernadotte St",
    "address_councildis": "A",
    "status": "Pending",
    "rowid": "1245434",
    "final_x": "3669416.22023",
    "final_y": "540917.226315",
    "longitude": "-90.1059087997215",
    "latitude": "29.98169627413152",
    "geocoded_column": {
      "latitude": "29.98169627413152",
      "longitude": "-90.1059087997215"
    }
  },
  {
    "service_request": "2025-1245433",
    "request_type": "Abandoned Vehicles",
    "request_reason": "Abandoned/Junk Vehicles",
    "date_created": "2025-12-13T09:57:33.000",
    "date_modified": "2025-12-13T09:57:34.000",
    "request_status": "Pending",
    "responsible_agency": "Department of Public Works",
    "final_address": "1412 De Battista Pl",
    "address_councildis": "C",
    "status": "Pending",
    "rowid": "1245433",
    "final_x": "3699833.50845",
    "final_y": "525946.212349",
    "longitude": "-90.01038327435029",
    "latitude": "29.939600343768642",
    "geocoded_column": {
      "latitude": "29.939600343768642",
      "longitude": "-90.01038327435029"
    }
  },
  {
    "service_request": "2025-1245432",
    "request_type": "Trash/Recycling",
    "request_reason": "Replace Trash Cart",
    "date_created": "2025-12-13T09:54:49.000",
    "date_modified": "2025-12-13T09:54:52.000",
    "request_status": "Pending",
    "responsible_agency": "Department of Sanitation",
    "final_address": "930 Marengo St",
    "address_councildis": "B",
    "status": "Assigned to Contractor",
    "contractor": "IV Waste",
    "rowid": "1245432",
    "final_x": "3672073.32654",
    "final_y": "519195.803831",
    "longitude": "-90.09825588793635",
    "latitude": "29.92189099923054",
    "geocoded_column": {
      "latitude": "29.92189099923054",
      "longitude": "-90.09825588793635"
    }
  },
  {
    "service_request": "2025-1245431",
    "request_type": "Trash/Recycling",
    "request_reason": "Request a Large Item Pick Up",
    "date_created": "2025-12-13T09:43:27.000",
    "date_modified": "2025-12-13T09:43:29.000",
    "request_status": "Pending",
    "responsible_agency": "Department of Sanitation",
    "final_address": "5043 Stephen Girard Ave",
    "address_councildis": "D",
    "status": "Assigned to Contractor",
    "contractor": "IV Waste",
    "rowid": "1245431",
    "final_x": "3692788.96054",
    "final_y": "551337.324629",
    "longitude": "-90.03171316794797",
    "latitude": "30.00963861555871",
    "geocoded_column": {
      "latitude": "30.00963861555871",
      "longitude": "-90.03171316794797"
    }
  },
  {
    "service_request": "2025-1245430",
    "request_type": "Trash/Recycling",
    "request_reason": "Order Recycling Cart",
    "date_created": "2025-12-13T09:25:11.000",
    "date_modified": "2025-12-13T09:25:13.000",
    "request_status": "Pending",
    "responsible_agency": "Department of Sanitation",
    "final_address": "6335 Wales St",
    "address_councildis": "E",
    "status": "Pending",
    "rowid": "1245430",
    "final_x": "3696341.71344",
    "final_y": "559924.159453",
    "longitude": "-90.02017792242059",
    "latitude": "30.03313771129868",
    "geocoded_column": {
      "latitude": "30.03313771129868",
      "longitude": "-90.02017792242059"
    }
  },
  {
    "service_request": "2025-1245429",
    "request_type": "Trash/Recycling",
    "request_reason": "Order Trash Cart",
    "date_created": "2025-12-13T09:22:11.000",
    "date_modified": "2025-12-13T09:22:13.000",
    "request_status": "Pending",
    "responsible_agency": "Department of Sanitation",
    "final_address": "6338 Music St",
    "address_councildis": "D",
    "status": "Assigned to Contractor",
    "contractor": "IV Waste",
    "rowid": "1245429",
    "final_x": "3685155.99759",
    "final_y": "556560.127066",
    "longitude": "-90.05564436220845",
    "latitude": "30.024235607498646",
    "geocoded_column": {
      "latitude": "30.024235607498646",
      "longitude": "-90.05564436220845"
    }
  },
  {
    "service_request": "2025-1245428",
    "request_type": "Trash/Recycling",
    "request_reason": "Request a Large Item Pick Up",
    "date_created": "2025-12-13T08:52:03.000",
    "date_modified": "2025-12-13T08:52:05.000",
    "request_status": "Pending",
    "responsible_agency": "Department of Sanitation",
    "final_address": "2811 Hyman Pl",
    "address_councildis": "C",
    "status": "Assigned to Contractor",
    "contractor": "IV Waste",
    "rowid": "1245428",
    "final_x": "3700963.48733",
    "final_y": "520806.602809",
    "longitude": "-90.00700362372628",
    "latitude": "29.92543228038209",
    "geocoded_column": {
      "latitude": "29.92543228038209",
      "longitude": "-90.00700362372628"
    }
  },
  {
    "service_request": "2025-1245427",
    "request_type": "Trash/Recycling",
    "request_reason": "Request a Large Item Pick Up",
    "date_created": "2025-12-13T08:42:28.000",
    "date_modified": "2025-12-13T08:42:30.000",
    "request_status": "Pending",
    "responsible_agency": "Department of Sanitation",
    "final_address": "6219 Craigie Rd",
    "address_councildis": "E",
    "status": "Assigned to Contractor",
    "contractor": "Waste Pro",
    "rowid": "1245427",
    "final_x": "3696176.07197",
    "final_y": "558978.179164",
    "longitude": "-90.02073560742771",
    "latitude": "30.030541846644436",
    "geocoded_column": {
      "latitude": "30.030541846644436",
      "longitude": "-90.02073560742771"
    }
  },
  {
    "service_request": "2025-1245426",
    "request_type": "General Services",
    "request_reason": "General Service Request",
    "date_created": "2025-12-13T08:13:52.000",
    "date_modified": "2025-12-13T08:13:53.000",
    "request_status": "Pending",
    "responsible_agency": "Orleans Parish Communication District",
    "final_address": "302 S Clark St",
    "address_councildis": "B",
    "status": "Pending",
    "rowid": "1245426",
    "final_x": "3672385.2059",
    "final_y": "536309.398791",
    "longitude": "-90.09668840105334",
    "latitude": "29.96893852834716",
    "geocoded_column": {
      "latitude": "29.96893852834716",
      "longitude": "-90.09668840105334"
    }
  },
  {
    "service_request": "2025-1245425",
    "request_type": "Drainage",
    "request_reason": "Illegal Dumping (Sewer Odor)",
    "date_created": "2025-12-13T07:37:41.000",
    "date_modified": "2025-12-13T07:37:43.000",
    "request_status": "Pending",
    "responsible_agency": "Sewerage & Water Board",
    "final_address": "0 BLK Acadiana Pl",
    "address_councildis": "E",
    "status": "Pending",
    "rowid": "1245425",
    "final_x": "3725131.4083",
    "final_y": "564393.680055",
    "longitude": "-89.92902788187175",
    "latitude": "30.04448842646984",
    "geocoded_column": {
      "latitude": "30.04448842646984",
      "longitude": "-89.92902788187175"
    }
  },
  {
    "service_request": "2025-1245424",
    "request_type": "Drainage",
    "request_reason": "Illegal Dumping (Sewer Odor)",
    "date_created": "2025-12-13T07:34:26.000",
    "date_modified": "2025-12-13T07:34:28.000",
    "request_status": "Pending",
    "responsible_agency": "Sewerage & Water Board",
    "final_address": "3115 Desaix Blvd",
    "address_councildis": "D",
    "status": "Pending",
    "rowid": "1245424",
    "final_x": "3678942.76366",
    "final_y": "543622.15547",
    "longitude": "-90.07572573608022",
    "latitude": "29.98884984919293",
    "geocoded_column": {
      "latitude": "29.98884984919293",
      "longitude": "-90.07572573608022"
    }
  },
  {
    "service_request": "2025-1245423",
    "request_type": "Trash/Recycling",
    "request_reason": "Missed Trash Pick-Up",
    "date_created": "2025-12-13T07:33:41.000",
    "date_modified": "2025-12-13T08:12:15.000",
    "case_close_date": "2025-12-13T02:12:14.000",
    "request_status": "Closed",
    "responsible_agency": "Department of Sanitation",
    "final_address": "2204 Octavia St",
    "address_councildis": "A",
    "status": "Assigned to Contractor",
    "contractor": "IV Waste",
    "contractor_action": "Completed",
    "rowid": "1245423",
    "final_x": "3667456.33172",
    "final_y": "523772.683899",
    "longitude": "-90.11267593212925",
    "latitude": "29.934611998580188",
    "geocoded_column": {
      "latitude": "29.934611998580188",
      "longitude": "-90.11267593212925"
    }
  },
  {
    "service_request": "2025-1245422",
    "request_type": "Trash/Recycling",
    "request_reason": "Request a Large Item Pick Up",
    "date_created": "2025-12-13T07:15:56.000",
    "date_modified": "2025-12-13T07:15:58.000",
    "request_status": "Pending",
    "responsible_agency": "Department of Sanitation",
    "final_address": "611 OKeefe Ave",
    "address_councildis": "B",
    "status": "Assigned to Contractor",
    "contractor": "IV Waste",
    "rowid": "1245422",
    "final_x": "3679355.91375",
    "final_y": "529017.045504",
    "longitude": "-90.07492737207814",
    "latitude": "29.948678324365698",
    "geocoded_column": {
      "latitude": "29.948678324365698",
      "longitude": "-90.07492737207814"
    }
  },
  {
    "service_request": "2025-1245421",
    "request_type": "Health Related Request",
    "request_reason": "Noise Ordinance Complaint",
    "date_created": "2025-12-13T00:45:32.000",
    "date_modified": "2025-12-13T00:45:33.000",
    "request_status": "Pending",
    "responsible_agency": "Health Department",
    "final_address": "1647 Pratt Dr, New Orleans, Louisiana, 70122",
    "address_councildis": "D",
    "status": "Pending",
    "rowid": "1245421",
    "final_x": "3679755.70536",
    "final_y": "548826.704659",
    "longitude": "-90.07297707551155",
    "latitude": "30.003135959457648",
    "geocoded_column": {
      "latitude": "30.003135959457648",
      "longitude": "-90.07297707551155"
    }
  },
  {
    "service_request": "2025-1245420",
    "request_type": "Trash/Recycling",
    "request_reason": "Replace Trash Cart",
    "date_created": "2025-12-13T00:23:35.000",
    "date_modified": "2025-12-13T00:23:37.000",
    "request_status": "Pending",
    "responsible_agency": "Department of Sanitation",
    "final_address": "1726 Toledano St",
    "address_councildis": "B",
    "status": "Assigned to Contractor",
    "contractor": "IV Waste",
    "rowid": "1245420",
    "final_x": "3674296.04513",
    "final_y": "522259.246714",
    "longitude": "-90.09113486349497",
    "latitude": "29.930248415677898",
    "geocoded_column": {
      "latitude": "29.930248415677898",
      "longitude": "-90.09113486349497"
    }
  },
  {
    "service_request": "2025-1245419",
    "request_type": "Health Related Request",
    "request_reason": "Noise Ordinance Complaint",
    "date_created": "2025-12-13T00:15:32.000",
    "date_modified": "2025-12-13T00:15:34.000",
    "request_status": "Pending",
    "responsible_agency": "Health Department",
    "final_address": "1647 Pratt Dr, New Orleans, Louisiana, 70122",
    "address_councildis": "D",
    "status": "Pending",
    "rowid": "1245419",
    "final_x": "3679755.70536",
    "final_y": "548826.704659",
    "longitude": "-90.07297707551155",
    "latitude": "30.003135959457648",
    "geocoded_column": {
      "latitude": "30.003135959457648",
      "longitude": "-90.07297707551155"
    }
  },
  {
    "service_request": "2025-1245418",
    "request_type": "Safety & Permits",
    "request_reason": "Zoning Enforcement",
    "date_created": "2025-12-12T23:50:06.000",
    "date_modified": "2025-12-12T23:50:08.000",
    "request_status": "Pending",
    "responsible_agency": "Safety and Permits",
    "final_address": "4401 Knight Dr",
    "address_councildis": "E",
    "status": "Pending",
    "rowid": "1245418",
    "final_x": "3708389.25656",
    "final_y": "553724.823511",
    "longitude": "-89.98233782673758",
    "latitude": "30.0157068235578",
    "geocoded_column": {
      "latitude": "30.0157068235578",
      "longitude": "-89.98233782673758"
    }
  },
  {
    "service_request": "2025-1245417",
    "request_type": "Trash/Recycling",
    "request_reason": "Request a Large Item Pick Up",
    "date_created": "2025-12-12T21:48:47.000",
    "date_modified": "2025-12-12T21:48:49.000",
    "request_status": "Pending",
    "responsible_agency": "Department of Sanitation",
    "final_address": "3930 Palmyra St",
    "address_councildis": "A",
    "status": "Assigned to Contractor",
    "contractor": "IV Waste",
    "rowid": "1245417",
    "final_x": "3671059.70279",
    "final_y": "537247.421704",
    "longitude": "-90.10084257307058",
    "latitude": "29.971557044538482",
    "geocoded_column": {
      "latitude": "29.971557044538482",
      "longitude": "-90.10084257307058"
    }
  },
  {
    "service_request": "2025-1245416",
    "request_type": "Health Related Request",
    "request_reason": "Noise Ordinance Complaint",
    "date_created": "2025-12-12T20:59:43.000",
    "date_modified": "2025-12-12T20:59:45.000",
    "request_status": "Pending",
    "responsible_agency": "Health Department",
    "final_address": "2205 Second St",
    "address_councildis": "B",
    "status": "Pending",
    "rowid": "1245416",
    "final_x": "3675496.04046",
    "final_y": "524934.101117",
    "longitude": "-90.08725483671378",
    "latitude": "29.937567567994897",
    "geocoded_column": {
      "latitude": "29.937567567994897",
      "longitude": "-90.08725483671378"
    }
  },
  {
    "service_request": "2025-1245415",
    "request_type": "Trash/Recycling",
    "request_reason": "Return Recycling Cart",
    "date_created": "2025-12-12T20:23:44.000",
    "date_modified": "2025-12-12T20:23:47.000",
    "request_status": "Pending",
    "responsible_agency": "Department of Sanitation",
    "final_address": "5708 Tchoupitoulas St",
    "address_councildis": "A",
    "status": "Pending",
    "rowid": "1245415",
    "final_x": "3665352.3442",
    "final_y": "517178.240629",
    "longitude": "-90.1195387365131",
    "latitude": "29.916540817981687",
    "geocoded_column": {
      "latitude": "29.916540817981687",
      "longitude": "-90.1195387365131"
    }
  },
  {
    "service_request": "2025-1245414",
    "request_type": "Trash/Recycling",
    "request_reason": "Repair Recycling Cart",
    "date_created": "2025-12-12T19:52:32.000",
    "date_modified": "2025-12-12T19:52:34.000",
    "request_status": "Pending",
    "responsible_agency": "Department of Sanitation",
    "final_address": "531 Olivier St",
    "address_councildis": "C",
    "status": "Pending",
    "rowid": "1245414",
    "final_x": "3687234.60278",
    "final_y": "529666.418945",
    "longitude": "-90.0500281062772",
    "latitude": "29.95022360829836",
    "geocoded_column": {
      "latitude": "29.95022360829836",
      "longitude": "-90.0500281062772"
    }
  },
  {
    "service_request": "2025-1245413",
    "request_type": "Abandoned Vehicles",
    "request_reason": "Abandoned/Junk Vehicles",
    "date_created": "2025-12-12T19:16:19.000",
    "date_modified": "2025-12-12T19:16:22.000",
    "request_status": "Pending",
    "responsible_agency": "Department of Public Works",
    "final_address": "1171 Magazine St",
    "address_councildis": "B",
    "status": "Pending",
    "rowid": "1245413",
    "final_x": "3680628.14703",
    "final_y": "525733.416637",
    "longitude": "-90.07102460998212",
    "latitude": "29.939610961821636",
    "geocoded_column": {
      "latitude": "29.939610961821636",
      "longitude": "-90.07102460998212"
    }
  },
  {
    "service_request": "2025-1245412",
    "request_type": "Trash/Recycling",
    "request_reason": "Order Trash Cart",
    "date_created": "2025-12-12T19:06:35.000",
    "date_modified": "2025-12-12T19:06:37.000",
    "request_status": "Pending",
    "responsible_agency": "Department of Sanitation",
    "final_address": "935 Barracks St",
    "address_councildis": "C",
    "status": "Assigned to Contractor",
    "contractor": "IV Waste",
    "rowid": "1245412",
    "final_x": "3683086.21858",
    "final_y": "534841.932102",
    "longitude": "-90.06294532425949",
    "latitude": "29.96458160274991",
    "geocoded_column": {
      "latitude": "29.96458160274991",
      "longitude": "-90.06294532425949"
    }
  },
  {
    "service_request": "2025-1245411",
    "request_type": "Trash/Recycling",
    "request_reason": "Request a Large Item Pick Up",
    "date_created": "2025-12-12T18:49:03.000",
    "date_modified": "2025-12-12T18:49:05.000",
    "request_status": "Pending",
    "responsible_agency": "Department of Sanitation",
    "final_address": "5925 Milne St",
    "address_councildis": "A",
    "status": "Assigned to Contractor",
    "contractor": "IV Waste",
    "rowid": "1245411",
    "final_x": "3667058.49441",
    "final_y": "547168.739217",
    "longitude": "-90.11314536680152",
    "latitude": "29.998955036820576",
    "geocoded_column": {
      "latitude": "29.998955036820576",
      "longitude": "-90.11314536680152"
    }
  },
  {
    "service_request": "2025-1245410",
    "request_type": "Trash/Recycling",
    "request_reason": "Missed Trash Pick-Up",
    "date_created": "2025-12-12T18:41:13.000",
    "date_modified": "2025-12-13T06:54:42.000",
    "case_close_date": "2025-12-13T00:54:41.000",
    "request_status": "Closed",
    "responsible_agency": "Department of Sanitation",
    "final_address": "2204 Octavia St",
    "address_councildis": "A",
    "status": "Invalid Request",
    "contractor": "IV Waste",
    "contractor_action": "Invalid",
    "rowid": "1245410",
    "final_x": "3667456.33172",
    "final_y": "523772.683899",
    "longitude": "-90.11267593212925",
    "latitude": "29.934611998580188",
    "geocoded_column": {
      "latitude": "29.934611998580188",
      "longitude": "-90.11267593212925"
    }
  },
  {
    "service_request": "2025-1245409",
    "request_type": "Abandoned Vehicles",
    "request_reason": "Abandoned/Junk Vehicles",
    "date_created": "2025-12-12T18:36:06.000",
    "date_modified": "2025-12-12T18:36:08.000",
    "request_status": "Pending",
    "responsible_agency": "Department of Public Works",
    "final_address": "8724 Plum St",
    "address_councildis": "A",
    "status": "Pending",
    "rowid": "1245409",
    "final_x": "3660429.61171",
    "final_y": "530188.754305",
    "longitude": "-90.13464736807991",
    "latitude": "29.952458112775656",
    "geocoded_column": {
      "latitude": "29.952458112775656",
      "longitude": "-90.13464736807991"
    }
  },
  {
    "service_request": "2025-1245408",
    "request_type": "Trash/Recycling",
    "request_reason": "Request a Large Item Pick Up",
    "date_created": "2025-12-12T18:29:54.000",
    "date_modified": "2025-12-12T18:29:56.000",
    "request_status": "Pending",
    "responsible_agency": "Department of Sanitation",
    "final_address": "1510 Sumner St",
    "address_councildis": "C",
    "status": "Assigned to Contractor",
    "contractor": "IV Waste",
    "rowid": "1245408",
    "final_x": "3691060.00483",
    "final_y": "525811.519741",
    "longitude": "-90.03808713392915",
    "latitude": "29.93950559923464",
    "geocoded_column": {
      "latitude": "29.93950559923464",
      "longitude": "-90.03808713392915"
    }
  },
  {
    "service_request": "2025-1245407",
    "request_type": "Trash/Recycling",
    "request_reason": "Request a Large Item Pick Up",
    "date_created": "2025-12-12T18:10:15.000",
    "date_modified": "2025-12-12T18:10:19.000",
    "request_status": "Pending",
    "responsible_agency": "Department of Sanitation",
    "final_address": "3121 Orleans Ave",
    "address_councildis": "A",
    "status": "Assigned to Contractor",
    "contractor": "IV Waste",
    "rowid": "1245407",
    "final_x": "3675182.12865",
    "final_y": "538290.144969",
    "longitude": "-90.08778752934143",
    "latitude": "29.974301609846606",
    "geocoded_column": {
      "latitude": "29.974301609846606",
      "longitude": "-90.08778752934143"
    }
  },