[
  {
    "service_request": "2026-1295379",
    "request_type": "Trash/Recycling",
    "request_reason": "Repair Trash Cart",
    "date_created": "2026-06-29T23:33:08.000",
    "date_modified": "2026-06-29T23:33:11.000",
    "request_status": "Pending",
    "responsible_agency": "Department of Sanitation",
    "final_address": "1608 St Roch Ave",
    "address_councildis": "D",
    "status": "Assigned to Contractor",
    "contractor": "IV Waste",
    "rowid": "1295379",
    "final_x": "3686242.92745",
    "final_y": "538358.440649",
    "longitude": "-90.05285259097836",
    "latitude": "29.974154165029574",
    "geocoded_column": {
      "latitude": "29.974154165029574",
      "longitude": "-90.05285259097836"
    }
  },
  {
    "service_request": "2026-1295378",
    "request_type": "Streetlights",
    "request_reason": "New Streetlight Request",
    "date_created": "2026-06-29T22:51:57.000",
    "date_modified": "2026-06-29T22:52:01.000",
    "request_status": "Pending",
    "responsible_agency": "Department of Public Works",
    "final_address": "2759 Dumaine St",
    "address_councildis": "C",
    "status": "Pending",
    "rowid": "1295378",
    "final_x": "3676762.51457",
    "final_y": "537876.907401",
    "longitude": "-90.08281053878025",
    "latitude": "29.973118016883944",
    "geocoded_column": {
      "latitude": "29.973118016883944",
      "longitude": "-90.08281053878025"
    }
  },
  {
    "service_request": "2026-1295377",
    "request_type": "Trash/Recycling",
    "request_reason": "Return Recycling Cart",
    "date_created": "2026-06-29T22:29:15.000",
    "date_modified": "2026-06-29T22:29:19.000",
    "request_status": "Pending",
    "responsible_agency": "Department of Sanitation",
    "final_address": "3711 Danneel St",
    "address_councildis": "B",
    "status": "Pending",
    "rowid": "1295377",
    "final_x": "3672691.58753",
    "final_y": "522582.621946",
    "longitude": "-90.09618886943838",
    "latitude": "29.93118532309063",
    "geocoded_column": {
      "latitude": "29.93118532309063",
      "longitude": "-90.09618886943838"
    }
  },
  {
    "service_request": "2026-1295376",
    "request_type": "Trash/Recycling",
    "request_reason": "Missed Trash Pick-Up",
    "date_created": "2026-06-29T22:08:54.000",
    "date_modified": "2026-06-29T22:08:56.000",
    "request_status": "Pending",
    "responsible_agency": "Department of Sanitation",
    "final_address": "7640 Expedition Dr",
    "address_councildis": "E",
    "status": "Assigned to Contractor",
    "contractor": "Waste Pro",
    "rowid": "1295376",
    "final_x": "3725826.94848",
    "final_y": "571329.997032",
    "longitude": "-89.92656055009786",
    "latitude": "30.063536926951034",
    "geocoded_column": {
      "latitude": "30.063536926951034",
      "longitude": "-89.92656055009786"
    }
  },
  {
    "service_request": "2026-1295375",
    "request_type": "Trash/Recycling",
    "request_reason": "Request a Large Item Pick Up",
    "date_created": "2026-06-29T22:07:19.000",
    "date_modified": "2026-06-29T22:07:21.000",
    "request_status": "Pending",
    "responsible_agency": "Department of Sanitation",
    "final_address": "7880 Means Ave",
    "address_councildis": "E",
    "status": "Assigned to Contractor",
    "contractor": "Waste Pro",
    "rowid": "1295375",
    "final_x": "3707611.89572",
    "final_y": "565449.050274",
    "longitude": "-89.98435781075472",
    "latitude": "30.047969013102396",
    "geocoded_column": {
      "latitude": "30.047969013102396",
      "longitude": "-89.98435781075472"
    }
  },
  {
    "service_request": "2026-1295374",
    "request_type": "Trash/Recycling",
    "request_reason": "Repair Recycling Cart",
    "date_created": "2026-06-29T21:58:10.000",
    "date_modified": "2026-06-29T21:58:14.000",
    "request_status": "Pending",
    "responsible_agency": "Department of Sanitation",
    "final_address": "934 French St",
    "address_councildis": "A",
    "status": "Pending",
    "rowid": "1295374",
    "final_x": "3670326.09082",
    "final_y": "548341.10069",
    "longitude": "-90.10278317827299",
    "latitude": "30.002082541126118",
    "geocoded_column": {
      "latitude": "30.002082541126118",
      "longitude": "-90.10278317827299"
    }
  },
  {
    "service_request": "2026-1295373",
    "request_type": "Trash/Recycling",
    "request_reason": "Order Recycling Cart",
    "date_created": "2026-06-29T21:24:02.000",
    "date_modified": "2026-06-29T21:24:13.000",
    "request_status": "Pending",
    "responsible_agency": "Department of Sanitation",
    "final_address": "2601 Palmyra St",
    "address_councildis": "B",
    "status": "Pending",
    "rowid": "1295373",
    "final_x": "3675316.71963",
    "final_y": "534176.857733",
    "longitude": "-90.08750370228708",
    "latitude": "29.962987441104396",
    "geocoded_column": {
      "latitude": "29.962987441104396",
      "longitude": "-90.08750370228708"
    }
  },
  {
    "service_request": "2026-1295372",
    "request_type": "Trash/Recycling",
    "request_reason": "Repair Trash Cart",
    "date_created": "2026-06-29T21:23:17.000",
    "date_modified": "2026-06-29T21:23:19.000",
    "request_status": "Pending",
    "responsible_agency": "Department of Sanitation",
    "final_address": "6255 London Ave",
    "address_councildis": "D",
    "status": "Assigned to Contractor",
    "contractor": "IV Waste",
    "rowid": "1295372",
    "final_x": "3680597.22043",
    "final_y": "555968.909593",
    "longitude": "-90.07006985091758",
    "latitude": "30.022748961420046",
    "geocoded_column": {
      "latitude": "30.022748961420046",
      "longitude": "-90.07006985091758"
    }
  },
  {
    "service_request": "2026-1295371",
    "request_type": "Trash/Recycling",
    "request_reason": "Request a Large Item Pick Up",
    "date_created": "2026-06-29T21:21:55.000",
    "date_modified": "2026-06-29T21:21:57.000",
    "request_status": "Pending",
    "responsible_agency": "Department of Sanitation",
    "final_address": "6255 London Ave",
    "address_councildis": "D",
    "status": "Assigned to Contractor",
    "contractor": "IV Waste",
    "rowid": "1295371",
    "final_x": "3680597.22043",
    "final_y": "555968.909593",
    "longitude": "-90.07006985091758",
    "latitude": "30.022748961420046",
    "geocoded_column": {
      "latitude": "30.022748961420046",
      "longitude": "-90.07006985091758"
    }
  },
  {
    "service_request": "2026-1295370",
    "request_type": "Roads and Streets",
    "request_reason": "Pothole",
    "date_created": "2026-06-29T21:05:39.000",
    "date_modified": "2026-06-29T21:05:41.000",
    "request_status": "Pending",
    "responsible_agency": "Department of Public Works",
    "final_address": "8916 Cohn St",
    "address_councildis": "A",
    "status": "Pending",
    "rowid": "1295370",
    "final_x": "3661373.40493",
    "final_y": "532185.631043",
    "longitude": "-90.13160115602561",
    "latitude": "29.95792169793959",
    "geocoded_column": {
      "latitude": "29.95792169793959",
      "longitude": "-90.13160115602561"
    }
  },
  {
    "service_request": "2026-1295369",
    "request_type": "Roads and Streets",
    "request_reason": "Pothole",
    "date_created": "2026-06-29T21:05:15.000",
    "date_modified": "2026-06-29T21:05:16.000",
    "request_status": "Pending",
    "responsible_agency": "Department of Public Works",
    "final_address": "624 Eliza St",
    "address_councildis": "C",
    "status": "Pending",
    "rowid": "1295369",
    "final_x": "3687391.50902",
    "final_y": "530004.746305",
    "longitude": "-90.04952071139542",
    "latitude": "29.95114905984249",
    "geocoded_column": {
      "latitude": "29.95114905984249",
      "longitude": "-90.04952071139542"
    }
  },
  {
    "service_request": "2026-1295368",
    "request_type": "Drainage",
    "request_reason": "Catch Basin Not Draining",
    "date_created": "2026-06-29T21:04:18.000",
    "date_modified": "2026-06-29T21:04:19.000",
    "request_status": "Pending",
    "responsible_agency": "Sewerage & Water Board",
    "final_address": "8916 Cohn St",
    "address_councildis": "A",
    "status": "Pending",
    "rowid": "1295368",
    "final_x": "3661373.40493",
    "final_y": "532185.631043",
    "longitude": "-90.13160115602561",
    "latitude": "29.95792169793959",
    "geocoded_column": {
      "latitude": "29.95792169793959",
      "longitude": "-90.13160115602561"
    }
  },
  {
    "service_request": "2026-1295367",
    "request_type": "Streetlights",
    "request_reason": "Streetlight Outage/Malfunction",
    "date_created": "2026-06-29T21:02:31.000",
    "date_modified": "2026-06-29T21:02:33.000",
    "request_status": "Pending",
    "responsible_agency": "Department of Public Works",
    "final_address": "217 S Salcedo St",
    "address_councildis": "B",
    "status": "Pending",
    "rowid": "1295367",
    "final_x": "3673670.44193",
    "final_y": "535659.17639",
    "longitude": "-90.09265176907067",
    "latitude": "29.967112433400494",
    "geocoded_column": {
      "latitude": "29.967112433400494",
      "longitude": "-90.09265176907067"
    }
  },
  {
    "service_request": "2026-1295366",
    "request_type": "Roads and Streets",
    "request_reason": "Sidewalk Damaged or Missing",
    "date_created": "2026-06-29T20:57:27.000",
    "date_modified": "2026-06-29T20:57:28.000",
    "request_status": "Pending",
    "responsible_agency": "Department of Public Works",
    "final_address": "8916 Cohn St",
    "address_councildis": "A",
    "status": "Pending",
    "rowid": "1295366",
    "final_x": "3661373.40493",
    "final_y": "532185.631043",
    "longitude": "-90.13160115602561",
    "latitude": "29.95792169793959",
    "geocoded_column": {
      "latitude": "29.95792169793959",
      "longitude": "-90.13160115602561"
    }
  },
  {
    "service_request": "2026-1295365",
    "request_type": "Roads and Streets",
    "request_reason": "Sidewalk Damaged or Missing",
    "date_created": "2026-06-29T20:56:31.000",
    "date_modified": "2026-06-29T20:56:32.000",
    "request_status": "Pending",
    "responsible_agency": "Department of Public Works",
    "final_address": "8916 Cohn St",
    "address_councildis": "A",
    "status": "Pending",
    "rowid": "1295365",
    "final_x": "3661373.40493",
    "final_y": "532185.631043",
    "longitude": "-90.13160115602561",
    "latitude": "29.95792169793959",
    "geocoded_column": {
      "latitude": "29.95792169793959",
      "longitude": "-90.13160115602561"
    }
  },
  {
    "service_request": "2026-1295364",
    "request_type": "Roads and Streets",
    "request_reason": "Sidewalk Damaged or Missing",
    "date_created": "2026-06-29T20:54:43.000",
    "date_modified": "2026-06-29T20:54:45.000",
    "request_status": "Pending",
    "responsible_agency": "Department of Public Works",
    "final_address": "8916 Cohn St",
    "address_councildis": "A",
    "status": "Pending",
    "rowid": "1295364",
    "final_x": "3661373.40493",
    "final_y": "532185.631043",
    "longitude": "-90.13160115602561",
    "latitude": "29.95792169793959",
    "geocoded_column": {
      "latitude": "29.95792169793959",
      "longitude": "-90.13160115602561"
    }
  },
  {
    "service_request": "2026-1295363",
    "request_type": "Roads and Streets",
    "request_reason": "Sidewalk Damaged or Missing",
    "date_created": "2026-06-29T20:53:22.000",
    "date_modified": "2026-06-29T20:53:24.000",
    "request_status": "Pending",
    "responsible_agency": "Department of Public Works",
    "final_address": "8916 Cohn St",
    "address_councildis": "A",
    "status": "Pending",
    "rowid": "1295363",
    "final_x": "3661373.40493",
    "final_y": "532185.631043",
    "longitude": "-90.13160115602561",
    "latitude": "29.95792169793959",
    "geocoded_column": {
      "latitude": "29.95792169793959",
      "longitude": "-90.13160115602561"
    }
  },
  {
    "service_request": "2026-1295362",
    "request_type": "Roads and Streets",
    "request_reason": "Sidewalk Damaged or Missing",
    "date_created": "2026-06-29T20:49:54.000",
    "date_modified": "2026-06-29T20:49:57.000",
    "request_status": "Pending",
    "responsible_agency": "Department of Public Works",
    "final_address": "8916 Cohn St",
    "address_councildis": "A",
    "status": "Pending",
    "rowid": "1295362",
    "final_x": "3661373.40493",
    "final_y": "532185.631043",
    "longitude": "-90.13160115602561",
    "latitude": "29.95792169793959",
    "geocoded_column": {
      "latitude": "29.95792169793959",
      "longitude": "-90.13160115602561"
    }
  },
  {
    "service_request": "2026-1295361",
    "request_type": "Trash/Recycling",
    "request_reason": "Replace Recycling Cart",
    "date_created": "2026-06-29T20:46:08.000",
    "date_modified": "2026-06-29T20:46:11.000",
    "request_status": "Pending",
    "responsible_agency": "Department of Sanitation",
    "final_address": "893 Navarre St",
    "address_councildis": "A",
    "status": "Pending",
    "rowid": "1295361",
    "final_x": "3669458.82388",
    "final_y": "543818.618062",
    "longitude": "-90.10567605398832",
    "latitude": "29.989672856823372",
    "geocoded_column": {
      "latitude": "29.989672856823372",
      "longitude": "-90.10567605398832"
    }
  },
  {
    "service_request": "2026-1295360",
    "request_type": "Parks & Grass Service",
    "request_reason": "Request Grass Cutting Service (City Owned Property)",
    "date_created": "2026-06-29T20:35:20.000",
    "date_modified": "2026-06-29T20:35:22.000",
    "request_status": "Pending",
    "responsible_agency": "Department of Parks & Parkways",
    "final_address": "5306 Constance St",
    "address_councildis": "B",
    "status": "Pending",
    "rowid": "1295360",
    "final_x": "3667357.48333",
    "final_y": "518239.946166",
    "longitude": "-90.11317399202672",
    "latitude": "29.919401618218274",
    "geocoded_column": {
      "latitude": "29.919401618218274",
      "longitude": "-90.11317399202672"
    }
  },
  {
    "service_request": "2026-1295359",
    "request_type": "Trash/Recycling",
    "request_reason": "Request a Large Item Pick Up",
    "date_created": "2026-06-29T20:32:25.000",
    "date_modified": "2026-06-29T20:32:27.000",
    "request_status": "Pending",
    "responsible_agency": "Department of Sanitation",
    "final_address": "6211 Providence Pl",
    "address_councildis": "D",
    "status": "Assigned to Contractor",
    "contractor": "IV Waste",
    "rowid": "1295359",
    "final_x": "3688364.15311",
    "final_y": "556398.879834",
    "longitude": "-90.04551293459805",
    "latitude": "30.02369348472246",
    "geocoded_column": {
      "latitude": "30.02369348472246",
      "longitude": "-90.04551293459805"
    }
  },
  {
    "service_request": "2026-1295358",
    "request_type": "Trash/Recycling",
    "request_reason": "Order Second Trash Cart",
    "date_created": "2026-06-29T20:29:33.000",
    "date_modified": "2026-06-29T20:29:35.000",
    "request_status": "Pending",
    "responsible_agency": "Department of Sanitation",
    "final_address": "2335 Odin St",
    "address_councildis": "D",
    "status": "Assigned to Contractor",
    "contractor": "IV Waste",
    "rowid": "1295358",
    "final_x": "3684730.49481",
    "final_y": "553162.137943",
    "longitude": "-90.05710845837018",
    "latitude": "30.014905427330458",
    "geocoded_column": {
      "latitude": "30.014905427330458",
      "longitude": "-90.05710845837018"
    }
  },
  {
    "service_request": "2026-1295357",
    "request_type": "Health Related Request",
    "request_reason": "Noise Ordinance Complaint",
    "date_created": "2026-06-29T20:29:19.000",
    "date_modified": "2026-06-29T20:29:22.000",
    "request_status": "Pending",
    "responsible_agency": "Health Department",
    "final_address": "2019 Chartres St",
    "address_councildis": "C",
    "status": "Pending",
    "rowid": "1295357",
    "final_x": "3684693.77045",
    "final_y": "534503.923653",
    "longitude": "-90.057880682074",
    "latitude": "29.963603091488086",
    "geocoded_column": {
      "latitude": "29.963603091488086",
      "longitude": "-90.057880682074"
    }
  },
  {
    "service_request": "2026-1295356",
    "request_type": "Trash/Recycling",
    "request_reason": "Request a Large Item Pick Up",
    "date_created": "2026-06-29T20:18:16.000",
    "date_modified": "2026-06-29T20:18:18.000",
    "request_status": "Pending",
    "responsible_agency": "Department of Sanitation",
    "final_address": "338 Elmira Ave",
    "address_councildis": "C",
    "status": "Assigned to Contractor",
    "contractor": "Richards Disposal",
    "rowid": "1295356",
    "final_x": "3688272.96521",
    "final_y": "530431.684802",
    "longitude": "-90.04672238239118",
    "latitude": "29.952295809200677",
    "geocoded_column": {
      "latitude": "29.952295809200677",
      "longitude": "-90.04672238239118"
    }
  },
  {
    "service_request": "2026-1295355",
    "request_type": "Trash/Recycling",
    "request_reason": "Request a Large Item Pick Up",
    "date_created": "2026-06-29T20:15:38.000",
    "date_modified": "2026-06-29T20:15:39.000",
    "request_status": "Pending",
    "responsible_agency": "Department of Sanitation",
    "final_address": "7724 Mercier St",
    "address_councildis": "E",
    "status": "Assigned to Contractor",
    "contractor": "Waste Pro",
    "rowid": "1295355",
    "final_x": "3711162.58014",
    "final_y": "566846.989476",
    "longitude": "-89.97308329206345",
    "latitude": "30.05169736394223",
    "geocoded_column": {
      "latitude": "30.05169736394223",
      "longitude": "-89.97308329206345"
    }
  },
  {
    "service_request": "2026-1295354",
    "request_type": "Trash/Recycling",
    "request_reason": "Illegal Dumping",
    "date_created": "2026-06-29T20:01:20.000",
    "date_modified": "2026-06-29T20:01:22.000",
    "request_status": "Pending",
    "responsible_agency": "Department of Sanitation",
    "final_address": "1305 Coliseum St",
    "address_councildis": "B",
    "status": "Pending",
    "rowid": "1295354",
    "final_x": "3680029.20379",
    "final_y": "525292.948797",
    "longitude": "-90.07293085212294",
    "latitude": "29.938417950685817",
    "geocoded_column": {
      "latitude": "29.938417950685817",
      "longitude": "-90.07293085212294"
    }
  },
  {
    "service_request": "2026-1295353",
    "request_type": "Roads and Streets",
    "request_reason": "Pothole",
    "date_created": "2026-06-29T19:59:36.000",
    "date_modified": "2026-06-29T19:59:39.000",
    "request_status": "Pending",
    "responsible_agency": "Department of Public Works",
    "final_address": "3900 Prytania St",
    "address_councildis": "B",
    "status": "Pending",
    "rowid": "1295353",
    "final_x": "3672723.27707",
    "final_y": "520461.066168",
    "longitude": "-90.0961611426503",
    "latitude": "29.9253507863756",
    "geocoded_column": {
      "latitude": "29.9253507863756",
      "longitude": "-90.0961611426503"
    }
  },
  {
    "service_request": "2026-1295352",
    "request_type": "Property Maintenance",
    "request_reason": "Property Maintenance",
    "date_created": "2026-06-29T19:54:24.000",
    "date_modified": "2026-06-29T19:54:27.000",
    "request_status": "Pending",
    "responsible_agency": "Department of Code Enforcement",
    "final_address": "2521 Dryades St",
    "address_councildis": "B",
    "status": "Pending",
    "rowid": "1295352",
    "final_x": "3675923.48942",
    "final_y": "523880.847356",
    "longitude": "-90.08594154690756",
    "latitude": "29.934658676203817",
    "geocoded_column": {
      "latitude": "29.934658676203817",
      "longitude": "-90.08594154690756"
    }
  },
  {
    "service_request": "2026-1295351",
    "request_type": "Trash/Recycling",
    "request_reason": "Repair Trash Cart",
    "date_created": "2026-06-29T19:42:35.000",
    "date_modified": "2026-06-29T19:42:37.000",
    "request_status": "Pending",
    "responsible_agency": "Department of Sanitation",
    "final_address": "523 Jena St",
    "address_councildis": "B",
    "status": "Assigned to Contractor",
    "contractor": "IV Waste",
    "rowid": "1295351",
    "final_x": "3670815.85492",
    "final_y": "517632.57375",
    "longitude": "-90.10227821817186",
    "latitude": "29.917629821534334",
    "geocoded_column": {
      "latitude": "29.917629821534334",
      "longitude": "-90.10227821817186"
    }
  },
  {
    "service_request": "2026-1295350",
    "request_type": "Parks & Grass Service",
    "request_reason": "Request Grass Cutting Service (City Owned Property)",
    "date_created": "2026-06-29T19:41:54.000",
    "date_modified": "2026-06-29T19:41:56.000",
    "request_status": "Pending",
    "responsible_agency": "Department of Parks & Parkways",
    "final_address": "1417 L. B. Landry Ave",
    "address_councildis": "C",
    "status": "Pending",
    "rowid": "1295350",
    "final_x": "3690010.25584",
    "final_y": "526184.84947",
    "longitude": "-90.04138803182393",
    "latitude": "29.94056471537336",
    "geocoded_column": {
      "latitude": "29.94056471537336",
      "longitude": "-90.04138803182393"
    }
  },
  {
    "service_request": "2026-1295349",
    "request_type": "Trash/Recycling",
    "request_reason": "Request a Large Item Pick Up",
    "date_created": "2026-06-29T19:05:00.000",
    "date_modified": "2026-06-29T19:05:03.000",
    "request_status": "Pending",
    "responsible_agency": "Department of Sanitation",
    "final_address": "4054 Fairmont Dr",
    "address_councildis": "D",
    "status": "Assigned to Contractor",
    "contractor": "IV Waste",
    "rowid": "1295349",
    "final_x": "3684584.4029",
    "final_y": "547300.264721",
    "longitude": "-90.05777621171484",
    "latitude": "29.998791874033913",
    "geocoded_column": {
      "latitude": "29.998791874033913",
      "longitude": "-90.05777621171484"
    }
  },
  {
    "service_request": "2026-1295348",
    "request_type": "Trash/Recycling",
    "request_reason": "Replace Trash Cart",
    "date_created": "2026-06-29T19:02:13.000",
    "date_modified": "2026-06-29T19:02:15.000",
    "request_status": "Pending",
    "responsible_agency": "Department of Sanitation",
    "final_address": "7730 Briarwood Dr",
    "address_councildis": "E",
    "status": "Assigned to Contractor",
    "contractor": "Waste Pro",
    "rowid": "1295348",
    "final_x": "3717078.0789",
    "final_y": "571362.623592",
    "longitude": "-89.9542146970765",
    "latitude": "30.063919073170773",
    "geocoded_column": {
      "latitude": "30.063919073170773",
      "longitude": "-89.9542146970765"
    }
  },
  {
    "service_request": "2026-1295347",
    "request_type": "Abandoned Vehicles",
    "request_reason": "Abandoned/Junk Vehicles",
    "date_created": "2026-06-29T18:58:56.000",
    "date_modified": "2026-06-29T18:58:58.000",
    "request_status": "Pending",
    "responsible_agency": "Department of Public Works",
    "final_address": "275 Walker St",
    "address_councildis": "A",
    "status": "Pending",
    "rowid": "1295347",
    "final_x": "3667573.72513",
    "final_y": "554106.736728",
    "longitude": "-90.11128398962929",
    "latitude": "30.01801701147628",
    "geocoded_column": {
      "latitude": "30.01801701147628",
      "longitude": "-90.11128398962929"
    }
  },
  {
    "service_request": "2026-1295346",
    "request_type": "Trash/Recycling",
    "request_reason": "Replace Trash Cart",
    "date_created": "2026-06-29T18:52:16.000",
    "date_modified": "2026-06-29T18:52:19.000",
    "request_status": "Pending",
    "responsible_agency": "Department of Sanitation",
    "final_address": "1772 Rousselin Dr",
    "address_councildis": "D",
    "status": "Assigned to Contractor",
    "contractor": "IV Waste",
    "rowid": "1295346",
    "final_x": "3680198.34715",
    "final_y": "541030.193803",
    "longitude": "-90.07184986622389",
    "latitude": "29.981684909764486",
    "geocoded_column": {
      "latitude": "29.981684909764486",
      "longitude": "-90.07184986622389"
    }
  },
  {
    "service_request": "2026-1295345",
    "request_type": "Abandoned Vehicles",
    "request_reason": "Abandoned/Junk Vehicles",
    "date_created": "2026-06-29T18:41:16.000",
    "date_modified": "2026-06-29T18:41:18.000",
    "request_status": "Pending",
    "responsible_agency": "Department of Public Works",
    "final_address": "1308 Philip St",
    "address_councildis": "B",
    "status": "Pending",
    "rowid": "1295345",
    "final_x": "3677996.31086",
    "final_y": "522493.31033",
    "longitude": "-90.07944562194822",
    "latitude": "29.930781194162794",
    "geocoded_column": {
      "latitude": "29.930781194162794",
      "longitude": "-90.07944562194822"
    }
  },
  {
    "service_request": "2026-1295344",
    "request_type": "Trash/Recycling",
    "request_reason": "Request a Large Item Pick Up",
    "date_created": "2026-06-29T18:30:00.000",
    "date_modified": "2026-06-29T18:30:03.000",
    "request_status": "Pending",
    "responsible_agency": "Department of Sanitation",
    "final_address": "7720 Windward Ct",
    "address_councildis": "E",
    "status": "Assigned to Contractor",
    "contractor": "Waste Pro",
    "rowid": "1295344",
    "final_x": "3715450.21931",
    "final_y": "569846.184998",
    "longitude": "-89.95941790004419",
    "latitude": "30.059803267004344",
    "geocoded_column": {
      "latitude": "30.059803267004344",
      "longitude": "-89.95941790004419"
    }
  },
  {
    "service_request": "2026-1295343",
    "request_type": "Trash/Recycling",
    "request_reason": "Request a Large Item Pick Up",
    "date_created": "2026-06-29T18:28:33.000",
    "date_modified": "2026-06-29T18:28:35.000",
    "request_status": "Pending",
    "responsible_agency": "Department of Sanitation",
    "final_address": "4743 Charlmark Dr",
    "address_councildis": "E",
    "status": "Assigned to Contractor",
    "contractor": "Waste Pro",
    "rowid": "1295343",
    "final_x": "3711512.81662",
    "final_y": "556041.107417",
    "longitude": "-89.97238197222306",
    "latitude": "30.021974064808084",
    "geocoded_column": {
      "latitude": "30.021974064808084",
      "longitude": "-89.97238197222306"
    }
  },
  {
    "service_request": "2026-1295342",
    "request_type": "Roads and Streets",
    "request_reason": "Sidewalk Damaged or Missing",
    "date_created": "2026-06-29T18:17:23.000",
    "date_modified": "2026-06-29T18:17:25.000",
    "request_status": "Pending",
    "responsible_agency": "Department of Public Works",
    "final_address": "8916 Cohn St",
    "address_councildis": "A",
    "status": "Pending",
    "rowid": "1295342",
    "final_x": "3661373.40493",
    "final_y": "532185.631043",
    "longitude": "-90.13160115602561",
    "latitude": "29.95792169793959",
    "geocoded_column": {
      "latitude": "29.95792169793959",
      "longitude": "-90.13160115602561"
    }
  },
  {
    "service_request": "2026-1295341",
    "request_type": "Roads and Streets",
    "request_reason": "Sidewalk Damaged or Missing",
    "date_created": "2026-06-29T18:15:56.000",
    "date_modified": "2026-06-29T18:15:57.000",
    "request_status": "Pending",
    "responsible_agency": "Department of Public Works",
    "final_address": "8916 Cohn St",
    "address_councildis": "A",
    "status": "Pending",
    "rowid": "1295341",
    "final_x": "3661373.40493",
    "final_y": "532185.631043",
    "longitude": "-90.13160115602561",
    "latitude": "29.95792169793959",
    "geocoded_column": {
      "latitude": "29.95792169793959",
      "longitude": "-90.13160115602561"
    }
  },
  {
    "service_request": "2026-1295340",
    "request_type": "Trash/Recycling",
    "request_reason": "Illegal Dumping",
    "date_created": "2026-06-29T18:14:11.000",
    "date_modified": "2026-06-29T18:14:13.000",
    "request_status": "Pending",
    "responsible_agency": "Department of Sanitation",
    "final_address": "8916 Cohn St",
    "address_councildis": "A",
    "status": "Pending",
    "rowid": "1295340",
    "final_x": "3661373.40493",
    "final_y": "532185.631043",
    "longitude": "-90.13160115602561",
    "latitude": "29.95792169793959",
    "geocoded_column": {
      "latitude": "29.95792169793959",
      "longitude": "-90.13160115602561"
    }
  },
  {
    "service_request": "2026-1295339",
    "request_type": "Trash/Recycling",
    "request_reason": "Illegal Dumping",
    "date_created": "2026-06-29T18:11:58.000",
    "date_modified": "2026-06-29T18:12:00.000",
    "request_status": "Pending",
    "responsible_agency": "Department of Sanitation",
    "final_address": "8916 Cohn St",
    "address_councildis": "A",
    "status": "Pending",
    "rowid": "1295339",
    "final_x": "3661373.40493",
    "final_y": "532185.631043",
    "longitude": "-90.13160115602561",
    "latitude": "29.95792169793959",
    "geocoded_column": {
      "latitude": "29.95792169793959",
      "longitude": "-90.13160115602561"
    }
  },
  {
    "service_request": "2026-1295338",
    "request_type": "Roads and Streets",
    "request_reason": "Pothole",
    "date_created": "2026-06-29T18:08:43.000",
    "date_modified": "2026-06-29T18:08:45.000",
    "request_status": "Pending",
    "responsible_agency": "Department of Public Works",
    "final_address": "8916 Cohn St",
    "address_councildis": "A",
    "status": "Pending",
    "rowid": "1295338",
    "final_x": "3661373.40493",
    "final_y": "532185.631043",
    "longitude": "-90.13160115602561",
    "latitude": "29.95792169793959",
    "geocoded_column": {
      "latitude": "29.95792169793959",
      "longitude": "-90.13160115602561"
    }
  },
  {
    "service_request": "2026-1295337",
    "request_type": "Tree Service",
    "request_reason": "Tree Trim",
    "date_created": "2026-06-29T18:06:12.000",
    "date_modified": "2026-06-29T18:06:14.000",
    "request_status": "Pending",
    "responsible_agency": "Department of Parks & Parkways",
    "final_address": "2931 Ponce De Leon St",
    "address_councildis": "A",
    "status": "Pending",
    "rowid": "1295337",
    "final_x": "3677482.46146",
    "final_y": "540531.065547",
    "longitude": "-90.08044514846974",
    "latitude": "29.980394414319647",
    "geocoded_column": {
      "latitude": "29.980394414319647",
      "longitude": "-90.08044514846974"
    }
  },
  {
    "service_request": "2026-1295336",
    "request_type": "Trash/Recycling",
    "request_reason": "Illegal Dumping",
    "date_created": "2026-06-29T18:02:25.000",
    "date_modified": "2026-06-29T18:02:27.000",
    "request_status": "Pending",
    "responsible_agency": "Department of Sanitation",
    "final_address": "8916 Cohn St",
    "address_councildis": "A",
    "status": "Pending",
    "rowid": "1295336",
    "final_x": "3661373.40493",
    "final_y": "532185.631043",
    "longitude": "-90.13160115602561",
    "latitude": "29.95792169793959",
    "geocoded_column": {
      "latitude": "29.95792169793959",
      "longitude": "-90.13160115602561"
    }
  },
  {
    "service_request": "2026-1295335",
    "request_type": "Trash/Recycling",
    "request_reason": "Missed Trash Pick-Up",
    "date_created": "2026-06-29T18:01:34.000",
    "date_modified": "2026-06-29T18:01:36.000",
    "request_status": "Pending",
    "responsible_agency": "Department of Sanitation",
    "final_address": "1729 Prytania St",
    "address_councildis": "B",
    "status": "Assigned to Contractor",
    "contractor": "IV Waste",
    "rowid": "1295335",
    "final_x": "3679148.90645",
    "final_y": "524538.366524",
    "longitude": "-90.0757361850112",
    "latitude": "29.93636969466365",
    "geocoded_column": {
      "latitude": "29.93636969466365",
      "longitude": "-90.0757361850112"
    }
  },
  {
    "service_request": "2026-1295334",
    "request_type": "Parks & Grass Service",
    "request_reason": "Request Grass Cutting Service (City Owned Property)",
    "date_created": "2026-06-29T18:01:12.000",
    "date_modified": "2026-06-29T18:01:13.000",
    "request_status": "Pending",
    "responsible_agency": "Department of Parks & Parkways",
    "final_address": "6537 Wuerpel St",
    "address_councildis": "A",
    "status": "Pending",
    "rowid": "1295334",
    "final_x": "3667105.77933",
    "final_y": "551156.181013",
    "longitude": "-90.11286182409137",
    "latitude": "30.009917733464757",
    "geocoded_column": {
      "latitude": "30.009917733464757",
      "longitude": "-90.11286182409137"
    }
  },
  {
    "service_request": "2026-1295333",
    "request_type": "Trash/Recycling",
    "request_reason": "Request a Large Item Pick Up",
    "date_created": "2026-06-29T17:52:13.000",
    "date_modified": "2026-06-29T17:52:15.000",
    "request_status": "Pending",
    "responsible_agency": "Department of Sanitation",
    "final_address": "14010 Kingswood Dr",
    "address_councildis": "E",
    "status": "Assigned to Contractor",
    "contractor": "Waste Pro",
    "rowid": "1295333",
    "final_x": "3719355.32268",
    "final_y": "568422.321189",
    "longitude": "-89.94712869413846",
    "latitude": "30.05575890777665",
    "geocoded_column": {
      "latitude": "30.05575890777665",
      "longitude": "-89.94712869413846"
    }
  },
  {
    "service_request": "2026-1295332",
    "request_type": "Abandoned Vehicles",
    "request_reason": "Abandoned/Junk Vehicles",
    "date_created": "2026-06-29T17:41:31.000",
    "date_modified": "2026-06-29T17:41:33.000",
    "request_status": "Pending",
    "responsible_agency": "Department of Public Works",
    "final_address": "2615 Marais St",
    "address_councildis": "C",
    "status": "Pending",
    "rowid": "1295332",
    "final_x": "3687341.3983",
    "final_y": "536816.907528",
    "longitude": "-90.0494379264571",
    "latitude": "29.96988169021476",
    "geocoded_column": {
      "latitude": "29.96988169021476",
      "longitude": "-90.0494379264571"
    }
  },
  {
    "service_request": "2026-1295331",
    "request_type": "Property Maintenance",
    "request_reason": "Property Maintenance",
    "date_created": "2026-06-29T17:37:54.000",
    "date_modified": "2026-06-29T17:37:56.000",
    "request_status": "Pending",
    "responsible_agency": "Department of Code Enforcement",
    "final_address": "8801 Apple St",
    "address_councildis": "A",
    "status": "Pending",
    "rowid": "1295331",
    "final_x": "3663513.92474",
    "final_y": "533832.915333",
    "longitude": "-90.12478710627276",
    "latitude": "29.962389290792732",
    "geocoded_column": {
      "latitude": "29.962389290792732",
      "longitude": "-90.12478710627276"
    }
  },
  {
    "service_request": "2026-1295330",
    "request_type": "Abandoned Vehicles",
    "request_reason": "Abandoned/Junk Vehicles",
    "date_created": "2026-06-29T17:36:14.000",
    "date_modified": "2026-06-29T17:36:17.000",
    "request_status": "Pending",
    "responsible_agency": "Department of Public Works",
    "final_address": "2240 Decatur St",
    "address_councildis": "C",
    "status": "Pending",
    "rowid": "1295330",
    "final_x": "3685489.39426",
    "final_y": "534135.923653",
    "longitude": "-90.05538115020283",
    "latitude": "29.96256684304537",
    "geocoded_column": {
      "latitude": "29.96256684304537",
      "longitude": "-90.05538115020283"
    }
  },
  {
    "service_request": "2026-1295329",
    "request_type": "Roads and Streets",
    "request_reason": "Pothole",
    "date_created": "2026-06-29T17:33:12.000",
    "date_modified": "2026-06-29T17:33:14.000",
    "request_status": "Pending",
    "responsible_agency": "Department of Public Works",
    "final_address": "2037 Audubon St",
    "address_councildis": "A",
    "status": "Pending",
    "rowid": "1295329",
    "final_x": "3666202.49908",
    "final_y": "528908.456896",
    "longitude": "-90.11646208472514",
    "latitude": "29.94877039190224",
    "geocoded_column": {
      "latitude": "29.94877039190224",
      "longitude": "-90.11646208472514"
    }
  },
  {
    "service_request": "2026-1295328",
    "request_type": "Roads and Streets",
    "request_reason": "Pothole",
    "date_created": "2026-06-29T17:31:35.000",
    "date_modified": "2026-06-29T17:31:37.000",
    "request_status": "Pending",
    "responsible_agency": "Department of Public Works",
    "final_address": "PANOLA ST & AUDUBON ST",
    "address_councildis": "A",
    "status": "Pending",
    "rowid": "1295328",
    "final_x": "3666195.8",
    "final_y": "528973.68",
    "longitude": "-90.1164810496625",
    "latitude": "29.94894992992573",
    "geocoded_column": {
      "latitude": "29.94894992992573",
      "longitude": "-90.1164810496625"
    }
  },
  {
    "service_request": "2026-1295327",
    "request_type": "Street and Traffic Signs",
    "request_reason": "Additional Signage Request",
    "date_created": "2026-06-29T17:30:14.000",
    "date_modified": "2026-06-29T17:30:16.000",
    "request_status": "Pending",
    "responsible_agency": "Department of Public Works",
    "final_address": "526 Bellecastle St",
    "address_councildis": "B",
    "status": "Pending",
    "rowid": "1295327",
    "final_x": "3667613.34324",
    "final_y": "517427.956342",
    "longitude": "-90.11239367818696",
    "latitude": "29.917161407044098",
    "geocoded_column": {
      "latitude": "29.917161407044098",
      "longitude": "-90.11239367818696"
    }
  },
  {
    "service_request": "2026-1295326",
    "request_type": "City-Owned Cemeteries",
    "request_reason": "Property Maintenance",
    "date_created": "2026-06-29T17:29:38.000",
    "date_modified": "2026-06-29T17:29:40.000",
    "request_status": "Pending",
    "responsible_agency": "Department of Parks & Parkways",
    "final_address": "1703 Burdette St",
    "address_councildis": "A",
    "status": "Pending",
    "rowid": "1295326",
    "final_x": "3664039.5417",
    "final_y": "528916.098112",
    "longitude": "-90.12329124097302",
    "latitude": "29.948854386529025",
    "geocoded_column": {
      "latitude": "29.948854386529025",
      "longitude": "-90.12329124097302"
    }
  },
  {
    "service_request": "2026-1295325",
    "request_type": "Trash/Recycling",
    "request_reason": "Request a Large Item Pick Up",
    "date_created": "2026-06-29T17:22:17.000",
    "date_modified": "2026-06-29T17:22:19.000",
    "request_status": "Pending",
    "responsible_agency": "Department of Sanitation",
    "final_address": "1323 Joliet St",
    "address_councildis": "A",
    "status": "Assigned to Contractor",
    "contractor": "IV Waste",
    "rowid": "1295325",
    "final_x": "3661311.42669",
    "final_y": "529719.746433",
    "longitude": "-90.13187851185404",
    "latitude": "29.951143097062907",
    "geocoded_column": {
      "latitude": "29.951143097062907",
      "longitude": "-90.13187851185404"
    }
  },
  {
    "service_request": "2026-1295324",
    "request_type": "Property Maintenance",
    "request_reason": "Property Maintenance",
    "date_created": "2026-06-29T17:11:37.000",
    "date_modified": "2026-06-29T17:11:41.000",
    "request_status": "Pending",
    "responsible_agency": "Department of Code Enforcement",
    "final_address": "765 Walker St",
    "address_councildis": "A",
    "status": "Pending",
    "rowid": "1295324",
    "final_x": "3669637.68423",
    "final_y": "554028.048792",
    "longitude": "-90.10476531148942",
    "latitude": "30.017739960135664",
    "geocoded_column": {
      "latitude": "30.017739960135664",
      "longitude": "-90.10476531148942"
    }
  },
  {
    "service_request": "2026-1295323",
    "request_type": "Trash/Recycling",
    "request_reason": "Request a Large Item Pick Up",
    "date_created": "2026-06-29T17:10:02.000",
    "date_modified": "2026-06-29T17:10:03.000",
    "request_status": "Pending",
    "responsible_agency": "Department of Sanitation",
    "final_address": "622 Jena St",
    "address_councildis": "B",
    "status": "Assigned to Contractor",
    "contractor": "IV Waste",
    "rowid": "1295323",
    "final_x": "3670710.89038",
    "final_y": "517891.102646",
    "longitude": "-90.10260076862401",
    "latitude": "29.918343794612667",
    "geocoded_column": {
      "latitude": "29.918343794612667",
      "longitude": "-90.10260076862401"
    }
  },
  {
    "service_request": "2026-1295322",
    "request_type": "Trash/Recycling",
    "request_reason": "Missed Trash Pick-Up",
    "date_created": "2026-06-29T17:06:26.000",
    "date_modified": "2026-06-29T17:10:58.000",
    "case_close_date": "2026-06-29T12:10:57.000",
    "request_status": "Closed",
    "responsible_agency": "Department of Sanitation",
    "final_address": "6232 Pasteur Blvd",
    "address_councildis": "D",
    "status": "Invalid Request",
    "contractor": "IV Waste",
    "contractor_action": "Invalid Request",
    "rowid": "1295322",
    "final_x": "3682675.01589",
    "final_y": "556126.53705",
    "longitude": "-90.06349898388004",
    "latitude": "30.023119228761402",
    "geocoded_column": {
      "latitude": "30.023119228761402",
      "longitude": "-90.06349898388004"
    }
  },
  {
    "service_request": "2026-1295321",
    "request_type": "Abandoned Vehicles",
    "request_reason": "Abandoned/Junk Vehicles",
    "date_created": "2026-06-29T17:00:38.000",
    "date_modified": "2026-06-29T17:00:40.000",
    "request_status": "Pending",
    "responsible_agency": "Department of Public Works",
    "final_address": "1306 Magazine St Apt A",
    "address_councildis": "B",
    "status": "Pending",
    "rowid": "1295321",
    "final_x": "3680581.89736",
    "final_y": "525143.953597",
    "longitude": "-90.07119112555154",
    "latitude": "29.937991535077273",
    "geocoded_column": {
      "latitude": "29.937991535077273",
      "longitude": "-90.07119112555154"
    }
  },
  {
    "service_request": "2026-1295320",
    "request_type": "Trash/Recycling",
    "request_reason": "Order Recycling Cart",
    "date_created": "2026-06-29T16:57:08.000",
    "date_modified": "2026-06-29T16:57:09.000",
    "request_status": "Pending",
    "responsible_agency": "Department of Sanitation",
    "final_address": "418 S Bernadotte St",
    "address_councildis": "A",
    "status": "Pending",
    "rowid": "1295320",
    "final_x": "3668010.21908",
    "final_y": "538943.051082",
    "longitude": "-90.11041617393496",
    "latitude": "29.9763092958738",
    "geocoded_column": {
      "latitude": "29.9763092958738",
      "longitude": "-90.11041617393496"
    }
  },
  {
    "service_request": "2026-1295319",
    "request_type": "Roads and Streets",
    "request_reason": "Street Subsidence (Sinking)",
    "date_created": "2026-06-29T16:48:08.000",
    "date_modified": "2026-06-29T16:48:10.000",
    "request_status": "Pending",
    "responsible_agency": "Sewerage & Water Board",
    "final_address": "1712 Monroe St",
    "address_councildis": "A",
    "status": "Pending",
    "rowid": "1295319",
    "final_x": "3661628.2743",
    "final_y": "531217.366274",
    "longitude": "-90.13082843370032",
    "latitude": "29.955251930490224",
    "geocoded_column": {
      "latitude": "29.955251930490224",
      "longitude": "-90.13082843370032"
    }
  },
  {
    "service_request": "2026-1295318",
    "request_type": "General Services",
    "request_reason": "General Service Request",
    "date_created": "2026-06-29T16:45:20.000",
    "date_modified": "2026-06-29T16:49:36.000",
    "case_close_date": "2026-06-29T11:49:35.000",
    "request_status": "Closed",
    "responsible_agency": "Orleans Parish Communication District",
    "final_address": "318 Lake Marina Ave Unit 311",
    "address_councildis": "A",
    "status": "Question Answered.",
    "rowid": "1295318",
    "final_x": "3665393.62624",
    "final_y": "555223.511257",
    "longitude": "-90.11813487893107",
    "latitude": "30.02115149973632",
    "geocoded_column": {
      "latitude": "30.02115149973632",
      "longitude": "-90.11813487893107"
    }
  },
  {
    "service_request": "2026-1295317",
    "request_type": "Trash/Recycling",
    "request_reason": "Request a Large Item Pick Up",
    "date_created": "2026-06-29T16:44:37.000",
    "date_modified": "2026-06-29T16:44:39.000",
    "request_status": "Pending",
    "responsible_agency": "Department of Sanitation",
    "final_address": "1778 Rosiere St",
    "address_councildis": "D",
    "status": "Assigned to Contractor",
    "contractor": "IV Waste",
    "rowid": "1295317",
    "final_x": "3678787.03726",
    "final_y": "541997.31214",
    "longitude": "-90.0762739339587",
    "latitude": "29.98438679603417",
    "geocoded_column": {
      "latitude": "29.98438679603417",
      "longitude": "-90.0762739339587"
    }
  },
  {
    "service_request": "2026-1295316",
    "request_type": "Trash/Recycling",
    "request_reason": "Request a Large Item Pick Up",
    "date_created": "2026-06-29T16:44:07.000",
    "date_modified": "2026-06-29T16:44:08.000",
    "request_status": "Pending",
    "responsible_agency": "Department of Sanitation",
    "final_address": "1526 N Miro St",
    "address_councildis": "D",
    "status": "Assigned to Contractor",
    "contractor": "IV Waste",
    "rowid": "1295316",
    "final_x": "3680250.00597",
    "final_y": "538621.938697",
    "longitude": "-90.07177044944933",
    "latitude": "29.97506148005349",
    "geocoded_column": {
      "latitude": "29.97506148005349",
      "longitude": "-90.07177044944933"
    }
  },
  {
    "service_request": "2026-1295315",
    "request_type": "Trash/Recycling",
    "request_reason": "Request a Large Item Pick Up",
    "date_created": "2026-06-29T16:43:56.000",
    "date_modified": "2026-06-29T16:43:59.000",
    "request_status": "Pending",
    "responsible_agency": "Department of Sanitation",
    "final_address": "4618 Longfellow Dr",
    "address_councildis": "E",
    "status": "Assigned to Contractor",
    "contractor": "Waste Pro",
    "rowid": "1295315",
    "final_x": "3709636.78526",
    "final_y": "554993.145688",
    "longitude": "-89.97834885248561",
    "latitude": "30.019153713352896",
    "geocoded_column": {
      "latitude": "30.019153713352896",
      "longitude": "-89.97834885248561"
    }
  },
  {
    "service_request": "2026-1295314",
    "request_type": "Trash/Recycling",
    "request_reason": "Replace Trash Cart",
    "date_created": "2026-06-29T16:41:10.000",
    "date_modified": "2026-06-29T16:41:12.000",
    "request_status": "Pending",
    "responsible_agency": "Department of Sanitation",
    "final_address": "8404 Palm St",
    "address_councildis": "A",
    "status": "Assigned to Contractor",
    "contractor": "IV Waste",
    "rowid": "1295314",
    "final_x": "3666851.93895",
    "final_y": "535422.500038",
    "longitude": "-90.1141926844918",
    "latitude": "29.966662894122965",
    "geocoded_column": {
      "latitude": "29.966662894122965",
      "longitude": "-90.1141926844918"
    }
  },
  {
    "service_request": "2026-1295313",
    "request_type": "Trash/Recycling",
    "request_reason": "Request a Large Item Pick Up",
    "date_created": "2026-06-29T16:40:33.000",
    "date_modified": "2026-06-29T16:40:35.000",
    "request_status": "Pending",
    "responsible_agency": "Department of Sanitation",
    "final_address": "229 Adams St",
    "address_councildis": "A",
    "status": "Assigned to Contractor",
    "contractor": "IV Waste",
    "rowid": "1295313",
    "final_x": "3660888.37715",
    "final_y": "524947.246589",
    "longitude": "-90.13337210855457",
    "latitude": "29.938032431182176",
    "geocoded_column": {
      "latitude": "29.938032431182176",
      "longitude": "-90.13337210855457"
    }
  },
  {
    "service_request": "2026-1295312",
    "request_type": "Trash/Recycling",
    "request_reason": "Request a Large Item Pick Up",
    "date_created": "2026-06-29T16:37:15.000",
    "date_modified": "2026-06-29T16:37:16.000",
    "request_status": "Pending",
    "responsible_agency": "Department of Sanitation",
    "final_address": "5323 Wilton Dr",
    "address_councildis": "D",
    "status": "Assigned to Contractor",
    "contractor": "IV Waste",
    "rowid": "1295312",
    "final_x": "3681936.53052",
    "final_y": "552792.244566",
    "longitude": "-90.06594896593086",
    "latitude": "30.013973624709145",
    "geocoded_column": {
      "latitude": "30.013973624709145",
      "longitude": "-90.06594896593086"
    }
  },
  {
    "service_request": "2026-1295311",
    "request_type": "Trash/Recycling",
    "request_reason": "Order Second Trash Cart",
    "date_created": "2026-06-29T16:37:00.000",
    "date_modified": "2026-06-29T16:37:02.000",
    "request_status": "Pending",
    "responsible_agency": "Department of Sanitation",
    "final_address": "2020 Joliet St",
    "address_councildis": "A",
    "status": "Assigned to Contractor",
    "contractor": "IV Waste",
    "rowid": "1295311",
    "final_x": "3662875.73088",
    "final_y": "531554.443395",
    "longitude": "-90.12687819886872",
    "latitude": "29.956142727259152",
    "geocoded_column": {
      "latitude": "29.956142727259152",
      "longitude": "-90.12687819886872"
    }
  },
  {
    "service_request": "2026-1295310",
    "request_type": "Trash/Recycling",
    "request_reason": "Order Recycling Cart",
    "date_created": "2026-06-29T16:36:13.000",
    "date_modified": "2026-06-29T16:36:15.000",
    "request_status": "Pending",
    "responsible_agency": "Department of Sanitation",
    "final_address": "2020 Joliet St",
    "address_councildis": "A",
    "status": "Pending",
    "rowid": "1295310",
    "final_x": "3662875.73088",
    "final_y": "531554.443395",
    "longitude": "-90.12687819886872",
    "latitude": "29.956142727259152",
    "geocoded_column": {
      "latitude": "29.956142727259152",
      "longitude": "-90.12687819886872"
    }
  },
  {
    "service_request": "2026-1295309",
    "request_type": "Trash/Recycling",
    "request_reason": "Request a Large Item Pick Up",
    "date_created": "2026-06-29T16:35:28.000",
    "date_modified": "2026-06-29T16:35:32.000",
    "request_status": "Pending",
    "responsible_agency": "Department of Sanitation",
    "final_address": "2020 Joliet St",
    "address_councildis": "A",
    "status": "Assigned to Contractor",
    "contractor": "IV Waste",
    "rowid": "1295309",
    "final_x": "3662875.73088",
    "final_y": "531554.443395",
    "longitude": "-90.12687819886872",
    "latitude": "29.956142727259152",
    "geocoded_column": {
      "latitude": "29.956142727259152",
      "longitude": "-90.12687819886872"
    }
  },
  {
    "service_request": "2026-1295308",
    "request_type": "Trash/Recycling",
    "request_reason": "Request a Large Item Pick Up",
    "date_created": "2026-06-29T16:34:17.000",
    "date_modified": "2026-06-29T16:34:21.000",
    "request_status": "Pending",
    "responsible_agency": "Department of Sanitation",
    "final_address": "3932 Clematis St",
    "address_councildis": "D",
    "status": "Assigned to Contractor",
    "contractor": "IV Waste",
    "rowid": "1295308",
    "final_x": "3685577.5302",
    "final_y": "547359.713105",
    "longitude": "-90.05463682258443",
    "latitude": "29.998924899461436",
    "geocoded_column": {
      "latitude": "29.998924899461436",
      "longitude": "-90.05463682258443"
    }
  },
  {
    "service_request": "2026-1295307",
    "request_type": "Property Maintenance",
    "request_reason": "Property Maintenance",
    "date_created": "2026-06-29T16:33:03.000",
    "date_modified": "2026-06-29T16:33:05.000",
    "request_status": "Pending",
    "responsible_agency": "Department of Code Enforcement",
    "final_address": "2420 Dauphine St",
    "address_councildis": "C",
    "status": "Pending",
    "rowid": "1295307",
    "final_x": "3686048.05404",
    "final_y": "535258.069126",
    "longitude": "-90.05357740526352",
    "latitude": "29.96563521040859",
    "geocoded_column": {
      "latitude": "29.96563521040859",
      "longitude": "-90.05357740526352"
    }
  },
  {
    "service_request": "2026-1295306",
    "request_type": "Trash/Recycling",
    "request_reason": "Request a Large Item Pick Up",
    "date_created": "2026-06-29T16:32:56.000",
    "date_modified": "2026-06-29T16:33:01.000",
    "request_status": "Pending",
    "responsible_agency": "Department of Sanitation",
    "final_address": "12601 Carmel Pl",
    "address_councildis": "E",
    "status": "Assigned to Contractor",
    "contractor": "Waste Pro",
    "rowid": "1295306",
    "final_x": "3716475.57695",
    "final_y": "567050.42026",
    "longitude": "-89.95628304460487",
    "latitude": "30.05208222205913",
    "geocoded_column": {
      "latitude": "30.05208222205913",
      "longitude": "-89.95628304460487"
    }
  },
  {
    "service_request": "2026-1295305",
    "request_type": "Trash/Recycling",
    "request_reason": "Request a Large Item Pick Up",
    "date_created": "2026-06-29T16:32:23.000",
    "date_modified": "2026-06-29T16:32:25.000",
    "request_status": "Pending",
    "responsible_agency": "Department of Sanitation",
    "final_address": "11415 Curran Rd",
    "address_councildis": "E",
    "status": "Assigned to Contractor",
    "contractor": "Waste Pro",
    "rowid": "1295305",
    "final_x": "3711405.52286",
    "final_y": "566782.739363",
    "longitude": "-89.97231784610277",
    "latitude": "30.051512770023674",
    "geocoded_column": {
      "latitude": "30.051512770023674",
      "longitude": "-89.97231784610277"
    }
  },
  {
    "service_request": "2026-1295304",
    "request_type": "Trash/Recycling",
    "request_reason": "Missed Trash Pick-Up",
    "date_created": "2026-06-29T16:31:43.000",
    "date_modified": "2026-06-29T16:32:04.000",
    "request_status": "Pending",
    "responsible_agency": "Department of Sanitation",
    "final_address": "1013 Pelican St, New Orleans, Louisiana, 70114",
    "status": "Assigned to Contractor",
    "rowid": "1295304",
    "longitude": "0.0",
    "latitude": "0.0",
    "geocoded_column": {
      "latitude": "0.0",
      "longitude": "0.0"
    }
  },
  {
    "service_request": "2026-1295303",
    "request_type": "Trash/Recycling",
    "request_reason": "Request a Large Item Pick Up",
    "date_created": "2026-06-29T16:31:15.000",
    "date_modified": "2026-06-29T16:31:18.000",
    "request_status": "Pending",
    "responsible_agency": "Department of Sanitation",
    "final_address": "7340 Shubrick Ave",
    "address_councildis": "E",
    "status": "Assigned to Contractor",
    "contractor": "Waste Pro",
    "rowid": "1295303",
    "final_x": "3707087.21976",
    "final_y": "563017.064608",
    "longitude": "-89.98610644422524",
    "latitude": "30.041298995900505",
    "geocoded_column": {
      "latitude": "30.041298995900505",
      "longitude": "-89.98610644422524"
    }
  },
  {
    "service_request": "2026-1295302",
    "request_type": "Trash/Recycling",
    "request_reason": "Return Trash Cart",
    "date_created": "2026-06-29T16:30:00.000",
    "date_modified": "2026-06-29T16:30:03.000",
    "request_status": "Pending",
    "responsible_agency": "Department of Sanitation",
    "final_address": "1320 Valence St",
    "address_councildis": "B",
    "status": "Assigned to Contractor",
    "contractor": "IV Waste",
    "rowid": "1295302",
    "final_x": "3669722.76839",
    "final_y": "520111.834424",
    "longitude": "-90.10564464599399",
    "latitude": "29.924479249615842",
    "geocoded_column": {
      "latitude": "29.924479249615842",
      "longitude": "-90.10564464599399"
    }
  },
  {
    "service_request": "2026-1295301",
    "request_type": "Trash/Recycling",
    "request_reason": "Request a Large Item Pick Up",
    "date_created": "2026-06-29T16:29:52.000",
    "date_modified": "2026-06-29T16:29:56.000",
    "request_status": "Pending",
    "responsible_agency": "Department of Sanitation",
    "final_address": "4030 Clio St",
    "address_councildis": "B",
    "status": "Assigned to Contractor",
    "contractor": "IV Waste",
    "rowid": "1295301",
    "final_x": "3672082.76999",
    "final_y": "531133.635138",
    "longitude": "-90.09781976144522",
    "latitude": "29.954715877193877",
    "geocoded_column": {
      "latitude": "29.954715877193877",
      "longitude": "-90.09781976144522"
    }
  },
  {
    "service_request": "2026-1295300",
    "request_type": "Tree Service",
    "request_reason": "Dead or Dying Tree",
    "date_created": "2026-06-29T16:29:37.000",
    "date_modified": "2026-06-29T16:29:39.000",
    "request_status": "Pending",
    "responsible_agency": "Department of Parks & Parkways",
    "final_address": "6823 Catina St",
    "address_councildis": "A",
    "status": "Pending",
    "rowid": "1295300",
    "final_x": "3667129.10061",
    "final_y": "553106.046679",
    "longitude": "-90.11272252018301",
    "latitude": "30.015278497549318",
    "geocoded_column": {
      "latitude": "30.015278497549318",
      "longitude": "-90.11272252018301"
    }
  },
  {
    "service_request": "2026-1295299",
    "request_type": "Trash/Recycling",
    "request_reason": "Replace Trash Cart",
    "date_created": "2026-06-29T16:26:57.000",
    "date_modified": "2026-06-29T16:26:59.000",
    "request_status": "Pending",
    "responsible_agency": "Department of Sanitation",
    "final_address": "1439 Marais St",
    "address_councildis": "C",
    "status": "Assigned to Contractor",
    "contractor": "IV Waste",
    "rowid": "1295299",
    "final_x": "3682359.50562",
    "final_y": "536155.222791",
    "longitude": "-90.06519432958164",
    "latitude": "29.968214834404698",
    "geocoded_column": {
      "latitude": "29.968214834404698",
      "longitude": "-90.06519432958164"
    }
  },
  {
    "service_request": "2026-1295298",
    "request_type": "Trash/Recycling",
    "request_reason": "Request a Large Item Pick Up",
    "date_created": "2026-06-29T16:26:40.000",
    "date_modified": "2026-06-29T16:26:42.000",
    "request_status": "Pending",
    "responsible_agency": "Department of Sanitation",
    "final_address": "2321 Annette St",
    "address_councildis": "D",
    "status": "Assigned to Contractor",
    "contractor": "IV Waste",
    "rowid": "1295298",
    "final_x": "3682805.05212",
    "final_y": "540777.971595",
    "longitude": "-90.06362550649825",
    "latitude": "29.98091222046409",
    "geocoded_column": {
      "latitude": "29.98091222046409",
      "longitude": "-90.06362550649825"
    }
  },
  {
    "service_request": "2026-1295297",
    "request_type": "Trash/Recycling",
    "request_reason": "Request a Large Item Pick Up",
    "date_created": "2026-06-29T16:25:32.000",
    "date_modified": "2026-06-29T16:25:37.000",
    "request_status": "Pending",
    "responsible_agency": "Department of Sanitation",
    "final_address": "1539 St Maurice Ave",
    "address_councildis": "E",
    "status": "Assigned to Contractor",
    "contractor": "Waste Pro",
    "rowid": "1295297",
    "final_x": "3700554.12497",
    "final_y": "534833.066694",
    "longitude": "-90.0077836314104",
    "latitude": "29.964013150290288",
    "geocoded_column": {
      "latitude": "29.964013150290288",
      "longitude": "-90.0077836314104"
    }
  },
  {
    "service_request": "2026-1295296",
    "request_type": "Trash/Recycling",
    "request_reason": "Order Recycling Cart",
    "date_created": "2026-06-29T16:25:30.000",
    "date_modified": "2026-06-29T16:25:33.000",
    "request_status": "Pending",
    "responsible_agency": "Department of Sanitation",
    "final_address": "2321 Annette St",
    "address_councildis": "D",
    "status": "Pending",
    "rowid": "1295296",
    "final_x": "3682805.05212",
    "final_y": "540777.971595",
    "longitude": "-90.06362550649825",
    "latitude": "29.98091222046409",
    "geocoded_column": {
      "latitude": "29.98091222046409",
      "longitude": "-90.06362550649825"
    }
  },
  {
    "service_request": "2026-1295295",
    "request_type": "Property Maintenance",
    "request_reason": "Property Maintenance",
    "date_created": "2026-06-29T16:24:47.000",
    "date_modified": "2026-06-29T16:24:50.000",
    "request_status": "Pending",
    "responsible_agency": "Department of Code Enforcement",
    "final_address": "2330 Andry St",
    "address_councildis": "E",
    "status": "Pending",
    "rowid": "1295295",
    "final_x": "3698211.56087",
    "final_y": "538536.343945",
    "longitude": "-90.01504664701477",
    "latitude": "29.97427014108674",
    "geocoded_column": {
      "latitude": "29.97427014108674",
      "longitude": "-90.01504664701477"
    }
  },
  {
    "service_request": "2026-1295294",
    "request_type": "Trash/Recycling",
    "request_reason": "Request a Large Item Pick Up",
    "date_created": "2026-06-29T16:23:48.000",
    "date_modified": "2026-06-29T16:23:50.000",
    "request_status": "Pending",
    "responsible_agency": "Department of Sanitation",
    "final_address": "7111 Lake Barrington Dr",
    "address_councildis": "E",
    "status": "Assigned to Contractor",
    "contractor": "Waste Pro",
    "rowid": "1295294",
    "final_x": "3712496.21234",
    "final_y": "564136.033825",
    "longitude": "-89.96897016804078",
    "latitude": "30.044199735284042",
    "geocoded_column": {
      "latitude": "30.044199735284042",
      "longitude": "-89.96897016804078"
    }
  },
  {
    "service_request": "2026-1295293",
    "request_type": "Homeless Related Request",
    "request_reason": "Homeless Encampment Complaint",
    "date_created": "2026-06-29T16:23:41.000",
    "date_modified": "2026-06-29T16:23:43.000",
    "request_status": "Pending",
    "responsible_agency": "Office Of Homeless Services And Strategy",
    "final_address": "1722 N Dorgenois St",
    "address_councildis": "D",
    "status": "Pending",
    "rowid": "1295293",
    "final_x": "3680143.94427",
    "final_y": "540488.359051",
    "longitude": "-90.07204053398958",
    "latitude": "29.98019669948936",
    "geocoded_column": {
      "latitude": "29.98019669948936",
      "longitude": "-90.07204053398958"
    }
  },
  {
    "service_request": "2026-1295292",
    "request_type": "Trash/Recycling",
    "request_reason": "Request a Large Item Pick Up",
    "date_created": "2026-06-29T16:23:13.000",
    "date_modified": "2026-06-29T16:23:15.000",
    "request_status": "Pending",
    "responsible_agency": "Department of Sanitation",
    "final_address": "14509 Duane Rd",
    "address_councildis": "E",
    "status": "Assigned to Contractor",
    "contractor": "Waste Pro",
    "rowid": "1295292",
    "final_x": "3720443.36838",
    "final_y": "573212.052841",
    "longitude": "-89.94350599701112",
    "latitude": "30.06889242498519",
    "geocoded_column": {
      "latitude": "30.06889242498519",
      "longitude": "-89.94350599701112"
    }
  },
  {
    "service_request": "2026-1295291",
    "request_type": "Trash/Recycling",
    "request_reason": "Order Trash Cart",
    "date_created": "2026-06-29T16:22:40.000",
    "date_modified": "2026-06-29T16:22:44.000",
    "request_status": "Pending",
    "responsible_agency": "Department of Sanitation",
    "final_address": "2321 Annette St",
    "address_councildis": "D",
    "status": "Assigned to Contractor",
    "contractor": "IV Waste",
    "rowid": "1295291",
    "final_x": "3682805.05212",
    "final_y": "540777.971595",
    "longitude": "-90.06362550649825",
    "latitude": "29.98091222046409",
    "geocoded_column": {
      "latitude": "29.98091222046409",
      "longitude": "-90.06362550649825"
    }
  },
  {
    "service_request": "2026-1295290",
    "request_type": "Abandoned Vehicles",
    "request_reason": "Abandoned/Junk Vehicles",
    "date_created": "2026-06-29T16:20:33.000",
    "date_modified": "2026-06-29T16:20:35.000",
    "request_status": "Pending",
    "responsible_agency": "Department of Public Works",
    "final_address": "7737 Panola St",
    "address_councildis": "A",
    "status": "Pending",
    "rowid": "1295290",
    "final_x": "3665012.00576",
    "final_y": "529985.274113",
    "longitude": "-90.12018499951277",
    "latitude": "29.951766000964376",
    "geocoded_column": {
      "latitude": "29.951766000964376",
      "longitude": "-90.12018499951277"
    }
  },
  {
    "service_request": "2026-1295289",
    "request_type": "Trash/Recycling",
    "request_reason": "Request a Large Item Pick Up",
    "date_created": "2026-06-29T16:11:43.000",
    "date_modified": "2026-06-29T16:11:46.000",
    "request_status": "Pending",
    "responsible_agency": "Department of Sanitation",
    "final_address": "2539 Banks St",
    "address_councildis": "B",
    "status": "Assigned to Contractor",
    "contractor": "IV Waste",
    "rowid": "1295289",
    "final_x": "3675198.63086",
    "final_y": "533781.363589",
    "longitude": "-90.08789018739895",
    "latitude": "29.961903495163675",
    "geocoded_column": {
      "latitude": "29.961903495163675",
      "longitude": "-90.08789018739895"
    }
  },
  {
    "service_request": "2026-1295288",
    "request_type": "Trash/Recycling",
    "request_reason": "Repair Trash Cart",
    "date_created": "2026-06-29T16:04:06.000",
    "date_modified": "2026-06-29T16:04:08.000",
    "request_status": "Pending",
    "responsible_agency": "Department of Sanitation",
    "final_address": "1765 N Gayoso St",
    "address_councildis": "D",
    "status": "Assigned to Contractor",
    "contractor": "IV Waste",
    "rowid": "1295288",
    "final_x": "3678966.29339",
    "final_y": "541931.114764",
    "longitude": "-90.07571003855138",
    "latitude": "29.98419936775677",
    "geocoded_column": {
      "latitude": "29.98419936775677",
      "longitude": "-90.07571003855138"
    }
  },
  {
    "service_request": "2026-1295287",
    "request_type": "Trash/Recycling",
    "request_reason": "Request a Large Item Pick Up",
    "date_created": "2026-06-29T16:00:44.000",
    "date_modified": "2026-06-29T16:00:46.000",
    "request_status": "Pending",
    "responsible_agency": "Department of Sanitation",
    "final_address": "4859 Evangeline Dr",
    "address_councildis": "E",
    "status": "Assigned to Contractor",
    "contractor": "Waste Pro",
    "rowid": "1295287",
    "final_x": "3709084.48363",
    "final_y": "556536.015002",
    "longitude": "-89.98003634358123",
    "latitude": "30.02341394874305",
    "geocoded_column": {
      "latitude": "30.02341394874305",
      "longitude": "-89.98003634358123"
    }
  },
  {
    "service_request": "2026-1295286",
    "request_type": "Drainage",
    "request_reason": "Drainage Manhole Cover Missing or Damaged",
    "date_created": "2026-06-29T15:58:19.000",
    "date_modified": "2026-06-29T15:58:20.000",
    "request_status": "Pending",
    "responsible_agency": "Sewerage & Water Board",
    "final_address": "6000 Bullard Ave",
    "address_councildis": "E",
    "status": "Pending",
    "rowid": "1295286",
    "final_x": "3714876.25311",
    "final_y": "563881.658913",
    "longitude": "-89.96145788051206",
    "latitude": "30.043422170200817",
    "geocoded_column": {
      "latitude": "30.043422170200817",
      "longitude": "-89.96145788051206"
    }
  },
  {
    "service_request": "2026-1295285",
    "request_type": "Property Maintenance",
    "request_reason": "Property Maintenance",
    "date_created": "2026-06-29T15:58:09.000",
    "date_modified": "2026-06-29T15:58:59.000",
    "request_status": "Pending",
    "responsible_agency": "Department of Code Enforcement",
    "final_address": "2138 Music St",
    "address_councildis": "D",
    "status": "Pending",
    "rowid": "1295285",
    "final_x": "3686482.34671",
    "final_y": "540456.429771",
    "longitude": "-90.05202235849373",
    "latitude": "29.97991553827261",
    "geocoded_column": {
      "latitude": "29.97991553827261",
      "longitude": "-90.05202235849373"
    }
  },
  {
    "service_request": "2026-1295284",
    "request_type": "Tree Service",
    "request_reason": "Tree Trim",
    "date_created": "2026-06-29T15:56:59.000",
    "date_modified": "2026-06-29T15:57:01.000",
    "request_status": "Pending",
    "responsible_agency": "Department of Parks & Parkways",
    "final_address": "3132 Louisiana Avenue Prkwy",
    "address_councildis": "B",
    "status": "Pending",
    "rowid": "1295284",
    "final_x": "3671925.35316",
    "final_y": "526770.951102",
    "longitude": "-90.09846528439388",
    "latitude": "29.942724595889338",
    "geocoded_column": {
      "latitude": "29.942724595889338",
      "longitude": "-90.09846528439388"
    }
  },
  {
    "service_request": "2026-1295283",
    "request_type": "Trash/Recycling",
    "request_reason": "Order Second Trash Cart",
    "date_created": "2026-06-29T15:56:21.000",
    "date_modified": "2026-06-29T15:56:23.000",
    "request_status": "Pending",
    "responsible_agency": "Department of Sanitation",
    "final_address": "7584 Elmdale Rd",
    "address_councildis": "E",
    "status": "Assigned to Contractor",
    "contractor": "Waste Pro",
    "rowid": "1295283",
    "final_x": "3709528.46475",
    "final_y": "564700.351138",
    "longitude": "-89.97832840323991",
    "latitude": "30.04584821146247",
    "geocoded_column": {
      "latitude": "30.04584821146247",
      "longitude": "-89.97832840323991"
    }
  },
  {
    "service_request": "2026-1295282",
    "request_type": "Drainage",
    "request_reason": "Catch Basin Not Draining",
    "date_created": "2026-06-29T15:53:59.000",
    "date_modified": "2026-06-29T15:54:56.000",
    "request_status": "Pending",
    "responsible_agency": "Sewerage & Water Board",
    "final_address": "4960 St Claude Ave",
    "address_councildis": "E",
    "status": "Pending",
    "rowid": "1295282",
    "final_x": "3695724.22998",
    "final_y": "534253.896837",
    "longitude": "-90.02305683889011",
    "latitude": "29.962573388562173",
    "geocoded_column": {
      "latitude": "29.962573388562173",
      "longitude": "-90.02305683889011"
    }
  },
  {
    "service_request": "2026-1295281",
    "request_type": "Trash/Recycling",
    "request_reason": "Request a Large Item Pick Up",
    "date_created": "2026-06-29T15:51:53.000",
    "date_modified": "2026-06-29T15:51:55.000",
    "request_status": "Pending",
    "responsible_agency": "Department of Sanitation",
    "final_address": "1815 St Roch Ave",
    "address_councildis": "D",
    "status": "Assigned to Contractor",
    "contractor": "IV Waste",
    "rowid": "1295281",
    "final_x": "3686478.76143",
    "final_y": "539160.278794",
    "longitude": "-90.05207945798439",
    "latitude": "29.976351689785027",
    "geocoded_column": {
      "latitude": "29.976351689785027",
      "longitude": "-90.05207945798439"
    }
  },
  {
    "service_request": "2026-1295280",
    "request_type": "Trash/Recycling",
    "request_reason": "Repair Recycling Cart",
    "date_created": "2026-06-29T15:49:56.000",
    "date_modified": "2026-06-29T15:49:57.000",
    "request_status": "Pending",
    "responsible_agency": "Department of Sanitation",
    "final_address": "4844 Metropolitan Dr",
    "address_councildis": "D",
    "status": "Pending",
    "rowid": "1295280",
    "final_x": "3690524.61059",
    "final_y": "551185.223957",
    "longitude": "-90.03887245478033",
    "latitude": "30.00929092642261",
    "geocoded_column": {
      "latitude": "30.00929092642261",
      "longitude": "-90.03887245478033"
    }
  },
  {
    "service_request": "2026-1295279",
    "request_type": "Trash/Recycling",
    "request_reason": "Repair Trash Cart",
    "date_created": "2026-06-29T15:48:29.000",
    "date_modified": "2026-06-29T15:48:31.000",
    "request_status": "Pending",
    "responsible_agency": "Department of Sanitation",
    "final_address": "4844 Metropolitan Dr",
    "address_councildis": "D",
    "status": "Assigned to Contractor",
    "contractor": "IV Waste",
    "rowid": "1295279",
    "final_x": "3690524.61059",
    "final_y": "551185.223957",
    "longitude": "-90.03887245478033",
    "latitude": "30.00929092642261",
    "geocoded_column": {
      "latitude": "30.00929092642261",
      "longitude": "-90.03887245478033"
    }
  },
  {
    "service_request": "2026-1295278",
    "request_type": "Trash/Recycling",
    "request_reason": "Request a Large Item Pick Up",
    "date_created": "2026-06-29T15:45:20.000",
    "date_modified": "2026-06-29T15:45:21.000",
    "request_status": "Pending",
    "responsible_agency": "Department of Sanitation",
    "final_address": "6920 Bundy Rd",
    "address_councildis": "E",
    "status": "Assigned to Contractor",
    "contractor": "Waste Pro",
    "rowid": "1295278",
    "final_x": "3707086.86174",
    "final_y": "560448.356254",
    "longitude": "-89.9862030167308",
    "latitude": "30.0342360756623",
    "geocoded_column": {
      "latitude": "30.0342360756623",
      "longitude": "-89.9862030167308"
    }
  },
  {
    "service_request": "2026-1295277",
    "request_type": "Trash/Recycling",
    "request_reason": "Order Trash Cart",
    "date_created": "2026-06-29T15:43:47.000",
    "date_modified": "2026-06-29T15:43:50.000",
    "request_status": "Pending",
    "responsible_agency": "Department of Sanitation",
    "final_address": "2508 Annette St",
    "address_councildis": "D",
    "status": "Assigned to Contractor",
    "contractor": "IV Waste",
    "rowid": "1295277",
    "final_x": "3682664.18466",
    "final_y": "541403.245708",
    "longitude": "-90.06404855152718",
    "latitude": "29.98263579649663",
    "geocoded_column": {
      "latitude": "29.98263579649663",
      "longitude": "-90.06404855152718"
    }
  },
  {
    "service_request": "2026-1295276",
    "request_type": "Trash/Recycling",
    "request_reason": "Missed Trash Pick-Up",
    "date_created": "2026-06-29T15:42:11.000",
    "date_modified": "2026-06-29T15:42:13.000",
    "request_status": "Pending",
    "responsible_agency": "Department of Sanitation",
    "final_address": "13632 N Cavelier Dr",
    "address_councildis": "E",
    "status": "Assigned to Contractor",
    "contractor": "Waste Pro",
    "rowid": "1295276",
    "final_x": "3724085.57651",
    "final_y": "569858.311974",
    "longitude": "-89.93212194469127",
    "latitude": "30.059549083506568",
    "geocoded_column": {
      "latitude": "30.059549083506568",
      "longitude": "-89.93212194469127"
    }
  },
  {
    "service_request": "2026-1295275",
    "request_type": "Trash/Recycling",
    "request_reason": "Illegal Dumping",
    "date_created": "2026-06-29T15:39:20.000",
    "date_modified": "2026-06-29T15:39:22.000",
    "request_status": "Pending",
    "responsible_agency": "Department of Sanitation",
    "final_address": "N ROBERTSON ST & STRAND CT",
    "address_councildis": "E",
    "status": "Pending",
    "rowid": "1295275",
    "final_x": "3699899.1",
    "final_y": "534776.98",
    "longitude": "-90.00985417339285",
    "latitude": "29.963879751390714",
    "geocoded_column": {
      "latitude": "29.963879751390714",
      "longitude": "-90.00985417339285"
    }
  },
  {
    "service_request": "2026-1295274",
    "request_type": "Trash/Recycling",
    "request_reason": "Replace Trash Cart",
    "date_created": "2026-06-29T15:39:12.000",
    "date_modified": "2026-06-29T15:39:55.000",
    "request_status": "Pending",
    "responsible_agency": "Department of Sanitation",
    "final_address": "2816 Josephine St",
    "address_councildis": "B",
    "status": "Assigned to Contractor",
    "contractor": "IV Waste",
    "rowid": "1295274",
    "final_x": "3675221.38907",
    "final_y": "527385.571711",
    "longitude": "-90.08803781982368",
    "latitude": "29.944316516902653",
    "geocoded_column": {
      "latitude": "29.944316516902653",
      "longitude": "-90.08803781982368"
    }
  },
  {
    "service_request": "2026-1295273",
    "request_type": "Trash/Recycling",
    "request_reason": "Request a Large Item Pick Up",
    "date_created": "2026-06-29T15:37:19.000",
    "date_modified": "2026-06-29T15:37:22.000",
    "request_status": "Pending",
    "responsible_agency": "Department of Sanitation",
    "final_address": "14 Christopher Ct",
    "address_councildis": "E",
    "status": "Assigned to Contractor",
    "contractor": "Waste Pro",
    "rowid": "1295273",
    "final_x": "3716764.9038",
    "final_y": "570615.104679",
    "longitude": "-89.95523307423245",
    "latitude": "30.0618740675715",
    "geocoded_column": {
      "latitude": "30.0618740675715",
      "longitude": "-89.95523307423245"
    }
  },
  {
    "service_request": "2026-1295272",
    "request_type": "Trash/Recycling",
    "request_reason": "Request a Large Item Pick Up",
    "date_created": "2026-06-29T15:37:10.000",
    "date_modified": "2026-06-29T15:37:13.000",
    "request_status": "Pending",
    "responsible_agency": "Department of Sanitation",
    "final_address": "7020 Curran Rd",
    "address_councildis": "E",
    "status": "Assigned to Contractor",
    "contractor": "Waste Pro",
    "rowid": "1295272",
    "final_x": "3699000.13456",
    "final_y": "560286.037405",
    "longitude": "-90.01176391197366",
    "latitude": "30.03404869767704",
    "geocoded_column": {
      "latitude": "30.03404869767704",
      "longitude": "-90.01176391197366"
    }
  },
  {
    "service_request": "2026-1295271",
    "request_type": "Trash/Recycling",
    "request_reason": "Request a Large Item Pick Up",
    "date_created": "2026-06-29T15:36:13.000",
    "date_modified": "2026-06-29T15:36:15.000",
    "request_status": "Pending",
    "responsible_agency": "Department of Sanitation",
    "final_address": "318 N Tonti St",
    "address_councildis": "B",
    "status": "Assigned to Contractor",
    "contractor": "IV Waste",
    "rowid": "1295271",
    "final_x": "3677079.70018",
    "final_y": "534994.670662",
    "longitude": "-90.08190821780434",
    "latitude": "29.9651833257572",
    "geocoded_column": {
      "latitude": "29.9651833257572",
      "longitude": "-90.08190821780434"
    }
  },
  {
    "service_request": "2026-1295270",
    "request_type": "Abandoned Vehicles",
    "request_reason": "Abandoned/Junk Vehicles",
    "date_created": "2026-06-29T15:33:24.000",
    "date_modified": "2026-06-29T15:49:10.000",
    "request_status": "Pending",
    "responsible_agency": "Department of Public Works",
    "final_address": "8517 Belfast St",
    "address_councildis": "A",
    "status": "Pending",
    "rowid": "1295270",
    "final_x": "3664453.11866",
    "final_y": "533458.927364",
    "longitude": "-90.12183373897078",
    "latitude": "29.961333675035707",
    "geocoded_column": {
      "latitude": "29.961333675035707",
      "longitude": "-90.12183373897078"
    }
  },
  {
    "service_request": "2026-1295269",
    "request_type": "Roads and Streets",
    "request_reason": "Street Subsidence (Sinking)",
    "date_created": "2026-06-29T15:25:17.000",
    "date_modified": "2026-06-29T15:26:49.000",
    "request_status": "Pending",
    "responsible_agency": "Sewerage & Water Board",
    "final_address": "CANAL ST & CITY PARK AVE",
    "address_councildis": "A",
    "status": "Pending",
    "rowid": "1295269",
    "final_x": "3667729.2",
    "final_y": "540955.48",
    "longitude": "-90.11123593065541",
    "latitude": "29.981851040999903",
    "geocoded_column": {
      "latitude": "29.981851040999903",
      "longitude": "-90.11123593065541"
    }
  },
  {
    "service_request": "2026-1295268",
    "request_type": "Trash/Recycling",
    "request_reason": "Repair Recycling Cart",
    "date_created": "2026-06-29T15:23:07.000",
    "date_modified": "2026-06-29T15:23:08.000",
    "request_status": "Pending",
    "responsible_agency": "Department of Sanitation",
    "final_address": "630 S Alexander St",
    "address_councildis": "A",
    "status": "Pending",
    "rowid": "1295268",
    "final_x": "3668669.80282",
    "final_y": "537366.68852",
    "longitude": "-90.10838622840276",
    "latitude": "29.97195545542216",
    "geocoded_column": {
      "latitude": "29.97195545542216",
      "longitude": "-90.10838622840276"
    }
  },
  {
    "service_request": "2026-1295267",
    "request_type": "Trash/Recycling",
    "request_reason": "Request a Large Item Pick Up",
    "date_created": "2026-06-29T15:22:43.000",
    "date_modified": "2026-06-29T15:22:45.000",
    "request_status": "Pending",
    "responsible_agency": "Department of Sanitation",
    "final_address": "7734 Lehigh St",
    "address_councildis": "E",
    "status": "Assigned to Contractor",
    "contractor": "Waste Pro",
    "rowid": "1295267",
    "final_x": "3710161.46059",
    "final_y": "566250.695907",
    "longitude": "-89.9762698076899",
    "latitude": "30.050090437491672",
    "geocoded_column": {
      "latitude": "30.050090437491672",
      "longitude": "-89.9762698076899"
    }
  },
  {
    "service_request": "2026-1295266",
    "request_type": "Trash/Recycling",
    "request_reason": "Request a Large Item Pick Up",
    "date_created": "2026-06-29T15:21:28.000",
    "date_modified": "2026-06-29T15:21:30.000",
    "request_status": "Pending",
    "responsible_agency": "Department of Sanitation",
    "final_address": "7024 Neptune Ct",
    "address_councildis": "E",
    "status": "Assigned to Contractor",
    "contractor": "Waste Pro",
    "rowid": "1295266",
    "final_x": "3701829.43537",
    "final_y": "558947.044444",
    "longitude": "-90.00287215550101",
    "latitude": "30.030276957568375",
    "geocoded_column": {
      "latitude": "30.030276957568375",
      "longitude": "-90.00287215550101"
    }
  },
  {
    "service_request": "2026-1295265",
    "request_type": "Trash/Recycling",
    "request_reason": "Repair Recycling Cart",
    "date_created": "2026-06-29T15:21:06.000",
    "date_modified": "2026-06-29T15:21:08.000",
    "request_status": "Pending",
    "responsible_agency": "Department of Sanitation",
    "final_address": "2436 Mercedes Blvd",
    "address_councildis": "C",
    "status": "Pending",
    "rowid": "1295265",
    "final_x": "3698131.39735",
    "final_y": "522117.71033",
    "longitude": "-90.01589601291147",
    "latitude": "29.929127212208062",
    "geocoded_column": {
      "latitude": "29.929127212208062",
      "longitude": "-90.01589601291147"
    }
  },
  {
    "service_request": "2026-1295264",
    "request_type": "Trash/Recycling",
    "request_reason": "Replace Trash Cart",
    "date_created": "2026-06-29T15:19:30.000",
    "date_modified": "2026-06-29T15:19:33.000",
    "request_status": "Pending",
    "responsible_agency": "Department of Sanitation",
    "final_address": "8122 Apricot St",
    "address_councildis": "A",
    "status": "Assigned to Contractor",
    "contractor": "IV Waste",
    "rowid": "1295264",
    "final_x": "3665662.93044",
    "final_y": "532651.016836",
    "longitude": "-90.11804040893924",
    "latitude": "29.959076958574936",
    "geocoded_column": {
      "latitude": "29.959076958574936",
      "longitude": "-90.11804040893924"
    }
  },
  {
    "service_request": "2026-1295263",
    "request_type": "Abandoned Vehicles",
    "request_reason": "Abandoned/Junk Vehicles",
    "date_created": "2026-06-29T15:18:46.000",
    "date_modified": "2026-06-29T15:18:48.000",
    "request_status": "Pending",
    "responsible_agency": "Department of Public Works",
    "final_address": "7921 Branch Dr",
    "address_councildis": "E",
    "status": "Pending",
    "rowid": "1295263",
    "final_x": "3714110.1781",
    "final_y": "569605.489318",
    "longitude": "-89.96366274262385",
    "latitude": "30.059185564846178",
    "geocoded_column": {
      "latitude": "30.059185564846178",
      "longitude": "-89.96366274262385"
    }
  },
  {
    "service_request": "2026-1295262",
    "request_type": "Roads and Streets",
    "request_reason": "Debris in Driving Lanes",
    "date_created": "2026-06-29T15:18:33.000",
    "date_modified": "2026-06-29T15:19:13.000",
    "request_status": "Pending",
    "responsible_agency": "Department of Public Works",
    "final_address": "3300 BLK Johnny Jackson Jr Blvd",
    "address_councildis": "D",
    "status": "Pending",
    "rowid": "1295262",
    "final_x": "3691770.61708",
    "final_y": "544730.950352",
    "longitude": "-90.03516692819348",
    "latitude": "29.99150527205494",
    "geocoded_column": {
      "latitude": "29.99150527205494",
      "longitude": "-90.03516692819348"
    }
  },
  {
    "service_request": "2026-1295261",
    "request_type": "Trash/Recycling",
    "request_reason": "Order Recycling Cart",
    "date_created": "2026-06-29T15:15:04.000",
    "date_modified": "2026-06-29T15:15:06.000",
    "request_status": "Pending",
    "responsible_agency": "Department of Sanitation",
    "final_address": "2633 Iberville St",
    "address_councildis": "B",
    "status": "Pending",
    "rowid": "1295261",
    "final_x": "3675907.41582",
    "final_y": "535339.781958",
    "longitude": "-90.08559836514091",
    "latitude": "29.966167417021545",
    "geocoded_column": {
      "latitude": "29.966167417021545",
      "longitude": "-90.08559836514091"
    }
  },
  {
    "service_request": "2026-1295260",
    "request_type": "Trash/Recycling",
    "request_reason": "Request a Large Item Pick Up",
    "date_created": "2026-06-29T15:14:22.000",
    "date_modified": "2026-06-29T15:19:13.000",
    "request_status": "Pending",
    "responsible_agency": "Department of Sanitation",
    "final_address": "3034 Upperline St",
    "address_councildis": "B",
    "status": "Assigned to Contractor",
    "contractor": "IV Waste",
    "rowid": "1295260",
    "final_x": "3669200.60954",
    "final_y": "526184.959806",
    "longitude": "-90.1070877677914",
    "latitude": "29.941193770933967",
    "geocoded_column": {
      "latitude": "29.941193770933967",
      "longitude": "-90.1070877677914"
    }
  },
  {
    "service_request": "2026-1295259",
    "request_type": "Trash/Recycling",
    "request_reason": "Order Trash Cart",
    "date_created": "2026-06-29T15:13:20.000",
    "date_modified": "2026-06-29T15:13:24.000",
    "request_status": "Pending",
    "responsible_agency": "Department of Sanitation",
    "final_address": "2726 Fourth St",
    "address_councildis": "B",
    "status": "Assigned to Contractor",
    "contractor": "IV Waste",
    "rowid": "1295259",
    "final_x": "3673849.4596",
    "final_y": "526178.088446",
    "longitude": "-90.09241068806288",
    "latitude": "29.94103726034527",
    "geocoded_column": {
      "latitude": "29.94103726034527",
      "longitude": "-90.09241068806288"
    }
  },
  {
    "service_request": "2026-1295258",
    "request_type": "Trash/Recycling",
    "request_reason": "Replace Recycling Cart",
    "date_created": "2026-06-29T15:12:25.000",
    "date_modified": "2026-06-29T15:12:27.000",
    "request_status": "Pending",
    "responsible_agency": "Department of Sanitation",
    "final_address": "11018 N Hardy St",
    "address_councildis": "E",
    "status": "Pending",
    "rowid": "1295258",
    "final_x": "3713075.09861",
    "final_y": "562324.288799",
    "longitude": "-89.96720891395496",
    "latitude": "30.039199200737606",
    "geocoded_column": {
      "latitude": "30.039199200737606",
      "longitude": "-89.96720891395496"
    }
  },
  {
    "service_request": "2026-1295257",
    "request_type": "Roads and Streets",
    "request_reason": "Pothole",
    "date_created": "2026-06-29T15:12:23.000",
    "date_modified": "2026-06-29T15:12:25.000",
    "request_status": "Pending",
    "responsible_agency": "Department of Public Works",
    "final_address": "1400 BLK Florida Ave",
    "address_councildis": "D",
    "status": "Pending",
    "rowid": "1295257",
    "final_x": "3678637.9875",
    "final_y": "544450.592645",
    "longitude": "-90.07665973243286",
    "latitude": "29.99113695530786",
    "geocoded_column": {
      "latitude": "29.99113695530786",
      "longitude": "-90.07665973243286"
    }
  },
  {
    "service_request": "2026-1295256",
    "request_type": "Trash/Recycling",
    "request_reason": "Order Trash Cart",
    "date_created": "2026-06-29T15:10:48.000",
    "date_modified": "2026-06-29T15:13:47.000",
    "request_status": "Pending",
    "responsible_agency": "Department of Sanitation",
    "final_address": "2724 Fourth St",
    "address_councildis": "B",
    "status": "Assigned to Contractor",
    "contractor": "IV Waste",
    "rowid": "1295256",
    "final_x": "3673855.9698",
    "final_y": "526171.18163",
    "longitude": "-90.09239037029994",
    "latitude": "29.941018074996983",
    "geocoded_column": {
      "latitude": "29.941018074996983",
      "longitude": "-90.09239037029994"
    }
  },
  {
    "service_request": "2026-1295255",
    "request_type": "Property Maintenance",
    "request_reason": "Property Maintenance",
    "date_created": "2026-06-29T15:07:22.000",
    "date_modified": "2026-06-29T15:07:24.000",
    "request_status": "Pending",
    "responsible_agency": "Department of Code Enforcement",
    "final_address": "1729 Charbonnet St",
    "address_councildis": "E",
    "status": "Pending",
    "rowid": "1295255",
    "final_x": "3699331.67159",
    "final_y": "536073.586567",
    "longitude": "-90.01159881639603",
    "latitude": "29.967462963826875",
    "geocoded_column": {
      "latitude": "29.967462963826875",
      "longitude": "-90.01159881639603"
    }
  },
  {
    "service_request": "2026-1295254",
    "request_type": "Streetlights",
    "request_reason": "Streetlight Knocked Down/Leaning",
    "date_created": "2026-06-29T15:07:02.000",
    "date_modified": "2026-06-29T15:07:05.000",
    "request_status": "Pending",
    "responsible_agency": "Department of Public Works",
    "final_address": "8700 BLK Aberdeen Rd",
    "address_councildis": "E",
    "status": "Pending",
    "rowid": "1295254",
    "final_x": "3704871.82808",
    "final_y": "562377.033826",
    "longitude": "-89.99313147521143",
    "latitude": "30.03961059875251",
    "geocoded_column": {
      "latitude": "30.03961059875251",
      "longitude": "-89.99313147521143"
    }
  },
  {
    "service_request": "2026-1295253",
    "request_type": "Trash/Recycling",
    "request_reason": "Request a Large Item Pick Up",
    "date_created": "2026-06-29T15:06:25.000",
    "date_modified": "2026-06-29T15:06:27.000",
    "request_status": "Pending",
    "responsible_agency": "Department of Sanitation",
    "final_address": "1510 Eleonore St",
    "address_councildis": "A",
    "status": "Assigned to Contractor",
    "contractor": "IV Waste",
    "rowid": "1295253",
    "final_x": "3665766.33415",
    "final_y": "521854.693306",
    "longitude": "-90.11807545968527",
    "latitude": "29.929387528683723",
    "geocoded_column": {
      "latitude": "29.929387528683723",
      "longitude": "-90.11807545968527"
    }
  },
  {
    "service_request": "2026-1295252",
    "request_type": "Road Striping",
    "request_reason": "Lane Striping or other Pavement Markings",
    "date_created": "2026-06-29T15:06:22.000",
    "date_modified": "2026-06-29T15:06:24.000",
    "request_status": "Pending",
    "responsible_agency": "Department of Public Works",
    "final_address": "ESPLANADE AVE & N CARROLLTON AVE & WISNER BLVD",
    "address_councildis": "A",
    "status": "Pending",
    "rowid": "1295252",
    "final_x": "3674535.0",
    "final_y": "541867.18",
    "longitude": "-90.0897087045684",
    "latitude": "29.984156556819595",
    "geocoded_column": {
      "latitude": "29.984156556819595",
      "longitude": "-90.0897087045684"
    }
  },
  {
    "service_request": "2026-1295251",
    "request_type": "Trash/Recycling",
    "request_reason": "Request a Large Item Pick Up",
    "date_created": "2026-06-29T15:04:01.000",
    "date_modified": "2026-06-29T15:04:02.000",
    "request_status": "Pending",
    "responsible_agency": "Department of Sanitation",
    "final_address": "5413 St Roch Ave",
    "address_councildis": "D",
    "status": "Assigned to Contractor",
    "contractor": "IV Waste",
    "rowid": "1295251",
    "final_x": "3685257.02549",
    "final_y": "552906.208087",
    "longitude": "-90.05545389474247",
    "latitude": "30.014185578385025",
    "geocoded_column": {
      "latitude": "30.014185578385025",
      "longitude": "-90.05545389474247"
    }
  },
  {
    "service_request": "2026-1295250",
    "request_type": "Trash/Recycling",
    "request_reason": "Repair Recycling Cart",
    "date_created": "2026-06-29T15:03:29.000",
    "date_modified": "2026-06-29T15:03:31.000",
    "request_status": "Pending",
    "responsible_agency": "Department of Sanitation",
    "final_address": "4520 St Ann St",
    "address_councildis": "A",
    "status": "Pending",
    "rowid": "1295250",
    "final_x": "3671134.48366",
    "final_y": "541552.282636",
    "longitude": "-90.10046012299948",
    "latitude": "29.983391740195408",
    "geocoded_column": {
      "latitude": "29.983391740195408",
      "longitude": "-90.10046012299948"
    }
  },
  {
    "service_request": "2026-1295249",
    "request_type": "Property Maintenance",
    "request_reason": "Property Maintenance",
    "date_created": "2026-06-29T15:01:46.000",
    "date_modified": "2026-06-29T15:10:43.000",
    "case_close_date": "2026-06-29T10:10:42.000",
    "request_status": "Closed",
    "responsible_agency": "Department of Code Enforcement",
    "final_address": "1733 Charbonnet St",
    "address_councildis": "E",
    "status": "Referred to Code Enforcement",
    "rowid": "1295249",
    "final_x": "3699339.40394",
    "final_y": "536099.968839",
    "longitude": "-90.01157343657482",
    "latitude": "29.967535260351",
    "geocoded_column": {
      "latitude": "29.967535260351",
      "longitude": "-90.01157343657482"
    }
  },
  {
    "service_request": "2026-1295248",
    "request_type": "Trash/Recycling",
    "request_reason": "Repair Recycling Cart",
    "date_created": "2026-06-29T15:00:40.000",
    "date_modified": "2026-06-29T15:00:42.000",
    "request_status": "Pending",
    "responsible_agency": "Department of Sanitation",
    "final_address": "4522 St Ann St",
    "address_councildis": "A",
    "status": "Pending",
    "rowid": "1295248",
    "final_x": "3671122.64679",
    "final_y": "541559.046092",
    "longitude": "-90.1004972802694",
    "latitude": "29.983410687578587",
    "geocoded_column": {
      "latitude": "29.983410687578587",
      "longitude": "-90.1004972802694"
    }
  },
  {
    "service_request": "2026-1295247",
    "request_type": "Trash/Recycling",
    "request_reason": "Repair Trash Cart",
    "date_created": "2026-06-29T14:59:35.000",
    "date_modified": "2026-06-29T14:59:38.000",
    "request_status": "Pending",
    "responsible_agency": "Department of Sanitation",
    "final_address": "1181 Allen Toussaint Blvd",
    "address_councildis": "D",
    "status": "Assigned to Contractor",
    "contractor": "IV Waste",
    "rowid": "1295247",
    "final_x": "3675933.69198",
    "final_y": "555314.151065",
    "longitude": "-90.08482808217582",
    "latitude": "30.021089158571893",
    "geocoded_column": {
      "latitude": "30.021089158571893",
      "longitude": "-90.08482808217582"
    }
  },
  {
    "service_request": "2026-1295246",
    "request_type": "Utility Poles",
    "request_reason": "Wires Sagging/Hanging Low",
    "date_created": "2026-06-29T14:59:27.000",
    "date_modified": "2026-06-29T14:59:31.000",
    "request_status": "Pending",
    "responsible_agency": "Utility Company Collective",
    "final_address": "7915 Michigan St",
    "address_councildis": "E",
    "status": "Pending",
    "rowid": "1295246",
    "final_x": "3711166.16869",
    "final_y": "567495.775716",
    "longitude": "-89.97304760613565",
    "latitude": "30.053481145525986",
    "geocoded_column": {
      "latitude": "30.053481145525986",
      "longitude": "-89.97304760613565"
    }
  },
  {
    "service_request": "2026-1295245",
    "request_type": "Trash/Recycling",
    "request_reason": "Request a Large Item Pick Up",
    "date_created": "2026-06-29T14:58:17.000",
    "date_modified": "2026-06-29T14:58:18.000",
    "request_status": "Pending",
    "responsible_agency": "Department of Sanitation",
    "final_address": "8408 Hickory St",
    "address_councildis": "A",
    "status": "Assigned to Contractor",
    "contractor": "IV Waste",
    "rowid": "1295245",
    "final_x": "3662489.22087",
    "final_y": "530694.337666",
    "longitude": "-90.12812723863368",
    "latitude": "29.953788898903145",
    "geocoded_column": {
      "latitude": "29.953788898903145",
      "longitude": "-90.12812723863368"
    }
  },
  {
    "service_request": "2026-1295244",
    "request_type": "Trash/Recycling",
    "request_reason": "Request a Large Item Pick Up",
    "date_created": "2026-06-29T14:58:14.000",
    "date_modified": "2026-06-29T14:58:15.000",
    "request_status": "Pending",
    "responsible_agency": "Department of Sanitation",
    "final_address": "7100 Lake Barrington Dr",
    "address_councildis": "E",
    "status": "Assigned to Contractor",
    "contractor": "Waste Pro",
    "rowid": "1295244",
    "final_x": "3712428.45733",
    "final_y": "564013.278561",
    "longitude": "-89.96918892079688",
    "latitude": "30.043864425928636",
    "geocoded_column": {
      "latitude": "30.043864425928636",
      "longitude": "-89.96918892079688"
    }
  },
  {
    "service_request": "2026-1295243",
    "request_type": "Roads and Streets",
    "request_reason": "Pothole",
    "date_created": "2026-06-29T14:57:22.000",
    "date_modified": "2026-06-29T14:57:23.000",
    "request_status": "Pending",
    "responsible_agency": "Department of Public Works",
    "final_address": "1200 BLK Florida Ave",
    "address_councildis": "D",
    "status": "Pending",
    "rowid": "1295243",
    "final_x": "3677595.21236",
    "final_y": "544729.533032",
    "longitude": "-90.0799439807225",
    "latitude": "29.991935348539197",
    "geocoded_column": {
      "latitude": "29.991935348539197",
      "longitude": "-90.0799439807225"
    }
  },
  {
    "service_request": "2026-1295242",
    "request_type": "Trash/Recycling",
    "request_reason": "Return Trash Cart",
    "date_created": "2026-06-29T14:56:28.000",
    "date_modified": "2026-06-29T14:56:30.000",
    "request_status": "Pending",
    "responsible_agency": "Department of Sanitation",
    "final_address": "2513 S Dorgenois St",
    "address_councildis": "B",
    "status": "Assigned to Contractor",
    "contractor": "IV Waste",
    "rowid": "1295242",
    "final_x": "3672140.70164",
    "final_y": "529718.574145",
    "longitude": "-90.0976850194793",
    "latitude": "29.950823209142555",
    "geocoded_column": {
      "latitude": "29.950823209142555",
      "longitude": "-90.0976850194793"
    }
  },
  {
    "service_request": "2026-1295241",
    "request_type": "Trash/Recycling",
    "request_reason": "Missed Trash Pick-Up",
    "date_created": "2026-06-29T14:56:21.000",
    "date_modified": "2026-06-29T14:56:22.000",
    "request_status": "Pending",
    "responsible_agency": "Department of Sanitation",
    "final_address": "9734 W Wheaton Cir",
    "address_councildis": "E",
    "status": "Assigned to Contractor",
    "contractor": "Waste Pro",
    "rowid": "1295241",
    "final_x": "3708193.5971",
    "final_y": "562023.814623",
    "longitude": "-89.9826469303771",
    "latitude": "30.038532139078455",
    "geocoded_column": {
      "latitude": "30.038532139078455",
      "longitude": "-89.9826469303771"
    }
  },
  {
    "service_request": "2026-1295239",
    "request_type": "Trash/Recycling",
    "request_reason": "Request a Large Item Pick Up",
    "date_created": "2026-06-29T14:56:00.000",
    "date_modified": "2026-06-29T14:56:02.000",
    "request_status": "Pending",
    "responsible_agency": "Department of Sanitation",
    "final_address": "1042 Mazant St",
    "address_councildis": "C",
    "status": "Assigned to Contractor",
    "contractor": "IV Waste",
    "rowid": "1295239",
    "final_x": "3692058.02096",
    "final_y": "535137.002246",
    "longitude": "-90.03460257385386",
    "latitude": "29.965116383740177",
    "geocoded_column": {
      "latitude": "29.965116383740177",
      "longitude": "-90.03460257385386"
    }
  },