[
  {
    "service_request": "2024-1071354",
    "request_type": "Property Maintenance",
    "request_reason": "Property Maintenance",
    "date_created": "2024-02-28T23:17:25.000",
    "date_modified": "2024-02-28T23:17:25.000",
    "request_status": "Pending",
    "responsible_agency": "Department of Code Enforcement",
    "final_address": "5041 Mexico St",
    "address_councildis": "D",
    "status": "Pending",
    "rowid": "1071354",
    "final_x": "3691148.07593",
    "final_y": "556733.122522",
    "longitude": "-90.03670437846455",
    "latitude": "30.024526200201247",
    "geocoded_column": {
      "latitude": "30.024526200201247",
      "longitude": "-90.03670437846455"
    }
  },
  {
    "service_request": "2024-1071353",
    "request_type": "Trash/Recycling",
    "request_reason": "Order Recycling Cart",
    "date_created": "2024-02-28T22:44:30.000",
    "date_modified": "2024-02-28T22:44:30.000",
    "request_status": "Pending",
    "responsible_agency": "Department of Sanitation",
    "final_address": "231 18Th St",
    "address_councildis": "A",
    "status": "Pending",
    "rowid": "1071353",
    "final_x": "3665432.1056",
    "final_y": "548781.061971",
    "longitude": "-90.11822916304074",
    "latitude": "30.003435890642",
    "geocoded_column": {
      "latitude": "30.003435890642",
      "longitude": "-90.11822916304074"
    }
  },
  {
    "service_request": "2024-1071352",
    "request_type": "Trash/Recycling",
    "request_reason": "Replace Trash Cart",
    "date_created": "2024-02-28T22:40:59.000",
    "date_modified": "2024-02-28T22:40:59.000",
    "request_status": "Pending",
    "responsible_agency": "Department of Sanitation",
    "final_address": "2936 Ursulines Ave",
    "address_councildis": "A",
    "status": "Assigned to Contractor",
    "contractor": "Richards Disposal",
    "rowid": "1071352",
    "final_x": "3676539.22984",
    "final_y": "538898.642378",
    "longitude": "-90.08348051909451",
    "latitude": "29.975934136802906",
    "geocoded_column": {
      "latitude": "29.975934136802906",
      "longitude": "-90.08348051909451"
    }
  },
  {
    "service_request": "2024-1071351",
    "request_type": "Abandoned Vehicles",
    "request_reason": "Vehicle Blocking Your Driveway",
    "date_created": "2024-02-28T22:30:06.000",
    "date_modified": "2024-02-28T22:30:06.000",
    "request_status": "Pending",
    "responsible_agency": "Department of Public Works",
    "final_address": "4557 Mark Twain Dr",
    "address_councildis": "D",
    "status": "Pending",
    "rowid": "1071351",
    "final_x": "3691518.18633",
    "final_y": "551086.270293",
    "longitude": "-90.0357369604691",
    "latitude": "30.008987939752593",
    "geocoded_column": {
      "latitude": "30.008987939752593",
      "longitude": "-90.0357369604691"
    }
  },
  {
    "service_request": "2024-1071350",
    "request_type": "Trash/Recycling",
    "request_reason": "Replace Trash Cart",
    "date_created": "2024-02-28T22:26:17.000",
    "date_modified": "2024-02-28T22:26:18.000",
    "request_status": "Pending",
    "responsible_agency": "Department of Sanitation",
    "final_address": "4911 Corsica Pl",
    "address_councildis": "E",
    "status": "Assigned to Contractor",
    "contractor": "Waste Pro",
    "rowid": "1071350",
    "final_x": "3727415.44761",
    "final_y": "561948.173599",
    "longitude": "-89.92190458593666",
    "latitude": "30.03768713396943",
    "geocoded_column": {
      "latitude": "30.03768713396943",
      "longitude": "-89.92190458593666"
    }
  },
  {
    "service_request": "2024-1071349",
    "request_type": "Abandoned Vehicles",
    "request_reason": "Vehicle Blocking Your Driveway",
    "date_created": "2024-02-28T22:20:29.000",
    "date_modified": "2024-02-28T22:20:29.000",
    "request_status": "Pending",
    "responsible_agency": "Department of Public Works",
    "final_address": "4557 Mark Twain Dr",
    "address_councildis": "D",
    "status": "Pending",
    "rowid": "1071349",
    "final_x": "3691518.18633",
    "final_y": "551086.270293",
    "longitude": "-90.0357369604691",
    "latitude": "30.008987939752593",
    "geocoded_column": {
      "latitude": "30.008987939752593",
      "longitude": "-90.0357369604691"
    }
  },
  {
    "service_request": "2024-1071348",
    "request_type": "Trash/Recycling",
    "request_reason": "Illegal Dumping",
    "date_created": "2024-02-28T21:59:17.000",
    "date_modified": "2024-02-28T21:59:17.000",
    "request_status": "Pending",
    "responsible_agency": "Department of Sanitation",
    "final_address": "3133 General Meyer Ave",
    "address_councildis": "C",
    "status": "Pending",
    "rowid": "1071348",
    "final_x": "3695713.54173",
    "final_y": "526273.20275",
    "longitude": "-90.02337870546731",
    "latitude": "29.94062960685906",
    "geocoded_column": {
      "latitude": "29.94062960685906",
      "longitude": "-90.02337870546731"
    }
  },
  {
    "service_request": "2024-1071347",
    "request_type": "Trash/Recycling",
    "request_reason": "Request a Large Item Pick Up",
    "date_created": "2024-02-28T21:57:47.000",
    "date_modified": "2024-02-28T21:57:48.000",
    "request_status": "Pending",
    "responsible_agency": "Department of Sanitation",
    "final_address": "3118 St Thomas St",
    "address_councildis": "B",
    "status": "Assigned to Contractor",
    "contractor": "Richards Disposal",
    "rowid": "1071347",
    "final_x": "3676979.50971",
    "final_y": "518557.035831",
    "longitude": "-90.08279113827689",
    "latitude": "29.919988271237703",
    "geocoded_column": {
      "latitude": "29.919988271237703",
      "longitude": "-90.08279113827689"
    }
  },
  {
    "service_request": "2024-1071346",
    "request_type": "Trash/Recycling",
    "request_reason": "Order Recycling Cart",
    "date_created": "2024-02-28T20:44:18.000",
    "date_modified": "2024-02-28T20:44:18.000",
    "request_status": "Pending",
    "responsible_agency": "Department of Sanitation",
    "final_address": "3030 Constance St",
    "address_councildis": "B",
    "status": "Pending",
    "rowid": "1071346",
    "final_x": "3676376.10664",
    "final_y": "519895.843064",
    "longitude": "-90.08464973918711",
    "latitude": "29.923687653401316",
    "geocoded_column": {
      "latitude": "29.923687653401316",
      "longitude": "-90.08464973918711"
    }
  },
  {
    "service_request": "2024-1071345",
    "request_type": "Trash/Recycling",
    "request_reason": "Replace Trash Cart",
    "date_created": "2024-02-28T20:42:47.000",
    "date_modified": "2024-02-28T20:42:48.000",
    "request_status": "Pending",
    "responsible_agency": "Department of Sanitation",
    "final_address": "237 Adams St",
    "address_councildis": "A",
    "status": "Assigned to Contractor",
    "contractor": "Richards Disposal",
    "rowid": "1071345",
    "final_x": "3660917.43552",
    "final_y": "524980.091837",
    "longitude": "-90.13327928222685",
    "latitude": "29.938121908461333",
    "geocoded_column": {
      "latitude": "29.938121908461333",
      "longitude": "-90.13327928222685"
    }
  },
  {
    "service_request": "2024-1071344",
    "request_type": "Traffic Signals/Signs/Striping/Streetlights",
    "request_reason": "Street Light Outage/Malfunction",
    "date_created": "2024-02-28T20:40:52.000",
    "date_modified": "2024-02-28T20:40:52.000",
    "request_status": "Pending",
    "responsible_agency": "Department of Public Works",
    "final_address": "6000 BLK Bullard Ave",
    "address_councildis": "E",
    "status": "Assigned to Contractor",
    "contractor": "Legacy Professional Services",
    "rowid": "1071344",
    "final_x": "3715421.53008",
    "final_y": "564208.144009",
    "longitude": "-89.95972222426856",
    "latitude": "30.044301909801483",
    "geocoded_column": {
      "latitude": "30.044301909801483",
      "longitude": "-89.95972222426856"
    }
  },
  {
    "service_request": "2024-1071343",
    "request_type": "Traffic Signals/Signs/Striping/Streetlights",
    "request_reason": "Street Light Outage/Malfunction",
    "date_created": "2024-02-28T20:40:45.000",
    "date_modified": "2024-02-28T20:40:46.000",
    "request_status": "Pending",
    "responsible_agency": "Department of Public Works",
    "final_address": "6000 BLK Bullard Ave",
    "address_councildis": "E",
    "status": "Assigned to Contractor",
    "contractor": "Legacy Professional Services",
    "rowid": "1071343",
    "final_x": "3715421.53008",
    "final_y": "564208.144009",
    "longitude": "-89.95972222426856",
    "latitude": "30.044301909801483",
    "geocoded_column": {
      "latitude": "30.044301909801483",
      "longitude": "-89.95972222426856"
    }
  },
  {
    "service_request": "2024-1071342",
    "request_type": "Traffic Signals/Signs/Striping/Streetlights",
    "request_reason": "Street Light Outage/Malfunction",
    "date_created": "2024-02-28T20:38:59.000",
    "date_modified": "2024-02-28T20:39:00.000",
    "request_status": "Pending",
    "responsible_agency": "Department of Public Works",
    "final_address": "6000 BLK Bullard Ave",
    "address_councildis": "E",
    "status": "Assigned to Contractor",
    "contractor": "Legacy Professional Services",
    "rowid": "1071342",
    "final_x": "3715421.53008",
    "final_y": "564208.144009",
    "longitude": "-89.95972222426856",
    "latitude": "30.044301909801483",
    "geocoded_column": {
      "latitude": "30.044301909801483",
      "longitude": "-89.95972222426856"
    }
  },
  {
    "service_request": "2024-1071340",
    "request_type": "Trash/Recycling",
    "request_reason": "Request a Large Item Pick Up",
    "date_created": "2024-02-28T20:27:06.000",
    "date_modified": "2024-02-28T20:27:07.000",
    "request_status": "Pending",
    "responsible_agency": "Department of Sanitation",
    "final_address": "7056 E Tamaron Blvd",
    "address_councildis": "E",
    "status": "Assigned to Contractor",
    "contractor": "Waste Pro",
    "rowid": "1071340",
    "final_x": "3718802.9029",
    "final_y": "568506.369189",
    "longitude": "-89.9488715593406",
    "latitude": "30.056008369038516",
    "geocoded_column": {
      "latitude": "30.056008369038516",
      "longitude": "-89.9488715593406"
    }
  },
  {
    "service_request": "2024-1071338",
    "request_type": "Trash/Recycling",
    "request_reason": "Replace Trash Cart",
    "date_created": "2024-02-28T20:07:30.000",
    "date_modified": "2024-02-28T20:07:31.000",
    "request_status": "Pending",
    "responsible_agency": "Department of Sanitation",
    "final_address": "6304 St Roch Ave",
    "address_councildis": "D",
    "status": "Assigned to Contractor",
    "contractor": "IV Waste",
    "rowid": "1071338",
    "final_x": "3684768.41103",
    "final_y": "556374.023834",
    "longitude": "-90.05687561335914",
    "latitude": "30.023735770285754",
    "geocoded_column": {
      "latitude": "30.023735770285754",
      "longitude": "-90.05687561335914"
    }
  },
  {
    "service_request": "2024-1071337",
    "request_type": "Abandoned Vehicles",
    "request_reason": "Vehicle Blocking Your Driveway",
    "date_created": "2024-02-28T20:01:39.000",
    "date_modified": "2024-02-28T20:01:39.000",
    "request_status": "Pending",
    "responsible_agency": "Department of Public Works",
    "final_address": "700 BLK Saint Philip St",
    "address_councildis": "C",
    "status": "Pending",
    "rowid": "1071337",
    "final_x": "3683077.93827",
    "final_y": "533449.257692",
    "longitude": "-90.06302022998345",
    "latitude": "29.96075247847895",
    "geocoded_column": {
      "latitude": "29.96075247847895",
      "longitude": "-90.06302022998345"
    }
  },
  {
    "service_request": "2024-1071336",
    "request_type": "Abandoned Vehicles",
    "request_reason": "Vehicle Blocking Your Driveway",
    "date_created": "2024-02-28T19:48:34.000",
    "date_modified": "2024-02-28T19:48:34.000",
    "request_status": "Pending",
    "responsible_agency": "Department of Public Works",
    "final_address": "700 BLK Saint Philip St",
    "address_councildis": "C",
    "status": "Pending",
    "rowid": "1071336",
    "final_x": "3683077.93827",
    "final_y": "533449.257692",
    "longitude": "-90.06302022998345",
    "latitude": "29.96075247847895",
    "geocoded_column": {
      "latitude": "29.96075247847895",
      "longitude": "-90.06302022998345"
    }
  },
  {
    "service_request": "2024-1071335",
    "request_type": "Traffic Signals/Signs/Striping/Streetlights",
    "request_reason": "Request for Stop Sign",
    "date_created": "2024-02-28T19:35:19.000",
    "date_modified": "2024-02-28T19:35:19.000",
    "request_status": "Pending",
    "responsible_agency": "Department of Public Works",
    "final_address": "FILMORE AVE & ST BERNARD AVE",
    "address_councildis": "D",
    "status": "Pending",
    "rowid": "1071335",
    "final_x": "3676785.3",
    "final_y": "551661.08",
    "longitude": "-90.08226326715142",
    "latitude": "30.011018986243883",
    "geocoded_column": {
      "latitude": "30.011018986243883",
      "longitude": "-90.08226326715142"
    }
  },
  {
    "service_request": "2024-1071334",
    "request_type": "Traffic Signals/Signs/Striping/Streetlights",
    "request_reason": "Street Light Outage/Malfunction",
    "date_created": "2024-02-28T19:32:41.000",
    "date_modified": "2024-02-28T19:32:42.000",
    "request_status": "Pending",
    "responsible_agency": "Department of Public Works",
    "final_address": "ELYSIAN FIELDS AVE & ROBERT E LEE BLVD",
    "address_councildis": "D",
    "status": "Assigned to Contractor",
    "contractor": "Legacy Professional Services",
    "rowid": "1071334",
    "final_x": "3683369.1",
    "final_y": "555753.08",
    "longitude": "-90.0613189326636",
    "latitude": "30.02207119115978",
    "geocoded_column": {
      "latitude": "30.02207119115978",
      "longitude": "-90.0613189326636"
    }
  },
  {
    "service_request": "2024-1071333",
    "request_type": "Traffic Signals/Signs/Striping/Streetlights",
    "request_reason": "Street Light Outage/Malfunction",
    "date_created": "2024-02-28T19:31:07.000",
    "date_modified": "2024-02-28T19:31:08.000",
    "request_status": "Pending",
    "responsible_agency": "Department of Public Works",
    "final_address": "FILMORE ST & ST ANTHONY AVE",
    "address_councildis": "D",
    "status": "Assigned to Contractor",
    "contractor": "Legacy Professional Services",
    "rowid": "1071333",
    "final_x": "3682204.1",
    "final_y": "552101.78",
    "longitude": "-90.06512772807451",
    "latitude": "30.0120669575522",
    "geocoded_column": {
      "latitude": "30.0120669575522",
      "longitude": "-90.06512772807451"
    }
  },
  {
    "service_request": "2024-1071332",
    "request_type": "Traffic Signals/Signs/Striping/Streetlights",
    "request_reason": "Street Light Knocked Down/Leaning",
    "date_created": "2024-02-28T19:17:20.000",
    "date_modified": "2024-02-28T19:17:20.000",
    "request_status": "Pending",
    "responsible_agency": "Department of Public Works",
    "final_address": "700 Decatur St",
    "address_councildis": "C",
    "status": "Pending",
    "contractor": "Legacy Professional Services",
    "rowid": "1071332",
    "final_x": "3683339.11113",
    "final_y": "532087.273027",
    "longitude": "-90.06224320776103",
    "latitude": "29.956999522283336",
    "geocoded_column": {
      "latitude": "29.956999522283336",
      "longitude": "-90.06224320776103"
    }
  },
  {
    "service_request": "2024-1071331",
    "request_type": "Traffic Signals/Signs/Striping/Streetlights",
    "request_reason": "Street Light Outage/Malfunction",
    "date_created": "2024-02-28T19:10:14.000",
    "date_modified": "2024-02-28T19:10:15.000",
    "request_status": "Pending",
    "responsible_agency": "Department of Public Works",
    "final_address": "4400 BLK Burgundy St",
    "address_councildis": "C",
    "status": "Assigned to Contractor",
    "contractor": "Legacy Professional Services",
    "rowid": "1071331",
    "final_x": "3692995.93877",
    "final_y": "534170.113534",
    "longitude": "-90.03167538008698",
    "latitude": "29.962428516210668",
    "geocoded_column": {
      "latitude": "29.962428516210668",
      "longitude": "-90.03167538008698"
    }
  },
  {
    "service_request": "2024-1071330",
    "request_type": "Trash/Recycling",
    "request_reason": "Replace Trash Cart",
    "date_created": "2024-02-28T19:08:59.000",
    "date_modified": "2024-02-28T19:09:00.000",
    "request_status": "Pending",
    "responsible_agency": "Department of Sanitation",
    "final_address": "1827 Baronne St",
    "address_councildis": "B",
    "status": "Assigned to Contractor",
    "contractor": "Richards Disposal",
    "rowid": "1071330",
    "final_x": "3677685.20475",
    "final_y": "525036.660669",
    "longitude": "-90.0803399419708",
    "latitude": "29.93778393082698",
    "geocoded_column": {
      "latitude": "29.93778393082698",
      "longitude": "-90.0803399419708"
    }
  },
  {
    "service_request": "2024-1071329",
    "request_type": "Traffic Signals/Signs/Striping/Streetlights",
    "request_reason": "Street Light Outage/Malfunction",
    "date_created": "2024-02-28T19:07:11.000",
    "date_modified": "2024-02-28T19:07:12.000",
    "request_status": "Pending",
    "responsible_agency": "Department of Public Works",
    "final_address": "2600 BLK N Peters St",
    "address_councildis": "C",
    "status": "Assigned to Contractor",
    "contractor": "Legacy Professional Services",
    "rowid": "1071329",
    "final_x": "3686650.45475",
    "final_y": "534003.938341",
    "longitude": "-90.05171934959338",
    "latitude": "29.96216827196874",
    "geocoded_column": {
      "latitude": "29.96216827196874",
      "longitude": "-90.05171934959338"
    }
  },
  {
    "service_request": "2024-1071328",
    "request_type": "Trash/Recycling",
    "request_reason": "Replace Trash Cart",
    "date_created": "2024-02-28T18:37:25.000",
    "date_modified": "2024-02-28T18:37:25.000",
    "request_status": "Pending",
    "responsible_agency": "Department of Sanitation",
    "final_address": "7026 Louis Xiv St",
    "address_councildis": "A",
    "status": "Assigned to Contractor",
    "contractor": "IV Waste",
    "rowid": "1071328",
    "final_x": "3668608.87681",
    "final_y": "554243.246424",
    "longitude": "-90.10800868155803",
    "latitude": "30.018361968180347",
    "geocoded_column": {
      "latitude": "30.018361968180347",
      "longitude": "-90.10800868155803"
    }
  },
  {
    "service_request": "2024-1071327",
    "request_type": "Trash/Recycling",
    "request_reason": "MIssed Recycling Pick-Up",
    "date_created": "2024-02-28T18:13:56.000",
    "date_modified": "2024-02-28T18:13:56.000",
    "request_status": "Pending",
    "responsible_agency": "Department of Sanitation",
    "final_address": "11131 Winchester Park Dr",
    "address_councildis": "E",
    "status": "Assigned to Contractor",
    "contractor": "Waste Pro",
    "rowid": "1071327",
    "final_x": "3714990.43307",
    "final_y": "561371.901406",
    "longitude": "-89.96119201141566",
    "latitude": "30.036517590933506",
    "geocoded_column": {
      "latitude": "30.036517590933506",
      "longitude": "-89.96119201141566"
    }
  },
  {
    "service_request": "2024-1071326",
    "request_type": "Trash/Recycling",
    "request_reason": "Request a Large Item Pick Up",
    "date_created": "2024-02-28T18:11:55.000",
    "date_modified": "2024-02-28T18:11:56.000",
    "request_status": "Pending",
    "responsible_agency": "Department of Sanitation",
    "final_address": "330 Joseph St",
    "address_councildis": "A",
    "status": "Assigned to Contractor",
    "contractor": "Richards Disposal",
    "rowid": "1071326",
    "final_x": "3665764.94471",
    "final_y": "517430.054838",
    "longitude": "-90.1182279670791",
    "latitude": "29.917221204016336",
    "geocoded_column": {
      "latitude": "29.917221204016336",
      "longitude": "-90.1182279670791"
    }
  },
  {
    "service_request": "2024-1071325",
    "request_type": "Trash/Recycling",
    "request_reason": "Order Trash Cart",
    "date_created": "2024-02-28T18:10:55.000",
    "date_modified": "2024-02-28T18:10:55.000",
    "request_status": "Pending",
    "responsible_agency": "Department of Sanitation",
    "final_address": "11131 Winchester Park Dr",
    "address_councildis": "E",
    "status": "Assigned to Contractor",
    "contractor": "Waste Pro",
    "rowid": "1071325",
    "final_x": "3714990.43307",
    "final_y": "561371.901406",
    "longitude": "-89.96119201141566",
    "latitude": "30.036517590933506",
    "geocoded_column": {
      "latitude": "30.036517590933506",
      "longitude": "-89.96119201141566"
    }
  },
  {
    "service_request": "2024-1071324",
    "request_type": "Parks & Parkways",
    "request_reason": "Request Tree Service (Right of Way/Public Property)",
    "date_created": "2024-02-28T18:10:43.000",
    "date_modified": "2024-02-28T18:10:43.000",
    "request_status": "Pending",
    "responsible_agency": "Department of Parks & Parkway",
    "final_address": "1629 Fourth St",
    "address_councildis": "B",
    "status": "Pending",
    "rowid": "1071324",
    "final_x": "3676046.08104",
    "final_y": "522975.166779",
    "longitude": "-90.08558566221707",
    "latitude": "29.932164679950585",
    "geocoded_column": {
      "latitude": "29.932164679950585",
      "longitude": "-90.08558566221707"
    }
  },
  {
    "service_request": "2024-1071323",
    "request_type": "Roads/Drainage",
    "request_reason": "Pothole",
    "date_created": "2024-02-28T18:10:23.000",
    "date_modified": "2024-02-28T18:10:23.000",
    "request_status": "Pending",
    "responsible_agency": "Department of Public Works",
    "final_address": "4216 Chestnut St",
    "address_councildis": "B",
    "status": "Pending",
    "rowid": "1071323",
    "final_x": "3671574.31393",
    "final_y": "519539.203703",
    "longitude": "-90.09981939416457",
    "latitude": "29.922850019854593",
    "geocoded_column": {
      "latitude": "29.922850019854593",
      "longitude": "-90.09981939416457"
    }
  },
  {
    "service_request": "2024-1071321",
    "request_type": "Trash/Recycling",
    "request_reason": "Order Recycling Cart",
    "date_created": "2024-02-28T18:00:09.000",
    "date_modified": "2024-02-28T18:00:09.000",
    "request_status": "Pending",
    "responsible_agency": "Department of Sanitation",
    "final_address": "4843 Bundy Rd",
    "address_councildis": "E",
    "status": "Pending",
    "rowid": "1071321",
    "final_x": "3709397.99883",
    "final_y": "556442.25289",
    "longitude": "-89.97904921229964",
    "latitude": "30.02314595463323",
    "geocoded_column": {
      "latitude": "30.02314595463323",
      "longitude": "-89.97904921229964"
    }
  },
  {
    "service_request": "2024-1071320",
    "request_type": "Property Maintenance",
    "request_reason": "Property Maintenance",
    "date_created": "2024-02-28T17:59:52.000",
    "date_modified": "2024-02-28T17:59:52.000",
    "request_status": "Pending",
    "responsible_agency": "Department of Code Enforcement",
    "final_address": "1632 Fourth St",
    "address_councildis": "B",
    "status": "Pending",
    "rowid": "1071320",
    "final_x": "3675991.85582",
    "final_y": "522947.140667",
    "longitude": "-90.08575780939195",
    "latitude": "29.93208924078341",
    "geocoded_column": {
      "latitude": "29.93208924078341",
      "longitude": "-90.08575780939195"
    }
  },
  {
    "service_request": "2024-1071319",
    "request_type": "Trash/Recycling",
    "request_reason": "Request a Large Item Pick Up",
    "date_created": "2024-02-28T17:56:50.000",
    "date_modified": "2024-02-28T17:56:51.000",
    "request_status": "Pending",
    "responsible_agency": "Department of Sanitation",
    "final_address": "2000 S Carrollton Ave",
    "address_councildis": "A",
    "status": "Assigned to Contractor",
    "contractor": "Richards Disposal",
    "rowid": "1071319",
    "final_x": "3663869.15655",
    "final_y": "530500.026242",
    "longitude": "-90.12377643009548",
    "latitude": "29.953214623781495",
    "geocoded_column": {
      "latitude": "29.953214623781495",
      "longitude": "-90.12377643009548"
    }
  },
  {
    "service_request": "2024-1071318",
    "request_type": "Property Maintenance",
    "request_reason": "Property Maintenance",
    "date_created": "2024-02-28T17:43:20.000",
    "date_modified": "2024-02-28T17:43:20.000",
    "request_status": "Pending",
    "responsible_agency": "Department of Code Enforcement",
    "final_address": "5355 Cameron Blvd",
    "address_councildis": "D",
    "status": "Pending",
    "rowid": "1071318",
    "final_x": "3682674.74357",
    "final_y": "552858.063447",
    "longitude": "-90.06361428631966",
    "latitude": "30.014132130719965",
    "geocoded_column": {
      "latitude": "30.014132130719965",
      "longitude": "-90.06361428631966"
    }
  },
  {
    "service_request": "2024-1071317",
    "request_type": "Trash/Recycling",
    "request_reason": "Missed Trash Pick-Up",
    "date_created": "2024-02-28T17:43:14.000",
    "date_modified": "2024-02-28T17:43:14.000",
    "request_status": "Pending",
    "responsible_agency": "Department of Sanitation",
    "final_address": "1922 Adams St, New Orleans, Louisiana, 70118",
    "address_councildis": "A",
    "status": "Assigned to Contractor",
    "contractor": "Richards Disposal",
    "rowid": "1071317",
    "final_x": "3664814.87687",
    "final_y": "529368.983105",
    "longitude": "-90.12082803266622",
    "latitude": "29.95007713748382",
    "geocoded_column": {
      "latitude": "29.95007713748382",
      "longitude": "-90.12082803266622"
    }
  },
  {
    "service_request": "2024-1071316",
    "request_type": "Trash/Recycling",
    "request_reason": "Request a Large Item Pick Up",
    "date_created": "2024-02-28T17:38:31.000",
    "date_modified": "2024-02-28T17:38:32.000",
    "request_status": "Pending",
    "responsible_agency": "Department of Sanitation",
    "final_address": "1307 Mystery St",
    "address_councildis": "A",
    "status": "Assigned to Contractor",
    "contractor": "Richards Disposal",
    "rowid": "1071316",
    "final_x": "3676060.82344",
    "final_y": "540407.122251",
    "longitude": "-90.08493955897357",
    "latitude": "29.980096278375278",
    "geocoded_column": {
      "latitude": "29.980096278375278",
      "longitude": "-90.08493955897357"
    }
  },
  {
    "service_request": "2024-1071315",
    "request_type": "Trash/Recycling",
    "request_reason": "Illegal Dumping",
    "date_created": "2024-02-28T17:36:05.000",
    "date_modified": "2024-02-28T17:36:05.000",
    "request_status": "Pending",
    "responsible_agency": "Department of Sanitation",
    "final_address": "5620 Mayo Rd",
    "address_councildis": "E",
    "status": "Pending",
    "rowid": "1071315",
    "final_x": "3702714.70078",
    "final_y": "556035.231065",
    "longitude": "-90.00018178511284",
    "latitude": "30.022242303186644",
    "geocoded_column": {
      "latitude": "30.022242303186644",
      "longitude": "-90.00018178511284"
    }
  },
  {
    "service_request": "2024-1071314",
    "request_type": "Trash/Recycling",
    "request_reason": "Request a Large Item Pick Up",
    "date_created": "2024-02-28T17:31:47.000",
    "date_modified": "2024-02-28T17:31:47.000",
    "request_status": "Pending",
    "responsible_agency": "Department of Sanitation",
    "final_address": "4515 Majestic Oaks Dr, New Orleans, Louisiana, 70126",
    "address_councildis": "D",
    "status": "Assigned to Contractor",
    "contractor": "Waste Pro",
    "rowid": "1071314",
    "final_x": "3697947.71248",
    "final_y": "553145.398423",
    "longitude": "-90.01534923404188",
    "latitude": "30.014447998282407",
    "geocoded_column": {
      "latitude": "30.014447998282407",
      "longitude": "-90.01534923404188"
    }
  },
  {
    "service_request": "2024-1071313",
    "request_type": "Trash/Recycling",
    "request_reason": "Request a Large Item Pick Up",
    "date_created": "2024-02-28T17:25:45.000",
    "date_modified": "2024-02-28T17:25:45.000",
    "request_status": "Pending",
    "responsible_agency": "Department of Sanitation",
    "final_address": "1341 St Roch Ave",
    "address_councildis": "C",
    "status": "Assigned to Contractor",
    "contractor": "IV Waste",
    "rowid": "1071313",
    "final_x": "3686479.90569",
    "final_y": "537498.432904",
    "longitude": "-90.05213453030102",
    "latitude": "29.97178216094776",
    "geocoded_column": {
      "latitude": "29.97178216094776",
      "longitude": "-90.05213453030102"
    }
  },
  {
    "service_request": "2024-1071312",
    "request_type": "Trash/Recycling",
    "request_reason": "Order Trash Cart",
    "date_created": "2024-02-28T17:17:36.000",
    "date_modified": "2024-02-28T17:17:37.000",
    "request_status": "Pending",
    "responsible_agency": "Department of Sanitation",
    "final_address": "1011 Newton St, New Orleans, Louisiana, 70114",
    "address_councildis": "C",
    "status": "Assigned to Contractor",
    "contractor": "Richards Disposal",
    "rowid": "1071312",
    "final_x": "3688530.07139",
    "final_y": "527874.334271",
    "longitude": "-90.04600128239707",
    "latitude": "29.945256030454665",
    "geocoded_column": {
      "latitude": "29.945256030454665",
      "longitude": "-90.04600128239707"
    }
  },
  {
    "service_request": "2024-1071311",
    "request_type": "Trash/Recycling",
    "request_reason": "Repair Recycling Cart",
    "date_created": "2024-02-28T16:59:02.000",
    "date_modified": "2024-02-28T16:59:03.000",
    "request_status": "Pending",
    "responsible_agency": "Department of Sanitation",
    "final_address": "4533 Camp St",
    "address_councildis": "B",
    "status": "Pending",
    "rowid": "1071311",
    "final_x": "3670340.725",
    "final_y": "519129.361143",
    "longitude": "-90.1037272431968",
    "latitude": "29.921759540420734",
    "geocoded_column": {
      "latitude": "29.921759540420734",
      "longitude": "-90.1037272431968"
    }
  },
  {
    "service_request": "2024-1071310",
    "request_type": "Roads/Drainage",
    "request_reason": "Debris in Roadway",
    "date_created": "2024-02-28T16:58:13.000",
    "date_modified": "2024-02-28T16:58:13.000",
    "request_status": "Pending",
    "responsible_agency": "Department of Public Works",
    "final_address": "1430 N Roman St",
    "address_councildis": "D",
    "status": "Pending",
    "rowid": "1071310",
    "final_x": "3680904.90664",
    "final_y": "537230.160008",
    "longitude": "-90.06975057722227",
    "latitude": "29.97121472707846",
    "geocoded_column": {
      "latitude": "29.97121472707846",
      "longitude": "-90.06975057722227"
    }
  },
  {
    "service_request": "2024-1071309",
    "request_type": "Roads/Drainage",
    "request_reason": "Pothole",
    "date_created": "2024-02-28T16:56:04.000",
    "date_modified": "2024-02-28T16:56:04.000",
    "request_status": "Pending",
    "responsible_agency": "Department of Public Works",
    "final_address": "8600 Cohn St",
    "address_councildis": "A",
    "status": "Pending",
    "rowid": "1071309",
    "final_x": "3662236.0873",
    "final_y": "531400.853251",
    "longitude": "-90.12890308405515",
    "latitude": "29.9557389070252",
    "geocoded_column": {
      "latitude": "29.9557389070252",
      "longitude": "-90.12890308405515"
    }
  },
  {
    "service_request": "2024-1071308",
    "request_type": "Traffic Signals/Signs/Striping/Streetlights",
    "request_reason": "Street Light Outage/Malfunction",
    "date_created": "2024-02-28T16:55:10.000",
    "date_modified": "2024-02-28T16:55:11.000",
    "request_status": "Pending",
    "responsible_agency": "Department of Public Works",
    "final_address": "2120 Sere St",
    "address_councildis": "D",
    "status": "Assigned to Contractor",
    "contractor": "Legacy Professional Services",
    "rowid": "1071308",
    "final_x": "3683630.44169",
    "final_y": "545744.679952",
    "longitude": "-90.06084435366547",
    "latitude": "29.99454373735161",
    "geocoded_column": {
      "latitude": "29.99454373735161",
      "longitude": "-90.06084435366547"
    }
  },
  {
    "service_request": "2024-1071307",
    "request_type": "Trash/Recycling",
    "request_reason": "Replace Trash Cart",
    "date_created": "2024-02-28T16:50:24.000",
    "date_modified": "2024-02-28T16:50:25.000",
    "request_status": "Pending",
    "responsible_agency": "Department of Sanitation",
    "final_address": "2120 Sere St",
    "address_councildis": "D",
    "status": "Assigned to Contractor",
    "contractor": "IV Waste",
    "rowid": "1071307",
    "final_x": "3683630.44169",
    "final_y": "545744.679952",
    "longitude": "-90.06084435366547",
    "latitude": "29.99454373735161",
    "geocoded_column": {
      "latitude": "29.99454373735161",
      "longitude": "-90.06084435366547"
    }
  },
  {
    "service_request": "2024-1071306",
    "request_type": "Roads/Drainage",
    "request_reason": "Alley Way",
    "date_created": "2024-02-28T16:48:54.000",
    "date_modified": "2024-02-28T16:48:55.000",
    "request_status": "Pending",
    "responsible_agency": "Department of Public Works",
    "final_address": "620 Iberville St",
    "address_councildis": "C",
    "status": "Pending",
    "rowid": "1071306",
    "final_x": "3681540.22748",
    "final_y": "530914.490434",
    "longitude": "-90.06796441202955",
    "latitude": "29.9538295151725",
    "geocoded_column": {
      "latitude": "29.9538295151725",
      "longitude": "-90.06796441202955"
    }
  },
  {
    "service_request": "2024-1071305",
    "request_type": "Trash/Recycling",
    "request_reason": "Replace Trash Cart",
    "date_created": "2024-02-28T16:47:48.000",
    "date_modified": "2024-02-28T16:47:49.000",
    "request_status": "Pending",
    "responsible_agency": "Department of Sanitation",
    "final_address": "3310 Magazine St",
    "address_councildis": "B",
    "status": "Assigned to Contractor",
    "contractor": "Richards Disposal",
    "rowid": "1071305",
    "final_x": "3675311.25057",
    "final_y": "519705.878392",
    "longitude": "-90.08801762084411",
    "latitude": "29.923197176868143",
    "geocoded_column": {
      "latitude": "29.923197176868143",
      "longitude": "-90.08801762084411"
    }
  },
  {
    "service_request": "2024-1071304",
    "request_type": "Abandoned Vehicles",
    "request_reason": "Abandoned/Junk Vehicles",
    "date_created": "2024-02-28T16:42:17.000",
    "date_modified": "2024-02-28T16:42:17.000",
    "request_status": "Pending",
    "responsible_agency": "Department of Public Works",
    "final_address": "3034 Baronne St",
    "address_councildis": "B",
    "status": "Pending",
    "rowid": "1071304",
    "final_x": "3674639.68251",
    "final_y": "522532.547514",
    "longitude": "-90.09004069190115",
    "latitude": "29.930989656323796",
    "geocoded_column": {
      "latitude": "29.930989656323796",
      "longitude": "-90.09004069190115"
    }
  },
  {
    "service_request": "2024-1071303",
    "request_type": "Abandoned Vehicles",
    "request_reason": "Abandoned/Junk Vehicles",
    "date_created": "2024-02-28T16:38:57.000",
    "date_modified": "2024-02-28T16:38:57.000",
    "request_status": "Pending",
    "responsible_agency": "Department of Public Works",
    "final_address": "2212 Napoleon Ave",
    "address_councildis": "B",
    "status": "Pending",
    "rowid": "1071303",
    "final_x": "3670500.6418",
    "final_y": "523100.290747",
    "longitude": "-90.10308787427464",
    "latitude": "29.9326736084586",
    "geocoded_column": {
      "latitude": "29.9326736084586",
      "longitude": "-90.10308787427464"
    }
  },
  {
    "service_request": "2024-1071302",
    "request_type": "Trash/Recycling",
    "request_reason": "MIssed Recycling Pick-Up",
    "date_created": "2024-02-28T16:35:27.000",
    "date_modified": "2024-02-28T16:35:27.000",
    "request_status": "Pending",
    "responsible_agency": "Department of Sanitation",
    "final_address": "13632 N Cavelier Dr",
    "address_councildis": "E",
    "status": "Assigned to Contractor",
    "contractor": "Waste Pro",
    "rowid": "1071302",
    "final_x": "3724085.57651",
    "final_y": "569858.311974",
    "longitude": "-89.93212194469127",
    "latitude": "30.059549083506568",
    "geocoded_column": {
      "latitude": "30.059549083506568",
      "longitude": "-89.93212194469127"
    }
  },
  {
    "service_request": "2024-1071301",
    "request_type": "Trash/Recycling",
    "request_reason": "Repair Recycling Cart",
    "date_created": "2024-02-28T16:29:59.000",
    "date_modified": "2024-02-28T16:29:59.000",
    "request_status": "Pending",
    "responsible_agency": "Department of Sanitation",
    "final_address": "1821 Broadway St",
    "address_councildis": "A",
    "status": "Pending",
    "rowid": "1071301",
    "final_x": "3665527.928",
    "final_y": "528407.027072",
    "longitude": "-90.1186087865003",
    "latitude": "29.947411302989714",
    "geocoded_column": {
      "latitude": "29.947411302989714",
      "longitude": "-90.1186087865003"
    }
  },
  {
    "service_request": "2024-1071300",
    "request_type": "Trash/Recycling",
    "request_reason": "Replace Trash Cart",
    "date_created": "2024-02-28T16:29:52.000",
    "date_modified": "2024-02-28T16:29:53.000",
    "request_status": "Pending",
    "responsible_agency": "Department of Sanitation",
    "final_address": "2610 Carondelet St",
    "address_councildis": "B",
    "status": "Assigned to Contractor",
    "contractor": "Richards Disposal",
    "rowid": "1071300",
    "final_x": "3676136.86785",
    "final_y": "523100.418299",
    "longitude": "-90.0852947501691",
    "latitude": "29.932506362133662",
    "geocoded_column": {
      "latitude": "29.932506362133662",
      "longitude": "-90.0852947501691"
    }
  },
  {
    "service_request": "2024-1071299",
    "request_type": "Property Maintenance",
    "request_reason": "Property Maintenance",
    "date_created": "2024-02-28T16:29:26.000",
    "date_modified": "2024-02-28T16:29:26.000",
    "request_status": "Pending",
    "responsible_agency": "Department of Code Enforcement",
    "final_address": "813 St Maurice Ave",
    "address_councildis": "E",
    "status": "Pending",
    "rowid": "1071299",
    "final_x": "3699481.40132",
    "final_y": "532164.532035",
    "longitude": "-90.0112684042442",
    "latitude": "29.956709709563057",
    "geocoded_column": {
      "latitude": "29.956709709563057",
      "longitude": "-90.0112684042442"
    }
  },
  {
    "service_request": "2024-1071298",
    "request_type": "Utility Poles",
    "request_reason": "Utility Pole Leaning",
    "date_created": "2024-02-28T16:26:56.000",
    "date_modified": "2024-02-28T16:26:59.000",
    "request_status": "Pending",
    "responsible_agency": "Utility Company Collective",
    "final_address": "2021 Laharpe St",
    "address_councildis": "D",
    "status": "Pending",
    "rowid": "1071298",
    "final_x": "3680727.67106",
    "final_y": "538546.445897",
    "longitude": "-90.07026448821073",
    "latitude": "29.974839431727556",
    "geocoded_column": {
      "latitude": "29.974839431727556",
      "longitude": "-90.07026448821073"
    }
  },
  {
    "service_request": "2024-1071297",
    "request_type": "Trash/Recycling",
    "request_reason": "Replace Trash Cart",
    "date_created": "2024-02-28T16:24:54.000",
    "date_modified": "2024-02-28T16:24:55.000",
    "request_status": "Pending",
    "responsible_agency": "Department of Sanitation",
    "final_address": "4854 Cerise Ave",
    "address_councildis": "E",
    "status": "Assigned to Contractor",
    "contractor": "Waste Pro",
    "rowid": "1071297",
    "final_x": "3708462.10705",
    "final_y": "556416.61481",
    "longitude": "-89.98200735440685",
    "latitude": "30.023105841513615",
    "geocoded_column": {
      "latitude": "30.023105841513615",
      "longitude": "-89.98200735440685"
    }
  },
  {
    "service_request": "2024-1071296",
    "request_type": "Roads/Drainage",
    "request_reason": "Street Subsidence (Sinking)",
    "date_created": "2024-02-28T16:18:25.000",
    "date_modified": "2024-02-28T16:18:25.000",
    "request_status": "Pending",
    "responsible_agency": "Department of Public Works",
    "final_address": "5567 Bellaire Dr",
    "address_councildis": "A",
    "status": "Pending",
    "rowid": "1071296",
    "final_x": "3664149.17965",
    "final_y": "544840.900367",
    "longitude": "-90.12241369223058",
    "latitude": "29.992639139450652",
    "geocoded_column": {
      "latitude": "29.992639139450652",
      "longitude": "-90.12241369223058"
    }
  },
  {
    "service_request": "2024-1071295",
    "request_type": "Graffiti Removal",
    "request_reason": "Graffiti Removal",
    "date_created": "2024-02-28T16:16:28.000",
    "date_modified": "2024-02-28T16:16:28.000",
    "request_status": "Pending",
    "responsible_agency": "Department of Code Enforcement",
    "final_address": "MAGAZINE ST & SONIAT ST",
    "address_councildis": "B",
    "status": "Pending",
    "rowid": "1071295",
    "final_x": "3668342.9",
    "final_y": "518606.08",
    "longitude": "-90.11005117784669",
    "latitude": "29.920379480878413",
    "geocoded_column": {
      "latitude": "29.920379480878413",
      "longitude": "-90.11005117784669"
    }
  },
  {
    "service_request": "2024-1071294",
    "request_type": "Trash/Recycling",
    "request_reason": "Request a Large Item Pick Up",
    "date_created": "2024-02-28T16:13:46.000",
    "date_modified": "2024-02-28T16:13:47.000",
    "request_status": "Pending",
    "responsible_agency": "Department of Sanitation",
    "final_address": "4645 Music St",
    "address_councildis": "D",
    "status": "Assigned to Contractor",
    "contractor": "IV Waste",
    "rowid": "1071294",
    "final_x": "3685766.16988",
    "final_y": "549918.271892",
    "longitude": "-90.0539506632866",
    "latitude": "30.00595422129845",
    "geocoded_column": {
      "latitude": "30.00595422129845",
      "longitude": "-90.0539506632866"
    }
  },
  {
    "service_request": "2024-1071293",
    "request_type": "Trash/Recycling",
    "request_reason": "Request a Large Item Pick Up",
    "date_created": "2024-02-28T16:13:41.000",
    "date_modified": "2024-02-28T16:13:42.000",
    "request_status": "Pending",
    "responsible_agency": "Department of Sanitation",
    "final_address": "3918 Coliseum St",
    "address_councildis": "B",
    "status": "Assigned to Contractor",
    "contractor": "Richards Disposal",
    "rowid": "1071293",
    "final_x": "3672665.87668",
    "final_y": "519952.525688",
    "longitude": "-90.09635966783422",
    "latitude": "29.92395416697287",
    "geocoded_column": {
      "latitude": "29.92395416697287",
      "longitude": "-90.09635966783422"
    }
  },
  {
    "service_request": "2024-1071292",
    "request_type": "Trash/Recycling",
    "request_reason": "Request a Large Item Pick Up",
    "date_created": "2024-02-28T16:12:06.000",
    "date_modified": "2024-02-28T16:18:06.000",
    "case_close_date": "2024-02-28T10:18:06.000",
    "request_status": "Closed",
    "responsible_agency": "Department of Sanitation",
    "final_address": "4645 Music St",
    "address_councildis": "D",
    "status": "Assigned to Contractor",
    "contractor": "IV Waste",
    "contractor_action": "Completed",
    "rowid": "1071292",
    "final_x": "3685766.16988",
    "final_y": "549918.271892",
    "longitude": "-90.0539506632866",
    "latitude": "30.00595422129845",
    "geocoded_column": {
      "latitude": "30.00595422129845",
      "longitude": "-90.0539506632866"
    }
  },
  {
    "service_request": "2024-1071291",
    "request_type": "Trash/Recycling",
    "request_reason": "Missed Trash Pick-Up",
    "date_created": "2024-02-28T16:08:42.000",
    "date_modified": "2024-02-28T16:08:43.000",
    "request_status": "Pending",
    "responsible_agency": "Department of Sanitation",
    "final_address": "1914 Adams St",
    "address_councildis": "A",
    "status": "Assigned to Contractor",
    "contractor": "Richards Disposal",
    "rowid": "1071291",
    "final_x": "3664770.9088",
    "final_y": "529319.459777",
    "longitude": "-90.12096851552486",
    "latitude": "29.94994224358321",
    "geocoded_column": {
      "latitude": "29.94994224358321",
      "longitude": "-90.12096851552486"
    }
  },
  {
    "service_request": "2024-1071290",
    "request_type": "Abandoned Vehicles",
    "request_reason": "Abandoned/Junk Vehicles",
    "date_created": "2024-02-28T16:06:54.000",
    "date_modified": "2024-02-28T16:06:55.000",
    "request_status": "Pending",
    "responsible_agency": "Department of Public Works",
    "final_address": "MARDI GRAS BLVD & MONROE ST & TECHE ST",
    "address_councildis": "C",
    "status": "Pending",
    "rowid": "1071290",
    "final_x": "3686749.8",
    "final_y": "525295.98",
    "longitude": "-90.05171320198885",
    "latitude": "29.938221304610014",
    "geocoded_column": {
      "latitude": "29.938221304610014",
      "longitude": "-90.05171320198885"
    }
  },
  {
    "service_request": "2024-1071289",
    "request_type": "Trash/Recycling",
    "request_reason": "Request a Large Item Pick Up",
    "date_created": "2024-02-28T15:59:15.000",
    "date_modified": "2024-02-28T15:59:16.000",
    "request_status": "Pending",
    "responsible_agency": "Department of Sanitation",
    "final_address": "7424 Means Ave",
    "address_councildis": "E",
    "status": "Assigned to Contractor",
    "contractor": "Waste Pro",
    "rowid": "1071289",
    "final_x": "3708312.24971",
    "final_y": "564200.645729",
    "longitude": "-89.98219084022153",
    "latitude": "30.044513711110294",
    "geocoded_column": {
      "latitude": "30.044513711110294",
      "longitude": "-89.98219084022153"
    }
  },
  {
    "service_request": "2024-1071288",
    "request_type": "Trash/Recycling",
    "request_reason": "Request a Large Item Pick Up",
    "date_created": "2024-02-28T15:56:34.000",
    "date_modified": "2024-02-28T15:56:34.000",
    "request_status": "Pending",
    "responsible_agency": "Department of Sanitation",
    "final_address": "1821 Tupelo St",
    "address_councildis": "E",
    "status": "Assigned to Contractor",
    "contractor": "Waste Pro",
    "rowid": "1071288",
    "final_x": "3700592.61585",
    "final_y": "535932.357127",
    "longitude": "-90.00762191759488",
    "latitude": "29.967034579564157",
    "geocoded_column": {
      "latitude": "29.967034579564157",
      "longitude": "-90.00762191759488"
    }
  },
  {
    "service_request": "2024-1071287",
    "request_type": "Roads/Drainage",
    "request_reason": "Street Flooding / Drainage",
    "date_created": "2024-02-28T15:47:55.000",
    "date_modified": "2024-02-28T15:47:55.000",
    "request_status": "Pending",
    "responsible_agency": "Department of Public Works",
    "final_address": "2814 Allen St",
    "address_councildis": "D",
    "status": "Pending",
    "rowid": "1071287",
    "final_x": "3682228.6868",
    "final_y": "542496.354317",
    "longitude": "-90.06538586468943",
    "latitude": "29.985654719015283",
    "geocoded_column": {
      "latitude": "29.985654719015283",
      "longitude": "-90.06538586468943"
    }
  },
  {
    "service_request": "2024-1071286",
    "request_type": "Roads/Drainage",
    "request_reason": "Pothole",
    "date_created": "2024-02-28T15:46:47.000",
    "date_modified": "2024-02-28T15:46:47.000",
    "request_status": "Pending",
    "responsible_agency": "Department of Public Works",
    "final_address": "1301 Constantinople St",
    "address_councildis": "B",
    "status": "Pending",
    "rowid": "1071286",
    "final_x": "3672430.66305",
    "final_y": "520250.7726",
    "longitude": "-90.09709199725775",
    "latitude": "29.924781230435865",
    "geocoded_column": {
      "latitude": "29.924781230435865",
      "longitude": "-90.09709199725775"
    }
  },
  {
    "service_request": "2024-1071285",
    "request_type": "Roads/Drainage",
    "request_reason": "Catch Basin - Clogged",
    "date_created": "2024-02-28T15:45:47.000",
    "date_modified": "2024-02-28T15:45:48.000",
    "request_status": "Pending",
    "responsible_agency": "Department of Public Works",
    "final_address": "3397 Roger Williams St",
    "address_councildis": "D",
    "status": "Pending",
    "rowid": "1071285",
    "final_x": "3676834.89262",
    "final_y": "544055.395278",
    "longitude": "-90.08236892363729",
    "latitude": "29.990104551692358",
    "geocoded_column": {
      "latitude": "29.990104551692358",
      "longitude": "-90.08236892363729"
    }
  },
  {
    "service_request": "2024-1071284",
    "request_type": "Trash/Recycling",
    "request_reason": "Return Trash Cart",
    "date_created": "2024-02-28T15:45:41.000",
    "date_modified": "2024-02-28T15:45:41.000",
    "request_status": "Pending",
    "responsible_agency": "Department of Sanitation",
    "final_address": "1424 Octavia St",
    "address_councildis": "A",
    "status": "Assigned to Contractor",
    "contractor": "Richards Disposal",
    "rowid": "1071284",
    "final_x": "3666894.53729",
    "final_y": "521155.013177",
    "longitude": "-90.11453741306593",
    "latitude": "29.927430680619402",
    "geocoded_column": {
      "latitude": "29.927430680619402",
      "longitude": "-90.11453741306593"
    }
  },
  {
    "service_request": "2024-1071283",
    "request_type": "Trash/Recycling",
    "request_reason": "Repair Trash Cart",
    "date_created": "2024-02-28T15:42:10.000",
    "date_modified": "2024-02-28T15:42:10.000",
    "request_status": "Pending",
    "responsible_agency": "Department of Sanitation",
    "final_address": "231 18Th St",
    "address_councildis": "A",
    "status": "Assigned to Contractor",
    "contractor": "IV Waste",
    "rowid": "1071283",
    "final_x": "3665432.1056",
    "final_y": "548781.061971",
    "longitude": "-90.11822916304074",
    "latitude": "30.003435890642",
    "geocoded_column": {
      "latitude": "30.003435890642",
      "longitude": "-90.11822916304074"
    }
  },
  {
    "service_request": "2024-1071282",
    "request_type": "Trash/Recycling",
    "request_reason": "Repair Recycling Cart",
    "date_created": "2024-02-28T15:40:47.000",
    "date_modified": "2024-02-28T15:40:47.000",
    "request_status": "Pending",
    "responsible_agency": "Department of Sanitation",
    "final_address": "231 18Th St",
    "address_councildis": "A",
    "status": "Pending",
    "rowid": "1071282",
    "final_x": "3665432.1056",
    "final_y": "548781.061971",
    "longitude": "-90.11822916304074",
    "latitude": "30.003435890642",
    "geocoded_column": {
      "latitude": "30.003435890642",
      "longitude": "-90.11822916304074"
    }
  },
  {
    "service_request": "2024-1071280",
    "request_type": "Mosquito, Termite & Rodent Control",
    "request_reason": "Non-Rodent Complaint (Mice, Possums, Snakes)",
    "date_created": "2024-02-28T15:39:04.000",
    "date_modified": "2024-02-28T15:39:04.000",
    "request_status": "Pending",
    "responsible_agency": "Mosquito, Termite & Rodent Control Board",
    "final_address": "86 Yellowstone Dr",
    "address_councildis": "C",
    "status": "Pending",
    "rowid": "1071280",
    "final_x": "3700561.93137",
    "final_y": "515888.004916",
    "longitude": "-90.00845072779009",
    "latitude": "29.911920592249718",
    "geocoded_column": {
      "latitude": "29.911920592249718",
      "longitude": "-90.00845072779009"
    }
  },
  {
    "service_request": "2024-1071279",
    "request_type": "Trash/Recycling",
    "request_reason": "Order Trash Cart",
    "date_created": "2024-02-28T15:36:00.000",
    "date_modified": "2024-02-28T15:36:01.000",
    "request_status": "Pending",
    "responsible_agency": "Department of Sanitation",
    "final_address": "2512 Pine St",
    "address_councildis": "A",
    "status": "Assigned to Contractor",
    "contractor": "Richards Disposal",
    "rowid": "1071279",
    "final_x": "3666591.8377",
    "final_y": "530699.751042",
    "longitude": "-90.11517264318184",
    "latitude": "29.953684493354455",
    "geocoded_column": {
      "latitude": "29.953684493354455",
      "longitude": "-90.11517264318184"
    }
  },
  {
    "service_request": "2024-1071278",
    "request_type": "Trash/Recycling",
    "request_reason": "Illegal Dumping",
    "date_created": "2024-02-28T15:35:32.000",
    "date_modified": "2024-02-28T15:35:32.000",
    "request_status": "Pending",
    "responsible_agency": "Department of Sanitation",
    "final_address": "ST BERNARD AVE & N ROCHEBLAVE ST",
    "address_councildis": "D",
    "status": "Pending",
    "rowid": "1071278",
    "final_x": "3680694.3",
    "final_y": "540778.98",
    "longitude": "-90.0702921614172",
    "latitude": "29.980979136775385",
    "geocoded_column": {
      "latitude": "29.980979136775385",
      "longitude": "-90.0702921614172"
    }
  },
  {
    "service_request": "2024-1071277",
    "request_type": "Trash/Recycling",
    "request_reason": "Repair Recycling Cart",
    "date_created": "2024-02-28T15:33:43.000",
    "date_modified": "2024-02-28T15:33:44.000",
    "request_status": "Pending",
    "responsible_agency": "Department of Sanitation",
    "final_address": "49 Stilt St",
    "address_councildis": "D",
    "status": "Pending",
    "rowid": "1071277",
    "final_x": "3673698.99176",
    "final_y": "557374.249435",
    "longitude": "-90.09181858508515",
    "latitude": "30.02682044800152",
    "geocoded_column": {
      "latitude": "30.02682044800152",
      "longitude": "-90.09181858508515"
    }
  },
  {
    "service_request": "2024-1071276",
    "request_type": "Trash/Recycling",
    "request_reason": "Repair Trash Cart",
    "date_created": "2024-02-28T15:33:16.000",
    "date_modified": "2024-02-28T15:33:17.000",
    "request_status": "Pending",
    "responsible_agency": "Department of Sanitation",
    "final_address": "49 Stilt St",
    "address_councildis": "D",
    "status": "Assigned to Contractor",
    "contractor": "IV Waste",
    "rowid": "1071276",
    "final_x": "3673698.99176",
    "final_y": "557374.249435",
    "longitude": "-90.09181858508515",
    "latitude": "30.02682044800152",
    "geocoded_column": {
      "latitude": "30.02682044800152",
      "longitude": "-90.09181858508515"
    }
  },
  {
    "service_request": "2024-1071275",
    "request_type": "Trash/Recycling",
    "request_reason": "Request a Large Item Pick Up",
    "date_created": "2024-02-28T15:31:06.000",
    "date_modified": "2024-02-28T15:42:38.000",
    "case_close_date": "2024-02-28T09:42:38.000",
    "request_status": "Closed",
    "responsible_agency": "Department of Sanitation",
    "final_address": "4336 Cartier Ave",
    "address_councildis": "D",
    "status": "Assigned to Contractor",
    "contractor": "IV Waste",
    "contractor_action": "Invalid Request",
    "rowid": "1071275",
    "final_x": "3677908.84347",
    "final_y": "548388.375058",
    "longitude": "-90.07882674860166",
    "latitude": "30.001986436714045",
    "geocoded_column": {
      "latitude": "30.001986436714045",
      "longitude": "-90.07882674860166"
    }
  },
  {
    "service_request": "2024-1071274",
    "request_type": "Trash/Recycling",
    "request_reason": "Repair Recycling Cart",
    "date_created": "2024-02-28T15:27:47.000",
    "date_modified": "2024-02-28T15:27:47.000",
    "request_status": "Pending",
    "responsible_agency": "Department of Sanitation",
    "final_address": "990 Germain St",
    "address_councildis": "A",
    "status": "Pending",
    "rowid": "1071274",
    "final_x": "3670790.25179",
    "final_y": "547661.854226",
    "longitude": "-90.1013399084324",
    "latitude": "30.000201135655157",
    "geocoded_column": {
      "latitude": "30.000201135655157",
      "longitude": "-90.1013399084324"
    }
  },
  {
    "service_request": "2024-1071273",
    "request_type": "Trash/Recycling",
    "request_reason": "Request a Large Item Pick Up",
    "date_created": "2024-02-28T15:26:57.000",
    "date_modified": "2024-02-28T15:26:57.000",
    "request_status": "Pending",
    "responsible_agency": "Department of Sanitation",
    "final_address": "2053 N Rocheblave St",
    "address_councildis": "D",
    "status": "Assigned to Contractor",
    "contractor": "IV Waste",
    "rowid": "1071273",
    "final_x": "3682977.61064",
    "final_y": "540993.917515",
    "longitude": "-90.06307292951801",
    "latitude": "29.98150073726196",
    "geocoded_column": {
      "latitude": "29.98150073726196",
      "longitude": "-90.06307292951801"
    }
  },
  {
    "service_request": "2024-1071272",
    "request_type": "Roads/Drainage",
    "request_reason": "Catch Basin - Clogged",
    "date_created": "2024-02-28T15:26:54.000",
    "date_modified": "2024-02-28T15:29:28.000",
    "request_status": "Pending",
    "responsible_agency": "Department of Public Works",
    "final_address": "1628 Pratt Dr",
    "address_councildis": "D",
    "status": "Pending",
    "rowid": "1071272",
    "final_x": "3679670.31887",
    "final_y": "548511.995282",
    "longitude": "-90.07325775735524",
    "latitude": "30.002273203081312",
    "geocoded_column": {
      "latitude": "30.002273203081312",
      "longitude": "-90.07325775735524"
    }
  },
  {
    "service_request": "2024-1071271",
    "request_type": "Roads/Drainage",
    "request_reason": "Pothole",
    "date_created": "2024-02-28T15:26:23.000",
    "date_modified": "2024-02-28T15:26:23.000",
    "request_status": "Pending",
    "responsible_agency": "Department of Public Works",
    "final_address": "1312 Milan St",
    "address_councildis": "B",
    "status": "Pending",
    "rowid": "1071271",
    "final_x": "3671625.82823",
    "final_y": "520286.919608",
    "longitude": "-90.09963137110304",
    "latitude": "29.92490447494246",
    "geocoded_column": {
      "latitude": "29.92490447494246",
      "longitude": "-90.09963137110304"
    }
  },
  {
    "service_request": "2024-1071270",
    "request_type": "Trash/Recycling",
    "request_reason": "Missed Trash Pick-Up",
    "date_created": "2024-02-28T15:23:49.000",
    "date_modified": "2024-02-28T15:23:49.000",
    "request_status": "Pending",
    "responsible_agency": "Department of Sanitation",
    "final_address": "7830 Parry St ",
    "address_councildis": "E",
    "status": "Assigned to Contractor",
    "contractor": "Waste Pro",
    "rowid": "1071270",
    "final_x": "3713945.12965",
    "final_y": "568965.835942",
    "longitude": "-89.96420860137064",
    "latitude": "30.05743220476295",
    "geocoded_column": {
      "latitude": "30.05743220476295",
      "longitude": "-89.96420860137064"
    }
  },
  {
    "service_request": "2024-1071269",
    "request_type": "Trash/Recycling",
    "request_reason": "Request a Large Item Pick Up",
    "date_created": "2024-02-28T15:20:27.000",
    "date_modified": "2024-02-28T15:20:27.000",
    "request_status": "Pending",
    "responsible_agency": "Department of Sanitation",
    "final_address": "420 Delery St",
    "address_councildis": "E",
    "status": "Assigned to Contractor",
    "contractor": "Waste Pro",
    "rowid": "1071269",
    "final_x": "3699517.16925",
    "final_y": "530761.234626",
    "longitude": "-90.01120659014201",
    "latitude": "29.952850003967722",
    "geocoded_column": {
      "latitude": "29.952850003967722",
      "longitude": "-90.01120659014201"
    }
  },
  {
    "service_request": "2024-1071268",
    "request_type": "Traffic Signals/Signs/Striping/Streetlights",
    "request_reason": "Street Light Outage/Malfunction",
    "date_created": "2024-02-28T15:20:11.000",
    "date_modified": "2024-02-28T15:20:12.000",
    "request_status": "Pending",
    "responsible_agency": "Department of Public Works",
    "final_address": "4768 Flake Ave",
    "address_councildis": "E",
    "status": "Assigned to Contractor",
    "contractor": "Legacy Professional Services",
    "rowid": "1071268",
    "final_x": "3706025.26923",
    "final_y": "555655.122457",
    "longitude": "-89.9897353767993",
    "latitude": "30.021090827508015",
    "geocoded_column": {
      "latitude": "30.021090827508015",
      "longitude": "-89.9897353767993"
    }
  },
  {
    "service_request": "2024-1071267",
    "request_type": "Trash/Recycling",
    "request_reason": "Illegal Dumping",
    "date_created": "2024-02-28T15:20:09.000",
    "date_modified": "2024-02-28T15:20:09.000",
    "request_status": "Pending",
    "responsible_agency": "Department of Sanitation",
    "final_address": "3300 BLK Feliciana St",
    "address_councildis": "D",
    "status": "Pending",
    "rowid": "1071267",
    "final_x": "3690961.00157",
    "final_y": "544933.140892",
    "longitude": "-90.03771709441688",
    "latitude": "29.992086419055173",
    "geocoded_column": {
      "latitude": "29.992086419055173",
      "longitude": "-90.03771709441688"
    }
  },
  {
    "service_request": "2024-1071266",
    "request_type": "Trash/Recycling",
    "request_reason": "Request a Large Item Pick Up",
    "date_created": "2024-02-28T15:13:54.000",
    "date_modified": "2024-02-28T15:13:55.000",
    "request_status": "Pending",
    "responsible_agency": "Department of Sanitation",
    "final_address": "4811 Iberville St",
    "address_councildis": "A",
    "status": "Assigned to Contractor",
    "contractor": "Richards Disposal",
    "rowid": "1071266",
    "final_x": "3669045.21415",
    "final_y": "540553.907851",
    "longitude": "-90.1070928950338",
    "latitude": "29.980708194014515",
    "geocoded_column": {
      "latitude": "29.980708194014515",
      "longitude": "-90.1070928950338"
    }
  },
  {
    "service_request": "2024-1071265",
    "request_type": "Trash/Recycling",
    "request_reason": "Replace Trash Cart",
    "date_created": "2024-02-28T15:09:11.000",
    "date_modified": "2024-02-28T15:09:12.000",
    "request_status": "Pending",
    "responsible_agency": "Department of Sanitation",
    "final_address": "4800 Calliope St",
    "address_councildis": "B",
    "status": "Assigned to Contractor",
    "contractor": "Richards Disposal",
    "rowid": "1071265",
    "final_x": "3669600.67649",
    "final_y": "533057.700612",
    "longitude": "-90.10559218296407",
    "latitude": "29.960079779292627",
    "geocoded_column": {
      "latitude": "29.960079779292627",
      "longitude": "-90.10559218296407"
    }
  },
  {
    "service_request": "2024-1071264",
    "request_type": "Trash/Recycling",
    "request_reason": "Repair Recycling Cart",
    "date_created": "2024-02-28T15:04:34.000",
    "date_modified": "2024-02-28T15:04:34.000",
    "request_status": "Pending",
    "responsible_agency": "Department of Sanitation",
    "final_address": "7829 Willow St",
    "address_councildis": "A",
    "status": "Pending",
    "rowid": "1071264",
    "final_x": "3663105.32935",
    "final_y": "528338.0592",
    "longitude": "-90.1262601914771",
    "latitude": "29.947292059181446",
    "geocoded_column": {
      "latitude": "29.947292059181446",
      "longitude": "-90.1262601914771"
    }
  },
  {
    "service_request": "2024-1071263",
    "request_type": "Traffic Signals/Signs/Striping/Streetlights",
    "request_reason": "Street Light Outage/Malfunction",
    "date_created": "2024-02-28T14:59:59.000",
    "date_modified": "2024-02-28T15:00:00.000",
    "request_status": "Pending",
    "responsible_agency": "Department of Public Works",
    "final_address": "5623 Painters St",
    "address_councildis": "D",
    "status": "Assigned to Contractor",
    "contractor": "Legacy Professional Services",
    "rowid": "1071263",
    "final_x": "3686216.78742",
    "final_y": "553797.027479",
    "longitude": "-90.05239007138893",
    "latitude": "30.01660553842899",
    "geocoded_column": {
      "latitude": "30.01660553842899",
      "longitude": "-90.05239007138893"
    }
  },
  {
    "service_request": "2024-1071262",
    "request_type": "Parks & Parkways",
    "request_reason": "Request Tree Service (Right of Way/Public Property)",
    "date_created": "2024-02-28T14:58:13.000",
    "date_modified": "2024-02-28T14:58:13.000",
    "request_status": "Pending",
    "responsible_agency": "Department of Parks & Parkway",
    "final_address": "CANAL BLVD & RING ST",
    "address_councildis": "D",
    "status": "Pending",
    "rowid": "1071262",
    "final_x": "3669125.3",
    "final_y": "555046.28",
    "longitude": "-90.10634980056072",
    "latitude": "30.020554830459332",
    "geocoded_column": {
      "latitude": "30.020554830459332",
      "longitude": "-90.10634980056072"
    }
  },
  {
    "service_request": "2024-1071261",
    "request_type": "Trash/Recycling",
    "request_reason": "Repair Trash Cart",
    "date_created": "2024-02-28T14:56:13.000",
    "date_modified": "2024-02-28T14:56:13.000",
    "request_status": "Pending",
    "responsible_agency": "Department of Sanitation",
    "final_address": "3926 S Post Oak Ave",
    "address_councildis": "C",
    "status": "Assigned to Contractor",
    "contractor": "Richards Disposal",
    "rowid": "1071261",
    "final_x": "3704681.02212",
    "final_y": "513561.030834",
    "longitude": "-89.99553565154983",
    "latitude": "29.90539060770381",
    "geocoded_column": {
      "latitude": "29.90539060770381",
      "longitude": "-89.99553565154983"
    }
  },
  {
    "service_request": "2024-1071260",
    "request_type": "Trash/Recycling",
    "request_reason": "Replace Trash Cart",
    "date_created": "2024-02-28T14:45:56.000",
    "date_modified": "2024-02-28T14:45:57.000",
    "request_status": "Pending",
    "responsible_agency": "Department of Sanitation",
    "final_address": "1009 Pine St",
    "address_councildis": "A",
    "status": "Assigned to Contractor",
    "contractor": "Richards Disposal",
    "rowid": "1071260",
    "final_x": "3663602.49395",
    "final_y": "526124.978238",
    "longitude": "-90.1247641472678",
    "latitude": "29.94119238484068",
    "geocoded_column": {
      "latitude": "29.94119238484068",
      "longitude": "-90.1247641472678"
    }
  },
  {
    "service_request": "2024-1071259",
    "request_type": "Parks & Parkways",
    "request_reason": "Request Grass Cutting Service (City Owned Property)",
    "date_created": "2024-02-28T14:45:01.000",
    "date_modified": "2024-02-28T14:46:59.000",
    "request_status": "Pending",
    "responsible_agency": "Department of Parks & Parkway",
    "final_address": "6500 Morrison Rd",
    "address_councildis": "E",
    "rowid": "1071259",
    "final_x": "3697647.29341",
    "final_y": "558185.176731",
    "longitude": "-90.01611535724454",
    "latitude": "30.028314971663566",
    "geocoded_column": {
      "latitude": "30.028314971663566",
      "longitude": "-90.01611535724454"
    }
  },
  {
    "service_request": "2024-1071258",
    "request_type": "Trash/Recycling",
    "request_reason": "Request a Large Item Pick Up",
    "date_created": "2024-02-28T14:43:15.000",
    "date_modified": "2024-02-28T14:43:16.000",
    "request_status": "Pending",
    "responsible_agency": "Department of Sanitation",
    "final_address": "11211 N Idlewood Ct",
    "address_councildis": "E",
    "status": "Assigned to Contractor",
    "contractor": "Waste Pro",
    "rowid": "1071258",
    "final_x": "3716025.86207",
    "final_y": "560277.469149",
    "longitude": "-89.9579613954362",
    "latitude": "30.03347420878148",
    "geocoded_column": {
      "latitude": "30.03347420878148",
      "longitude": "-89.9579613954362"
    }
  },
  {
    "service_request": "2024-1071257",
    "request_type": "Trash/Recycling",
    "request_reason": "Order Recycling Cart",
    "date_created": "2024-02-28T14:39:42.000",
    "date_modified": "2024-02-28T14:39:42.000",
    "request_status": "Pending",
    "responsible_agency": "Department of Sanitation",
    "final_address": "919 Ursulines Ave",
    "address_councildis": "C",
    "status": "Pending",
    "rowid": "1071257",
    "final_x": "3682746.06479",
    "final_y": "534201.436549",
    "longitude": "-90.0640419096188",
    "latitude": "29.96283082518097",
    "geocoded_column": {
      "latitude": "29.96283082518097",
      "longitude": "-90.0640419096188"
    }
  },
  {
    "service_request": "2024-1071256",
    "request_type": "Traffic Signals/Signs/Striping/Streetlights",
    "request_reason": "Road Surface Marking Maintenance-Traffic Control",
    "date_created": "2024-02-28T14:36:28.000",
    "date_modified": "2024-02-28T14:36:28.000",
    "request_status": "Pending",
    "responsible_agency": "Department of Public Works",
    "final_address": "PARIS AVE & CHARLTON DR",
    "address_councildis": "D",
    "status": "Pending",
    "rowid": "1071256",
    "final_x": "3679307.9",
    "final_y": "550700.28",
    "longitude": "-90.07432672419527",
    "latitude": "30.008301157746484",
    "geocoded_column": {
      "latitude": "30.008301157746484",
      "longitude": "-90.07432672419527"
    }
  },
  {
    "service_request": "2024-1071255",
    "request_type": "Trash/Recycling",
    "request_reason": "MIssed Recycling Pick-Up",
    "date_created": "2024-02-28T14:36:21.000",
    "date_modified": "2024-02-28T14:36:21.000",
    "request_status": "Pending",
    "responsible_agency": "Department of Sanitation",
    "final_address": "10920 Zenith St",
    "address_councildis": "E",
    "status": "Assigned to Contractor",
    "contractor": "Waste Pro",
    "rowid": "1071255",
    "final_x": "3710575.90904",
    "final_y": "565329.583778",
    "longitude": "-89.97499441196027",
    "latitude": "30.04754424812881",
    "geocoded_column": {
      "latitude": "30.04754424812881",
      "longitude": "-89.97499441196027"
    }
  },
  {
    "service_request": "2024-1071254",
    "request_type": "Abandoned Vehicles",
    "request_reason": "Abandoned/Junk Vehicles",
    "date_created": "2024-02-28T14:36:06.000",
    "date_modified": "2024-02-28T14:42:45.000",
    "request_status": "Pending",
    "responsible_agency": "Department of Public Works",
    "final_address": "3800 BLK Red Cypress Dr",
    "address_councildis": "C",
    "status": "Inspected",
    "rowid": "1071254",
    "final_x": "3703734.69354",
    "final_y": "512214.838875",
    "longitude": "-89.99857178551954",
    "latitude": "29.901719382940744",
    "geocoded_column": {
      "latitude": "29.901719382940744",
      "longitude": "-89.99857178551954"
    }
  },
  {
    "service_request": "2024-1071253",
    "request_type": "Trash/Recycling",
    "request_reason": "Missed Trash Pick-Up",
    "date_created": "2024-02-28T14:34:06.000",
    "date_modified": "2024-02-28T14:34:06.000",
    "request_status": "Pending",
    "responsible_agency": "Department of Sanitation",
    "final_address": "4740 Crowder Blvd",
    "address_councildis": "E",
    "status": "Assigned to Contractor",
    "contractor": "Waste Pro",
    "rowid": "1071253",
    "final_x": "3706314.85886",
    "final_y": "555782.329113",
    "longitude": "-89.98881564708256",
    "latitude": "30.0214312564467",
    "geocoded_column": {
      "latitude": "30.0214312564467",
      "longitude": "-89.98881564708256"
    }
  },
  {
    "service_request": "2024-1071252",
    "request_type": "Abandoned Vehicles",
    "request_reason": "Abandoned/Junk Vehicles",
    "date_created": "2024-02-28T14:29:54.000",
    "date_modified": "2024-02-28T14:29:54.000",
    "request_status": "Pending",
    "responsible_agency": "Department of Public Works",
    "final_address": "1413 Lafitte Ave",
    "address_councildis": "C",
    "status": "Pending",
    "rowid": "1071252",
    "final_x": "3680337.24495",
    "final_y": "533948.439621",
    "longitude": "-90.07165744874706",
    "latitude": "29.962208320326916",
    "geocoded_column": {
      "latitude": "29.962208320326916",
      "longitude": "-90.07165744874706"
    }
  },
  {
    "service_request": "2024-1071251",
    "request_type": "Trash/Recycling",
    "request_reason": "Repair Recycling Cart",
    "date_created": "2024-02-28T14:26:31.000",
    "date_modified": "2024-02-28T14:27:40.000",
    "request_status": "Pending",
    "responsible_agency": "Department of Sanitation",
    "final_address": "5643 Bancroft Dr",
    "address_councildis": "D",
    "status": "Pending",
    "rowid": "1071251",
    "final_x": "3676597.64142",
    "final_y": "553098.973143",
    "longitude": "-90.08280657646137",
    "latitude": "30.014978309473893",
    "geocoded_column": {
      "latitude": "30.014978309473893",
      "longitude": "-90.08280657646137"
    }
  },
  {
    "service_request": "2024-1071250",
    "request_type": "Abandoned Vehicles",
    "request_reason": "Abandoned/Junk Vehicles",
    "date_created": "2024-02-28T14:24:22.000",
    "date_modified": "2024-02-28T14:44:26.000",
    "request_status": "Pending",
    "responsible_agency": "Department of Public Works",
    "final_address": "3800 BLK Red Cypress Dr",
    "address_councildis": "C",
    "status": "Inspected",
    "rowid": "1071250",
    "final_x": "3703734.69354",
    "final_y": "512214.838875",
    "longitude": "-89.99857178551954",
    "latitude": "29.901719382940744",
    "geocoded_column": {
      "latitude": "29.901719382940744",
      "longitude": "-89.99857178551954"
    }
  },
  {
    "service_request": "2024-1071249",
    "request_type": "Traffic Signals/Signs/Striping/Streetlights",
    "request_reason": "Street Light Outage/Malfunction",
    "date_created": "2024-02-28T14:24:18.000",
    "date_modified": "2024-02-28T14:24:19.000",
    "request_status": "Pending",
    "responsible_agency": "Department of Public Works",
    "final_address": "3101 N Dorgenois St",
    "address_councildis": "D",
    "status": "Assigned to Contractor",
    "contractor": "Legacy Professional Services",
    "rowid": "1071249",
    "final_x": "3690368.09545",
    "final_y": "541299.529804",
    "longitude": "-90.03971953944368",
    "latitude": "29.982113713970012",
    "geocoded_column": {
      "latitude": "29.982113713970012",
      "longitude": "-90.03971953944368"
    }
  },
  {
    "service_request": "2024-1071248",
    "request_type": "Tax and Revenue",
    "request_reason": "Occupational License Tax",
    "date_created": "2024-02-28T14:23:56.000",
    "date_modified": "2024-02-28T14:32:42.000",
    "request_status": "Pending",
    "responsible_agency": "Bureau of Revenue",
    "final_address": "New Orleans,LA",
    "rowid": "1071248",
    "longitude": "0.0",
    "latitude": "0.0",
    "geocoded_column": {
      "latitude": "0.0",
      "longitude": "0.0"
    }
  },
  {
    "service_request": "2024-1071247",
    "request_type": "Trash/Recycling",
    "request_reason": "Replace Trash Cart",
    "date_created": "2024-02-28T14:23:22.000",
    "date_modified": "2024-02-28T14:23:22.000",
    "request_status": "Pending",
    "responsible_agency": "Department of Sanitation",
    "final_address": "1843 Crete St",
    "address_councildis": "A",
    "status": "Assigned to Contractor",
    "contractor": "IV Waste",
    "rowid": "1071247",
    "final_x": "3678551.92706",
    "final_y": "542715.571021",
    "longitude": "-90.0769916680184",
    "latitude": "29.986368847780636",
    "geocoded_column": {
      "latitude": "29.986368847780636",
      "longitude": "-90.0769916680184"
    }
  },
  {
    "service_request": "2024-1071246",
    "request_type": "Traffic Signals/Signs/Striping/Streetlights",
    "request_reason": "Street Light Outage/Malfunction",
    "date_created": "2024-02-28T14:23:17.000",
    "date_modified": "2024-02-28T14:23:18.000",
    "request_status": "Pending",
    "responsible_agency": "Department of Public Works",
    "final_address": "2419 Clouet St",
    "address_councildis": "D",
    "status": "Assigned to Contractor",
    "contractor": "Legacy Professional Services",
    "rowid": "1071246",
    "final_x": "3690305.71657",
    "final_y": "541037.190603",
    "longitude": "-90.03992591439469",
    "latitude": "29.98139431104687",
    "geocoded_column": {
      "latitude": "29.98139431104687",
      "longitude": "-90.03992591439469"
    }
  },
  {
    "service_request": "2024-1071245",
    "request_type": "Trash/Recycling",
    "request_reason": "Order Recycling Cart",
    "date_created": "2024-02-28T14:22:57.000",
    "date_modified": "2024-02-28T14:22:57.000",
    "request_status": "Pending",
    "responsible_agency": "Department of Sanitation",
    "final_address": "1330 Touro St",
    "address_councildis": "C",
    "status": "Pending",
    "rowid": "1071245",
    "final_x": "3684121.34274",
    "final_y": "537233.963016",
    "longitude": "-90.0595925119297",
    "latitude": "29.971127263230947",
    "geocoded_column": {
      "latitude": "29.971127263230947",
      "longitude": "-90.0595925119297"
    }
  },
  {
    "service_request": "2024-1071244",
    "request_type": "Abandoned Vehicles",
    "request_reason": "Abandoned/Junk Vehicles",
    "date_created": "2024-02-28T14:21:50.000",
    "date_modified": "2024-02-28T14:21:50.000",
    "request_status": "Pending",
    "responsible_agency": "Department of Public Works",
    "final_address": "1615 Joliet St",
    "address_councildis": "A",
    "status": "Pending",
    "rowid": "1071244",
    "final_x": "3661969.78989",
    "final_y": "530442.357762",
    "longitude": "-90.12977575221225",
    "latitude": "29.95311104777914",
    "geocoded_column": {
      "latitude": "29.95311104777914",
      "longitude": "-90.12977575221225"
    }
  },
  {
    "service_request": "2024-1071242",
    "request_type": "Trash/Recycling",
    "request_reason": "Request a Large Item Pick Up",
    "date_created": "2024-02-28T14:20:56.000",
    "date_modified": "2024-02-28T14:20:56.000",
    "request_status": "Pending",
    "responsible_agency": "Department of Sanitation",
    "final_address": "732 Voisin St",
    "address_councildis": "A",
    "status": "Assigned to Contractor",
    "contractor": "IV Waste",
    "rowid": "1071242",
    "final_x": "3668451.99054",
    "final_y": "543191.436685",
    "longitude": "-90.10887754065791",
    "latitude": "29.987977945023463",
    "geocoded_column": {
      "latitude": "29.987977945023463",
      "longitude": "-90.10887754065791"
    }
  },
  {
    "service_request": "2024-1071241",
    "request_type": "Trash/Recycling",
    "request_reason": "Replace Trash Cart",
    "date_created": "2024-02-28T14:20:38.000",
    "date_modified": "2024-02-28T14:20:39.000",
    "request_status": "Pending",
    "responsible_agency": "Department of Sanitation",
    "final_address": "6828 Glengary Rd",
    "address_councildis": "E",
    "status": "Assigned to Contractor",
    "contractor": "Waste Pro",
    "rowid": "1071241",
    "final_x": "3701640.50237",
    "final_y": "557239.385499",
    "longitude": "-90.0035318065629",
    "latitude": "30.025587585850687",
    "geocoded_column": {
      "latitude": "30.025587585850687",
      "longitude": "-90.0035318065629"
    }
  },
  {
    "service_request": "2024-1071240",
    "request_type": "Trash/Recycling",
    "request_reason": "MIssed Recycling Pick-Up",
    "date_created": "2024-02-28T14:19:44.000",
    "date_modified": "2024-02-28T14:19:44.000",
    "request_status": "Pending",
    "responsible_agency": "Department of Sanitation",
    "final_address": "10920 Zenith St",
    "address_councildis": "E",
    "status": "Assigned to Contractor",
    "contractor": "Waste Pro",
    "rowid": "1071240",
    "final_x": "3710575.90904",
    "final_y": "565329.583778",
    "longitude": "-89.97499441196027",
    "latitude": "30.04754424812881",
    "geocoded_column": {
      "latitude": "30.04754424812881",
      "longitude": "-89.97499441196027"
    }
  },
  {
    "service_request": "2024-1071239",
    "request_type": "Trash/Recycling",
    "request_reason": "Dead Animal Pick Up",
    "date_created": "2024-02-28T14:17:46.000",
    "date_modified": "2024-02-28T14:17:47.000",
    "request_status": "Pending",
    "responsible_agency": "Department of Sanitation",
    "final_address": "ELYSIAN FIELDS AVE & N ROMAN ST",
    "address_councildis": "D",
    "status": "Assigned to Contractor",
    "contractor": "IV Waste",
    "rowid": "1071239",
    "final_x": "3684752.7",
    "final_y": "538877.68",
    "longitude": "-90.05754080604741",
    "latitude": "29.97562759859168",
    "geocoded_column": {
      "latitude": "29.97562759859168",
      "longitude": "-90.05754080604741"
    }
  },
  {
    "service_request": "2024-1071238",
    "request_type": "Trash/Recycling",
    "request_reason": "Illegal Dumping",
    "date_created": "2024-02-28T14:15:28.000",
    "date_modified": "2024-02-28T14:17:40.000",
    "request_status": "Pending",
    "responsible_agency": "Department of Code Enforcement",
    "final_address": "8523 Oak St",
    "address_councildis": "A",
    "status": "Pending",
    "rowid": "1071238",
    "final_x": "3660793.75469",
    "final_y": "529494.013249",
    "longitude": "-90.13352053449239",
    "latitude": "29.950537318127356",
    "geocoded_column": {
      "latitude": "29.950537318127356",
      "longitude": "-90.13352053449239"
    }
  },
  {
    "service_request": "2024-1071237",
    "request_type": "Traffic Signals/Signs/Striping/Streetlights",
    "request_reason": "Street Light Outage/Malfunction",
    "date_created": "2024-02-28T14:12:40.000",
    "date_modified": "2024-02-28T14:12:40.000",
    "request_status": "Pending",
    "responsible_agency": "Department of Public Works",
    "final_address": "105 Finland Pl",
    "address_councildis": "C",
    "status": "Assigned to Contractor",
    "contractor": "Legacy Professional Services",
    "rowid": "1071237",
    "final_x": "3705883.97207",
    "final_y": "520685.697081",
    "longitude": "-89.99147578287291",
    "latitude": "29.9249423063033",
    "geocoded_column": {
      "latitude": "29.9249423063033",
      "longitude": "-89.99147578287291"
    }
  },
  {
    "service_request": "2024-1071236",
    "request_type": "Trash/Recycling",
    "request_reason": "Repair Trash Cart",
    "date_created": "2024-02-28T14:10:36.000",
    "date_modified": "2024-02-28T14:10:37.000",
    "request_status": "Pending",
    "responsible_agency": "Department of Sanitation",
    "final_address": "6312 Perlita Dr",
    "address_councildis": "D",
    "status": "Assigned to Contractor",
    "contractor": "IV Waste",
    "rowid": "1071236",
    "final_x": "3678041.32597",
    "final_y": "556145.109466",
    "longitude": "-90.07813979180604",
    "latitude": "30.023310678942792",
    "geocoded_column": {
      "latitude": "30.023310678942792",
      "longitude": "-90.07813979180604"
    }
  },
  {
    "service_request": "2024-1071234",
    "request_type": "Roads/Drainage",
    "request_reason": "Street Subsidence (Sinking)",
    "date_created": "2024-02-28T13:58:44.000",
    "date_modified": "2024-02-28T13:58:45.000",
    "request_status": "Pending",
    "responsible_agency": "Department of Public Works",
    "final_address": "4600 Downman Rd",
    "address_councildis": "D",
    "status": "Pending",
    "rowid": "1071234",
    "final_x": "3695892.19907",
    "final_y": "553819.169239",
    "longitude": "-90.02181924240527",
    "latitude": "30.01636546478141",
    "geocoded_column": {
      "latitude": "30.01636546478141",
      "longitude": "-90.02181924240527"
    }
  },
  {
    "service_request": "2024-1071233",
    "request_type": "Trash/Recycling",
    "request_reason": "Order Recycling Cart",
    "date_created": "2024-02-28T13:54:00.000",
    "date_modified": "2024-02-28T13:54:00.000",
    "request_status": "Pending",
    "responsible_agency": "Department of Sanitation",
    "final_address": "4842 Good Dr",
    "address_councildis": "E",
    "status": "Pending",
    "rowid": "1071233",
    "final_x": "3714671.33432",
    "final_y": "557262.867227",
    "longitude": "-89.96235578509851",
    "latitude": "30.02522989073152",
    "geocoded_column": {
      "latitude": "30.02522989073152",
      "longitude": "-89.96235578509851"
    }
  },
  {
    "service_request": "2024-1071232",
    "request_type": "Parks & Parkways",
    "request_reason": "Request Tree Service (Right of Way/Public Property)",
    "date_created": "2024-02-28T13:52:48.000",
    "date_modified": "2024-02-28T13:52:49.000",
    "request_status": "Pending",
    "responsible_agency": "Department of Parks & Parkway",
    "final_address": "2532 Hudson Pl",
    "address_councildis": "C",
    "status": "Pending",
    "rowid": "1071232",
    "final_x": "3703473.96049",
    "final_y": "521720.076154",
    "longitude": "-89.99904532301119",
    "latitude": "29.927863873177593",
    "geocoded_column": {
      "latitude": "29.927863873177593",
      "longitude": "-89.99904532301119"
    }
  },
  {
    "service_request": "2024-1071231",
    "request_type": "Trash/Recycling",
    "request_reason": "Order Recycling Cart",
    "date_created": "2024-02-28T13:50:13.000",
    "date_modified": "2024-02-28T13:50:14.000",
    "request_status": "Pending",
    "responsible_agency": "Department of Sanitation",
    "final_address": "7719 Sandy Cove Dr",
    "address_councildis": "E",
    "status": "Pending",
    "rowid": "1071231",
    "final_x": "3715320.00882",
    "final_y": "569818.526566",
    "longitude": "-89.95983053134061",
    "latitude": "30.059731510019187",
    "geocoded_column": {
      "latitude": "30.059731510019187",
      "longitude": "-89.95983053134061"
    }
  },
  {
    "service_request": "2024-1071230",
    "request_type": "Traffic Signals/Signs/Striping/Streetlights",
    "request_reason": "Traffic Sign Missing/Damaged",
    "date_created": "2024-02-28T13:49:21.000",
    "date_modified": "2024-02-28T13:49:21.000",
    "request_status": "Pending",
    "responsible_agency": "Department of Public Works",
    "final_address": "N MIRO ST & DESIRE ST",
    "address_councildis": "D",
    "status": "Pending",
    "rowid": "1071230",
    "final_x": "3691204.8",
    "final_y": "539850.28",
    "longitude": "-90.03712861364244",
    "latitude": "29.978102794377175",
    "geocoded_column": {
      "latitude": "29.978102794377175",
      "longitude": "-90.03712861364244"
    }
  },
  {
    "service_request": "2024-1071229",
    "request_type": "Roads/Drainage",
    "request_reason": "Pothole",
    "date_created": "2024-02-28T13:44:36.000",
    "date_modified": "2024-02-28T13:45:01.000",
    "case_close_date": "2024-02-28T07:45:01.000",
    "request_status": "Closed",
    "responsible_agency": "Department of Public Works",
    "final_address": "1133 Nunez St",
    "address_councildis": "C",
    "status": "Resolved",
    "rowid": "1071229",
    "final_x": "3686950.56054",
    "final_y": "527281.282687",
    "longitude": "-90.05100924020932",
    "latitude": "29.94367403968787",
    "geocoded_column": {
      "latitude": "29.94367403968787",
      "longitude": "-90.05100924020932"
    }
  },
  {
    "service_request": "2024-1071228",
    "request_type": "Graffiti Removal",
    "request_reason": "Graffiti Removal",
    "date_created": "2024-02-28T13:43:59.000",
    "date_modified": "2024-02-28T13:43:59.000",
    "request_status": "Pending",
    "responsible_agency": "Department of Code Enforcement",
    "final_address": "1310 S Galvez St",
    "address_councildis": "B",
    "status": "Pending",
    "rowid": "1071228",
    "final_x": "3673897.57352",
    "final_y": "529417.287041",
    "longitude": "-90.09214800630461",
    "latitude": "29.949942557970708",
    "geocoded_column": {
      "latitude": "29.949942557970708",
      "longitude": "-90.09214800630461"
    }
  },
  {
    "service_request": "2024-1071227",
    "request_type": "Graffiti Removal",
    "request_reason": "Graffiti Removal",
    "date_created": "2024-02-28T13:42:35.000",
    "date_modified": "2024-02-28T13:42:35.000",
    "request_status": "Pending",
    "responsible_agency": "Department of Code Enforcement",
    "final_address": "1409 S Galvez St",
    "address_councildis": "B",
    "status": "Pending",
    "rowid": "1071227",
    "final_x": "3673599.3892",
    "final_y": "529257.203649",
    "longitude": "-90.0930949851977",
    "latitude": "29.949511259471656",
    "geocoded_column": {
      "latitude": "29.949511259471656",
      "longitude": "-90.0930949851977"
    }
  },
  {
    "service_request": "2024-1071226",
    "request_type": "Trash/Recycling",
    "request_reason": "Order Recycling Cart",
    "date_created": "2024-02-28T13:42:08.000",
    "date_modified": "2024-02-28T13:42:09.000",
    "request_status": "Pending",
    "responsible_agency": "Department of Sanitation",
    "final_address": "3335 Elysian Fields Ave",
    "address_councildis": "D",
    "status": "Pending",
    "rowid": "1071226",
    "final_x": "3684430.97154",
    "final_y": "545065.330063",
    "longitude": "-90.05833946187845",
    "latitude": "29.99265129855764",
    "geocoded_column": {
      "latitude": "29.99265129855764",
      "longitude": "-90.05833946187845"
    }
  },
  {
    "service_request": "2024-1071225",
    "request_type": "Roads/Drainage",
    "request_reason": "Pothole",
    "date_created": "2024-02-28T13:41:08.000",
    "date_modified": "2024-02-28T13:41:28.000",
    "case_close_date": "2024-02-28T07:41:28.000",
    "request_status": "Closed",
    "responsible_agency": "Department of Public Works",
    "final_address": "1200 BLK Lamarque St",
    "address_councildis": "C",
    "status": "Resolved",
    "rowid": "1071225",
    "final_x": "3689172.48678",
    "final_y": "526695.944427",
    "longitude": "-90.04401484441458",
    "latitude": "29.941995999163744",
    "geocoded_column": {
      "latitude": "29.941995999163744",
      "longitude": "-90.04401484441458"
    }
  },
  {
    "service_request": "2024-1071224",
    "request_type": "Graffiti Removal",
    "request_reason": "Graffiti Removal",
    "date_created": "2024-02-28T13:40:37.000",
    "date_modified": "2024-02-28T13:40:37.000",
    "request_status": "Pending",
    "responsible_agency": "Department of Code Enforcement",
    "final_address": "3369 Martin Luther King, Jr. Blvd",
    "address_councildis": "B",
    "status": "Pending",
    "rowid": "1071224",
    "final_x": "3673758.75547",
    "final_y": "529061.969664",
    "longitude": "-90.09259846819062",
    "latitude": "29.948969686486432",
    "geocoded_column": {
      "latitude": "29.948969686486432",
      "longitude": "-90.09259846819062"
    }
  },
  {
    "service_request": "2024-1071223",
    "request_type": "Roads/Drainage",
    "request_reason": "Damaged Sidewalk",
    "date_created": "2024-02-28T13:40:17.000",
    "date_modified": "2024-02-28T15:27:20.000",
    "request_status": "Pending",
    "responsible_agency": "Department of Public Works",
    "final_address": "4831 Cerise Ave",
    "address_councildis": "E",
    "status": "Inspected",
    "rowid": "1071223",
    "final_x": "3708627.43851",
    "final_y": "556242.661722",
    "longitude": "-89.98149143278616",
    "latitude": "30.022622176141155",
    "geocoded_column": {
      "latitude": "30.022622176141155",
      "longitude": "-89.98149143278616"
    }
  },
  {
    "service_request": "2024-1071222",
    "request_type": "Trash/Recycling",
    "request_reason": "Repair Trash Cart",
    "date_created": "2024-02-28T13:39:23.000",
    "date_modified": "2024-02-28T13:39:24.000",
    "request_status": "Pending",
    "responsible_agency": "Department of Sanitation",
    "final_address": "2435 Behrman Hwy",
    "address_councildis": "C",
    "status": "Assigned to Contractor",
    "contractor": "Richards Disposal",
    "rowid": "1071222",
    "final_x": "3692038.35792",
    "final_y": "521292.062777",
    "longitude": "-90.03516000850658",
    "latitude": "29.927048182498435",
    "geocoded_column": {
      "latitude": "29.927048182498435",
      "longitude": "-90.03516000850658"
    }
  },
  {
    "service_request": "2024-1071221",
    "request_type": "Graffiti Removal",
    "request_reason": "Graffiti Removal",
    "date_created": "2024-02-28T13:38:54.000",
    "date_modified": "2024-02-28T13:38:54.000",
    "request_status": "Pending",
    "responsible_agency": "Department of Code Enforcement",
    "final_address": "3325 Martin Luther King, Jr. Blvd",
    "address_councildis": "B",
    "status": "Pending",
    "rowid": "1071221",
    "final_x": "3673983.4738",
    "final_y": "528920.70752",
    "longitude": "-90.09189376629669",
    "latitude": "29.94857456960689",
    "geocoded_column": {
      "latitude": "29.94857456960689",
      "longitude": "-90.09189376629669"
    }
  },
  {
    "service_request": "2024-1071220",
    "request_type": "Roads/Drainage",
    "request_reason": "Pothole",
    "date_created": "2024-02-28T13:38:51.000",
    "date_modified": "2024-02-28T13:39:14.000",
    "case_close_date": "2024-02-28T07:39:14.000",
    "request_status": "Closed",
    "responsible_agency": "Department of Public Works",
    "final_address": "1200 BLK Verret St",
    "address_councildis": "C",
    "status": "Resolved",
    "rowid": "1071220",
    "final_x": "3687340.1745",
    "final_y": "527006.164935",
    "longitude": "-90.04978885847235",
    "latitude": "29.942905564352603",
    "geocoded_column": {
      "latitude": "29.942905564352603",
      "longitude": "-90.04978885847235"
    }
  },
  {
    "service_request": "2024-1071219",
    "request_type": "Roads/Drainage",
    "request_reason": "Pothole",
    "date_created": "2024-02-28T13:36:52.000",
    "date_modified": "2024-02-28T13:37:16.000",
    "case_close_date": "2024-02-28T07:37:16.000",
    "request_status": "Closed",
    "responsible_agency": "Department of Public Works",
    "final_address": "1100 BLK Verret St",
    "address_councildis": "C",
    "status": "Resolved",
    "rowid": "1071219",
    "final_x": "3687290.83831",
    "final_y": "527388.557543",
    "longitude": "-90.04993110190219",
    "latitude": "29.943958533758927",
    "geocoded_column": {
      "latitude": "29.943958533758927",
      "longitude": "-90.04993110190219"
    }
  },
  {
    "service_request": "2024-1071218",
    "request_type": "Graffiti Removal",
    "request_reason": "Graffiti Removal",
    "date_created": "2024-02-28T13:35:53.000",
    "date_modified": "2024-02-28T13:35:53.000",
    "request_status": "Pending",
    "responsible_agency": "Department of Code Enforcement",
    "final_address": "3711 Martin Luther King, Jr. Blvd",
    "address_councildis": "B",
    "status": "Pending",
    "rowid": "1071218",
    "final_x": "3672624.99969",
    "final_y": "529772.514945",
    "longitude": "-90.09615401026619",
    "latitude": "29.950957159359096",
    "geocoded_column": {
      "latitude": "29.950957159359096",
      "longitude": "-90.09615401026619"
    }
  },
  {
    "service_request": "2024-1071217",
    "request_type": "Trash/Recycling",
    "request_reason": "Order Trash Cart",
    "date_created": "2024-02-28T13:32:08.000",
    "date_modified": "2024-02-28T13:32:08.000",
    "request_status": "Pending",
    "responsible_agency": "Department of Sanitation",
    "final_address": "2801 Wall Blvd Apt B",
    "address_councildis": "C",
    "status": "Assigned to Contractor",
    "contractor": "Richards Disposal",
    "rowid": "1071217",
    "final_x": "3694570.47926",
    "final_y": "523624.581051",
    "longitude": "-90.02708285825354",
    "latitude": "29.933382688878485",
    "geocoded_column": {
      "latitude": "29.933382688878485",
      "longitude": "-90.02708285825354"
    }
  },
  {
    "service_request": "2024-1071216",
    "request_type": "Property Maintenance",
    "request_reason": "Property Maintenance",
    "date_created": "2024-02-28T13:30:52.000",
    "date_modified": "2024-02-28T13:30:53.000",
    "request_status": "Pending",
    "responsible_agency": "Department of Code Enforcement",
    "final_address": "9021 Dixon St",
    "address_councildis": "A",
    "status": "Pending",
    "rowid": "1071216",
    "final_x": "3665956.98042",
    "final_y": "537778.363912",
    "longitude": "-90.11693998960298",
    "latitude": "29.973166889958758",
    "geocoded_column": {
      "latitude": "29.973166889958758",
      "longitude": "-90.11693998960298"
    }
  },
  {
    "service_request": "2024-1071215",
    "request_type": "Abandoned Vehicles",
    "request_reason": "Abandoned/Junk Vehicles",
    "date_created": "2024-02-28T13:24:42.000",
    "date_modified": "2024-02-28T13:24:42.000",
    "request_status": "Pending",
    "responsible_agency": "Department of Public Works",
    "final_address": "1730 Euterpe St",
    "address_councildis": "B",
    "status": "Pending",
    "rowid": "1071215",
    "final_x": "3678296.1172",
    "final_y": "525332.045117",
    "longitude": "-90.07840102884441",
    "latitude": "29.938577757532574",
    "geocoded_column": {
      "latitude": "29.938577757532574",
      "longitude": "-90.07840102884441"
    }
  },
  {
    "service_request": "2024-1071214",
    "request_type": "Trash/Recycling",
    "request_reason": "Missed Trash Pick-Up",
    "date_created": "2024-02-28T13:23:07.000",
    "date_modified": "2024-02-28T13:23:08.000",
    "request_status": "Pending",
    "responsible_agency": "Department of Sanitation",
    "final_address": "1910 Louisiana Ave",
    "address_councildis": "B",
    "status": "Assigned to Contractor",
    "contractor": "Richards Disposal",
    "rowid": "1071214",
    "final_x": "3673667.45083",
    "final_y": "522618.963898",
    "longitude": "-90.09310694810445",
    "latitude": "29.93125624443677",
    "geocoded_column": {
      "latitude": "29.93125624443677",
      "longitude": "-90.09310694810445"
    }
  },
  {
    "service_request": "2024-1071213",
    "request_type": "Roads/Drainage",
    "request_reason": "Pothole",
    "date_created": "2024-02-28T13:20:50.000",
    "date_modified": "2024-02-28T13:21:21.000",
    "case_close_date": "2024-02-28T07:21:21.000",
    "request_status": "Closed",
    "responsible_agency": "Department of Public Works",
    "final_address": "1800 BLK New York St",
    "address_councildis": "D",
    "status": "Resolved",
    "rowid": "1071213",
    "final_x": "3680928.70897",
    "final_y": "556190.419887",
    "longitude": "-90.06901470122786",
    "latitude": "30.02334798061912",
    "geocoded_column": {
      "latitude": "30.02334798061912",
      "longitude": "-90.06901470122786"
    }
  },
  {
    "service_request": "2024-1071212",
    "request_type": "Trash/Recycling",
    "request_reason": "Replace Trash Cart",
    "date_created": "2024-02-28T13:20:21.000",
    "date_modified": "2024-02-28T13:20:22.000",
    "request_status": "Pending",
    "responsible_agency": "Department of Sanitation",
    "final_address": "8807 Fig St",
    "address_councildis": "A",
    "status": "Assigned to Contractor",
    "contractor": "Richards Disposal",
    "rowid": "1071212",
    "final_x": "3664439.68736",
    "final_y": "534886.175558",
    "longitude": "-90.121828499968",
    "latitude": "29.96525852972755",
    "geocoded_column": {
      "latitude": "29.96525852972755",
      "longitude": "-90.121828499968"
    }
  },
  {
    "service_request": "2024-1071211",
    "request_type": "Roads/Drainage",
    "request_reason": "Catch Basin - Broken/Damage",
    "date_created": "2024-02-28T13:19:32.000",
    "date_modified": "2024-02-28T13:19:32.000",
    "request_status": "Pending",
    "responsible_agency": "Department of Public Works",
    "final_address": "100 Conti St",
    "address_councildis": "C",
    "status": "Pending",
    "rowid": "1071211",
    "final_x": "3682802.93679",
    "final_y": "530831.36877",
    "longitude": "-90.06398020920791",
    "latitude": "29.95356255631566",
    "geocoded_column": {
      "latitude": "29.95356255631566",
      "longitude": "-90.06398020920791"
    }
  },