[
  {
    "service_request": "2023-1016255",
    "request_type": "Roads/Drainage",
    "request_reason": "Road Shoulder Repair",
    "date_created": "2023-07-12T01:52:42.000",
    "date_modified": "2023-07-12T01:52:42.000",
    "request_status": "Pending",
    "responsible_agency": "Department of Public Works",
    "final_address": "6101 Laurel St",
    "address_councildis": "A",
    "status": "Pending",
    "rowid": "1016255",
    "final_x": "3663742.36218",
    "final_y": "518483.726582",
    "longitude": "-90.12457705052233",
    "latitude": "29.920177295052472",
    "geocoded_column": {
      "latitude": "29.920177295052472",
      "longitude": "-90.12457705052233"
    }
  },
  {
    "service_request": "2023-1016254",
    "request_type": "Roads/Drainage",
    "request_reason": "Pothole",
    "date_created": "2023-07-12T01:43:39.000",
    "date_modified": "2023-07-12T01:43:39.000",
    "request_status": "Pending",
    "responsible_agency": "Department of Public Works",
    "final_address": "3727 Camp St",
    "address_councildis": "B",
    "status": "Pending",
    "rowid": "1016254",
    "final_x": "3673343.06971",
    "final_y": "519472.150455",
    "longitude": "-90.09423840580615",
    "latitude": "29.922613170047818",
    "geocoded_column": {
      "latitude": "29.922613170047818",
      "longitude": "-90.09423840580615"
    }
  },
  {
    "service_request": "2023-1016253",
    "request_type": "Roads/Drainage",
    "request_reason": "Road Shoulder Repair",
    "date_created": "2023-07-12T01:37:57.000",
    "date_modified": "2023-07-12T01:37:57.000",
    "request_status": "Pending",
    "responsible_agency": "Department of Public Works",
    "final_address": "1138 Webster St",
    "address_councildis": "A",
    "status": "Pending",
    "rowid": "1016253",
    "final_x": "3664540.24397",
    "final_y": "520668.993977",
    "longitude": "-90.12198558548621",
    "latitude": "29.926162927916074",
    "geocoded_column": {
      "latitude": "29.926162927916074",
      "longitude": "-90.12198558548621"
    }
  },
  {
    "service_request": "2023-1016252",
    "request_type": "Traffic Signals/Signs/Striping/Streetlights",
    "request_reason": "Street Name Sign Damaged or Missing",
    "date_created": "2023-07-12T01:19:15.000",
    "date_modified": "2023-07-12T01:19:15.000",
    "request_status": "Pending",
    "responsible_agency": "Department of Public Works",
    "final_address": "1222 General Pershing St",
    "address_councildis": "B",
    "status": "Pending",
    "rowid": "1016252",
    "final_x": "3671295.11342",
    "final_y": "520065.399416",
    "longitude": "-90.10068285428629",
    "latitude": "29.924305151856114",
    "geocoded_column": {
      "latitude": "29.924305151856114",
      "longitude": "-90.10068285428629"
    }
  },
  {
    "service_request": "2023-1016251",
    "request_type": "Safety & Permits",
    "request_reason": "Licenses & Permits",
    "date_created": "2023-07-12T00:01:28.000",
    "date_modified": "2023-07-12T00:01:29.000",
    "request_status": "Pending",
    "responsible_agency": "Safety and Permits",
    "final_address": "4701 Downman Rd",
    "address_councildis": "D",
    "status": "Pending",
    "rowid": "1016251",
    "final_x": "3696036.92586",
    "final_y": "554080.889496",
    "longitude": "-90.02135250258435",
    "latitude": "30.01708054131688",
    "geocoded_column": {
      "latitude": "30.01708054131688",
      "longitude": "-90.02135250258435"
    }
  },
  {
    "service_request": "2023-1016250",
    "request_type": "Traffic Signals/Signs/Striping/Streetlights",
    "request_reason": "Street Light Outage/Malfunction",
    "date_created": "2023-07-11T23:25:44.000",
    "date_modified": "2023-07-11T23:25:45.000",
    "request_status": "Pending",
    "responsible_agency": "Department of Public Works",
    "final_address": "700 BLK Philip St",
    "address_councildis": "B",
    "status": "Assigned to Contractor",
    "contractor": "Legacy Professional Services",
    "rowid": "1016250",
    "final_x": "3679323.09374",
    "final_y": "520827.941728",
    "longitude": "-90.07531487704836",
    "latitude": "29.92616198648095",
    "geocoded_column": {
      "latitude": "29.92616198648095",
      "longitude": "-90.07531487704836"
    }
  },
  {
    "service_request": "2023-1016249",
    "request_type": "Roads/Drainage",
    "request_reason": "Pothole",
    "date_created": "2023-07-11T23:11:02.000",
    "date_modified": "2023-07-11T23:11:02.000",
    "request_status": "Pending",
    "responsible_agency": "Department of Public Works",
    "final_address": "3809 Camp St",
    "address_councildis": "B",
    "status": "Pending",
    "rowid": "1016249",
    "final_x": "3673201.92462",
    "final_y": "519424.451575",
    "longitude": "-90.09468557278748",
    "latitude": "29.922486209531183",
    "geocoded_column": {
      "latitude": "29.922486209531183",
      "longitude": "-90.09468557278748"
    }
  },
  {
    "service_request": "2023-1016248",
    "request_type": "Traffic Signals/Signs/Striping/Streetlights",
    "request_reason": "Traffic Signal Malfunctioning/Damaged",
    "date_created": "2023-07-11T22:48:57.000",
    "date_modified": "2023-07-11T22:48:58.000",
    "request_status": "Pending",
    "responsible_agency": "Department of Public Works",
    "final_address": "GRAVIER ST & BARONNE ST",
    "address_councildis": "B",
    "status": "Pending",
    "rowid": "1016248",
    "final_x": "3680140.3",
    "final_y": "530388.48",
    "longitude": "-90.07240308134462",
    "latitude": "29.952425598239618",
    "geocoded_column": {
      "latitude": "29.952425598239618",
      "longitude": "-90.07240308134462"
    }
  },
  {
    "service_request": "2023-1016247",
    "request_type": "Trash/Recycling",
    "request_reason": "Start Trash Service",
    "date_created": "2023-07-11T22:35:42.000",
    "date_modified": "2023-07-11T22:35:42.000",
    "request_status": "Pending",
    "responsible_agency": "Department of Sanitation",
    "final_address": "2428 St Philip St",
    "address_councildis": "D",
    "status": "Assigned to Contractor",
    "contractor": "Richards Disposal",
    "rowid": "1016247",
    "final_x": "3678268.9972",
    "final_y": "537137.54804",
    "longitude": "-90.07807834773604",
    "latitude": "29.97103973868065",
    "geocoded_column": {
      "latitude": "29.97103973868065",
      "longitude": "-90.07807834773604"
    }
  },
  {
    "service_request": "2023-1016246",
    "request_type": "Traffic Signals/Signs/Striping/Streetlights",
    "request_reason": "Street Light Outage/Malfunction",
    "date_created": "2023-07-11T22:21:31.000",
    "date_modified": "2023-07-11T22:21:31.000",
    "request_status": "Pending",
    "responsible_agency": "Department of Public Works",
    "final_address": "500 BLK N Broad St",
    "address_councildis": "D",
    "status": "Assigned to Contractor",
    "contractor": "Legacy Professional Services",
    "rowid": "1016246",
    "final_x": "3676319.79988",
    "final_y": "536350.897886",
    "longitude": "-90.08426125683559",
    "latitude": "29.968935288654936",
    "geocoded_column": {
      "latitude": "29.968935288654936",
      "longitude": "-90.08426125683559"
    }
  },
  {
    "service_request": "2023-1016245",
    "request_type": "Traffic Signals/Signs/Striping/Streetlights",
    "request_reason": "Street Light Outage/Malfunction",
    "date_created": "2023-07-11T22:16:01.000",
    "date_modified": "2023-07-11T22:16:02.000",
    "request_status": "Pending",
    "responsible_agency": "Department of Public Works",
    "final_address": "3100 BLK Annunciation St",
    "address_councildis": "B",
    "status": "Assigned to Contractor",
    "contractor": "Legacy Professional Services",
    "rowid": "1016245",
    "final_x": "3676387.16195",
    "final_y": "519067.068281",
    "longitude": "-90.08464335120462",
    "latitude": "29.921408458889594",
    "geocoded_column": {
      "latitude": "29.921408458889594",
      "longitude": "-90.08464335120462"
    }
  },
  {
    "service_request": "2023-1016244",
    "request_type": "Safety & Permits",
    "request_reason": "Licenses & Permits",
    "date_created": "2023-07-11T22:09:43.000",
    "date_modified": "2023-07-11T22:09:43.000",
    "request_status": "Pending",
    "responsible_agency": "Safety and Permits",
    "final_address": "4901 Downman Rd",
    "address_councildis": "D",
    "status": "Pending",
    "rowid": "1016244",
    "final_x": "3695993.59856",
    "final_y": "554711.652248",
    "longitude": "-90.02146658120601",
    "latitude": "30.0188162650829",
    "geocoded_column": {
      "latitude": "30.0188162650829",
      "longitude": "-90.02146658120601"
    }
  },
  {
    "service_request": "2023-1016243",
    "request_type": "Trash/Recycling",
    "request_reason": "Request a Large Item Pick Up",
    "date_created": "2023-07-11T21:34:18.000",
    "date_modified": "2023-07-11T21:34:19.000",
    "request_status": "Pending",
    "responsible_agency": "Department of Sanitation",
    "final_address": "5000 BLK Willow St",
    "address_councildis": "B",
    "status": "Assigned to Contractor",
    "contractor": "Richards Disposal",
    "rowid": "1016243",
    "final_x": "3668710.25441",
    "final_y": "525317.926514",
    "longitude": "-90.10866517277418",
    "latitude": "29.93882412936591",
    "geocoded_column": {
      "latitude": "29.93882412936591",
      "longitude": "-90.10866517277418"
    }
  },
  {
    "service_request": "2023-1016242",
    "request_type": "Trash/Recycling",
    "request_reason": "Replace Trash Cart",
    "date_created": "2023-07-11T21:30:29.000",
    "date_modified": "2023-07-11T21:30:29.000",
    "request_status": "Pending",
    "responsible_agency": "Department of Sanitation",
    "final_address": "1017 Lizardi St",
    "address_councildis": "E",
    "status": "Assigned to Contractor",
    "contractor": "Waste Pro",
    "rowid": "1016242",
    "final_x": "3696505.05629",
    "final_y": "533832.526149",
    "longitude": "-90.02060635317717",
    "latitude": "29.961390194261583",
    "geocoded_column": {
      "latitude": "29.961390194261583",
      "longitude": "-90.02060635317717"
    }
  },
  {
    "service_request": "2023-1016241",
    "request_type": "Traffic Signals/Signs/Striping/Streetlights",
    "request_reason": "Street Light Outage/Malfunction",
    "date_created": "2023-07-11T21:09:52.000",
    "date_modified": "2023-07-11T21:09:53.000",
    "request_status": "Pending",
    "responsible_agency": "Department of Public Works",
    "final_address": "76 Audubon Blvd",
    "address_councildis": "A",
    "status": "Assigned to Contractor",
    "contractor": "Legacy Professional Services",
    "rowid": "1016241",
    "final_x": "3665685.25613",
    "final_y": "527653.766335",
    "longitude": "-90.11813726209179",
    "latitude": "29.94533549199607",
    "geocoded_column": {
      "latitude": "29.94533549199607",
      "longitude": "-90.11813726209179"
    }
  },
  {
    "service_request": "2023-1016240",
    "request_type": "Trash/Recycling",
    "request_reason": "Order Recycling Cart",
    "date_created": "2023-07-11T20:56:55.000",
    "date_modified": "2023-07-11T20:56:55.000",
    "request_status": "Pending",
    "responsible_agency": "Department of Sanitation",
    "final_address": "3138 Hudson Pl",
    "address_councildis": "C",
    "status": "Pending",
    "rowid": "1016240",
    "final_x": "3702991.71818",
    "final_y": "519111.303479",
    "longitude": "-90.00066341805007",
    "latitude": "29.920706082952442",
    "geocoded_column": {
      "latitude": "29.920706082952442",
      "longitude": "-90.00066341805007"
    }
  },
  {
    "service_request": "2023-1016239",
    "request_type": "Traffic Signals/Signs/Striping/Streetlights",
    "request_reason": "Street Light Outage/Malfunction",
    "date_created": "2023-07-11T20:55:04.000",
    "date_modified": "2023-07-11T20:55:05.000",
    "request_status": "Pending",
    "responsible_agency": "Department of Public Works",
    "final_address": "1401 Frankfort St",
    "address_councildis": "D",
    "status": "Assigned to Contractor",
    "contractor": "Legacy Professional Services",
    "rowid": "1016239",
    "final_x": "3677676.08802",
    "final_y": "555934.217049",
    "longitude": "-90.0793011594609",
    "latitude": "30.022741797575474",
    "geocoded_column": {
      "latitude": "30.022741797575474",
      "longitude": "-90.0793011594609"
    }
  },
  {
    "service_request": "2023-1016238",
    "request_type": "Trash/Recycling",
    "request_reason": "Missed Trash Pick-Up",
    "date_created": "2023-07-11T20:50:48.000",
    "date_modified": "2023-07-11T20:50:49.000",
    "request_status": "Pending",
    "responsible_agency": "Department of Sanitation",
    "final_address": "1117 Verret St",
    "address_councildis": "C",
    "status": "Assigned to Contractor",
    "contractor": "Richards Disposal",
    "rowid": "1016238",
    "final_x": "3687252.59158",
    "final_y": "527444.221567",
    "longitude": "-90.0500498887739",
    "latitude": "29.944112768778087",
    "geocoded_column": {
      "latitude": "29.944112768778087",
      "longitude": "-90.0500498887739"
    }
  },
  {
    "service_request": "2023-1016237",
    "request_type": "Trash/Recycling",
    "request_reason": "Repair Recycling Cart",
    "date_created": "2023-07-11T20:49:13.000",
    "date_modified": "2023-07-11T20:49:13.000",
    "request_status": "Pending",
    "responsible_agency": "Department of Sanitation",
    "final_address": "2808 St Ann St",
    "address_councildis": "A",
    "status": "Pending",
    "rowid": "1016237",
    "final_x": "3676377.26357",
    "final_y": "537596.636232",
    "longitude": "-90.08403688930773",
    "latitude": "29.972358922121888",
    "geocoded_column": {
      "latitude": "29.972358922121888",
      "longitude": "-90.08403688930773"
    }
  },
  {
    "service_request": "2023-1016236",
    "request_type": "Roads/Drainage",
    "request_reason": "Pothole",
    "date_created": "2023-07-11T20:46:09.000",
    "date_modified": "2023-07-11T20:46:09.000",
    "request_status": "Pending",
    "responsible_agency": "Department of Public Works",
    "final_address": "115 S Salcedo St",
    "address_councildis": "B",
    "status": "Pending",
    "rowid": "1016236",
    "final_x": "3673930.97908",
    "final_y": "535941.625351",
    "longitude": "-90.09181932495781",
    "latitude": "29.96788131331528",
    "geocoded_column": {
      "latitude": "29.96788131331528",
      "longitude": "-90.09181932495781"
    }
  },
  {
    "service_request": "2023-1016235",
    "request_type": "Abandoned Vehicles",
    "request_reason": "Abandoned/Junk Vehicles",
    "date_created": "2023-07-11T20:29:57.000",
    "date_modified": "2023-07-11T20:29:57.000",
    "request_status": "Pending",
    "responsible_agency": "Department of Public Works",
    "final_address": "2831 Dublin St",
    "address_councildis": "A",
    "status": "Pending",
    "rowid": "1016235",
    "final_x": "3665785.31988",
    "final_y": "533022.01018",
    "longitude": "-90.11764150251832",
    "latitude": "29.960093498826218",
    "geocoded_column": {
      "latitude": "29.960093498826218",
      "longitude": "-90.11764150251832"
    }
  },
  {
    "service_request": "2023-1016234",
    "request_type": "Roads/Drainage",
    "request_reason": "Catch Basin - Clogged",
    "date_created": "2023-07-11T20:24:55.000",
    "date_modified": "2023-07-11T20:24:55.000",
    "request_status": "Pending",
    "responsible_agency": "Department of Public Works",
    "final_address": "6320 Caldwell Dr",
    "address_councildis": "D",
    "status": "Pending",
    "rowid": "1016234",
    "final_x": "3679105.00168",
    "final_y": "556834.477786",
    "longitude": "-90.07475487717399",
    "latitude": "30.02517410862377",
    "geocoded_column": {
      "latitude": "30.02517410862377",
      "longitude": "-90.07475487717399"
    }
  },
  {
    "service_request": "2023-1016232",
    "request_type": "Parks & Parkways",
    "request_reason": "Request Tree Service (Right of Way/Public Property)",
    "date_created": "2023-07-11T19:42:54.000",
    "date_modified": "2023-07-11T19:42:54.000",
    "request_status": "Pending",
    "responsible_agency": "Department of Parks & Parkway",
    "final_address": "1629 Fourth St",
    "address_councildis": "B",
    "status": "Pending",
    "rowid": "1016232",
    "final_x": "3676046.08104",
    "final_y": "522975.166779",
    "longitude": "-90.08558566221707",
    "latitude": "29.932164679950585",
    "geocoded_column": {
      "latitude": "29.932164679950585",
      "longitude": "-90.08558566221707"
    }
  },
  {
    "service_request": "2023-1016231",
    "request_type": "Trash/Recycling",
    "request_reason": "Order Recycling Cart",
    "date_created": "2023-07-11T19:39:27.000",
    "date_modified": "2023-07-11T19:39:27.000",
    "request_status": "Pending",
    "responsible_agency": "Department of Sanitation",
    "final_address": "1501 Deslonde St",
    "address_councildis": "E",
    "status": "Pending",
    "rowid": "1016231",
    "final_x": "3695841.78678",
    "final_y": "535927.050695",
    "longitude": "-90.02262517438773",
    "latitude": "29.967170271016553",
    "geocoded_column": {
      "latitude": "29.967170271016553",
      "longitude": "-90.02262517438773"
    }
  },
  {
    "service_request": "2023-1016230",
    "request_type": "Trash/Recycling",
    "request_reason": "Request a Large Item Pick Up",
    "date_created": "2023-07-11T19:38:50.000",
    "date_modified": "2023-07-11T19:38:51.000",
    "request_status": "Pending",
    "responsible_agency": "Department of Sanitation",
    "final_address": "Fontainebleau Dr, New Orleans, Louisiana, 70125",
    "address_councildis": "A",
    "status": "Assigned to Contractor",
    "contractor": "Richards Disposal",
    "rowid": "1016230",
    "final_x": "3666835.16359",
    "final_y": "530706.78925",
    "longitude": "-90.11440408234267",
    "latitude": "29.953696730951506",
    "geocoded_column": {
      "latitude": "29.953696730951506",
      "longitude": "-90.11440408234267"
    }
  },
  {
    "service_request": "2023-1016229",
    "request_type": "Traffic Signals/Signs/Striping/Streetlights",
    "request_reason": "Street Light Outage/Malfunction",
    "date_created": "2023-07-11T19:29:20.000",
    "date_modified": "2023-07-11T19:29:20.000",
    "request_status": "Pending",
    "responsible_agency": "Department of Public Works",
    "final_address": "7630 Jonlee Dr",
    "address_councildis": "E",
    "status": "Assigned to Contractor",
    "contractor": "Legacy Professional Services",
    "rowid": "1016229",
    "final_x": "3717025.7276",
    "final_y": "570488.926311",
    "longitude": "-89.95441341744741",
    "latitude": "30.06151850161949",
    "geocoded_column": {
      "latitude": "30.06151850161949",
      "longitude": "-89.95441341744741"
    }
  },
  {
    "service_request": "2023-1016228",
    "request_type": "Trash/Recycling",
    "request_reason": "Request a Large Item Pick Up",
    "date_created": "2023-07-11T19:29:04.000",
    "date_modified": "2023-07-11T19:29:05.000",
    "request_status": "Pending",
    "responsible_agency": "Department of Sanitation",
    "final_address": "5736 St Anthony Ave",
    "address_councildis": "D",
    "status": "Assigned to Contractor",
    "contractor": "IV Waste",
    "rowid": "1016228",
    "final_x": "3681959.24956",
    "final_y": "554188.881816",
    "longitude": "-90.06582837342799",
    "latitude": "30.017813177588426",
    "geocoded_column": {
      "latitude": "30.017813177588426",
      "longitude": "-90.06582837342799"
    }
  },
  {
    "service_request": "2023-1016227",
    "request_type": "Traffic Signals/Signs/Striping/Streetlights",
    "request_reason": "Street Name Sign Damaged or Missing",
    "date_created": "2023-07-11T19:25:50.000",
    "date_modified": "2023-07-11T19:25:50.000",
    "request_status": "Pending",
    "responsible_agency": "Department of Public Works",
    "final_address": "I 10 E SERVICE RD & GLENGARY RD",
    "address_councildis": "E",
    "status": "Pending",
    "rowid": "1016227",
    "final_x": "3701576.9",
    "final_y": "557754.28",
    "longitude": "-90.00371390029882",
    "latitude": "30.027005376644215",
    "geocoded_column": {
      "latitude": "30.027005376644215",
      "longitude": "-90.00371390029882"
    }
  },
  {
    "service_request": "2023-1016226",
    "request_type": "Health Related Request",
    "request_reason": "Noise Ordinance Complaint",
    "date_created": "2023-07-11T19:24:48.000",
    "date_modified": "2023-07-11T19:24:48.000",
    "request_status": "Pending",
    "responsible_agency": "Health Department",
    "final_address": "1943 N Rampart St, New Orleans, Louisiana, 70116",
    "address_councildis": "C",
    "status": "Pending",
    "rowid": "1016226",
    "final_x": "3684229.0758",
    "final_y": "535901.470151",
    "longitude": "-90.05929906686211",
    "latitude": "29.967460076499936",
    "geocoded_column": {
      "latitude": "29.967460076499936",
      "longitude": "-90.05929906686211"
    }
  },
  {
    "service_request": "2023-1016225",
    "request_type": "Traffic Signals/Signs/Striping/Streetlights",
    "request_reason": "Street Light Outage/Malfunction",
    "date_created": "2023-07-11T19:21:13.000",
    "date_modified": "2023-07-11T19:21:14.000",
    "request_status": "Pending",
    "responsible_agency": "Department of Public Works",
    "final_address": "7630 Jonlee Dr",
    "address_councildis": "E",
    "status": "Assigned to Contractor",
    "contractor": "Legacy Professional Services",
    "rowid": "1016225",
    "final_x": "3717025.7276",
    "final_y": "570488.926311",
    "longitude": "-89.95441341744741",
    "latitude": "30.06151850161949",
    "geocoded_column": {
      "latitude": "30.06151850161949",
      "longitude": "-89.95441341744741"
    }
  },
  {
    "service_request": "2023-1016224",
    "request_type": "Trash/Recycling",
    "request_reason": "Request a Large Item Pick Up",
    "date_created": "2023-07-11T19:02:11.000",
    "date_modified": "2023-07-11T19:02:12.000",
    "request_status": "Pending",
    "responsible_agency": "Department of Sanitation",
    "final_address": "2222 Spain St",
    "address_councildis": "D",
    "status": "Assigned to Contractor",
    "contractor": "IV Waste",
    "rowid": "1016224",
    "final_x": "3685758.07945",
    "final_y": "540639.783691",
    "longitude": "-90.05430342466684",
    "latitude": "29.9804419463782",
    "geocoded_column": {
      "latitude": "29.9804419463782",
      "longitude": "-90.05430342466684"
    }
  },
  {
    "service_request": "2023-1016222",
    "request_type": "Trash/Recycling",
    "request_reason": "Order Recycling Cart",
    "date_created": "2023-07-11T18:51:24.000",
    "date_modified": "2023-07-11T18:51:24.000",
    "request_status": "Pending",
    "responsible_agency": "Department of Sanitation",
    "final_address": "4120 Magnolia St",
    "address_councildis": "B",
    "status": "Pending",
    "rowid": "1016222",
    "final_x": "3671373.76097",
    "final_y": "524782.447036",
    "longitude": "-90.10027435573983",
    "latitude": "29.937273189595015",
    "geocoded_column": {
      "latitude": "29.937273189595015",
      "longitude": "-90.10027435573983"
    }
  },
  {
    "service_request": "2023-1016221",
    "request_type": "Trash/Recycling",
    "request_reason": "Missed Trash Pick-Up",
    "date_created": "2023-07-11T18:50:34.000",
    "date_modified": "2023-07-11T18:50:35.000",
    "request_status": "Pending",
    "responsible_agency": "Department of Sanitation",
    "final_address": "1601 Tropic Dr",
    "address_councildis": "C",
    "status": "Assigned to Contractor",
    "contractor": "Richards Disposal",
    "rowid": "1016221",
    "final_x": "3699440.2136",
    "final_y": "524916.904188",
    "longitude": "-90.01166243553725",
    "latitude": "29.936782584402895",
    "geocoded_column": {
      "latitude": "29.936782584402895",
      "longitude": "-90.01166243553725"
    }
  },
  {
    "service_request": "2023-1016220",
    "request_type": "Trash/Recycling",
    "request_reason": "Request a Large Item Pick Up",
    "date_created": "2023-07-11T18:49:13.000",
    "date_modified": "2023-07-11T18:49:13.000",
    "request_status": "Closed",
    "responsible_agency": "Department of Sanitation",
    "final_address": "4876 Annunciation St",
    "address_councildis": "B",
    "status": "Resolved",
    "rowid": "1016220",
    "final_x": "3669051.01748",
    "final_y": "517500.92991",
    "longitude": "-90.10785328657387",
    "latitude": "29.917319860750034",
    "geocoded_column": {
      "latitude": "29.917319860750034",
      "longitude": "-90.10785328657387"
    }
  },
  {
    "service_request": "2023-1016219",
    "request_type": "Abandoned Vehicles",
    "request_reason": "Abandoned/Junk Vehicles",
    "date_created": "2023-07-11T18:47:10.000",
    "date_modified": "2023-07-11T18:47:10.000",
    "request_status": "Pending",
    "responsible_agency": "Department of Public Works",
    "final_address": "North Pierce Street & Orleans Avenue",
    "address_councildis": "A",
    "status": "Pending",
    "rowid": "1016219",
    "final_x": "3672946.9394",
    "final_y": "539858.022987",
    "longitude": "-90.09479327231823",
    "latitude": "29.97867935959772",
    "geocoded_column": {
      "latitude": "29.97867935959772",
      "longitude": "-90.09479327231823"
    }
  },
  {
    "service_request": "2023-1016218",
    "request_type": "Trash/Recycling",
    "request_reason": "Request a Large Item Pick Up",
    "date_created": "2023-07-11T18:45:22.000",
    "date_modified": "2023-07-11T18:45:22.000",
    "request_status": "Pending",
    "responsible_agency": "Department of Sanitation",
    "final_address": "1427 Touro St",
    "address_councildis": "C",
    "status": "Assigned to Contractor",
    "contractor": "IV Waste",
    "rowid": "1016218",
    "final_x": "3684155.84418",
    "final_y": "537575.097352",
    "longitude": "-90.05947157473933",
    "latitude": "29.97206420947199",
    "geocoded_column": {
      "latitude": "29.97206420947199",
      "longitude": "-90.05947157473933"
    }
  },
  {
    "service_request": "2023-1016217",
    "request_type": "Trash/Recycling",
    "request_reason": "Request a Large Item Pick Up",
    "date_created": "2023-07-11T18:24:28.000",
    "date_modified": "2023-07-11T18:24:29.000",
    "request_status": "Pending",
    "responsible_agency": "Department of Sanitation",
    "final_address": "3707 Mistletoe St",
    "address_councildis": "A",
    "status": "Assigned to Contractor",
    "contractor": "Richards Disposal",
    "rowid": "1016217",
    "final_x": "3665198.45632",
    "final_y": "537609.366856",
    "longitude": "-90.11934122445885",
    "latitude": "29.97272432349923",
    "geocoded_column": {
      "latitude": "29.97272432349923",
      "longitude": "-90.11934122445885"
    }
  },
  {
    "service_request": "2023-1016216",
    "request_type": "Property Maintenance",
    "request_reason": "Property Maintenance",
    "date_created": "2023-07-11T18:13:09.000",
    "date_modified": "2023-07-11T18:13:10.000",
    "request_status": "Pending",
    "responsible_agency": "Department of Code Enforcement",
    "final_address": "HARMONY ST & LOYOLA AVE",
    "address_councildis": "B",
    "status": "Pending",
    "rowid": "1016216",
    "final_x": "3673882.5",
    "final_y": "523753.88",
    "longitude": "-90.09238926251831",
    "latitude": "29.934370493688267",
    "geocoded_column": {
      "latitude": "29.934370493688267",
      "longitude": "-90.09238926251831"
    }
  },
  {
    "service_request": "2023-1016215",
    "request_type": "Abandoned Vehicles",
    "request_reason": "Abandoned/Junk Vehicles",
    "date_created": "2023-07-11T18:03:40.000",
    "date_modified": "2023-07-11T18:05:31.000",
    "request_status": "Pending",
    "responsible_agency": "Department of Public Works",
    "final_address": "3915 Baudin St",
    "address_councildis": "B",
    "status": "Pending",
    "rowid": "1016215",
    "final_x": "3670716.8795",
    "final_y": "536660.539655",
    "longitude": "-90.10194518097812",
    "latitude": "29.96995345103195",
    "geocoded_column": {
      "latitude": "29.96995345103195",
      "longitude": "-90.10194518097812"
    }
  },
  {
    "service_request": "2023-1016214",
    "request_type": "Traffic Signals/Signs/Striping/Streetlights",
    "request_reason": "Traffic Sign Missing/Damaged",
    "date_created": "2023-07-11T18:01:47.000",
    "date_modified": "2023-07-11T18:01:48.000",
    "request_status": "Pending",
    "responsible_agency": "Department of Public Works",
    "final_address": "GENTILLY BLVD & ELYSIAN FIELDS AVE",
    "address_councildis": "D",
    "status": "Pending",
    "rowid": "1016214",
    "final_x": "3684064.37",
    "final_y": "547517.16",
    "longitude": "-90.05941138101605",
    "latitude": "29.999404165790484",
    "geocoded_column": {
      "latitude": "29.999404165790484",
      "longitude": "-90.05941138101605"
    }
  },
  {
    "service_request": "2023-1016213",
    "request_type": "Trash/Recycling",
    "request_reason": "Missed Trash Pick-Up",
    "date_created": "2023-07-11T17:58:31.000",
    "date_modified": "2023-07-11T17:58:31.000",
    "request_status": "Pending",
    "responsible_agency": "Department of Sanitation",
    "final_address": "5325 Perrier St",
    "address_councildis": "B",
    "status": "Assigned to Contractor",
    "contractor": "Richards Disposal",
    "rowid": "1016213",
    "final_x": "3667493.51943",
    "final_y": "520005.750072",
    "longitude": "-90.11268521628328",
    "latitude": "29.924253038602323",
    "geocoded_column": {
      "latitude": "29.924253038602323",
      "longitude": "-90.11268521628328"
    }
  },
  {
    "service_request": "2023-1016212",
    "request_type": "Trash/Recycling",
    "request_reason": "Order Recycling Cart",
    "date_created": "2023-07-11T17:57:42.000",
    "date_modified": "2023-07-11T17:57:42.000",
    "request_status": "Pending",
    "responsible_agency": "Department of Sanitation",
    "final_address": "6223 Catina St",
    "address_councildis": "A",
    "status": "Pending",
    "rowid": "1016212",
    "final_x": "3666943.40116",
    "final_y": "549140.979731",
    "longitude": "-90.11344261966022",
    "latitude": "30.00438138591657",
    "geocoded_column": {
      "latitude": "30.00438138591657",
      "longitude": "-90.11344261966022"
    }
  },
  {
    "service_request": "2023-1016211",
    "request_type": "Property Maintenance",
    "request_reason": "Property Maintenance",
    "date_created": "2023-07-11T17:57:38.000",
    "date_modified": "2023-07-11T17:57:38.000",
    "request_status": "Pending",
    "responsible_agency": "Department of Code Enforcement",
    "final_address": "2236 Spain St",
    "address_councildis": "D",
    "status": "Pending",
    "rowid": "1016211",
    "final_x": "3685728.97462",
    "final_y": "540738.261579",
    "longitude": "-90.05439187838377",
    "latitude": "29.98071361912676",
    "geocoded_column": {
      "latitude": "29.98071361912676",
      "longitude": "-90.05439187838377"
    }
  },
  {
    "service_request": "2023-1016210",
    "request_type": "Trash/Recycling",
    "request_reason": "MIssed Recycling Pick-Up",
    "date_created": "2023-07-11T17:44:14.000",
    "date_modified": "2023-07-11T17:44:14.000",
    "request_status": "Pending",
    "responsible_agency": "Department of Sanitation",
    "final_address": "7733 Mackenzie St",
    "address_councildis": "E",
    "status": "Assigned to Contractor",
    "contractor": "Waste Pro",
    "rowid": "1016210",
    "final_x": "3710712.55473",
    "final_y": "566611.420067",
    "longitude": "-89.97451449681382",
    "latitude": "30.051064325184704",
    "geocoded_column": {
      "latitude": "30.051064325184704",
      "longitude": "-89.97451449681382"
    }
  },
  {
    "service_request": "2023-1016209",
    "request_type": "Trash/Recycling",
    "request_reason": "Request a Large Item Pick Up",
    "date_created": "2023-07-11T17:27:16.000",
    "date_modified": "2023-07-11T17:27:17.000",
    "request_status": "Pending",
    "responsible_agency": "Department of Sanitation",
    "final_address": "2111 Laurel St",
    "address_councildis": "B",
    "status": "Assigned to Contractor",
    "contractor": "Richards Disposal",
    "rowid": "1016209",
    "final_x": "3679505.82229",
    "final_y": "521688.025337",
    "longitude": "-90.0747082329307",
    "latitude": "29.92852141759543",
    "geocoded_column": {
      "latitude": "29.92852141759543",
      "longitude": "-90.0747082329307"
    }
  },
  {
    "service_request": "2023-1016208",
    "request_type": "Trash/Recycling",
    "request_reason": "Missed Trash Pick-Up",
    "date_created": "2023-07-11T17:25:30.000",
    "date_modified": "2023-07-11T17:25:30.000",
    "request_status": "Pending",
    "responsible_agency": "Department of Sanitation",
    "final_address": "4127 Clara St",
    "address_councildis": "B",
    "status": "Assigned to Contractor",
    "contractor": "Richards Disposal",
    "rowid": "1016208",
    "final_x": "3671361.41972",
    "final_y": "525216.677821",
    "longitude": "-90.10029856578707",
    "latitude": "29.93846754869464",
    "geocoded_column": {
      "latitude": "29.93846754869464",
      "longitude": "-90.10029856578707"
    }
  },
  {
    "service_request": "2023-1016207",
    "request_type": "Abandoned Vehicles",
    "request_reason": "Abandoned/Junk Vehicles",
    "date_created": "2023-07-11T17:24:07.000",
    "date_modified": "2023-07-11T17:24:07.000",
    "request_status": "Pending",
    "responsible_agency": "Department of Public Works",
    "final_address": "3924 Delachaise St",
    "address_councildis": "B",
    "status": "Pending",
    "rowid": "1016207",
    "final_x": "3670911.15611",
    "final_y": "529153.295808",
    "longitude": "-90.10158649617077",
    "latitude": "29.94930528022372",
    "geocoded_column": {
      "latitude": "29.94930528022372",
      "longitude": "-90.10158649617077"
    }
  },
  {
    "service_request": "2023-1016206",
    "request_type": "Trash/Recycling",
    "request_reason": "Request a Large Item Pick Up",
    "date_created": "2023-07-11T17:22:34.000",
    "date_modified": "2023-07-11T17:22:35.000",
    "request_status": "Pending",
    "responsible_agency": "Department of Sanitation",
    "final_address": "2736 Jonquil St",
    "address_councildis": "D",
    "status": "Assigned to Contractor",
    "contractor": "IV Waste",
    "rowid": "1016206",
    "final_x": "3688046.51881",
    "final_y": "547215.230225",
    "longitude": "-90.04684239697757",
    "latitude": "29.998451632988573",
    "geocoded_column": {
      "latitude": "29.998451632988573",
      "longitude": "-90.04684239697757"
    }
  },
  {
    "service_request": "2023-1016205",
    "request_type": "Traffic Signals/Signs/Striping/Streetlights",
    "request_reason": "Traffic Signal Malfunctioning/Damaged",
    "date_created": "2023-07-11T17:20:40.000",
    "date_modified": "2023-07-11T17:20:40.000",
    "request_status": "Pending",
    "responsible_agency": "Department of Public Works",
    "final_address": "11950 Hayne Blvd",
    "address_councildis": "E",
    "status": "Pending",
    "rowid": "1016205",
    "final_x": "3712231.53406",
    "final_y": "568775.111973",
    "longitude": "-89.96963217012487",
    "latitude": "30.056963979213325",
    "geocoded_column": {
      "latitude": "30.056963979213325",
      "longitude": "-89.96963217012487"
    }
  },
  {
    "service_request": "2023-1016203",
    "request_type": "Trash/Recycling",
    "request_reason": "Order Trash Cart",
    "date_created": "2023-07-11T17:17:01.000",
    "date_modified": "2023-07-11T17:17:02.000",
    "request_status": "Pending",
    "responsible_agency": "Department of Sanitation",
    "final_address": "239 Pelican Ave",
    "address_councildis": "C",
    "status": "Assigned to Contractor",
    "contractor": "Richards Disposal",
    "rowid": "1016203",
    "final_x": "3686183.83062",
    "final_y": "530203.089089",
    "longitude": "-90.05332695472114",
    "latitude": "29.95173158509897",
    "geocoded_column": {
      "latitude": "29.95173158509897",
      "longitude": "-90.05332695472114"
    }
  },
  {
    "service_request": "2023-1016202",
    "request_type": "Trash/Recycling",
    "request_reason": "Request a Large Item Pick Up",
    "date_created": "2023-07-11T17:15:48.000",
    "date_modified": "2023-07-11T17:15:48.000",
    "request_status": "Pending",
    "responsible_agency": "Department of Sanitation",
    "final_address": "4675 Cerise Ave",
    "address_councildis": "E",
    "status": "Assigned to Contractor",
    "contractor": "Waste Pro",
    "rowid": "1016202",
    "final_x": "3708716.95608",
    "final_y": "555309.865433",
    "longitude": "-89.98124336026996",
    "latitude": "30.020054445655823",
    "geocoded_column": {
      "latitude": "30.020054445655823",
      "longitude": "-89.98124336026996"
    }
  },
  {
    "service_request": "2023-1016201",
    "request_type": "Trash/Recycling",
    "request_reason": "Request a Large Item Pick Up",
    "date_created": "2023-07-11T17:07:54.000",
    "date_modified": "2023-07-11T17:07:55.000",
    "request_status": "Pending",
    "responsible_agency": "Department of Sanitation",
    "final_address": "832 Flood St",
    "address_councildis": "E",
    "status": "Assigned to Contractor",
    "contractor": "Waste Pro",
    "rowid": "1016201",
    "final_x": "3697417.30429",
    "final_y": "532968.9017",
    "longitude": "-90.01775696009884",
    "latitude": "29.958986764621343",
    "geocoded_column": {
      "latitude": "29.958986764621343",
      "longitude": "-90.01775696009884"
    }
  },
  {
    "service_request": "2023-1016200",
    "request_type": "Roads/Drainage",
    "request_reason": "Catch Basin - Clogged",
    "date_created": "2023-07-11T17:03:26.000",
    "date_modified": "2023-07-11T17:03:27.000",
    "request_status": "Pending",
    "responsible_agency": "Department of Public Works",
    "final_address": "927 French St",
    "address_councildis": "A",
    "status": "Pending",
    "rowid": "1016200",
    "final_x": "3670172.64174",
    "final_y": "548515.68693",
    "longitude": "-90.10326202200007",
    "latitude": "30.002567122765416",
    "geocoded_column": {
      "latitude": "30.002567122765416",
      "longitude": "-90.10326202200007"
    }
  },
  {
    "service_request": "2023-1016199",
    "request_type": "Trash/Recycling",
    "request_reason": "Request a Large Item Pick Up",
    "date_created": "2023-07-11T17:01:49.000",
    "date_modified": "2023-07-11T17:01:49.000",
    "request_status": "Pending",
    "responsible_agency": "Department of Sanitation",
    "final_address": "2900 Palmer Ave",
    "address_councildis": "A",
    "status": "Assigned to Contractor",
    "contractor": "Richards Disposal",
    "rowid": "1016199",
    "final_x": "3666949.74977",
    "final_y": "527176.369919",
    "longitude": "-90.11416087599378",
    "latitude": "29.943985871555252",
    "geocoded_column": {
      "latitude": "29.943985871555252",
      "longitude": "-90.11416087599378"
    }
  },
  {
    "service_request": "2023-1016198",
    "request_type": "Trash/Recycling",
    "request_reason": "Missed Trash Pick-Up",
    "date_created": "2023-07-11T16:57:08.000",
    "date_modified": "2023-07-11T16:57:56.000",
    "request_status": "Pending",
    "responsible_agency": "Department of Sanitation",
    "final_address": "2 W Blue Ridge Ct",
    "address_councildis": "E",
    "status": "Assigned to Contractor",
    "contractor": "Waste Pro",
    "rowid": "1016198",
    "final_x": "3714075.37893",
    "final_y": "567202.732772",
    "longitude": "-89.96386351067711",
    "latitude": "30.052580113710388",
    "geocoded_column": {
      "latitude": "30.052580113710388",
      "longitude": "-89.96386351067711"
    }
  },
  {
    "service_request": "2023-1016197",
    "request_type": "Trash/Recycling",
    "request_reason": "Missed Trash Pick-Up",
    "date_created": "2023-07-11T16:56:49.000",
    "date_modified": "2023-07-11T16:56:50.000",
    "request_status": "Pending",
    "responsible_agency": "Department of Sanitation",
    "final_address": "7112 Northgate Dr",
    "address_councildis": "E",
    "status": "Assigned to Contractor",
    "contractor": "Waste Pro",
    "rowid": "1016197",
    "final_x": "3713646.08005",
    "final_y": "565009.175138",
    "longitude": "-89.96530316320147",
    "latitude": "30.046562823581183",
    "geocoded_column": {
      "latitude": "30.046562823581183",
      "longitude": "-89.96530316320147"
    }
  },
  {
    "service_request": "2023-1016196",
    "request_type": "Traffic Signals/Signs/Striping/Streetlights",
    "request_reason": "Street Light Outage/Malfunction",
    "date_created": "2023-07-11T16:53:49.000",
    "date_modified": "2023-07-11T16:53:50.000",
    "request_status": "Pending",
    "responsible_agency": "Department of Public Works",
    "final_address": "8400 BLK Zimpel St",
    "address_councildis": "A",
    "status": "Assigned to Contractor",
    "contractor": "Legacy Professional Services",
    "rowid": "1016196",
    "final_x": "3660800.64687",
    "final_y": "528956.387085",
    "longitude": "-90.13351654757068",
    "latitude": "29.949058819797724",
    "geocoded_column": {
      "latitude": "29.949058819797724",
      "longitude": "-90.13351654757068"
    }
  },
  {
    "service_request": "2023-1016195",
    "request_type": "Trash/Recycling",
    "request_reason": "Request a Large Item Pick Up",
    "date_created": "2023-07-11T16:51:59.000",
    "date_modified": "2023-07-11T16:52:00.000",
    "request_status": "Pending",
    "responsible_agency": "Department of Sanitation",
    "final_address": "5255 Magazine St",
    "address_councildis": "B",
    "status": "Assigned to Contractor",
    "contractor": "Richards Disposal",
    "rowid": "1016195",
    "final_x": "3667558.60212",
    "final_y": "518667.244343",
    "longitude": "-90.1125247885909",
    "latitude": "29.92057066346392",
    "geocoded_column": {
      "latitude": "29.92057066346392",
      "longitude": "-90.1125247885909"
    }
  },
  {
    "service_request": "2023-1016194",
    "request_type": "Trash/Recycling",
    "request_reason": "Missed Trash Pick-Up",
    "date_created": "2023-07-11T16:46:17.000",
    "date_modified": "2023-07-11T16:46:36.000",
    "request_status": "Pending",
    "responsible_agency": "Department of Sanitation",
    "final_address": "26 N Blue Ridge Ct",
    "address_councildis": "E",
    "status": "Assigned to Contractor",
    "contractor": "Waste Pro",
    "rowid": "1016194",
    "final_x": "3713974.49599",
    "final_y": "567680.187236",
    "longitude": "-89.96416433717226",
    "latitude": "30.053896233131592",
    "geocoded_column": {
      "latitude": "30.053896233131592",
      "longitude": "-89.96416433717226"
    }
  },
  {
    "service_request": "2023-1016193",
    "request_type": "Roads/Drainage",
    "request_reason": "Pothole",
    "date_created": "2023-07-11T16:44:33.000",
    "date_modified": "2023-07-11T16:44:33.000",
    "request_status": "Pending",
    "responsible_agency": "Department of Public Works",
    "final_address": "DONNA DR & HAMMOND ST",
    "address_councildis": "E",
    "status": "Pending",
    "rowid": "1016193",
    "final_x": "3710960.3",
    "final_y": "556238.78",
    "longitude": "-89.97412035723919",
    "latitude": "30.022535619516812",
    "geocoded_column": {
      "latitude": "30.022535619516812",
      "longitude": "-89.97412035723919"
    }
  },
  {
    "service_request": "2023-1016192",
    "request_type": "Trash/Recycling",
    "request_reason": "Repair Trash Cart",
    "date_created": "2023-07-11T16:44:16.000",
    "date_modified": "2023-07-11T16:44:17.000",
    "request_status": "Pending",
    "responsible_agency": "Department of Sanitation",
    "final_address": "2817 Jefferson Ave",
    "address_councildis": "B",
    "status": "Assigned to Contractor",
    "contractor": "Richards Disposal",
    "rowid": "1016192",
    "final_x": "3668427.39182",
    "final_y": "525791.490301",
    "longitude": "-90.10954223659964",
    "latitude": "29.94013458698558",
    "geocoded_column": {
      "latitude": "29.94013458698558",
      "longitude": "-90.10954223659964"
    }
  },
  {
    "service_request": "2023-1016191",
    "request_type": "Trash/Recycling",
    "request_reason": "Missed Trash Pick-Up",
    "date_created": "2023-07-11T16:42:26.000",
    "date_modified": "2023-07-11T16:42:27.000",
    "request_status": "Pending",
    "responsible_agency": "Department of Sanitation",
    "final_address": "2748 Palmyra St",
    "address_councildis": "B",
    "status": "Assigned to Contractor",
    "contractor": "Richards Disposal",
    "rowid": "1016191",
    "final_x": "3674482.83656",
    "final_y": "534668.327814",
    "longitude": "-90.09012016725505",
    "latitude": "29.964363721937996",
    "geocoded_column": {
      "latitude": "29.964363721937996",
      "longitude": "-90.09012016725505"
    }
  },
  {
    "service_request": "2023-1016190",
    "request_type": "Roads/Drainage",
    "request_reason": "Pothole",
    "date_created": "2023-07-11T16:41:55.000",
    "date_modified": "2023-07-11T16:41:55.000",
    "request_status": "Pending",
    "responsible_agency": "Department of Public Works",
    "final_address": "HAMMOND ST & READ BLVD",
    "address_councildis": "E",
    "status": "Pending",
    "rowid": "1016190",
    "final_x": "3712769.4",
    "final_y": "556392.19",
    "longitude": "-89.96839831714604",
    "latitude": "30.022898306043732",
    "geocoded_column": {
      "latitude": "30.022898306043732",
      "longitude": "-89.96839831714604"
    }
  },
  {
    "service_request": "2023-1016189",
    "request_type": "Trash/Recycling",
    "request_reason": "Missed Trash Pick-Up",
    "date_created": "2023-07-11T16:41:10.000",
    "date_modified": "2023-07-11T16:41:11.000",
    "request_status": "Pending",
    "responsible_agency": "Department of Sanitation",
    "final_address": "87 Marywood Ct",
    "address_councildis": "E",
    "status": "Assigned to Contractor",
    "contractor": "Waste Pro",
    "rowid": "1016189",
    "final_x": "3712516.48325",
    "final_y": "566272.146979",
    "longitude": "-89.96882570958482",
    "latitude": "30.05007251819221",
    "geocoded_column": {
      "latitude": "30.05007251819221",
      "longitude": "-89.96882570958482"
    }
  },
  {
    "service_request": "2023-1016188",
    "request_type": "Property Maintenance",
    "request_reason": "Property Maintenance",
    "date_created": "2023-07-11T16:35:43.000",
    "date_modified": "2023-07-11T16:35:43.000",
    "request_status": "Pending",
    "responsible_agency": "Department of Code Enforcement",
    "final_address": "1804 Iberville St",
    "address_councildis": "B",
    "status": "Pending",
    "rowid": "1016188",
    "final_x": "3678283.00981",
    "final_y": "533361.062596",
    "longitude": "-90.07816474002482",
    "latitude": "29.960655267186862",
    "geocoded_column": {
      "latitude": "29.960655267186862",
      "longitude": "-90.07816474002482"
    }
  },
  {
    "service_request": "2023-1016187",
    "request_type": "Roads/Drainage",
    "request_reason": "Street Flooding / Drainage",
    "date_created": "2023-07-11T16:35:38.000",
    "date_modified": "2023-07-11T16:35:38.000",
    "request_status": "Pending",
    "responsible_agency": "Department of Public Works",
    "final_address": "1808 Moss St",
    "address_councildis": "A",
    "status": "Pending",
    "rowid": "1016187",
    "final_x": "3675363.60782",
    "final_y": "543021.905293",
    "longitude": "-90.08705183514938",
    "latitude": "29.98730689770418",
    "geocoded_column": {
      "latitude": "29.98730689770418",
      "longitude": "-90.08705183514938"
    }
  },
  {
    "service_request": "2023-1016186",
    "request_type": "Abandoned Vehicles",
    "request_reason": "Abandoned/Junk Vehicles",
    "date_created": "2023-07-11T16:34:31.000",
    "date_modified": "2023-07-11T16:34:31.000",
    "request_status": "Pending",
    "responsible_agency": "Department of Public Works",
    "final_address": "1634 Clio St",
    "address_councildis": "B",
    "status": "Pending",
    "rowid": "1016186",
    "final_x": "3679454.66594",
    "final_y": "526479.414974",
    "longitude": "-90.07470358017778",
    "latitude": "29.94169770415584",
    "geocoded_column": {
      "latitude": "29.94169770415584",
      "longitude": "-90.07470358017778"
    }
  },
  {
    "service_request": "2023-1016184",
    "request_type": "Trash/Recycling",
    "request_reason": "Request a Large Item Pick Up",
    "date_created": "2023-07-11T16:25:22.000",
    "date_modified": "2023-07-11T16:25:57.000",
    "request_status": "Pending",
    "responsible_agency": "Department of Sanitation",
    "final_address": "6120 Erin Dr",
    "address_councildis": "E",
    "status": "Assigned to Contractor",
    "contractor": "Waste Pro",
    "rowid": "1016184",
    "final_x": "3696014.91005",
    "final_y": "558552.270812",
    "longitude": "-90.02126029034103",
    "latitude": "30.02937583679078",
    "geocoded_column": {
      "latitude": "30.02937583679078",
      "longitude": "-90.02126029034103"
    }
  },
  {
    "service_request": "2023-1016183",
    "request_type": "Traffic Signals/Signs/Striping/Streetlights",
    "request_reason": "Street Light Outage/Malfunction",
    "date_created": "2023-07-11T16:17:09.000",
    "date_modified": "2023-07-11T16:17:09.000",
    "request_status": "Pending",
    "responsible_agency": "Department of Public Works",
    "final_address": "100 BLK Downs St",
    "address_councildis": "A",
    "status": "Assigned to Contractor",
    "contractor": "Legacy Professional Services",
    "rowid": "1016183",
    "final_x": "3666850.64625",
    "final_y": "553194.515446",
    "longitude": "-90.11359933360156",
    "latitude": "30.01552990873468",
    "geocoded_column": {
      "latitude": "30.01552990873468",
      "longitude": "-90.11359933360156"
    }
  },
  {
    "service_request": "2023-1016182",
    "request_type": "Trash/Recycling",
    "request_reason": "Order Trash Cart",
    "date_created": "2023-07-11T16:10:37.000",
    "date_modified": "2023-07-11T16:10:38.000",
    "request_status": "Pending",
    "responsible_agency": "Department of Sanitation",
    "final_address": "1302 Lesseps St",
    "address_councildis": "D",
    "status": "Assigned to Contractor",
    "contractor": "IV Waste",
    "rowid": "1016182",
    "final_x": "3692859.90525",
    "final_y": "535869.689543",
    "longitude": "-90.03204400176287",
    "latitude": "29.96710599984998",
    "geocoded_column": {
      "latitude": "29.96710599984998",
      "longitude": "-90.03204400176287"
    }
  },
  {
    "service_request": "2023-1016181",
    "request_type": "Trash/Recycling",
    "request_reason": "Missed Trash Pick-Up",
    "date_created": "2023-07-11T16:07:02.000",
    "date_modified": "2023-07-11T16:07:02.000",
    "request_status": "Pending",
    "responsible_agency": "Department of Sanitation",
    "final_address": "32 Marywood Ct",
    "address_councildis": "E",
    "status": "Assigned to Contractor",
    "contractor": "Waste Pro",
    "rowid": "1016181",
    "final_x": "3712386.95301",
    "final_y": "566925.27274",
    "longitude": "-89.96921052782896",
    "latitude": "30.051872589223922",
    "geocoded_column": {
      "latitude": "30.051872589223922",
      "longitude": "-89.96921052782896"
    }
  },
  {
    "service_request": "2023-1016180",
    "request_type": "Trash/Recycling",
    "request_reason": "Missed Trash Pick-Up",
    "date_created": "2023-07-11T16:04:57.000",
    "date_modified": "2023-07-11T16:04:57.000",
    "request_status": "Closed",
    "responsible_agency": "Department of Sanitation",
    "final_address": "32 Marywood Ct",
    "address_councildis": "E",
    "status": "Invalid Request",
    "rowid": "1016180",
    "final_x": "3712386.95301",
    "final_y": "566925.27274",
    "longitude": "-89.96921052782896",
    "latitude": "30.051872589223922",
    "geocoded_column": {
      "latitude": "30.051872589223922",
      "longitude": "-89.96921052782896"
    }
  },
  {
    "service_request": "2023-1016179",
    "request_type": "Trash/Recycling",
    "request_reason": "Replace Trash Cart",
    "date_created": "2023-07-11T15:57:03.000",
    "date_modified": "2023-07-11T15:57:04.000",
    "request_status": "Pending",
    "responsible_agency": "Department of Sanitation",
    "final_address": "2662 Dreux Ave",
    "address_councildis": "D",
    "status": "Assigned to Contractor",
    "contractor": "IV Waste",
    "rowid": "1016179",
    "final_x": "3687258.06242",
    "final_y": "552235.617622",
    "longitude": "-90.04915538331223",
    "latitude": "30.012280187694326",
    "geocoded_column": {
      "latitude": "30.012280187694326",
      "longitude": "-90.04915538331223"
    }
  },
  {
    "service_request": "2023-1016178",
    "request_type": "Trash/Recycling",
    "request_reason": "Repair Trash Cart",
    "date_created": "2023-07-11T15:52:33.000",
    "date_modified": "2023-07-11T15:52:33.000",
    "request_status": "Pending",
    "responsible_agency": "Department of Sanitation",
    "final_address": "2230 Octavia St",
    "address_councildis": "A",
    "status": "Assigned to Contractor",
    "contractor": "Richards Disposal",
    "rowid": "1016178",
    "final_x": "3667507.59546",
    "final_y": "523946.023164",
    "longitude": "-90.1125082625999",
    "latitude": "29.935087124393448",
    "geocoded_column": {
      "latitude": "29.935087124393448",
      "longitude": "-90.1125082625999"
    }
  },
  {
    "service_request": "2023-1016177",
    "request_type": "Traffic Signals/Signs/Striping/Streetlights",
    "request_reason": "Traffic Sign Missing/Damaged",
    "date_created": "2023-07-11T15:50:57.000",
    "date_modified": "2023-07-11T15:50:58.000",
    "request_status": "Pending",
    "responsible_agency": "Department of Public Works",
    "final_address": "WESTLAKE DR & BASINVIEW DR & I 10 E SERVICE RD",
    "address_councildis": "E",
    "status": "Pending",
    "rowid": "1016177",
    "final_x": "3699257.9",
    "final_y": "556876.38",
    "longitude": "-90.01107368432172",
    "latitude": "30.02466527510741",
    "geocoded_column": {
      "latitude": "30.02466527510741",
      "longitude": "-90.01107368432172"
    }
  },
  {
    "service_request": "2023-1016176",
    "request_type": "Trash/Recycling",
    "request_reason": "Request a Large Item Pick Up",
    "date_created": "2023-07-11T15:49:53.000",
    "date_modified": "2023-07-11T15:49:54.000",
    "request_status": "Pending",
    "responsible_agency": "Department of Sanitation",
    "final_address": "7522 Lucerne St",
    "address_councildis": "E",
    "status": "Assigned to Contractor",
    "contractor": "Waste Pro",
    "rowid": "1016176",
    "final_x": "3711192.69528",
    "final_y": "565315.055458",
    "longitude": "-89.97304558981659",
    "latitude": "30.047484182313887",
    "geocoded_column": {
      "latitude": "30.047484182313887",
      "longitude": "-89.97304558981659"
    }
  },
  {
    "service_request": "2023-1016175",
    "request_type": "Traffic Signals/Signs/Striping/Streetlights",
    "request_reason": "Request for Stop Sign",
    "date_created": "2023-07-11T15:47:55.000",
    "date_modified": "2023-07-11T15:48:37.000",
    "request_status": "Pending",
    "responsible_agency": "Department of Public Works",
    "final_address": "6800 BLK Glengary Rd",
    "address_councildis": "E",
    "status": "Pending",
    "rowid": "1016175",
    "final_x": "3701592.29593",
    "final_y": "557675.43693",
    "longitude": "-90.00366814201782",
    "latitude": "30.02678809738651",
    "geocoded_column": {
      "latitude": "30.02678809738651",
      "longitude": "-90.00366814201782"
    }
  },
  {
    "service_request": "2023-1016174",
    "request_type": "Trash/Recycling",
    "request_reason": "Order Recycling Cart",
    "date_created": "2023-07-11T15:47:46.000",
    "date_modified": "2023-07-11T15:47:46.000",
    "request_status": "Pending",
    "responsible_agency": "Department of Sanitation",
    "final_address": "400 BLK S Genois St",
    "address_councildis": "B",
    "status": "Pending",
    "rowid": "1016174",
    "final_x": "3671742.46422",
    "final_y": "536069.822989",
    "longitude": "-90.09872637788645",
    "latitude": "29.968298833521548",
    "geocoded_column": {
      "latitude": "29.968298833521548",
      "longitude": "-90.09872637788645"
    }
  },
  {
    "service_request": "2023-1016173",
    "request_type": "Mosquito, Termite & Rodent Control",
    "request_reason": "Rodent Complaint (Rats)",
    "date_created": "2023-07-11T15:47:28.000",
    "date_modified": "2023-07-11T15:47:28.000",
    "request_status": "Pending",
    "responsible_agency": "Mosquito, Termite & Rodent Control Board",
    "final_address": "7221 W Renaissance Ct",
    "address_councildis": "E",
    "status": "Pending",
    "rowid": "1016173",
    "final_x": "3716522.61714",
    "final_y": "567923.445029",
    "longitude": "-89.95610120064447",
    "latitude": "30.054481126666133",
    "geocoded_column": {
      "latitude": "30.054481126666133",
      "longitude": "-89.95610120064447"
    }
  },
  {
    "service_request": "2023-1016172",
    "request_type": "Trash/Recycling",
    "request_reason": "Replace Recycling Cart",
    "date_created": "2023-07-11T15:47:02.000",
    "date_modified": "2023-07-11T15:47:02.000",
    "request_status": "Pending",
    "responsible_agency": "Department of Sanitation",
    "final_address": "919 Antonine St",
    "address_councildis": "B",
    "status": "Pending",
    "rowid": "1016172",
    "final_x": "3674089.47451",
    "final_y": "518678.922231",
    "longitude": "-90.09190942868536",
    "latitude": "29.920409831437752",
    "geocoded_column": {
      "latitude": "29.920409831437752",
      "longitude": "-90.09190942868536"
    }
  },
  {
    "service_request": "2023-1016171",
    "request_type": "Property Maintenance",
    "request_reason": "Property Maintenance",
    "date_created": "2023-07-11T15:43:50.000",
    "date_modified": "2023-07-11T15:43:50.000",
    "request_status": "Pending",
    "responsible_agency": "Department of Code Enforcement",
    "final_address": "1911 Casa Calvo St",
    "address_councildis": "C",
    "status": "Pending",
    "rowid": "1016171",
    "final_x": "3691905.43664",
    "final_y": "524182.594236",
    "longitude": "-90.03547625284719",
    "latitude": "29.93500030489929",
    "geocoded_column": {
      "latitude": "29.93500030489929",
      "longitude": "-90.03547625284719"
    }
  },
  {
    "service_request": "2023-1016170",
    "request_type": "Traffic Signals/Signs/Striping/Streetlights",
    "request_reason": "Striping/Road Surface Markings",
    "date_created": "2023-07-11T15:37:28.000",
    "date_modified": "2023-07-11T15:37:29.000",
    "request_status": "Pending",
    "responsible_agency": "Department of Public Works",
    "final_address": "PRYTANIA ST & VALENCE ST",
    "address_councildis": "B",
    "status": "Pending",
    "rowid": "1016170",
    "final_x": "3669801.5",
    "final_y": "520207.98",
    "longitude": "-90.10539286401604",
    "latitude": "29.92474129963754",
    "geocoded_column": {
      "latitude": "29.92474129963754",
      "longitude": "-90.10539286401604"
    }
  },
  {
    "service_request": "2023-1016169",
    "request_type": "Roads/Drainage",
    "request_reason": "Pothole",
    "date_created": "2023-07-11T15:27:44.000",
    "date_modified": "2023-07-11T15:27:44.000",
    "request_status": "Pending",
    "responsible_agency": "Department of Public Works",
    "final_address": "6417 Bertha Dr",
    "address_councildis": "D",
    "status": "Pending",
    "rowid": "1016169",
    "final_x": "3677964.73992",
    "final_y": "556901.82217",
    "longitude": "-90.07835559960311",
    "latitude": "30.025393669629253",
    "geocoded_column": {
      "latitude": "30.025393669629253",
      "longitude": "-90.07835559960311"
    }
  },
  {
    "service_request": "2023-1016168",
    "request_type": "Trash/Recycling",
    "request_reason": "Request a Large Item Pick Up",
    "date_created": "2023-07-11T15:27:31.000",
    "date_modified": "2023-07-11T15:27:32.000",
    "request_status": "Pending",
    "responsible_agency": "Department of Sanitation",
    "final_address": "2132 Burdette St",
    "address_councildis": "A",
    "status": "Assigned to Contractor",
    "contractor": "Richards Disposal",
    "rowid": "1016168",
    "final_x": "3665073.27488",
    "final_y": "530167.393985",
    "longitude": "-90.11998545083887",
    "latitude": "29.952264987752237",
    "geocoded_column": {
      "latitude": "29.952264987752237",
      "longitude": "-90.11998545083887"
    }
  },
  {
    "service_request": "2023-1016167",
    "request_type": "Abandoned Vehicles",
    "request_reason": "Abandoned/Junk Vehicles",
    "date_created": "2023-07-11T15:26:14.000",
    "date_modified": "2023-07-11T15:26:15.000",
    "request_status": "Pending",
    "responsible_agency": "Department of Public Works",
    "final_address": "1221 N Broad St",
    "address_councildis": "A",
    "status": "Pending",
    "rowid": "1016167",
    "final_x": "3677930.04219",
    "final_y": "538862.339721",
    "longitude": "-90.07908918822291",
    "latitude": "29.97579252971537",
    "geocoded_column": {
      "latitude": "29.97579252971537",
      "longitude": "-90.07908918822291"
    }
  },
  {
    "service_request": "2023-1016166",
    "request_type": "Traffic Signals/Signs/Striping/Streetlights",
    "request_reason": "Street Light Outage/Malfunction",
    "date_created": "2023-07-11T15:21:26.000",
    "date_modified": "2023-07-11T15:21:27.000",
    "request_status": "Pending",
    "responsible_agency": "Department of Public Works",
    "final_address": "5950 Chef Menteur Hwy",
    "address_councildis": "E",
    "status": "Assigned to Contractor",
    "contractor": "Legacy Professional Services",
    "rowid": "1016166",
    "final_x": "3696543.20829",
    "final_y": "551360.472085",
    "longitude": "-90.01985139569683",
    "latitude": "30.00958446585331",
    "geocoded_column": {
      "latitude": "30.00958446585331",
      "longitude": "-90.01985139569683"
    }
  },
  {
    "service_request": "2023-1016165",
    "request_type": "Trash/Recycling",
    "request_reason": "Missed Trash Pick-Up",
    "date_created": "2023-07-11T15:21:23.000",
    "date_modified": "2023-07-11T15:21:24.000",
    "request_status": "Pending",
    "responsible_agency": "Department of Sanitation",
    "final_address": "11120 Zenith St",
    "address_councildis": "E",
    "status": "Assigned to Contractor",
    "contractor": "Waste Pro",
    "rowid": "1016165",
    "final_x": "3711138.33041",
    "final_y": "565730.648866",
    "longitude": "-89.97320181968104",
    "latitude": "30.048628670789984",
    "geocoded_column": {
      "latitude": "30.048628670789984",
      "longitude": "-89.97320181968104"
    }
  },
  {
    "service_request": "2023-1016164",
    "request_type": "Abandoned Vehicles",
    "request_reason": "Abandoned/Junk Vehicles",
    "date_created": "2023-07-11T15:20:02.000",
    "date_modified": "2023-07-11T15:22:38.000",
    "request_status": "Pending",
    "responsible_agency": "Department of Public Works",
    "final_address": "N ROMAN ST & PIETY ST",
    "address_councildis": "D",
    "status": "Pending",
    "rowid": "1016164",
    "final_x": "3690489.4",
    "final_y": "538419.68",
    "longitude": "-90.03943911477798",
    "latitude": "29.9741913848963",
    "geocoded_column": {
      "latitude": "29.9741913848963",
      "longitude": "-90.03943911477798"
    }
  },
  {
    "service_request": "2023-1016163",
    "request_type": "Abandoned Vehicles",
    "request_reason": "Abandoned/Junk Vehicles",
    "date_created": "2023-07-11T15:16:21.000",
    "date_modified": "2023-07-11T15:16:21.000",
    "request_status": "Pending",
    "responsible_agency": "Department of Public Works",
    "final_address": "8419 Beechwood Ct",
    "address_councildis": "E",
    "status": "Pending",
    "rowid": "1016163",
    "final_x": "3704155.51671",
    "final_y": "560668.513054",
    "longitude": "-89.99545826237454",
    "latitude": "30.03493585494704",
    "geocoded_column": {
      "latitude": "30.03493585494704",
      "longitude": "-89.99545826237454"
    }
  },
  {
    "service_request": "2023-1016162",
    "request_type": "Roads/Drainage",
    "request_reason": "Pothole",
    "date_created": "2023-07-11T15:13:49.000",
    "date_modified": "2023-07-11T15:13:49.000",
    "request_status": "Pending",
    "responsible_agency": "Department of Public Works",
    "final_address": "1720 Soniat St",
    "address_councildis": "B",
    "status": "Pending",
    "rowid": "1016162",
    "final_x": "3668395.56538",
    "final_y": "521986.59417",
    "longitude": "-90.10977099258422",
    "latitude": "29.92967327705658",
    "geocoded_column": {
      "latitude": "29.92967327705658",
      "longitude": "-90.10977099258422"
    }
  },
  {
    "service_request": "2023-1016161",
    "request_type": "Trash/Recycling",
    "request_reason": "Request a Large Item Pick Up",
    "date_created": "2023-07-11T15:10:36.000",
    "date_modified": "2023-07-11T15:10:36.000",
    "request_status": "Pending",
    "responsible_agency": "Department of Sanitation",
    "final_address": "1527 Maura Pl",
    "address_councildis": "C",
    "status": "Assigned to Contractor",
    "contractor": "Richards Disposal",
    "rowid": "1016161",
    "final_x": "3699197.99626",
    "final_y": "525467.997629",
    "longitude": "-90.01240706582162",
    "latitude": "29.938305579827393",
    "geocoded_column": {
      "latitude": "29.938305579827393",
      "longitude": "-90.01240706582162"
    }
  },
  {
    "service_request": "2023-1016160",
    "request_type": "Roads/Drainage",
    "request_reason": "Accessibility Ramps, Curbs and Sidewalk Repair",
    "date_created": "2023-07-11T15:10:32.000",
    "date_modified": "2023-07-11T15:10:32.000",
    "request_status": "Pending",
    "responsible_agency": "Department of Public Works",
    "final_address": "848 Wilson Dr",
    "address_councildis": "A",
    "status": "Pending",
    "rowid": "1016160",
    "final_x": "3674099.73192",
    "final_y": "539587.760522",
    "longitude": "-90.09116157074668",
    "latitude": "29.977901917653522",
    "geocoded_column": {
      "latitude": "29.977901917653522",
      "longitude": "-90.09116157074668"
    }
  },
  {
    "service_request": "2023-1016159",
    "request_type": "Traffic Signals/Signs/Striping/Streetlights",
    "request_reason": "Street Light Outage/Malfunction",
    "date_created": "2023-07-11T15:07:38.000",
    "date_modified": "2023-07-11T15:07:38.000",
    "request_status": "Pending",
    "responsible_agency": "Department of Public Works",
    "final_address": "2677 Cupid St",
    "address_councildis": "C",
    "status": "Assigned to Contractor",
    "contractor": "Legacy Professional Services",
    "rowid": "1016159",
    "final_x": "3700278.62487",
    "final_y": "521015.971193",
    "longitude": "-90.00915786963078",
    "latitude": "29.926029751337783",
    "geocoded_column": {
      "latitude": "29.926029751337783",
      "longitude": "-90.00915786963078"
    }
  },
  {
    "service_request": "2023-1016158",
    "request_type": "Parks & Parkways",
    "request_reason": "Request Tree Service (Right of Way/Public Property)",
    "date_created": "2023-07-11T15:04:59.000",
    "date_modified": "2023-07-11T15:05:00.000",
    "request_status": "Pending",
    "responsible_agency": "Department of Parks & Parkway",
    "final_address": "6238 Canal Blvd",
    "address_councildis": "A",
    "status": "Pending",
    "rowid": "1016158",
    "final_x": "3668480.96206",
    "final_y": "548906.684755",
    "longitude": "-90.10859307246848",
    "latitude": "30.003692056960272",
    "geocoded_column": {
      "latitude": "30.003692056960272",
      "longitude": "-90.10859307246848"
    }
  },
  {
    "service_request": "2023-1016157",
    "request_type": "Trash/Recycling",
    "request_reason": "Request a Large Item Pick Up",
    "date_created": "2023-07-11T15:04:01.000",
    "date_modified": "2023-07-11T15:04:02.000",
    "request_status": "Pending",
    "responsible_agency": "Department of Sanitation",
    "final_address": "7528 Mackenzie St",
    "address_councildis": "E",
    "status": "Assigned to Contractor",
    "contractor": "Waste Pro",
    "rowid": "1016157",
    "final_x": "3711349.63333",
    "final_y": "565532.851938",
    "longitude": "-89.97254140892943",
    "latitude": "30.048077910920345",
    "geocoded_column": {
      "latitude": "30.048077910920345",
      "longitude": "-89.97254140892943"
    }
  },
  {
    "service_request": "2023-1016156",
    "request_type": "Trash/Recycling",
    "request_reason": "Request a Large Item Pick Up",
    "date_created": "2023-07-11T15:02:57.000",
    "date_modified": "2023-07-11T15:02:58.000",
    "request_status": "Pending",
    "responsible_agency": "Department of Sanitation",
    "final_address": "7527 Mackenzie St",
    "address_councildis": "E",
    "status": "Assigned to Contractor",
    "contractor": "Waste Pro",
    "rowid": "1016156",
    "final_x": "3711436.90206",
    "final_y": "565542.882978",
    "longitude": "-89.97226521603733",
    "latitude": "30.04810264224404",
    "geocoded_column": {
      "latitude": "30.04810264224404",
      "longitude": "-89.97226521603733"
    }
  },
  {
    "service_request": "2023-1016155",
    "request_type": "Roads/Drainage",
    "request_reason": "Catch Basin - Clogged",
    "date_created": "2023-07-11T15:01:22.000",
    "date_modified": "2023-07-11T15:14:36.000",
    "request_status": "Pending",
    "responsible_agency": "Department of Public Works",
    "final_address": "1227 Tulane Ave",
    "address_councildis": "B",
    "status": "Pending",
    "rowid": "1016155",
    "final_x": "3679243.49672",
    "final_y": "531309.737538",
    "longitude": "-90.07520283623734",
    "latitude": "29.95498585184534",
    "geocoded_column": {
      "latitude": "29.95498585184534",
      "longitude": "-90.07520283623734"
    }
  },
  {
    "service_request": "2023-1016154",
    "request_type": "Roads/Drainage",
    "request_reason": "Catch Basin - Clogged",
    "date_created": "2023-07-11T14:58:46.000",
    "date_modified": "2023-07-11T14:59:03.000",
    "request_status": "Pending",
    "responsible_agency": "Department of Public Works",
    "final_address": "CENTER ST & 36TH ST",
    "address_councildis": "A",
    "status": "Pending",
    "rowid": "1016154",
    "final_x": "3664948.0",
    "final_y": "551937.78",
    "longitude": "-90.11965290520806",
    "latitude": "30.012129877742918",
    "geocoded_column": {
      "latitude": "30.012129877742918",
      "longitude": "-90.11965290520806"
    }
  },
  {
    "service_request": "2023-1016153",
    "request_type": "Trash/Recycling",
    "request_reason": "Request a Large Item Pick Up",
    "date_created": "2023-07-11T14:58:31.000",
    "date_modified": "2023-07-11T14:58:32.000",
    "request_status": "Pending",
    "responsible_agency": "Department of Sanitation",
    "final_address": "714 Pontalba St",
    "address_councildis": "A",
    "status": "Assigned to Contractor",
    "contractor": "IV Waste",
    "rowid": "1016153",
    "final_x": "3668450.28026",
    "final_y": "544392.668111",
    "longitude": "-90.10884239552396",
    "latitude": "29.991280970991884",
    "geocoded_column": {
      "latitude": "29.991280970991884",
      "longitude": "-90.10884239552396"
    }
  },
  {
    "service_request": "2023-1016152",
    "request_type": "Roads/Drainage",
    "request_reason": "Catch Basin - Clogged",
    "date_created": "2023-07-11T14:57:09.000",
    "date_modified": "2023-07-11T14:57:10.000",
    "request_status": "Pending",
    "responsible_agency": "Department of Public Works",
    "final_address": "331 36Th St",
    "address_councildis": "A",
    "status": "Pending",
    "rowid": "1016152",
    "final_x": "3665128.7042",
    "final_y": "551996.42063",
    "longitude": "-90.1190800166919",
    "latitude": "30.0122858548906",
    "geocoded_column": {
      "latitude": "30.0122858548906",
      "longitude": "-90.1190800166919"
    }
  },
  {
    "service_request": "2023-1016150",
    "request_type": "Parks & Parkways",
    "request_reason": "Request Tree Service (Right of Way/Public Property)",
    "date_created": "2023-07-11T14:56:45.000",
    "date_modified": "2023-07-11T14:56:45.000",
    "request_status": "Pending",
    "responsible_agency": "Department of Parks & Parkway",
    "final_address": "4320 S Liberty St",
    "address_councildis": "B",
    "status": "Pending",
    "rowid": "1016150",
    "final_x": "3670835.73179",
    "final_y": "523270.896187",
    "longitude": "-90.10202423240817",
    "latitude": "29.933132821663836",
    "geocoded_column": {
      "latitude": "29.933132821663836",
      "longitude": "-90.10202423240817"
    }
  },
  {
    "service_request": "2023-1016149",
    "request_type": "Trash/Recycling",
    "request_reason": "Request a Large Item Pick Up",
    "date_created": "2023-07-11T14:52:00.000",
    "date_modified": "2023-07-11T14:52:01.000",
    "request_status": "Pending",
    "responsible_agency": "Department of Sanitation",
    "final_address": "6411 Pines Blvd",
    "address_councildis": "D",
    "status": "Assigned to Contractor",
    "contractor": "Waste Pro",
    "rowid": "1016149",
    "final_x": "3697650.97757",
    "final_y": "556702.637018",
    "longitude": "-90.01615756792371",
    "latitude": "30.024238437513354",
    "geocoded_column": {
      "latitude": "30.024238437513354",
      "longitude": "-90.01615756792371"
    }
  },
  {
    "service_request": "2023-1016148",
    "request_type": "Trash/Recycling",
    "request_reason": "Request a Large Item Pick Up",
    "date_created": "2023-07-11T14:50:31.000",
    "date_modified": "2023-07-11T14:50:32.000",
    "request_status": "Pending",
    "responsible_agency": "Department of Sanitation",
    "final_address": "4327 America St",
    "address_councildis": "E",
    "status": "Assigned to Contractor",
    "contractor": "Waste Pro",
    "rowid": "1016148",
    "final_x": "3699973.03984",
    "final_y": "552805.97007",
    "longitude": "-90.00896263587734",
    "latitude": "30.01345048792716",
    "geocoded_column": {
      "latitude": "30.01345048792716",
      "longitude": "-90.00896263587734"
    }
  },
  {
    "service_request": "2023-1016147",
    "request_type": "Traffic Signals/Signs/Striping/Streetlights",
    "request_reason": "Street Light Outage/Malfunction",
    "date_created": "2023-07-11T14:47:31.000",
    "date_modified": "2023-07-11T14:47:32.000",
    "request_status": "Pending",
    "responsible_agency": "Department of Public Works",
    "final_address": "4319 S Liberty St",
    "address_councildis": "B",
    "status": "Assigned to Contractor",
    "contractor": "Legacy Professional Services",
    "rowid": "1016147",
    "final_x": "3670816.8699",
    "final_y": "523418.322875",
    "longitude": "-90.10207877717171",
    "latitude": "29.933538754899974",
    "geocoded_column": {
      "latitude": "29.933538754899974",
      "longitude": "-90.10207877717171"
    }
  },
  {
    "service_request": "2023-1016146",
    "request_type": "Trash/Recycling",
    "request_reason": "Missed Trash Pick-Up",
    "date_created": "2023-07-11T14:46:11.000",
    "date_modified": "2023-07-11T14:46:11.000",
    "request_status": "Pending",
    "responsible_agency": "Department of Sanitation",
    "final_address": "7150 Camberley Dr",
    "address_councildis": "E",
    "status": "Assigned to Contractor",
    "contractor": "Waste Pro",
    "rowid": "1016146",
    "final_x": "3713191.44453",
    "final_y": "564908.144482",
    "longitude": "-89.96674384249104",
    "latitude": "30.046299947098433",
    "geocoded_column": {
      "latitude": "30.046299947098433",
      "longitude": "-89.96674384249104"
    }
  },
  {
    "service_request": "2023-1016145",
    "request_type": "Abandoned Vehicles",
    "request_reason": "Abandoned/Junk Vehicles",
    "date_created": "2023-07-11T14:44:11.000",
    "date_modified": "2023-07-11T14:47:04.000",
    "request_status": "Pending",
    "responsible_agency": "Department of Public Works",
    "final_address": "4612 Viola St",
    "address_councildis": "E",
    "status": "Pending",
    "rowid": "1016145",
    "final_x": "3704004.22558",
    "final_y": "554393.81084",
    "longitude": "-89.99616776119386",
    "latitude": "30.017687712993215",
    "geocoded_column": {
      "latitude": "30.017687712993215",
      "longitude": "-89.99616776119386"
    }
  },
  {
    "service_request": "2023-1016144",
    "request_type": "Trash/Recycling",
    "request_reason": "Illegal Dumping",
    "date_created": "2023-07-11T14:44:09.000",
    "date_modified": "2023-07-11T14:44:09.000",
    "request_status": "Pending",
    "responsible_agency": "Department of Sanitation",
    "final_address": "7200 BLK Fig St",
    "address_councildis": "B",
    "status": "Pending",
    "rowid": "1016144",
    "final_x": "3667600.17526",
    "final_y": "531956.697029",
    "longitude": "-90.1119464171482",
    "latitude": "29.95711116865359",
    "geocoded_column": {
      "latitude": "29.95711116865359",
      "longitude": "-90.1119464171482"
    }
  },
  {
    "service_request": "2023-1016143",
    "request_type": "Safety & Permits",
    "request_reason": "Licenses & Permits",
    "date_created": "2023-07-11T14:42:42.000",
    "date_modified": "2023-07-11T14:42:43.000",
    "request_status": "Pending",
    "responsible_agency": "Safety and Permits",
    "final_address": "2400 St Claude Ave",
    "address_councildis": "C",
    "status": "Pending",
    "rowid": "1016143",
    "final_x": "3686528.18959",
    "final_y": "536392.173063",
    "longitude": "-90.05202111058153",
    "latitude": "29.96873884798031",
    "geocoded_column": {
      "latitude": "29.96873884798031",
      "longitude": "-90.05202111058153"
    }
  },
  {
    "service_request": "2023-1016142",
    "request_type": "Trash/Recycling",
    "request_reason": "MIssed Recycling Pick-Up",
    "date_created": "2023-07-11T14:36:40.000",
    "date_modified": "2023-07-11T14:36:41.000",
    "request_status": "Pending",
    "responsible_agency": "Department of Sanitation",
    "final_address": "6108 Todd Pl",
    "address_councildis": "E",
    "status": "Assigned to Contractor",
    "contractor": "Waste Pro",
    "rowid": "1016142",
    "final_x": "3699388.99236",
    "final_y": "532664.049604",
    "longitude": "-90.01154200500004",
    "latitude": "29.958086136878514",
    "geocoded_column": {
      "latitude": "29.958086136878514",
      "longitude": "-90.01154200500004"
    }
  },
  {
    "service_request": "2023-1016141",
    "request_type": "Traffic Signals/Signs/Striping/Streetlights",
    "request_reason": "Street Light Outage/Malfunction",
    "date_created": "2023-07-11T14:35:40.000",
    "date_modified": "2023-07-11T14:35:41.000",
    "request_status": "Pending",
    "responsible_agency": "Department of Public Works",
    "final_address": "3413 Catalina Dr",
    "address_councildis": "C",
    "status": "Assigned to Contractor",
    "contractor": "Legacy Professional Services",
    "rowid": "1016141",
    "final_x": "3696723.46301",
    "final_y": "524325.5303",
    "longitude": "-90.02026069563422",
    "latitude": "29.93524239507051",
    "geocoded_column": {
      "latitude": "29.93524239507051",
      "longitude": "-90.02026069563422"
    }
  },
  {
    "service_request": "2023-1016140",
    "request_type": "Traffic Signals/Signs/Striping/Streetlights",
    "request_reason": "Street Light Outage/Malfunction",
    "date_created": "2023-07-11T14:33:25.000",
    "date_modified": "2023-07-11T14:33:26.000",
    "request_status": "Pending",
    "responsible_agency": "Department of Public Works",
    "final_address": "3327 Plymouth Pl",
    "address_councildis": "C",
    "status": "Assigned to Contractor",
    "contractor": "Legacy Professional Services",
    "rowid": "1016140",
    "final_x": "3702743.05809",
    "final_y": "518922.523959",
    "longitude": "-90.00145524406157",
    "latitude": "29.92019495410329",
    "geocoded_column": {
      "latitude": "29.92019495410329",
      "longitude": "-90.00145524406157"
    }
  },
  {
    "service_request": "2023-1016139",
    "request_type": "Trash/Recycling",
    "request_reason": "Order Trash Cart",
    "date_created": "2023-07-11T14:31:17.000",
    "date_modified": "2023-07-11T14:31:18.000",
    "request_status": "Pending",
    "responsible_agency": "Department of Sanitation",
    "final_address": "2032 Elysian Fields Ave",
    "address_councildis": "D",
    "status": "Assigned to Contractor",
    "contractor": "IV Waste",
    "rowid": "1016139",
    "final_x": "3684627.79157",
    "final_y": "539873.31297",
    "longitude": "-90.05790029963298",
    "latitude": "29.978369064118894",
    "geocoded_column": {
      "latitude": "29.978369064118894",
      "longitude": "-90.05790029963298"
    }
  },
  {
    "service_request": "2023-1016138",
    "request_type": "Abandoned Vehicles",
    "request_reason": "Abandoned/Junk Vehicles",
    "date_created": "2023-07-11T14:27:43.000",
    "date_modified": "2023-07-11T14:27:43.000",
    "request_status": "Pending",
    "responsible_agency": "Department of Public Works",
    "final_address": "1733 Robert St",
    "address_councildis": "B",
    "status": "Pending",
    "rowid": "1016138",
    "final_x": "3668849.26471",
    "final_y": "522094.295418",
    "longitude": "-90.10833510482976",
    "latitude": "29.929956091874406",
    "geocoded_column": {
      "latitude": "29.929956091874406",
      "longitude": "-90.10833510482976"
    }
  },
  {
    "service_request": "2023-1016137",
    "request_type": "Roads/Drainage",
    "request_reason": "Street Subsidence (Sinking)",
    "date_created": "2023-07-11T14:27:20.000",
    "date_modified": "2023-07-11T14:27:20.000",
    "request_status": "Pending",
    "responsible_agency": "Department of Public Works",
    "final_address": "2333 Fats Domino Ave",
    "address_councildis": "E",
    "status": "Pending",
    "rowid": "1016137",
    "final_x": "3699358.95664",
    "final_y": "538478.302537",
    "longitude": "-90.01142504002648",
    "latitude": "29.974074200847724",
    "geocoded_column": {
      "latitude": "29.974074200847724",
      "longitude": "-90.01142504002648"
    }
  },
  {
    "service_request": "2023-1016136",
    "request_type": "Abandoned Vehicles",
    "request_reason": "Abandoned/Junk Vehicles",
    "date_created": "2023-07-11T14:18:54.000",
    "date_modified": "2023-07-11T14:18:54.000",
    "request_status": "Pending",
    "responsible_agency": "Department of Public Works",
    "final_address": "4321 S Liberty St",
    "address_councildis": "B",
    "status": "Pending",
    "rowid": "1016136",
    "final_x": "3670801.34535",
    "final_y": "523416.182139",
    "longitude": "-90.1021278600671",
    "latitude": "29.933533327251045",
    "geocoded_column": {
      "latitude": "29.933533327251045",
      "longitude": "-90.1021278600671"
    }
  },
  {
    "service_request": "2023-1016135",
    "request_type": "Parks & Parkways",
    "request_reason": "Request Tree Service (Right of Way/Public Property)",
    "date_created": "2023-07-11T14:18:15.000",
    "date_modified": "2023-07-11T14:18:16.000",
    "request_status": "Pending",
    "responsible_agency": "Department of Parks & Parkway",
    "final_address": "HARRISON AVE & MARCONI DR",
    "address_councildis": "A",
    "status": "Pending",
    "rowid": "1016135",
    "final_x": "3671555.5",
    "final_y": "549053.28",
    "longitude": "-90.09887508622282",
    "latitude": "30.00400442416237",
    "geocoded_column": {
      "latitude": "30.00400442416237",
      "longitude": "-90.09887508622282"
    }
  },
  {
    "service_request": "2023-1016133",
    "request_type": "Abandoned Vehicles",
    "request_reason": "Vehicle Blocking Your Driveway",
    "date_created": "2023-07-11T14:15:22.000",
    "date_modified": "2023-07-11T14:15:22.000",
    "request_status": "Pending",
    "responsible_agency": "Department of Public Works",
    "final_address": "3332 Marigny St",
    "address_councildis": "D",
    "status": "Pending",
    "rowid": "1016133",
    "final_x": "3684607.49346",
    "final_y": "545074.737743",
    "longitude": "-90.05778153172227",
    "latitude": "29.992671764325628",
    "geocoded_column": {
      "latitude": "29.992671764325628",
      "longitude": "-90.05778153172227"
    }
  },
  {
    "service_request": "2023-1016132",
    "request_type": "Roads/Drainage",
    "request_reason": "Pothole",
    "date_created": "2023-07-11T14:14:18.000",
    "date_modified": "2023-07-11T14:14:19.000",
    "request_status": "Pending",
    "responsible_agency": "Department of Public Works",
    "final_address": "1840 Euterpe St",
    "address_councildis": "B",
    "status": "Pending",
    "rowid": "1016132",
    "final_x": "3677849.43208",
    "final_y": "525626.742013",
    "longitude": "-90.07980108279143",
    "latitude": "29.93940152096696",
    "geocoded_column": {
      "latitude": "29.93940152096696",
      "longitude": "-90.07980108279143"
    }
  },
  {
    "service_request": "2023-1016131",
    "request_type": "Trash/Recycling",
    "request_reason": "Request a Large Item Pick Up",
    "date_created": "2023-07-11T14:10:47.000",
    "date_modified": "2023-07-11T14:10:48.000",
    "request_status": "Pending",
    "responsible_agency": "Department of Sanitation",
    "final_address": "520 N Salcedo St",
    "address_councildis": "A",
    "status": "Assigned to Contractor",
    "contractor": "Richards Disposal",
    "rowid": "1016131",
    "final_x": "3675129.11259",
    "final_y": "537389.872264",
    "longitude": "-90.08798586862079",
    "latitude": "29.971827751089823",
    "geocoded_column": {
      "latitude": "29.971827751089823",
      "longitude": "-90.08798586862079"
    }
  },
  {
    "service_request": "2023-1016130",
    "request_type": "Roads/Drainage",
    "request_reason": "Pothole",
    "date_created": "2023-07-11T14:09:55.000",
    "date_modified": "2023-07-11T14:09:55.000",
    "request_status": "Pending",
    "responsible_agency": "Department of Public Works",
    "final_address": "4433 Danneel St",
    "address_councildis": "B",
    "status": "Pending",
    "rowid": "1016130",
    "final_x": "3670368.19994",
    "final_y": "522328.07609",
    "longitude": "-90.10353214796731",
    "latitude": "29.93055417533511",
    "geocoded_column": {
      "latitude": "29.93055417533511",
      "longitude": "-90.10353214796731"
    }
  },
  {
    "service_request": "2023-1016129",
    "request_type": "Trash/Recycling",
    "request_reason": "Request a Large Item Pick Up",
    "date_created": "2023-07-11T14:08:11.000",
    "date_modified": "2023-07-11T14:08:12.000",
    "request_status": "Pending",
    "responsible_agency": "Department of Sanitation",
    "final_address": "4743 Gabriel Dr",
    "address_councildis": "E",
    "status": "Assigned to Contractor",
    "contractor": "Waste Pro",
    "rowid": "1016129",
    "final_x": "3708945.37918",
    "final_y": "555779.236633",
    "longitude": "-89.98050411256139",
    "latitude": "30.021337620275233",
    "geocoded_column": {
      "latitude": "30.021337620275233",
      "longitude": "-89.98050411256139"
    }
  },
  {
    "service_request": "2023-1016128",
    "request_type": "Abandoned Vehicles",
    "request_reason": "Abandoned/Junk Vehicles",
    "date_created": "2023-07-11T14:07:42.000",
    "date_modified": "2023-07-11T14:22:56.000",
    "case_close_date": "2023-07-11T09:22:56.000",
    "request_status": "Closed",
    "responsible_agency": "Department of Public Works",
    "final_address": "800 BLK Wagner St",
    "address_councildis": "C",
    "status": "Resolved",
    "rowid": "1016128",
    "final_x": "3690527.22947",
    "final_y": "528417.95181",
    "longitude": "-90.03967626739909",
    "latitude": "29.94668894486653",
    "geocoded_column": {
      "latitude": "29.94668894486653",
      "longitude": "-90.03967626739909"
    }
  },
  {
    "service_request": "2023-1016127",
    "request_type": "Trash/Recycling",
    "request_reason": "Request a Large Item Pick Up",
    "date_created": "2023-07-11T14:07:40.000",
    "date_modified": "2023-07-11T14:07:41.000",
    "request_status": "Pending",
    "responsible_agency": "Department of Sanitation",
    "final_address": "4728 Crowder Blvd",
    "address_councildis": "E",
    "status": "Assigned to Contractor",
    "contractor": "Waste Pro",
    "rowid": "1016127",
    "final_x": "3706331.30417",
    "final_y": "555623.428249",
    "longitude": "-89.9887695764069",
    "latitude": "30.02099381005084",
    "geocoded_column": {
      "latitude": "30.02099381005084",
      "longitude": "-89.9887695764069"
    }
  },
  {
    "service_request": "2023-1016126",
    "request_type": "Trash/Recycling",
    "request_reason": "Request a Large Item Pick Up",
    "date_created": "2023-07-11T14:07:14.000",
    "date_modified": "2023-07-11T14:07:14.000",
    "case_close_date": "2023-05-31T19:00:00.000",
    "request_status": "Pending",
    "responsible_agency": "Department of Sanitation",
    "final_address": "10122 Lakewood St",
    "address_councildis": "E",
    "status": "Assigned to Contractor",
    "contractor": "Waste Pro",
    "rowid": "1016126",
    "final_x": "3712944.09451",
    "final_y": "556838.583258",
    "longitude": "-89.96782951888777",
    "latitude": "30.0241199883511",
    "geocoded_column": {
      "latitude": "30.0241199883511",
      "longitude": "-89.96782951888777"
    }
  },
  {
    "service_request": "2023-1016125",
    "request_type": "Trash/Recycling",
    "request_reason": "Order Trash Cart",
    "date_created": "2023-07-11T14:04:16.000",
    "date_modified": "2023-07-11T14:04:18.000",
    "request_status": "Pending",
    "responsible_agency": "Department of Sanitation",
    "final_address": "1436 Congress St",
    "address_councildis": "C",
    "status": "Assigned to Contractor",
    "contractor": "IV Waste",
    "rowid": "1016125",
    "final_x": "3691039.80361",
    "final_y": "537023.964936",
    "longitude": "-90.0377506593961",
    "latitude": "29.970336560990138",
    "geocoded_column": {
      "latitude": "29.970336560990138",
      "longitude": "-90.0377506593961"
    }
  },
  {
    "service_request": "2023-1016123",
    "request_type": "Property Maintenance",
    "request_reason": "Property Maintenance",
    "date_created": "2023-07-11T14:02:09.000",
    "date_modified": "2023-07-11T14:02:09.000",
    "request_status": "Pending",
    "responsible_agency": "Department of Code Enforcement",
    "final_address": "6015 Milne Blvd",
    "address_councildis": "A",
    "status": "Pending",
    "rowid": "1016123",
    "final_x": "3667105.63853",
    "final_y": "547568.298386",
    "longitude": "-90.11298299432832",
    "latitude": "30.000052306226408",
    "geocoded_column": {
      "latitude": "30.000052306226408",
      "longitude": "-90.11298299432832"
    }
  },
  {
    "service_request": "2023-1016122",
    "request_type": "Trash/Recycling",
    "request_reason": "Request a Large Item Pick Up",
    "date_created": "2023-07-11T14:00:40.000",
    "date_modified": "2023-07-11T14:00:41.000",
    "request_status": "Pending",
    "responsible_agency": "Department of Sanitation",
    "final_address": "11278 Midpoint Dr",
    "address_councildis": "E",
    "status": "Assigned to Contractor",
    "contractor": "Waste Pro",
    "rowid": "1016122",
    "final_x": "3718319.411",
    "final_y": "559334.264413",
    "longitude": "-89.95074958498633",
    "latitude": "30.03080487995199",
    "geocoded_column": {
      "latitude": "30.03080487995199",
      "longitude": "-89.95074958498633"
    }
  },
  {
    "service_request": "2023-1016121",
    "request_type": "Trash/Recycling",
    "request_reason": "Request a Large Item Pick Up",
    "date_created": "2023-07-11T14:00:38.000",
    "date_modified": "2023-07-11T14:00:59.000",
    "request_status": "Pending",
    "responsible_agency": "Department of Sanitation",
    "final_address": "12 Yellowstone Dr",
    "address_councildis": "C",
    "status": "Assigned to Contractor",
    "contractor": "Richards Disposal",
    "rowid": "1016121",
    "final_x": "3699743.028",
    "final_y": "518026.022326",
    "longitude": "-90.01095750681782",
    "latitude": "29.91782542376298",
    "geocoded_column": {
      "latitude": "29.91782542376298",
      "longitude": "-90.01095750681782"
    }
  },
  {
    "service_request": "2023-1016120",
    "request_type": "Trash/Recycling",
    "request_reason": "Order Recycling Cart",
    "date_created": "2023-07-11T13:59:24.000",
    "date_modified": "2023-07-11T13:59:25.000",
    "request_status": "Pending",
    "responsible_agency": "Department of Sanitation",
    "final_address": "1229 Farragut St",
    "address_councildis": "C",
    "status": "Pending",
    "rowid": "1016120",
    "final_x": "3692316.33104",
    "final_y": "526682.499006",
    "longitude": "-90.03408958036162",
    "latitude": "29.941861384928664",
    "geocoded_column": {
      "latitude": "29.941861384928664",
      "longitude": "-90.03408958036162"
    }
  },
  {
    "service_request": "2023-1016119",
    "request_type": "Trash/Recycling",
    "request_reason": "Request a Large Item Pick Up",
    "date_created": "2023-07-11T13:59:15.000",
    "date_modified": "2023-07-11T13:59:15.000",
    "request_status": "Pending",
    "responsible_agency": "Department of Sanitation",
    "final_address": "3207 Coliseum St",
    "address_councildis": "B",
    "status": "Assigned to Contractor",
    "contractor": "Richards Disposal",
    "rowid": "1016119",
    "final_x": "3675229.34504",
    "final_y": "520932.269753",
    "longitude": "-90.08823409965463",
    "latitude": "29.92657180494806",
    "geocoded_column": {
      "latitude": "29.92657180494806",
      "longitude": "-90.08823409965463"
    }
  },
  {
    "service_request": "2023-1016118",
    "request_type": "Trash/Recycling",
    "request_reason": "Order Trash Cart",
    "date_created": "2023-07-11T13:59:09.000",
    "date_modified": "2023-07-11T13:59:10.000",
    "request_status": "Pending",
    "responsible_agency": "Department of Sanitation",
    "final_address": "1229 Farragut St",
    "address_councildis": "C",
    "status": "Assigned to Contractor",
    "contractor": "Richards Disposal",
    "rowid": "1016118",
    "final_x": "3692316.33104",
    "final_y": "526682.499006",
    "longitude": "-90.03408958036162",
    "latitude": "29.941861384928664",
    "geocoded_column": {
      "latitude": "29.941861384928664",
      "longitude": "-90.03408958036162"
    }
  },
  {
    "service_request": "2023-1016116",
    "request_type": "Trash/Recycling",
    "request_reason": "Order Recycling Cart",
    "date_created": "2023-07-11T13:58:41.000",
    "date_modified": "2023-07-11T13:58:42.000",
    "request_status": "Pending",
    "responsible_agency": "Department of Sanitation",
    "final_address": "5229 Coliseum St",
    "address_councildis": "B",
    "status": "Pending",
    "rowid": "1016116",
    "final_x": "3667829.97466",
    "final_y": "519710.634552",
    "longitude": "-90.11163307324642",
    "latitude": "29.923431704505507",
    "geocoded_column": {
      "latitude": "29.923431704505507",
      "longitude": "-90.11163307324642"
    }
  },
  {
    "service_request": "2023-1016115",
    "request_type": "Traffic Signals/Signs/Striping/Streetlights",
    "request_reason": "Street Light Outage/Malfunction",
    "date_created": "2023-07-11T13:57:11.000",
    "date_modified": "2023-07-11T13:57:12.000",
    "request_status": "Pending",
    "responsible_agency": "Department of Public Works",
    "final_address": "1527 Valmont St",
    "address_councildis": "B",
    "status": "Assigned to Contractor",
    "contractor": "Legacy Professional Services",
    "rowid": "1016115",
    "final_x": "3667844.85607",
    "final_y": "520659.496761",
    "longitude": "-90.11155416096132",
    "latitude": "29.926040339007677",
    "geocoded_column": {
      "latitude": "29.926040339007677",
      "longitude": "-90.11155416096132"
    }
  },
  {
    "service_request": "2023-1016114",
    "request_type": "Roads/Drainage",
    "request_reason": "Street Subsidence (Sinking)",
    "date_created": "2023-07-11T13:56:41.000",
    "date_modified": "2023-07-11T13:56:41.000",
    "request_status": "Pending",
    "responsible_agency": "Department of Public Works",
    "final_address": "1436 Toledano St",
    "address_councildis": "B",
    "status": "Pending",
    "rowid": "1016114",
    "final_x": "3674808.71105",
    "final_y": "521014.225401",
    "longitude": "-90.08955911900198",
    "latitude": "29.926809717799667",
    "geocoded_column": {
      "latitude": "29.926809717799667",
      "longitude": "-90.08955911900198"
    }
  },
  {
    "service_request": "2023-1016113",
    "request_type": "Trash/Recycling",
    "request_reason": "Request a Large Item Pick Up",
    "date_created": "2023-07-11T13:54:56.000",
    "date_modified": "2023-07-11T13:54:56.000",
    "request_status": "Pending",
    "responsible_agency": "Department of Sanitation",
    "final_address": "3727 Iberville St",
    "address_councildis": "B",
    "status": "Assigned to Contractor",
    "contractor": "Richards Disposal",
    "rowid": "1016113",
    "final_x": "3672468.49921",
    "final_y": "537946.704265",
    "longitude": "-90.09636953556661",
    "latitude": "29.97343809339872",
    "geocoded_column": {
      "latitude": "29.97343809339872",
      "longitude": "-90.09636953556661"
    }
  },
  {
    "service_request": "2023-1016112",
    "request_type": "Trash/Recycling",
    "request_reason": "MIssed Recycling Pick-Up",
    "date_created": "2023-07-11T13:53:36.000",
    "date_modified": "2023-07-11T13:53:36.000",
    "request_status": "Pending",
    "responsible_agency": "Department of Sanitation",
    "final_address": "8326 Nelson St",
    "address_councildis": "A",
    "status": "Assigned to Contractor",
    "contractor": "Richards Disposal",
    "rowid": "1016112",
    "final_x": "3664390.44775",
    "final_y": "532458.764484",
    "longitude": "-90.12206503044538",
    "latitude": "29.95858537579393",
    "geocoded_column": {
      "latitude": "29.95858537579393",
      "longitude": "-90.12206503044538"
    }
  },
  {
    "service_request": "2023-1016111",
    "request_type": "Trash/Recycling",
    "request_reason": "Missed Trash Pick-Up",
    "date_created": "2023-07-11T13:52:39.000",
    "date_modified": "2023-07-11T13:52:40.000",
    "request_status": "Pending",
    "responsible_agency": "Department of Sanitation",
    "final_address": "8326 Nelson St",
    "address_councildis": "A",
    "status": "Assigned to Contractor",
    "contractor": "Richards Disposal",
    "rowid": "1016111",
    "final_x": "3664390.44775",
    "final_y": "532458.764484",
    "longitude": "-90.12206503044538",
    "latitude": "29.95858537579393",
    "geocoded_column": {
      "latitude": "29.95858537579393",
      "longitude": "-90.12206503044538"
    }
  },