[
  {
    "service_request": "2022-943349",
    "request_type": "Trash/Recycling",
    "request_reason": "Order Recycling Cart",
    "date_created": "2022-11-15T00:39:16.000",
    "date_modified": "2022-11-15T00:39:16.000",
    "request_status": "Pending",
    "responsible_agency": "Department of Sanitation",
    "final_address": "4649 Franklin Ave",
    "address_councildis": "D",
    "status": "Pending",
    "rowid": "943349",
    "final_x": "3686933.53206",
    "final_y": "550084.647572",
    "longitude": "-90.0502568121593",
    "latitude": "30.006375803014585",
    "geocoded_column": {
      "latitude": "30.006375803014585",
      "longitude": "-90.0502568121593"
    }
  },
  {
    "service_request": "2022-943347",
    "request_type": "Safety & Permits",
    "request_reason": "Licenses & Permits",
    "date_created": "2022-11-15T00:08:33.000",
    "date_modified": "2022-11-15T00:08:33.000",
    "request_status": "Pending",
    "responsible_agency": "Safety and Permits",
    "final_address": "4523 Magazine St",
    "address_councildis": "B",
    "status": "Pending",
    "rowid": "943347",
    "final_x": "3670459.91399",
    "final_y": "518764.599223",
    "longitude": "-90.10336337284775",
    "latitude": "29.920753043460966",
    "geocoded_column": {
      "latitude": "29.920753043460966",
      "longitude": "-90.10336337284775"
    }
  },
  {
    "service_request": "2022-943346",
    "request_type": "Roads/Drainage",
    "request_reason": "Accessibility Ramps, Curbs and Sidewalk Repair",
    "date_created": "2022-11-14T23:07:29.000",
    "date_modified": "2022-11-14T23:07:29.000",
    "request_status": "Pending",
    "responsible_agency": "Department of Public Works",
    "final_address": "2935 Dumaine St",
    "address_councildis": "A",
    "status": "Pending",
    "rowid": "943346",
    "final_x": "3676229.61902",
    "final_y": "538271.162569",
    "longitude": "-90.08447995897187",
    "latitude": "29.974218064533357",
    "geocoded_column": {
      "latitude": "29.974218064533357",
      "longitude": "-90.08447995897187"
    }
  },
  {
    "service_request": "2022-943344",
    "request_type": "Trash/Recycling",
    "request_reason": "Order Recycling Cart",
    "date_created": "2022-11-14T23:00:09.000",
    "date_modified": "2022-11-14T23:00:09.000",
    "request_status": "Pending",
    "responsible_agency": "Department of Sanitation",
    "final_address": "4638 De Montluzin St",
    "address_councildis": "D",
    "status": "Pending",
    "rowid": "943344",
    "final_x": "3687138.89974",
    "final_y": "549973.037524",
    "longitude": "-90.04961195609336",
    "latitude": "30.006062591258058",
    "geocoded_column": {
      "latitude": "30.006062591258058",
      "longitude": "-90.04961195609336"
    }
  },
  {
    "service_request": "2022-943343",
    "request_type": "Roads/Drainage",
    "request_reason": "Street Subsidence (Sinking)",
    "date_created": "2022-11-14T22:59:15.000",
    "date_modified": "2022-11-14T22:59:15.000",
    "request_status": "Pending",
    "responsible_agency": "Department of Public Works",
    "final_address": "2935 St Philip St",
    "address_councildis": "A",
    "status": "Pending",
    "rowid": "943343",
    "final_x": "3676451.94229",
    "final_y": "538676.963593",
    "longitude": "-90.08376383348786",
    "latitude": "29.97532721381419",
    "geocoded_column": {
      "latitude": "29.97532721381419",
      "longitude": "-90.08376383348786"
    }
  },
  {
    "service_request": "2022-943342",
    "request_type": "Traffic Signals/Signs/Striping/Streetlights",
    "request_reason": "Street Light Outage/Malfunction",
    "date_created": "2022-11-14T22:56:30.000",
    "date_modified": "2022-11-14T22:56:30.000",
    "request_status": "Pending",
    "responsible_agency": "Department of Public Works",
    "final_address": "1019 N Gayoso St",
    "address_councildis": "A",
    "status": "Pending",
    "contractor": "Legacy Professional Services",
    "rowid": "943342",
    "final_x": "3676433.15131",
    "final_y": "538845.892425",
    "longitude": "-90.08381736252267",
    "latitude": "29.975792273653813",
    "geocoded_column": {
      "latitude": "29.975792273653813",
      "longitude": "-90.08381736252267"
    }
  },
  {
    "service_request": "2022-943341",
    "request_type": "Trash/Recycling",
    "request_reason": "Repair Recycling Cart",
    "date_created": "2022-11-14T22:53:05.000",
    "date_modified": "2022-11-14T22:53:05.000",
    "request_status": "Pending",
    "responsible_agency": "Department of Sanitation",
    "final_address": "4649 Franklin Ave",
    "address_councildis": "D",
    "status": "Pending",
    "rowid": "943341",
    "final_x": "3686933.53206",
    "final_y": "550084.647572",
    "longitude": "-90.0502568121593",
    "latitude": "30.006375803014585",
    "geocoded_column": {
      "latitude": "30.006375803014585",
      "longitude": "-90.0502568121593"
    }
  },
  {
    "service_request": "2022-943340",
    "request_type": "Traffic Signals/Signs/Striping/Streetlights",
    "request_reason": "Traffic Signal Malfunctioning/Damaged",
    "date_created": "2022-11-14T22:37:08.000",
    "date_modified": "2022-11-14T22:37:09.000",
    "request_status": "Pending",
    "responsible_agency": "Department of Public Works",
    "final_address": "EARHART BLVD & SIMON BOLIVAR AVE",
    "address_councildis": "B",
    "status": "Pending",
    "rowid": "943340",
    "final_x": "3677912.6",
    "final_y": "527755.08",
    "longitude": "-90.07952812763975",
    "latitude": "29.94525184539133",
    "geocoded_column": {
      "latitude": "29.94525184539133",
      "longitude": "-90.07952812763975"
    }
  },
  {
    "service_request": "2022-943339",
    "request_type": "Traffic Signals/Signs/Striping/Streetlights",
    "request_reason": "Traffic Signal Malfunctioning/Damaged",
    "date_created": "2022-11-14T22:34:19.000",
    "date_modified": "2022-11-14T22:34:20.000",
    "request_status": "Pending",
    "responsible_agency": "Department of Public Works",
    "final_address": "NAPOLEON AVE & S CLAIBORNE AVE",
    "address_councildis": "B",
    "status": "Pending",
    "rowid": "943339",
    "final_x": "3670320.5",
    "final_y": "525786.88",
    "longitude": "-90.10356554298984",
    "latitude": "29.940066178929065",
    "geocoded_column": {
      "latitude": "29.940066178929065",
      "longitude": "-90.10356554298984"
    }
  },
  {
    "service_request": "2022-943338",
    "request_type": "Trash/Recycling",
    "request_reason": "Order Recycling Cart",
    "date_created": "2022-11-14T22:31:46.000",
    "date_modified": "2022-11-14T22:31:46.000",
    "request_status": "Pending",
    "responsible_agency": "Department of Sanitation",
    "final_address": "6321 Arts St",
    "address_councildis": "D",
    "status": "Pending",
    "rowid": "943338",
    "final_x": "3685634.46492",
    "final_y": "556493.465306",
    "longitude": "-90.05413484779034",
    "latitude": "30.024037633772284",
    "geocoded_column": {
      "latitude": "30.024037633772284",
      "longitude": "-90.05413484779034"
    }
  },
  {
    "service_request": "2022-943337",
    "request_type": "Trash/Recycling",
    "request_reason": "Order Recycling Cart",
    "date_created": "2022-11-14T22:31:12.000",
    "date_modified": "2022-11-14T22:31:12.000",
    "request_status": "Pending",
    "responsible_agency": "Department of Sanitation",
    "final_address": "10954 N Hardy St",
    "address_councildis": "E",
    "status": "Pending",
    "rowid": "943337",
    "final_x": "3712882.04408",
    "final_y": "562180.612895",
    "longitude": "-89.96782442691236",
    "latitude": "30.03881047701158",
    "geocoded_column": {
      "latitude": "30.03881047701158",
      "longitude": "-89.96782442691236"
    }
  },
  {
    "service_request": "2022-943336",
    "request_type": "Trash/Recycling",
    "request_reason": "Request a Large Item Pick Up",
    "date_created": "2022-11-14T22:24:11.000",
    "date_modified": "2022-11-14T22:24:12.000",
    "request_status": "Pending",
    "responsible_agency": "Department of Sanitation",
    "final_address": "5810 Pratt Dr",
    "address_councildis": "D",
    "status": "Assigned to Contractor",
    "contractor": "IV Waste",
    "rowid": "943336",
    "final_x": "3680159.51439",
    "final_y": "554006.18204",
    "longitude": "-90.07152119517099",
    "latitude": "30.01736543739235",
    "geocoded_column": {
      "latitude": "30.01736543739235",
      "longitude": "-90.07152119517099"
    }
  },
  {
    "service_request": "2022-943335",
    "request_type": "Traffic Signals/Signs/Striping/Streetlights",
    "request_reason": "Street Light Outage/Malfunction",
    "date_created": "2022-11-14T22:17:28.000",
    "date_modified": "2022-11-14T22:17:29.000",
    "request_status": "Pending",
    "responsible_agency": "Department of Public Works",
    "final_address": "2424 Royal St",
    "address_councildis": "C",
    "status": "Pending",
    "contractor": "Legacy Professional Services",
    "rowid": "943335",
    "final_x": "3686109.60489",
    "final_y": "534922.923462",
    "longitude": "-90.05339485288546",
    "latitude": "29.964711785653222",
    "geocoded_column": {
      "latitude": "29.964711785653222",
      "longitude": "-90.05339485288546"
    }
  },
  {
    "service_request": "2022-943334",
    "request_type": "Trash/Recycling",
    "request_reason": "Order Recycling Cart",
    "date_created": "2022-11-14T22:12:05.000",
    "date_modified": "2022-11-14T22:12:05.000",
    "request_status": "Pending",
    "responsible_agency": "Department of Sanitation",
    "final_address": "2409 Laharpe St",
    "address_councildis": "D",
    "status": "Pending",
    "rowid": "943334",
    "final_x": "3679660.6404",
    "final_y": "539297.336138",
    "longitude": "-90.07360836750955",
    "latitude": "29.97693641861924",
    "geocoded_column": {
      "latitude": "29.97693641861924",
      "longitude": "-90.07360836750955"
    }
  },
  {
    "service_request": "2022-943333",
    "request_type": "Roads/Drainage",
    "request_reason": "Man hole cover issue",
    "date_created": "2022-11-14T22:08:29.000",
    "date_modified": "2022-11-14T22:08:30.000",
    "request_status": "Pending",
    "responsible_agency": "Department of Public Works",
    "final_address": "2400 BLK Willow St",
    "address_councildis": "B",
    "status": "Pending",
    "rowid": "943333",
    "final_x": "3674293.79803",
    "final_y": "526958.767721",
    "longitude": "-90.09098110499819",
    "latitude": "29.943170633093146",
    "geocoded_column": {
      "latitude": "29.943170633093146",
      "longitude": "-90.09098110499819"
    }
  },
  {
    "service_request": "2022-943332",
    "request_type": "Traffic Signals/Signs/Striping/Streetlights",
    "request_reason": "Street Light Outage/Malfunction",
    "date_created": "2022-11-14T22:04:32.000",
    "date_modified": "2022-11-14T22:04:32.000",
    "request_status": "Pending",
    "responsible_agency": "Department of Public Works",
    "final_address": "2722 Dublin St",
    "address_councildis": "A",
    "status": "Pending",
    "contractor": "Legacy Professional Services",
    "rowid": "943332",
    "final_x": "3665428.43124",
    "final_y": "532758.759428",
    "longitude": "-90.1187772962954",
    "latitude": "29.95938005212094",
    "geocoded_column": {
      "latitude": "29.95938005212094",
      "longitude": "-90.1187772962954"
    }
  },
  {
    "service_request": "2022-943331",
    "request_type": "Property Maintenance",
    "request_reason": "Property Maintenance",
    "date_created": "2022-11-14T21:46:59.000",
    "date_modified": "2022-11-14T21:46:59.000",
    "request_status": "Pending",
    "responsible_agency": "Department of Code Enforcement",
    "final_address": "4716 Clio St",
    "address_councildis": "B",
    "status": "Pending",
    "rowid": "943331",
    "final_x": "3669573.16852",
    "final_y": "532701.238724",
    "longitude": "-90.10569110736881",
    "latitude": "29.959100437438412",
    "geocoded_column": {
      "latitude": "29.959100437438412",
      "longitude": "-90.10569110736881"
    }
  },
  {
    "service_request": "2022-943330",
    "request_type": "Property Maintenance",
    "request_reason": "Property Maintenance",
    "date_created": "2022-11-14T21:45:50.000",
    "date_modified": "2022-11-14T21:45:50.000",
    "request_status": "Pending",
    "responsible_agency": "Department of Code Enforcement",
    "final_address": "3214 Burdette St",
    "address_councildis": "B",
    "status": "Pending",
    "rowid": "943330",
    "final_x": "3667598.69044",
    "final_y": "533097.039748",
    "longitude": "-90.11191272208687",
    "latitude": "29.960246779620274",
    "geocoded_column": {
      "latitude": "29.960246779620274",
      "longitude": "-90.11191272208687"
    }
  },
  {
    "service_request": "2022-943329",
    "request_type": "Property Maintenance",
    "request_reason": "Property Maintenance",
    "date_created": "2022-11-14T21:44:23.000",
    "date_modified": "2022-11-14T21:44:23.000",
    "request_status": "Pending",
    "responsible_agency": "Department of Code Enforcement",
    "final_address": "3210 Burdette St",
    "address_councildis": "B",
    "status": "Pending",
    "rowid": "943329",
    "final_x": "3667656.30042",
    "final_y": "533012.729092",
    "longitude": "-90.11173363961083",
    "latitude": "29.96001326440163",
    "geocoded_column": {
      "latitude": "29.96001326440163",
      "longitude": "-90.11173363961083"
    }
  },
  {
    "service_request": "2022-943328",
    "request_type": "Property Maintenance",
    "request_reason": "Property Maintenance",
    "date_created": "2022-11-14T21:42:52.000",
    "date_modified": "2022-11-14T21:42:52.000",
    "request_status": "Pending",
    "responsible_agency": "Department of Code Enforcement",
    "final_address": "3208 Burdette St",
    "address_councildis": "B",
    "status": "Pending",
    "rowid": "943328",
    "final_x": "3667639.9586",
    "final_y": "532995.9337",
    "longitude": "-90.11178580911205",
    "latitude": "29.95996756165057",
    "geocoded_column": {
      "latitude": "29.95996756165057",
      "longitude": "-90.11178580911205"
    }
  },
  {
    "service_request": "2022-943327",
    "request_type": "Property Maintenance",
    "request_reason": "Property Maintenance",
    "date_created": "2022-11-14T21:40:34.000",
    "date_modified": "2022-11-14T21:40:34.000",
    "request_status": "Pending",
    "responsible_agency": "Department of Code Enforcement",
    "final_address": "3116 Broadway St",
    "address_councildis": "B",
    "status": "Pending",
    "rowid": "943327",
    "final_x": "3667986.31117",
    "final_y": "532300.228611",
    "longitude": "-90.1107155406446",
    "latitude": "29.95804444445073",
    "geocoded_column": {
      "latitude": "29.95804444445073",
      "longitude": "-90.1107155406446"
    }
  },
  {
    "service_request": "2022-943326",
    "request_type": "Property Maintenance",
    "request_reason": "Property Maintenance",
    "date_created": "2022-11-14T21:39:00.000",
    "date_modified": "2022-11-14T21:39:00.000",
    "request_status": "Pending",
    "responsible_agency": "Department of Code Enforcement",
    "final_address": "3430 Bloomingdale Ct",
    "address_councildis": "B",
    "status": "Pending",
    "rowid": "943326",
    "final_x": "3669089.85716",
    "final_y": "532859.012868",
    "longitude": "-90.10721195915669",
    "latitude": "29.95954849354073",
    "geocoded_column": {
      "latitude": "29.95954849354073",
      "longitude": "-90.10721195915669"
    }
  },
  {
    "service_request": "2022-943325",
    "request_type": "Property Maintenance",
    "request_reason": "Property Maintenance",
    "date_created": "2022-11-14T21:38:09.000",
    "date_modified": "2022-11-14T21:38:09.000",
    "request_status": "Pending",
    "responsible_agency": "Department of Code Enforcement",
    "final_address": "3424 Bloomingdale Ct",
    "address_councildis": "B",
    "status": "Pending",
    "rowid": "943325",
    "final_x": "3669081.75553",
    "final_y": "532831.403652",
    "longitude": "-90.10723847520227",
    "latitude": "29.959472815691573",
    "geocoded_column": {
      "latitude": "29.959472815691573",
      "longitude": "-90.10723847520227"
    }
  },
  {
    "service_request": "2022-943324",
    "request_type": "Property Maintenance",
    "request_reason": "Property Maintenance",
    "date_created": "2022-11-14T21:36:31.000",
    "date_modified": "2022-11-14T21:36:31.000",
    "request_status": "Pending",
    "responsible_agency": "Department of Code Enforcement",
    "final_address": "3420 Bloomingdale Ct",
    "address_councildis": "B",
    "status": "Pending",
    "rowid": "943324",
    "final_x": "3669070.17511",
    "final_y": "532794.836676",
    "longitude": "-90.10727627910407",
    "latitude": "29.959372609307362",
    "geocoded_column": {
      "latitude": "29.959372609307362",
      "longitude": "-90.10727627910407"
    }
  },
  {
    "service_request": "2022-943323",
    "request_type": "Property Maintenance",
    "request_reason": "Property Maintenance",
    "date_created": "2022-11-14T21:35:24.000",
    "date_modified": "2022-11-14T21:35:24.000",
    "request_status": "Pending",
    "responsible_agency": "Department of Code Enforcement",
    "final_address": "3416 Bloomingdale Ct",
    "address_councildis": "B",
    "status": "Pending",
    "rowid": "943323",
    "final_x": "3669055.57889",
    "final_y": "532768.37562",
    "longitude": "-90.10732326468114",
    "latitude": "29.959300279579598",
    "geocoded_column": {
      "latitude": "29.959300279579598",
      "longitude": "-90.10732326468114"
    }
  },
  {
    "service_request": "2022-943322",
    "request_type": "Property Maintenance",
    "request_reason": "Property Maintenance",
    "date_created": "2022-11-14T21:31:00.000",
    "date_modified": "2022-11-14T21:31:00.000",
    "request_status": "Pending",
    "responsible_agency": "Department of Code Enforcement",
    "final_address": "3425 Audubon Ct",
    "address_councildis": "B",
    "status": "Pending",
    "rowid": "943322",
    "final_x": "3668978.04154",
    "final_y": "532849.191044",
    "longitude": "-90.10756537982314",
    "latitude": "29.959524776261475",
    "geocoded_column": {
      "latitude": "29.959524776261475",
      "longitude": "-90.10756537982314"
    }
  },
  {
    "service_request": "2022-943321",
    "request_type": "Trash/Recycling",
    "request_reason": "Order Recycling Cart",
    "date_created": "2022-11-14T21:28:23.000",
    "date_modified": "2022-11-14T21:28:23.000",
    "request_status": "Pending",
    "responsible_agency": "Department of Sanitation",
    "final_address": "5239 Marcia Ave",
    "address_councildis": "A",
    "status": "Pending",
    "rowid": "943321",
    "final_x": "3664326.85741",
    "final_y": "543295.526798",
    "longitude": "-90.12190404828306",
    "latitude": "29.988384721736953",
    "geocoded_column": {
      "latitude": "29.988384721736953",
      "longitude": "-90.12190404828306"
    }
  },
  {
    "service_request": "2022-943320",
    "request_type": "Property Maintenance",
    "request_reason": "Property Maintenance",
    "date_created": "2022-11-14T21:21:48.000",
    "date_modified": "2022-11-14T21:21:48.000",
    "request_status": "Pending",
    "responsible_agency": "Department of Code Enforcement",
    "final_address": "3412 Bloomingdale Ct",
    "address_councildis": "B",
    "status": "Pending",
    "rowid": "943320",
    "final_x": "3669049.13153",
    "final_y": "532746.801988",
    "longitude": "-90.10734435285579",
    "latitude": "29.959241148899622",
    "geocoded_column": {
      "latitude": "29.959241148899622",
      "longitude": "-90.10734435285579"
    }
  },
  {
    "service_request": "2022-943319",
    "request_type": "Property Maintenance",
    "request_reason": "Property Maintenance",
    "date_created": "2022-11-14T21:20:24.000",
    "date_modified": "2022-11-14T21:20:24.000",
    "request_status": "Pending",
    "responsible_agency": "Department of Code Enforcement",
    "final_address": "3412 Bloomingdale Ct",
    "address_councildis": "B",
    "status": "Pending",
    "rowid": "943319",
    "final_x": "3669049.13153",
    "final_y": "532746.801988",
    "longitude": "-90.10734435285579",
    "latitude": "29.959241148899622",
    "geocoded_column": {
      "latitude": "29.959241148899622",
      "longitude": "-90.10734435285579"
    }
  },
  {
    "service_request": "2022-943318",
    "request_type": "Property Maintenance",
    "request_reason": "Property Maintenance",
    "date_created": "2022-11-14T21:19:02.000",
    "date_modified": "2022-11-14T21:19:02.000",
    "request_status": "Pending",
    "responsible_agency": "Department of Code Enforcement",
    "final_address": "3408 Bloomingdale Ct",
    "address_councildis": "B",
    "status": "Pending",
    "rowid": "943318",
    "final_x": "3669041.23521",
    "final_y": "532715.734788",
    "longitude": "-90.10737033722863",
    "latitude": "29.959155956666383",
    "geocoded_column": {
      "latitude": "29.959155956666383",
      "longitude": "-90.10737033722863"
    }
  },
  {
    "service_request": "2022-943317",
    "request_type": "Property Maintenance",
    "request_reason": "Property Maintenance",
    "date_created": "2022-11-14T21:16:29.000",
    "date_modified": "2022-11-14T21:16:29.000",
    "request_status": "Pending",
    "responsible_agency": "Department of Code Enforcement",
    "final_address": "3408 Bloomingdale Ct",
    "address_councildis": "B",
    "status": "Pending",
    "rowid": "943317",
    "final_x": "3669041.23521",
    "final_y": "532715.734788",
    "longitude": "-90.10737033722863",
    "latitude": "29.959155956666383",
    "geocoded_column": {
      "latitude": "29.959155956666383",
      "longitude": "-90.10737033722863"
    }
  },
  {
    "service_request": "2022-943316",
    "request_type": "Property Maintenance",
    "request_reason": "Property Maintenance",
    "date_created": "2022-11-14T21:15:11.000",
    "date_modified": "2022-11-14T21:15:11.000",
    "request_status": "Pending",
    "responsible_agency": "Department of Code Enforcement",
    "final_address": "3255 Bloomingdale Ct",
    "address_councildis": "B",
    "status": "Pending",
    "rowid": "943316",
    "final_x": "3668926.22746",
    "final_y": "532398.367811",
    "longitude": "-90.10774422390162",
    "latitude": "29.95828668515033",
    "geocoded_column": {
      "latitude": "29.95828668515033",
      "longitude": "-90.10774422390162"
    }
  },
  {
    "service_request": "2022-943315",
    "request_type": "Property Maintenance",
    "request_reason": "Property Maintenance",
    "date_created": "2022-11-14T21:14:06.000",
    "date_modified": "2022-11-14T21:14:06.000",
    "request_status": "Pending",
    "responsible_agency": "Department of Code Enforcement",
    "final_address": "3251 Bloomingdale Ct",
    "address_councildis": "B",
    "status": "Pending",
    "rowid": "943315",
    "final_x": "3668918.68935",
    "final_y": "532369.559043",
    "longitude": "-90.10776900027514",
    "latitude": "29.95820769223521",
    "geocoded_column": {
      "latitude": "29.95820769223521",
      "longitude": "-90.10776900027514"
    }
  },
  {
    "service_request": "2022-943314",
    "request_type": "Property Maintenance",
    "request_reason": "Property Maintenance",
    "date_created": "2022-11-14T21:12:49.000",
    "date_modified": "2022-11-14T21:12:49.000",
    "request_status": "Pending",
    "responsible_agency": "Department of Code Enforcement",
    "final_address": "3525 Audubon Ct",
    "address_councildis": "B",
    "status": "Pending",
    "rowid": "943314",
    "final_x": "3669146.75092",
    "final_y": "533240.06266",
    "longitude": "-90.10701942356681",
    "latitude": "29.960594580353472",
    "geocoded_column": {
      "latitude": "29.960594580353472",
      "longitude": "-90.10701942356681"
    }
  },
  {
    "service_request": "2022-943313",
    "request_type": "Property Maintenance",
    "request_reason": "Property Maintenance",
    "date_created": "2022-11-14T21:10:38.000",
    "date_modified": "2022-11-14T21:10:38.000",
    "request_status": "Pending",
    "responsible_agency": "Department of Code Enforcement",
    "final_address": "3335 Audubon Ct",
    "address_councildis": "B",
    "status": "Pending",
    "rowid": "943313",
    "final_x": "3668878.28372",
    "final_y": "532625.536644",
    "longitude": "-90.10788794593125",
    "latitude": "29.958912734458693",
    "geocoded_column": {
      "latitude": "29.958912734458693",
      "longitude": "-90.10788794593125"
    }
  },
  {
    "service_request": "2022-943312",
    "request_type": "Property Maintenance",
    "request_reason": "Property Maintenance",
    "date_created": "2022-11-14T21:09:23.000",
    "date_modified": "2022-11-14T21:09:23.000",
    "request_status": "Pending",
    "responsible_agency": "Department of Code Enforcement",
    "final_address": "3305 Audubon Ct",
    "address_councildis": "B",
    "status": "Pending",
    "rowid": "943312",
    "final_x": "3668791.39124",
    "final_y": "532438.934724",
    "longitude": "-90.10816863168708",
    "latitude": "29.95840219567973",
    "geocoded_column": {
      "latitude": "29.95840219567973",
      "longitude": "-90.10816863168708"
    }
  },
  {
    "service_request": "2022-943310",
    "request_type": "Property Maintenance",
    "request_reason": "Property Maintenance",
    "date_created": "2022-11-14T21:07:56.000",
    "date_modified": "2022-11-14T21:07:56.000",
    "request_status": "Pending",
    "responsible_agency": "Department of Code Enforcement",
    "final_address": "3301 Audubon Ct",
    "address_councildis": "B",
    "status": "Pending",
    "rowid": "943310",
    "final_x": "3668777.48212",
    "final_y": "532409.598787",
    "longitude": "-90.10821354353968",
    "latitude": "29.958321940448542",
    "geocoded_column": {
      "latitude": "29.958321940448542",
      "longitude": "-90.10821354353968"
    }
  },
  {
    "service_request": "2022-943309",
    "request_type": "Property Maintenance",
    "request_reason": "Property Maintenance",
    "date_created": "2022-11-14T21:04:24.000",
    "date_modified": "2022-11-14T21:04:24.000",
    "request_status": "Pending",
    "responsible_agency": "Department of Code Enforcement",
    "final_address": "2922 Audubon St",
    "address_councildis": "B",
    "status": "Pending",
    "rowid": "943309",
    "final_x": "3667795.79617",
    "final_y": "531552.858819",
    "longitude": "-90.11134230410654",
    "latitude": "29.955995011113593",
    "geocoded_column": {
      "latitude": "29.955995011113593",
      "longitude": "-90.11134230410654"
    }
  },
  {
    "service_request": "2022-943308",
    "request_type": "Trash/Recycling",
    "request_reason": "MIssed Recycling Pick-Up",
    "date_created": "2022-11-14T20:59:26.000",
    "date_modified": "2022-11-14T20:59:26.000",
    "request_status": "Pending",
    "responsible_agency": "Department of Sanitation",
    "final_address": "2 Glacier Ct",
    "address_councildis": "C",
    "status": "Assigned to Contractor",
    "contractor": "Richards Disposal",
    "rowid": "943308",
    "final_x": "3700316.3089",
    "final_y": "516250.366836",
    "longitude": "-90.0092127549692",
    "latitude": "29.91292477136277",
    "geocoded_column": {
      "latitude": "29.91292477136277",
      "longitude": "-90.0092127549692"
    }
  },
  {
    "service_request": "2022-943307",
    "request_type": "Trash/Recycling",
    "request_reason": "Order Recycling Cart",
    "date_created": "2022-11-14T20:54:08.000",
    "date_modified": "2022-11-14T20:54:08.000",
    "request_status": "Pending",
    "responsible_agency": "Department of Sanitation",
    "final_address": "7222 Spring Lake Dr",
    "address_councildis": "E",
    "status": "Pending",
    "rowid": "943307",
    "final_x": "3700362.2906",
    "final_y": "558871.307676",
    "longitude": "-90.00751108318796",
    "latitude": "30.030115469930386",
    "geocoded_column": {
      "latitude": "30.030115469930386",
      "longitude": "-90.00751108318796"
    }
  },
  {
    "service_request": "2022-943306",
    "request_type": "Trash/Recycling",
    "request_reason": "Order Recycling Cart",
    "date_created": "2022-11-14T20:53:31.000",
    "date_modified": "2022-11-14T20:53:31.000",
    "request_status": "Pending",
    "responsible_agency": "Department of Sanitation",
    "final_address": "4202 Dauphine St",
    "address_councildis": "C",
    "status": "Pending",
    "rowid": "943306",
    "final_x": "3692138.96131",
    "final_y": "533969.241861",
    "longitude": "-90.03438877435154",
    "latitude": "29.961902930010915",
    "geocoded_column": {
      "latitude": "29.961902930010915",
      "longitude": "-90.03438877435154"
    }
  },
  {
    "service_request": "2022-943305",
    "request_type": "Trash/Recycling",
    "request_reason": "Missed Trash Pick-Up",
    "date_created": "2022-11-14T20:51:57.000",
    "date_modified": "2022-11-14T20:51:58.000",
    "request_status": "Pending",
    "responsible_agency": "Department of Sanitation",
    "final_address": "2541 St Peter St",
    "address_councildis": "D",
    "status": "Assigned to Contractor",
    "contractor": "Richards Disposal",
    "rowid": "943305",
    "final_x": "3677215.54638",
    "final_y": "536489.044359",
    "longitude": "-90.08142766268782",
    "latitude": "29.969288265028716",
    "geocoded_column": {
      "latitude": "29.969288265028716",
      "longitude": "-90.08142766268782"
    }
  },
  {
    "service_request": "2022-943304",
    "request_type": "Trash/Recycling",
    "request_reason": "Request a Large Item Pick Up",
    "date_created": "2022-11-14T20:33:19.000",
    "date_modified": "2022-11-14T20:33:20.000",
    "request_status": "Pending",
    "responsible_agency": "Department of Sanitation",
    "final_address": "3807 Peach Tree Ct",
    "address_councildis": "C",
    "status": "Assigned to Contractor",
    "contractor": "Richards Disposal",
    "rowid": "943304",
    "final_x": "3703825.85079",
    "final_y": "512603.100081",
    "longitude": "-89.99826982423347",
    "latitude": "29.902784049509137",
    "geocoded_column": {
      "latitude": "29.902784049509137",
      "longitude": "-89.99826982423347"
    }
  },
  {
    "service_request": "2022-943303",
    "request_type": "Trash/Recycling",
    "request_reason": "Missed Trash Pick-Up",
    "date_created": "2022-11-14T20:31:42.000",
    "date_modified": "2022-11-14T20:32:20.000",
    "request_status": "Pending",
    "responsible_agency": "Department of Sanitation",
    "final_address": "2904 St Ann St",
    "address_councildis": "A",
    "status": "Assigned to Contractor",
    "contractor": "Richards Disposal",
    "rowid": "943303",
    "final_x": "3676129.78523",
    "final_y": "537777.131784",
    "longitude": "-90.08481225839952",
    "latitude": "29.972862640165953",
    "geocoded_column": {
      "latitude": "29.972862640165953",
      "longitude": "-90.08481225839952"
    }
  },
  {
    "service_request": "2022-943302",
    "request_type": "Trash/Recycling",
    "request_reason": "Order Recycling Cart",
    "date_created": "2022-11-14T20:30:48.000",
    "date_modified": "2022-11-14T20:30:48.000",
    "request_status": "Pending",
    "responsible_agency": "Department of Sanitation",
    "final_address": "3716 Camp St",
    "address_councildis": "B",
    "status": "Pending",
    "rowid": "943302",
    "final_x": "3673442.45268",
    "final_y": "519376.101239",
    "longitude": "-90.09392797246294",
    "latitude": "29.922346109973898",
    "geocoded_column": {
      "latitude": "29.922346109973898",
      "longitude": "-90.09392797246294"
    }
  },
  {
    "service_request": "2022-943301",
    "request_type": "Abandoned Vehicles",
    "request_reason": "Abandoned/Junk Vehicles",
    "date_created": "2022-11-14T20:25:05.000",
    "date_modified": "2022-11-14T20:25:05.000",
    "request_status": "Pending",
    "responsible_agency": "Department of Public Works",
    "final_address": "28 Curtis Dr",
    "address_councildis": "E",
    "status": "Pending",
    "rowid": "943301",
    "final_x": "3698182.54186",
    "final_y": "561103.489886",
    "longitude": "-90.01431785718054",
    "latitude": "30.036322279081894",
    "geocoded_column": {
      "latitude": "30.036322279081894",
      "longitude": "-90.01431785718054"
    }
  },
  {
    "service_request": "2022-943300",
    "request_type": "Trash/Recycling",
    "request_reason": "Request a Large Item Pick Up",
    "date_created": "2022-11-14T20:22:34.000",
    "date_modified": "2022-11-14T20:22:34.000",
    "request_status": "Pending",
    "responsible_agency": "Department of Sanitation",
    "final_address": "7135 Benson Ct",
    "address_councildis": "E",
    "status": "Assigned to Contractor",
    "contractor": "Waste Pro",
    "rowid": "943300",
    "final_x": "3705402.85841",
    "final_y": "560507.436446",
    "longitude": "-89.99152246180222",
    "latitude": "30.03445285338606",
    "geocoded_column": {
      "latitude": "30.03445285338606",
      "longitude": "-89.99152246180222"
    }
  },
  {
    "service_request": "2022-943299",
    "request_type": "Trash/Recycling",
    "request_reason": "Order Recycling Cart",
    "date_created": "2022-11-14T20:21:43.000",
    "date_modified": "2022-11-14T20:21:43.000",
    "request_status": "Pending",
    "responsible_agency": "Department of Sanitation",
    "final_address": "7135 Benson Ct",
    "address_councildis": "E",
    "status": "Pending",
    "rowid": "943299",
    "final_x": "3705402.85841",
    "final_y": "560507.436446",
    "longitude": "-89.99152246180222",
    "latitude": "30.03445285338606",
    "geocoded_column": {
      "latitude": "30.03445285338606",
      "longitude": "-89.99152246180222"
    }
  },
  {
    "service_request": "2022-943298",
    "request_type": "Traffic Signals/Signs/Striping/Streetlights",
    "request_reason": "Traffic Signal Malfunctioning/Damaged",
    "date_created": "2022-11-14T20:21:03.000",
    "date_modified": "2022-11-14T20:35:14.000",
    "request_status": "Pending",
    "responsible_agency": "Department of Public Works",
    "final_address": "MARTIN LUTHER KING JR BLVD & ST CHARLES AVE & MELPOMENE AVE",
    "address_councildis": "B",
    "status": "Pending",
    "rowid": "943298",
    "final_x": "3679175.06",
    "final_y": "525530.77",
    "longitude": "-90.07561922787677",
    "latitude": "29.93909768696377",
    "geocoded_column": {
      "latitude": "29.93909768696377",
      "longitude": "-90.07561922787677"
    }
  },
  {
    "service_request": "2022-943297",
    "request_type": "Traffic Signals/Signs/Striping/Streetlights",
    "request_reason": "Street Light Outage/Malfunction",
    "date_created": "2022-11-14T20:11:42.000",
    "date_modified": "2022-11-14T20:11:42.000",
    "request_status": "Pending",
    "responsible_agency": "Department of Public Works",
    "final_address": "19 Swan St",
    "address_councildis": "D",
    "status": "Pending",
    "contractor": "Legacy Professional Services",
    "rowid": "943297",
    "final_x": "3673121.49659",
    "final_y": "557598.072027",
    "longitude": "-90.09363576254749",
    "latitude": "30.027453071376858",
    "geocoded_column": {
      "latitude": "30.027453071376858",
      "longitude": "-90.09363576254749"
    }
  },
  {
    "service_request": "2022-943296",
    "request_type": "Trash/Recycling",
    "request_reason": "Order Recycling Cart",
    "date_created": "2022-11-14T20:07:48.000",
    "date_modified": "2022-11-14T20:07:48.000",
    "request_status": "Pending",
    "responsible_agency": "Department of Sanitation",
    "final_address": "4650 San Marco Rd",
    "address_councildis": "E",
    "status": "Pending",
    "rowid": "943296",
    "final_x": "3763258.65821",
    "final_y": "572854.522153",
    "longitude": "-89.80817575800758",
    "latitude": "30.06641193136032",
    "geocoded_column": {
      "latitude": "30.06641193136032",
      "longitude": "-89.80817575800758"
    }
  },
  {
    "service_request": "2022-943295",
    "request_type": "Trash/Recycling",
    "request_reason": "Replace Trash Cart",
    "date_created": "2022-11-14T19:56:56.000",
    "date_modified": "2022-11-14T19:56:57.000",
    "request_status": "Pending",
    "responsible_agency": "Department of Sanitation",
    "final_address": "1720 Washington Ave Unit 4",
    "address_councildis": "B",
    "status": "Assigned to Contractor",
    "contractor": "Richards Disposal",
    "rowid": "943295",
    "final_x": "3675549.38843",
    "final_y": "522986.934331",
    "longitude": "-90.08715326974408",
    "latitude": "29.93221189960906",
    "geocoded_column": {
      "latitude": "29.93221189960906",
      "longitude": "-90.08715326974408"
    }
  },
  {
    "service_request": "2022-943294",
    "request_type": "Trash/Recycling",
    "request_reason": "Replace Trash Cart",
    "date_created": "2022-11-14T19:50:42.000",
    "date_modified": "2022-11-14T19:50:43.000",
    "request_status": "Pending",
    "responsible_agency": "Department of Sanitation",
    "final_address": "357 Broadway St",
    "address_councildis": "A",
    "status": "Assigned to Contractor",
    "contractor": "Richards Disposal",
    "rowid": "943294",
    "final_x": "3661847.08307",
    "final_y": "522945.367163",
    "longitude": "-90.13041172418943",
    "latitude": "29.932500253064596",
    "geocoded_column": {
      "latitude": "29.932500253064596",
      "longitude": "-90.13041172418943"
    }
  },
  {
    "service_request": "2022-943293",
    "request_type": "Trash/Recycling",
    "request_reason": "Order Recycling Cart",
    "date_created": "2022-11-14T19:41:15.000",
    "date_modified": "2022-11-14T19:41:15.000",
    "request_status": "Pending",
    "responsible_agency": "Department of Sanitation",
    "final_address": "11231 S Parkwood Ct",
    "address_councildis": "E",
    "status": "Pending",
    "rowid": "943293",
    "final_x": "3716706.39135",
    "final_y": "559098.571804",
    "longitude": "-89.9558556596316",
    "latitude": "30.03021023666167",
    "geocoded_column": {
      "latitude": "30.03021023666167",
      "longitude": "-89.9558556596316"
    }
  },
  {
    "service_request": "2022-943292",
    "request_type": "Trash/Recycling",
    "request_reason": "Replace Trash Cart",
    "date_created": "2022-11-14T19:26:22.000",
    "date_modified": "2022-11-14T19:26:23.000",
    "request_status": "Pending",
    "responsible_agency": "Department of Sanitation",
    "final_address": "6012 Mandeville St",
    "address_councildis": "D",
    "status": "Assigned to Contractor",
    "contractor": "IV Waste",
    "rowid": "943292",
    "final_x": "3684219.54095",
    "final_y": "555124.463001",
    "longitude": "-90.05865385388755",
    "latitude": "30.020316739607043",
    "geocoded_column": {
      "latitude": "30.020316739607043",
      "longitude": "-90.05865385388755"
    }
  },
  {
    "service_request": "2022-943291",
    "request_type": "Traffic Signals/Signs/Striping/Streetlights",
    "request_reason": "Street Light Outage/Malfunction",
    "date_created": "2022-11-14T19:22:26.000",
    "date_modified": "2022-11-14T19:22:26.000",
    "request_status": "Pending",
    "responsible_agency": "Department of Public Works",
    "final_address": "611 OKeefe Ave",
    "address_councildis": "B",
    "status": "Pending",
    "contractor": "Legacy Professional Services",
    "rowid": "943291",
    "final_x": "3679355.91375",
    "final_y": "529017.045504",
    "longitude": "-90.07492737207814",
    "latitude": "29.948678324365698",
    "geocoded_column": {
      "latitude": "29.948678324365698",
      "longitude": "-90.07492737207814"
    }
  },
  {
    "service_request": "2022-943290",
    "request_type": "Trash/Recycling",
    "request_reason": "Missed Trash Pick-Up",
    "date_created": "2022-11-14T19:17:41.000",
    "date_modified": "2022-11-14T19:17:42.000",
    "request_status": "Pending",
    "responsible_agency": "Department of Sanitation",
    "final_address": "2908 St Ann St",
    "address_councildis": "A",
    "status": "Assigned to Contractor",
    "contractor": "Richards Disposal",
    "rowid": "943290",
    "final_x": "3676105.63976",
    "final_y": "537798.46516",
    "longitude": "-90.08488778036084",
    "latitude": "29.972922023057148",
    "geocoded_column": {
      "latitude": "29.972922023057148",
      "longitude": "-90.08488778036084"
    }
  },
  {
    "service_request": "2022-943289",
    "request_type": "Property Maintenance",
    "request_reason": "Property Maintenance",
    "date_created": "2022-11-14T19:15:29.000",
    "date_modified": "2022-11-14T19:15:29.000",
    "request_status": "Pending",
    "responsible_agency": "Department of Code Enforcement",
    "final_address": "937 Fats Domino Ave",
    "address_councildis": "E",
    "status": "Pending",
    "rowid": "943289",
    "final_x": "3697942.42627",
    "final_y": "533287.40378",
    "longitude": "-90.01608720362415",
    "latitude": "29.959845944005593",
    "geocoded_column": {
      "latitude": "29.959845944005593",
      "longitude": "-90.01608720362415"
    }
  },
  {
    "service_request": "2022-943288",
    "request_type": "Trash/Recycling",
    "request_reason": "MIssed Recycling Pick-Up",
    "date_created": "2022-11-14T19:13:24.000",
    "date_modified": "2022-11-14T19:13:25.000",
    "request_status": "Pending",
    "responsible_agency": "Department of Sanitation",
    "final_address": "3620 N Homestead Dr",
    "address_councildis": "C",
    "status": "Assigned to Contractor",
    "contractor": "Richards Disposal",
    "rowid": "943288",
    "final_x": "3697156.19504",
    "final_y": "525370.605693",
    "longitude": "-90.01885671993838",
    "latitude": "29.93810234911292",
    "geocoded_column": {
      "latitude": "29.93810234911292",
      "longitude": "-90.01885671993838"
    }
  },
  {
    "service_request": "2022-943287",
    "request_type": "Abandoned Vehicles",
    "request_reason": "Abandoned/Junk Vehicles",
    "date_created": "2022-11-14T19:04:28.000",
    "date_modified": "2022-11-14T19:04:28.000",
    "request_status": "Pending",
    "responsible_agency": "Department of Public Works",
    "final_address": "1876 N Roman St",
    "address_councildis": "D",
    "status": "Pending",
    "rowid": "943287",
    "final_x": "3683560.73135",
    "final_y": "538748.622345",
    "longitude": "-90.06130989311943",
    "latitude": "29.975309173283534",
    "geocoded_column": {
      "latitude": "29.975309173283534",
      "longitude": "-90.06130989311943"
    }
  },
  {
    "service_request": "2022-943286",
    "request_type": "Trash/Recycling",
    "request_reason": "MIssed Recycling Pick-Up",
    "date_created": "2022-11-14T19:02:51.000",
    "date_modified": "2022-11-14T19:02:52.000",
    "request_status": "Pending",
    "responsible_agency": "Department of Sanitation",
    "final_address": "3131 Dickens Dr",
    "address_councildis": "C",
    "status": "Assigned to Contractor",
    "contractor": "Richards Disposal",
    "rowid": "943286",
    "final_x": "3708272.32113",
    "final_y": "518685.824119",
    "longitude": "-89.98401095336939",
    "latitude": "29.919366233392076",
    "geocoded_column": {
      "latitude": "29.919366233392076",
      "longitude": "-89.98401095336939"
    }
  },
  {
    "service_request": "2022-943285",
    "request_type": "Trash/Recycling",
    "request_reason": "Order Trash Cart",
    "date_created": "2022-11-14T18:50:45.000",
    "date_modified": "2022-11-14T18:50:46.000",
    "request_status": "Pending",
    "responsible_agency": "Department of Sanitation",
    "final_address": "7855 Scottwood Dr",
    "address_councildis": "E",
    "status": "Assigned to Contractor",
    "contractor": "Waste Pro",
    "rowid": "943285",
    "final_x": "3716464.78015",
    "final_y": "571917.70052",
    "longitude": "-89.95613226789328",
    "latitude": "30.06546558568152",
    "geocoded_column": {
      "latitude": "30.06546558568152",
      "longitude": "-89.95613226789328"
    }
  },
  {
    "service_request": "2022-943284",
    "request_type": "Traffic Signals/Signs/Striping/Streetlights",
    "request_reason": "Street Light Outage/Malfunction",
    "date_created": "2022-11-14T18:43:57.000",
    "date_modified": "2022-11-14T18:43:57.000",
    "request_status": "Pending",
    "responsible_agency": "Department of Public Works",
    "final_address": "3106 Fortin St",
    "address_councildis": "A",
    "status": "Pending",
    "contractor": "Legacy Professional Services",
    "rowid": "943284",
    "final_x": "3676530.73435",
    "final_y": "540918.747211",
    "longitude": "-90.08343775577065",
    "latitude": "29.981488984830104",
    "geocoded_column": {
      "latitude": "29.981488984830104",
      "longitude": "-90.08343775577065"
    }
  },
  {
    "service_request": "2022-943283",
    "request_type": "Abandoned Vehicles",
    "request_reason": "Abandoned/Junk Vehicles",
    "date_created": "2022-11-14T18:41:05.000",
    "date_modified": "2022-11-14T18:41:05.000",
    "request_status": "Pending",
    "responsible_agency": "Department of Public Works",
    "final_address": "306 S Clark St",
    "address_councildis": "B",
    "status": "Pending",
    "rowid": "943283",
    "final_x": "3672364.3931",
    "final_y": "536276.611527",
    "longitude": "-90.09675524680925",
    "latitude": "29.968848992027976",
    "geocoded_column": {
      "latitude": "29.968848992027976",
      "longitude": "-90.09675524680925"
    }
  },
  {
    "service_request": "2022-943282",
    "request_type": "EMS",
    "request_reason": "EMS Lost & Found",
    "date_created": "2022-11-14T18:40:02.000",
    "date_modified": "2022-11-14T18:40:03.000",
    "request_status": "Pending",
    "responsible_agency": "Emergency Medical Services",
    "status": "Pending",
    "rowid": "943282",
    "longitude": "0.0",
    "latitude": "0.0",
    "geocoded_column": {
      "latitude": "0.0",
      "longitude": "0.0"
    }
  },
  {
    "service_request": "2022-943281",
    "request_type": "Abandoned Vehicles",
    "request_reason": "Abandoned/Junk Vehicles",
    "date_created": "2022-11-14T18:32:43.000",
    "date_modified": "2022-11-14T18:32:43.000",
    "request_status": "Pending",
    "responsible_agency": "Department of Public Works",
    "final_address": "306 S Clark St",
    "address_councildis": "B",
    "status": "Pending",
    "rowid": "943281",
    "final_x": "3672364.3931",
    "final_y": "536276.611527",
    "longitude": "-90.09675524680925",
    "latitude": "29.968848992027976",
    "geocoded_column": {
      "latitude": "29.968848992027976",
      "longitude": "-90.09675524680925"
    }
  },
  {
    "service_request": "2022-943280",
    "request_type": "Traffic Signals/Signs/Striping/Streetlights",
    "request_reason": "Street Light Outage/Malfunction",
    "date_created": "2022-11-14T18:22:57.000",
    "date_modified": "2022-11-14T18:22:58.000",
    "request_status": "Pending",
    "responsible_agency": "Department of Public Works",
    "final_address": "10111 Deerfield Dr",
    "address_councildis": "E",
    "status": "Pending",
    "contractor": "Legacy Professional Services",
    "rowid": "943280",
    "final_x": "3709614.07736",
    "final_y": "563347.921056",
    "longitude": "-89.97810838119193",
    "latitude": "30.042126786630213",
    "geocoded_column": {
      "latitude": "30.042126786630213",
      "longitude": "-89.97810838119193"
    }
  },
  {
    "service_request": "2022-943279",
    "request_type": "Traffic Signals/Signs/Striping/Streetlights",
    "request_reason": "Street Light Outage/Malfunction",
    "date_created": "2022-11-14T18:16:19.000",
    "date_modified": "2022-11-14T18:16:20.000",
    "request_status": "Pending",
    "responsible_agency": "Department of Public Works",
    "final_address": "5501 Pasteur Blvd",
    "address_councildis": "D",
    "status": "Pending",
    "contractor": "Legacy Professional Services",
    "rowid": "943279",
    "final_x": "3683009.68751",
    "final_y": "553036.140503",
    "longitude": "-90.06254979356417",
    "latitude": "30.014611568059603",
    "geocoded_column": {
      "latitude": "30.014611568059603",
      "longitude": "-90.06254979356417"
    }
  },
  {
    "service_request": "2022-943278",
    "request_type": "Trash/Recycling",
    "request_reason": "Replace Trash Cart",
    "date_created": "2022-11-14T18:13:17.000",
    "date_modified": "2022-11-14T18:13:18.000",
    "request_status": "Pending",
    "responsible_agency": "Department of Sanitation",
    "final_address": "1210 Pauline St",
    "address_councildis": "D",
    "status": "Assigned to Contractor",
    "contractor": "IV Waste",
    "rowid": "943278",
    "final_x": "3691296.495",
    "final_y": "535911.579655",
    "longitude": "-90.03697974775528",
    "latitude": "29.967269910643818",
    "geocoded_column": {
      "latitude": "29.967269910643818",
      "longitude": "-90.03697974775528"
    }
  },
  {
    "service_request": "2022-943277",
    "request_type": "Trash/Recycling",
    "request_reason": "Order Recycling Cart",
    "date_created": "2022-11-14T18:12:00.000",
    "date_modified": "2022-11-14T18:12:00.000",
    "request_status": "Pending",
    "responsible_agency": "Department of Sanitation",
    "final_address": "1210 Pauline St",
    "address_councildis": "D",
    "status": "Pending",
    "rowid": "943277",
    "final_x": "3691296.495",
    "final_y": "535911.579655",
    "longitude": "-90.03697974775528",
    "latitude": "29.967269910643818",
    "geocoded_column": {
      "latitude": "29.967269910643818",
      "longitude": "-90.03697974775528"
    }
  },
  {
    "service_request": "2022-943276",
    "request_type": "Trash/Recycling",
    "request_reason": "Request a Large Item Pick Up",
    "date_created": "2022-11-14T18:11:08.000",
    "date_modified": "2022-11-14T18:11:08.000",
    "request_status": "Pending",
    "responsible_agency": "Department of Sanitation",
    "final_address": "1833 Shirley Dr",
    "address_councildis": "C",
    "status": "Assigned to Contractor",
    "contractor": "Richards Disposal",
    "rowid": "943276",
    "final_x": "3692867.13379",
    "final_y": "522720.500282",
    "longitude": "-90.03249259784926",
    "latitude": "29.93095005737129",
    "geocoded_column": {
      "latitude": "29.93095005737129",
      "longitude": "-90.03249259784926"
    }
  },
  {
    "service_request": "2022-943275",
    "request_type": "Trash/Recycling",
    "request_reason": "Request a Large Item Pick Up",
    "date_created": "2022-11-14T18:09:45.000",
    "date_modified": "2022-11-14T18:09:46.000",
    "request_status": "Pending",
    "responsible_agency": "Department of Sanitation",
    "final_address": "2324 N Robertson St",
    "address_councildis": "C",
    "status": "Assigned to Contractor",
    "contractor": "IV Waste",
    "rowid": "943275",
    "final_x": "3685855.4102",
    "final_y": "537817.851657",
    "longitude": "-90.0540955179075",
    "latitude": "29.97267963611057",
    "geocoded_column": {
      "latitude": "29.97267963611057",
      "longitude": "-90.0540955179075"
    }
  },
  {
    "service_request": "2022-943274",
    "request_type": "Traffic Signals/Signs/Striping/Streetlights",
    "request_reason": "Street Light Outage/Malfunction",
    "date_created": "2022-11-14T18:04:57.000",
    "date_modified": "2022-11-14T18:04:58.000",
    "request_status": "Pending",
    "responsible_agency": "Department of Public Works",
    "final_address": "OLD ROMAN ST & AUBRY ST",
    "address_councildis": "D",
    "status": "Pending",
    "contractor": "Legacy Professional Services",
    "rowid": "943274",
    "final_x": "3682275.4",
    "final_y": "539096.48",
    "longitude": "-90.06535715154551",
    "latitude": "29.976304832420023",
    "geocoded_column": {
      "latitude": "29.976304832420023",
      "longitude": "-90.06535715154551"
    }
  },
  {
    "service_request": "2022-943273",
    "request_type": "Abandoned Vehicles",
    "request_reason": "Abandoned/Junk Vehicles",
    "date_created": "2022-11-14T18:03:23.000",
    "date_modified": "2022-11-14T18:06:18.000",
    "request_status": "Pending",
    "responsible_agency": "Department of Public Works",
    "final_address": "4711 Camp St",
    "address_councildis": "B",
    "status": "Pending",
    "rowid": "943273",
    "final_x": "3669794.47937",
    "final_y": "519064.299831",
    "longitude": "-90.10545371290152",
    "latitude": "29.92159674915071",
    "geocoded_column": {
      "latitude": "29.92159674915071",
      "longitude": "-90.10545371290152"
    }
  },
  {
    "service_request": "2022-943272",
    "request_type": "Trash/Recycling",
    "request_reason": "Replace Trash Cart",
    "date_created": "2022-11-14T17:59:29.000",
    "date_modified": "2022-11-14T17:59:29.000",
    "request_status": "Pending",
    "responsible_agency": "Department of Sanitation",
    "final_address": "833 Conti St",
    "address_councildis": "C",
    "status": "Assigned to Contractor",
    "contractor": "Empire Services",
    "rowid": "943272",
    "final_x": "3681398.34639",
    "final_y": "532017.964867",
    "longitude": "-90.06837394826768",
    "latitude": "29.956868003298744",
    "geocoded_column": {
      "latitude": "29.956868003298744",
      "longitude": "-90.06837394826768"
    }
  },
  {
    "service_request": "2022-943271",
    "request_type": "Trash/Recycling",
    "request_reason": "Request a Large Item Pick Up",
    "date_created": "2022-11-14T17:58:23.000",
    "date_modified": "2022-11-14T17:58:24.000",
    "request_status": "Pending",
    "responsible_agency": "Department of Sanitation",
    "final_address": "1525 Annunciation St",
    "address_councildis": "B",
    "status": "Assigned to Contractor",
    "contractor": "Richards Disposal",
    "rowid": "943271",
    "final_x": "3680773.88629",
    "final_y": "523473.830715",
    "longitude": "-90.07064310443423",
    "latitude": "29.933393433769634",
    "geocoded_column": {
      "latitude": "29.933393433769634",
      "longitude": "-90.07064310443423"
    }
  },
  {
    "service_request": "2022-943270",
    "request_type": "Trash/Recycling",
    "request_reason": "Order Recycling Cart",
    "date_created": "2022-11-14T17:54:51.000",
    "date_modified": "2022-11-14T17:54:51.000",
    "request_status": "Pending",
    "responsible_agency": "Department of Sanitation",
    "final_address": "2770 Jasmine St",
    "address_councildis": "D",
    "status": "Pending",
    "rowid": "943270",
    "final_x": "3688274.28252",
    "final_y": "548145.860818",
    "longitude": "-90.0460898669565",
    "latitude": "30.00100349630191",
    "geocoded_column": {
      "latitude": "30.00100349630191",
      "longitude": "-90.0460898669565"
    }
  },
  {
    "service_request": "2022-943269",
    "request_type": "Trash/Recycling",
    "request_reason": "Order Recycling Cart",
    "date_created": "2022-11-14T17:51:01.000",
    "date_modified": "2022-11-14T17:51:01.000",
    "request_status": "Pending",
    "responsible_agency": "Department of Sanitation",
    "final_address": "13201 Dwyer Blvd",
    "address_councildis": "E",
    "status": "Pending",
    "rowid": "943269",
    "final_x": "3724308.96147",
    "final_y": "561511.896223",
    "longitude": "-89.9317385590107",
    "latitude": "30.03659239920915",
    "geocoded_column": {
      "latitude": "30.03659239920915",
      "longitude": "-89.9317385590107"
    }
  },
  {
    "service_request": "2022-943268",
    "request_type": "Trash/Recycling",
    "request_reason": "Repair Trash Cart",
    "date_created": "2022-11-14T17:50:27.000",
    "date_modified": "2022-11-14T17:50:27.000",
    "request_status": "Pending",
    "responsible_agency": "Department of Sanitation",
    "final_address": "5849 E Louis Prima Dr",
    "address_councildis": "E",
    "status": "Assigned to Contractor",
    "contractor": "Waste Pro",
    "rowid": "943268",
    "final_x": "3715653.83647",
    "final_y": "563066.78608",
    "longitude": "-89.95903130355391",
    "latitude": "30.041155979095276",
    "geocoded_column": {
      "latitude": "30.041155979095276",
      "longitude": "-89.95903130355391"
    }
  },
  {
    "service_request": "2022-943267",
    "request_type": "Traffic Signals/Signs/Striping/Streetlights",
    "request_reason": "Street Light Outage/Malfunction",
    "date_created": "2022-11-14T17:45:25.000",
    "date_modified": "2022-11-14T17:45:26.000",
    "request_status": "Pending",
    "responsible_agency": "Department of Public Works",
    "final_address": "109 Lark St",
    "address_councildis": "D",
    "status": "Pending",
    "contractor": "Legacy Professional Services",
    "rowid": "943267",
    "final_x": "3674864.29409",
    "final_y": "556196.748954",
    "longitude": "-90.08817677621316",
    "latitude": "30.023547979881883",
    "geocoded_column": {
      "latitude": "30.023547979881883",
      "longitude": "-90.08817677621316"
    }
  },
  {
    "service_request": "2022-943266",
    "request_type": "Trash/Recycling",
    "request_reason": "Order Recycling Cart",
    "date_created": "2022-11-14T17:43:07.000",
    "date_modified": "2022-11-14T17:43:07.000",
    "request_status": "Pending",
    "responsible_agency": "Department of Sanitation",
    "final_address": "7910 Windward Ct",
    "address_councildis": "E",
    "status": "Pending",
    "rowid": "943266",
    "final_x": "3715106.64351",
    "final_y": "570274.842087",
    "longitude": "-89.96048767758347",
    "latitude": "30.06099321973938",
    "geocoded_column": {
      "latitude": "30.06099321973938",
      "longitude": "-89.96048767758347"
    }
  },
  {
    "service_request": "2022-943265",
    "request_type": "Abandoned Vehicles",
    "request_reason": "Abandoned/Junk Vehicles",
    "date_created": "2022-11-14T17:35:18.000",
    "date_modified": "2022-11-14T17:35:18.000",
    "request_status": "Pending",
    "responsible_agency": "Department of Public Works",
    "final_address": "1041 Atlantic Ave",
    "address_councildis": "C",
    "status": "Pending",
    "rowid": "943265",
    "final_x": "3688646.41507",
    "final_y": "527583.988735",
    "longitude": "-90.04564425165736",
    "latitude": "29.944454084660396",
    "geocoded_column": {
      "latitude": "29.944454084660396",
      "longitude": "-90.04564425165736"
    }
  },
  {
    "service_request": "2022-943264",
    "request_type": "Abandoned Vehicles",
    "request_reason": "Abandoned/Junk Vehicles",
    "date_created": "2022-11-14T17:33:48.000",
    "date_modified": "2022-11-14T17:33:48.000",
    "request_status": "Pending",
    "responsible_agency": "Department of Public Works",
    "final_address": "1041 Atlantic Ave",
    "address_councildis": "C",
    "status": "Pending",
    "rowid": "943264",
    "final_x": "3688646.41507",
    "final_y": "527583.988735",
    "longitude": "-90.04564425165736",
    "latitude": "29.944454084660396",
    "geocoded_column": {
      "latitude": "29.944454084660396",
      "longitude": "-90.04564425165736"
    }
  },
  {
    "service_request": "2022-943263",
    "request_type": "Abandoned Vehicles",
    "request_reason": "Abandoned/Junk Vehicles",
    "date_created": "2022-11-14T17:31:13.000",
    "date_modified": "2022-11-14T17:31:13.000",
    "request_status": "Pending",
    "responsible_agency": "Department of Public Works",
    "final_address": "1041 Atlantic Ave",
    "address_councildis": "C",
    "status": "Pending",
    "rowid": "943263",
    "final_x": "3688646.41507",
    "final_y": "527583.988735",
    "longitude": "-90.04564425165736",
    "latitude": "29.944454084660396",
    "geocoded_column": {
      "latitude": "29.944454084660396",
      "longitude": "-90.04564425165736"
    }
  },
  {
    "service_request": "2022-943262",
    "request_type": "Trash/Recycling",
    "request_reason": "Missed Trash Pick-Up",
    "date_created": "2022-11-14T17:22:22.000",
    "date_modified": "2022-11-14T17:22:22.000",
    "request_status": "Pending",
    "responsible_agency": "Department of Sanitation",
    "final_address": "2305 Iberville St",
    "address_councildis": "B",
    "status": "Assigned to Contractor",
    "contractor": "Richards Disposal",
    "rowid": "943262",
    "final_x": "3676926.53608",
    "final_y": "534494.138501",
    "longitude": "-90.08240915830604",
    "latitude": "29.963811630549824",
    "geocoded_column": {
      "latitude": "29.963811630549824",
      "longitude": "-90.08240915830604"
    }
  },
  {
    "service_request": "2022-943261",
    "request_type": "Trash/Recycling",
    "request_reason": "Missed Trash Pick-Up",
    "date_created": "2022-11-14T17:18:18.000",
    "date_modified": "2022-11-14T17:31:31.000",
    "request_status": "Pending",
    "responsible_agency": "Department of Sanitation",
    "final_address": "1921 Hope St",
    "address_councildis": "D",
    "status": "Assigned to Contractor",
    "contractor": "IV Waste",
    "rowid": "943261",
    "final_x": "3681338.79349",
    "final_y": "541976.766284",
    "longitude": "-90.0682147950255",
    "latitude": "29.984253080582118",
    "geocoded_column": {
      "latitude": "29.984253080582118",
      "longitude": "-90.0682147950255"
    }
  },
  {
    "service_request": "2022-943260",
    "request_type": "Trash/Recycling",
    "request_reason": "Missed Trash Pick-Up",
    "date_created": "2022-11-14T17:17:33.000",
    "date_modified": "2022-11-14T17:17:34.000",
    "request_status": "Pending",
    "responsible_agency": "Department of Sanitation",
    "final_address": "3917 Toulouse St",
    "address_councildis": "A",
    "status": "Assigned to Contractor",
    "contractor": "Richards Disposal",
    "rowid": "943260",
    "final_x": "3672753.21985",
    "final_y": "539386.788234",
    "longitude": "-90.09542119150929",
    "latitude": "29.977389380699545",
    "geocoded_column": {
      "latitude": "29.977389380699545",
      "longitude": "-90.09542119150929"
    }
  },
  {
    "service_request": "2022-943259",
    "request_type": "Trash/Recycling",
    "request_reason": "Replace Trash Cart",
    "date_created": "2022-11-14T17:12:43.000",
    "date_modified": "2022-11-14T17:12:43.000",
    "request_status": "Pending",
    "responsible_agency": "Department of Sanitation",
    "final_address": "1612 Ursulines Ave",
    "address_councildis": "D",
    "status": "Assigned to Contractor",
    "contractor": "Richards Disposal",
    "rowid": "943259",
    "final_x": "3680840.75528",
    "final_y": "535603.101702",
    "longitude": "-90.07000982913375",
    "latitude": "29.966742821120697",
    "geocoded_column": {
      "latitude": "29.966742821120697",
      "longitude": "-90.07000982913375"
    }
  },
  {
    "service_request": "2022-943258",
    "request_type": "Trash/Recycling",
    "request_reason": "Request a Large Item Pick Up",
    "date_created": "2022-11-14T17:05:01.000",
    "date_modified": "2022-11-14T17:07:34.000",
    "request_status": "Pending",
    "responsible_agency": "Department of Sanitation",
    "final_address": "12921 Chanelle Ct",
    "address_councildis": "E",
    "status": "Assigned to Contractor",
    "contractor": "Waste Pro",
    "rowid": "943258",
    "final_x": "3716997.56735",
    "final_y": "567457.633956",
    "longitude": "-89.954617723339",
    "latitude": "30.053184633058464",
    "geocoded_column": {
      "latitude": "30.053184633058464",
      "longitude": "-89.954617723339"
    }
  },
  {
    "service_request": "2022-943257",
    "request_type": "Trash/Recycling",
    "request_reason": "Repair Trash Cart",
    "date_created": "2022-11-14T17:00:41.000",
    "date_modified": "2022-11-14T17:00:42.000",
    "request_status": "Pending",
    "responsible_agency": "Department of Sanitation",
    "final_address": "1317 S Salcedo St",
    "address_councildis": "B",
    "status": "Assigned to Contractor",
    "contractor": "Richards Disposal",
    "rowid": "943257",
    "final_x": "3670735.83207",
    "final_y": "531422.233219",
    "longitude": "-90.10206309166773",
    "latitude": "29.955549292656972",
    "geocoded_column": {
      "latitude": "29.955549292656972",
      "longitude": "-90.10206309166773"
    }
  },
  {
    "service_request": "2022-943256",
    "request_type": "Trash/Recycling",
    "request_reason": "Order Recycling Cart",
    "date_created": "2022-11-14T17:00:29.000",
    "date_modified": "2022-11-14T17:00:29.000",
    "request_status": "Pending",
    "responsible_agency": "Department of Sanitation",
    "final_address": "6719 Milne Blvd",
    "address_councildis": "A",
    "status": "Pending",
    "rowid": "943256",
    "final_x": "3667611.67079",
    "final_y": "552295.027734",
    "longitude": "-90.11122514868262",
    "latitude": "30.013034336956363",
    "geocoded_column": {
      "latitude": "30.013034336956363",
      "longitude": "-90.11122514868262"
    }
  },
  {
    "service_request": "2022-943255",
    "request_type": "Trash/Recycling",
    "request_reason": "Order Recycling Cart",
    "date_created": "2022-11-14T16:59:54.000",
    "date_modified": "2022-11-14T16:59:54.000",
    "request_status": "Pending",
    "responsible_agency": "Department of Sanitation",
    "final_address": "7125 Memphis St",
    "address_councildis": "A",
    "status": "Pending",
    "rowid": "943255",
    "final_x": "3669890.99956",
    "final_y": "554501.917336",
    "longitude": "-90.1039488673879",
    "latitude": "30.019035459712974",
    "geocoded_column": {
      "latitude": "30.019035459712974",
      "longitude": "-90.1039488673879"
    }
  },
  {
    "service_request": "2022-943254",
    "request_type": "Trash/Recycling",
    "request_reason": "Request a Large Item Pick Up",
    "date_created": "2022-11-14T16:59:23.000",
    "date_modified": "2022-11-14T16:59:24.000",
    "request_status": "Pending",
    "responsible_agency": "Department of Sanitation",
    "final_address": "5400 Durham Dr",
    "address_councildis": "C",
    "status": "Assigned to Contractor",
    "contractor": "Richards Disposal",
    "rowid": "943254",
    "final_x": "3703949.67185",
    "final_y": "518980.539767",
    "longitude": "-89.99764443424866",
    "latitude": "29.9203158577831",
    "geocoded_column": {
      "latitude": "29.9203158577831",
      "longitude": "-89.99764443424866"
    }
  },
  {
    "service_request": "2022-943253",
    "request_type": "Property Maintenance",
    "request_reason": "Property Maintenance",
    "date_created": "2022-11-14T16:58:53.000",
    "date_modified": "2022-11-14T16:58:55.000",
    "request_status": "Pending",
    "responsible_agency": "Department of Code Enforcement",
    "final_address": "829 N Rocheblave St",
    "address_councildis": "D",
    "status": "Pending",
    "rowid": "943253",
    "final_x": "3677838.00046",
    "final_y": "536820.659528",
    "longitude": "-90.07945044421399",
    "latitude": "29.970181379144364",
    "geocoded_column": {
      "latitude": "29.970181379144364",
      "longitude": "-90.07945044421399"
    }
  },
  {
    "service_request": "2022-943252",
    "request_type": "Trash/Recycling",
    "request_reason": "Missed Trash Pick-Up",
    "date_created": "2022-11-14T16:55:31.000",
    "date_modified": "2022-11-14T16:55:32.000",
    "request_status": "Pending",
    "responsible_agency": "Department of Sanitation",
    "final_address": "2800 BLK Orchid St",
    "address_councildis": "A",
    "status": "Assigned to Contractor",
    "contractor": "Richards Disposal",
    "rowid": "943252",
    "final_x": "3677047.77841",
    "final_y": "538806.044551",
    "longitude": "-90.08187756991293",
    "latitude": "29.975664262114687",
    "geocoded_column": {
      "latitude": "29.975664262114687",
      "longitude": "-90.08187756991293"
    }
  },
  {
    "service_request": "2022-943251",
    "request_type": "Trash/Recycling",
    "request_reason": "MIssed Recycling Pick-Up",
    "date_created": "2022-11-14T16:52:04.000",
    "date_modified": "2022-11-14T16:52:05.000",
    "request_status": "Pending",
    "responsible_agency": "Department of Sanitation",
    "final_address": "5371 Magazine St",
    "address_councildis": "B",
    "status": "Assigned to Contractor",
    "contractor": "Richards Disposal",
    "rowid": "943251",
    "final_x": "3666866.22285",
    "final_y": "518795.864503",
    "longitude": "-90.1147059983276",
    "latitude": "29.92094459413221",
    "geocoded_column": {
      "latitude": "29.92094459413221",
      "longitude": "-90.1147059983276"
    }
  },
  {
    "service_request": "2022-943250",
    "request_type": "Traffic Signals/Signs/Striping/Streetlights",
    "request_reason": "Traffic Signal Malfunctioning/Damaged",
    "date_created": "2022-11-14T16:49:27.000",
    "date_modified": "2022-11-14T16:49:28.000",
    "request_status": "Pending",
    "responsible_agency": "Department of Public Works",
    "final_address": "2416 St Charles Ave",
    "address_councildis": "B",
    "status": "Pending",
    "rowid": "943250",
    "final_x": "3676902.78862",
    "final_y": "523076.342715",
    "longitude": "-90.08287763295023",
    "latitude": "29.93241720123134",
    "geocoded_column": {
      "latitude": "29.93241720123134",
      "longitude": "-90.08287763295023"
    }
  },
  {
    "service_request": "2022-943249",
    "request_type": "Roads/Drainage",
    "request_reason": "Pothole",
    "date_created": "2022-11-14T16:47:49.000",
    "date_modified": "2022-11-14T16:47:49.000",
    "request_status": "Pending",
    "responsible_agency": "Department of Public Works",
    "final_address": "8014 Olive St",
    "address_councildis": "B",
    "status": "Pending",
    "rowid": "943249",
    "final_x": "3667508.57306",
    "final_y": "533889.186117",
    "longitude": "-90.11217063618453",
    "latitude": "29.962427561923707",
    "geocoded_column": {
      "latitude": "29.962427561923707",
      "longitude": "-90.11217063618453"
    }
  },
  {
    "service_request": "2022-943248",
    "request_type": "Trash/Recycling",
    "request_reason": "Missed Trash Pick-Up",
    "date_created": "2022-11-14T16:46:09.000",
    "date_modified": "2022-11-14T16:46:10.000",
    "request_status": "Pending",
    "responsible_agency": "Department of Sanitation",
    "final_address": "7810 exeter street",
    "address_councildis": "E",
    "status": "Assigned to Contractor",
    "contractor": "Waste Pro",
    "rowid": "943248",
    "final_x": "3697480.08099",
    "final_y": "559995.223965",
    "longitude": "-90.01657800852742",
    "latitude": "30.033297190830837",
    "geocoded_column": {
      "latitude": "30.033297190830837",
      "longitude": "-90.01657800852742"
    }
  },
  {
    "service_request": "2022-943247",
    "request_type": "Trash/Recycling",
    "request_reason": "Missed Trash Pick-Up",
    "date_created": "2022-11-14T16:44:18.000",
    "date_modified": "2022-11-14T16:44:19.000",
    "request_status": "Pending",
    "responsible_agency": "Department of Sanitation",
    "final_address": "7810 Exeter St",
    "address_councildis": "E",
    "status": "Assigned to Contractor",
    "contractor": "Waste Pro",
    "rowid": "943247",
    "final_x": "3697480.08099",
    "final_y": "559995.223965",
    "longitude": "-90.01657800852742",
    "latitude": "30.033297190830837",
    "geocoded_column": {
      "latitude": "30.033297190830837",
      "longitude": "-90.01657800852742"
    }
  },
  {
    "service_request": "2022-943246",
    "request_type": "Trash/Recycling",
    "request_reason": "Missed Trash Pick-Up",
    "date_created": "2022-11-14T16:42:50.000",
    "date_modified": "2022-11-14T16:42:51.000",
    "request_status": "Pending",
    "responsible_agency": "Department of Sanitation",
    "final_address": "6757 Deanne St",
    "address_councildis": "D",
    "status": "Assigned to Contractor",
    "contractor": "Waste Pro",
    "rowid": "943246",
    "final_x": "3695975.38294",
    "final_y": "555687.789593",
    "longitude": "-90.02148882506809",
    "latitude": "30.02150084725312",
    "geocoded_column": {
      "latitude": "30.02150084725312",
      "longitude": "-90.02148882506809"
    }
  },
  {
    "service_request": "2022-943245",
    "request_type": "Trash/Recycling",
    "request_reason": "Repair Recycling Cart",
    "date_created": "2022-11-14T16:42:17.000",
    "date_modified": "2022-11-14T16:42:18.000",
    "request_status": "Pending",
    "responsible_agency": "Department of Sanitation",
    "final_address": "5009 Tchoupitoulas St",
    "address_councildis": "B",
    "status": "Pending",
    "rowid": "943245",
    "final_x": "3668497.2475",
    "final_y": "517254.741557",
    "longitude": "-90.10960952864824",
    "latitude": "29.916659193749663",
    "geocoded_column": {
      "latitude": "29.916659193749663",
      "longitude": "-90.10960952864824"
    }
  },
  {
    "service_request": "2022-943244",
    "request_type": "Trash/Recycling",
    "request_reason": "MIssed Recycling Pick-Up",
    "date_created": "2022-11-14T16:41:11.000",
    "date_modified": "2022-11-14T16:41:12.000",
    "request_status": "Pending",
    "responsible_agency": "Department of Sanitation",
    "final_address": "3834 S Inwood Ave",
    "address_councildis": "C",
    "status": "Assigned to Contractor",
    "contractor": "Richards Disposal",
    "rowid": "943244",
    "final_x": "3705105.55089",
    "final_y": "514343.170419",
    "longitude": "-89.99416697661597",
    "latitude": "29.90752758884572",
    "geocoded_column": {
      "latitude": "29.90752758884572",
      "longitude": "-89.99416697661597"
    }
  },
  {
    "service_request": "2022-943243",
    "request_type": "Trash/Recycling",
    "request_reason": "Missed Trash Pick-Up",
    "date_created": "2022-11-14T16:39:26.000",
    "date_modified": "2022-11-14T16:39:26.000",
    "request_status": "Pending",
    "responsible_agency": "Department of Sanitation",
    "final_address": "2309 Iberville St, New Orleans, Louisiana, 70119",
    "address_councildis": "B",
    "status": "Assigned to Contractor",
    "contractor": "Richards Disposal",
    "rowid": "943243",
    "final_x": "3676907.40226",
    "final_y": "534519.047429",
    "longitude": "-90.08246872239917",
    "latitude": "29.963880696021",
    "geocoded_column": {
      "latitude": "29.963880696021",
      "longitude": "-90.08246872239917"
    }
  },
  {
    "service_request": "2022-943242",
    "request_type": "Trash/Recycling",
    "request_reason": "Request a Large Item Pick Up",
    "date_created": "2022-11-14T16:36:35.000",
    "date_modified": "2022-11-14T16:36:36.000",
    "request_status": "Pending",
    "responsible_agency": "Department of Sanitation",
    "final_address": "9208 Colapissa St",
    "address_councildis": "A",
    "status": "Assigned to Contractor",
    "contractor": "Richards Disposal",
    "rowid": "943242",
    "final_x": "3663547.19271",
    "final_y": "536026.024455",
    "longitude": "-90.12460899413492",
    "latitude": "29.968418656169927",
    "geocoded_column": {
      "latitude": "29.968418656169927",
      "longitude": "-90.12460899413492"
    }
  },
  {
    "service_request": "2022-943241",
    "request_type": "Trash/Recycling",
    "request_reason": "Missed Trash Pick-Up",
    "date_created": "2022-11-14T16:36:07.000",
    "date_modified": "2022-11-14T16:36:08.000",
    "request_status": "Pending",
    "responsible_agency": "Department of Sanitation",
    "final_address": "2300 BLK Iberville St",
    "address_councildis": "B",
    "status": "Assigned to Contractor",
    "contractor": "Richards Disposal",
    "rowid": "943241",
    "final_x": "3676822.14468",
    "final_y": "534532.972716",
    "longitude": "-90.08273747800074",
    "latitude": "29.963921544736362",
    "geocoded_column": {
      "latitude": "29.963921544736362",
      "longitude": "-90.08273747800074"
    }
  },
  {
    "service_request": "2022-943240",
    "request_type": "Traffic Signals/Signs/Striping/Streetlights",
    "request_reason": "Traffic Signal Malfunctioning/Damaged",
    "date_created": "2022-11-14T16:35:02.000",
    "date_modified": "2022-11-14T16:35:02.000",
    "request_status": "Pending",
    "responsible_agency": "Department of Public Works",
    "final_address": "2513 Royal St",
    "address_councildis": "C",
    "status": "Pending",
    "rowid": "943240",
    "final_x": "3686724.41449",
    "final_y": "535026.896454",
    "longitude": "-90.05144965749743",
    "latitude": "29.96497877739842",
    "geocoded_column": {
      "latitude": "29.96497877739842",
      "longitude": "-90.05144965749743"
    }
  },
  {
    "service_request": "2022-943239",
    "request_type": "Trash/Recycling",
    "request_reason": "Request a Large Item Pick Up",
    "date_created": "2022-11-14T16:33:06.000",
    "date_modified": "2022-11-14T16:33:07.000",
    "request_status": "Pending",
    "responsible_agency": "Department of Sanitation",
    "final_address": "616 Whitney Ave",
    "address_councildis": "C",
    "status": "Assigned to Contractor",
    "contractor": "Richards Disposal",
    "rowid": "943239",
    "final_x": "3690297.7672",
    "final_y": "529208.286272",
    "longitude": "-90.0403726026007",
    "latitude": "29.948869214464025",
    "geocoded_column": {
      "latitude": "29.948869214464025",
      "longitude": "-90.0403726026007"
    }
  },
  {
    "service_request": "2022-943238",
    "request_type": "Trash/Recycling",
    "request_reason": "Order Recycling Cart",
    "date_created": "2022-11-14T16:32:55.000",
    "date_modified": "2022-11-14T16:32:56.000",
    "request_status": "Pending",
    "responsible_agency": "Department of Sanitation",
    "final_address": "1920 Delachaise St",
    "address_councildis": "B",
    "status": "Pending",
    "rowid": "943238",
    "final_x": "3673286.32916",
    "final_y": "522555.825658",
    "longitude": "-90.09431225828352",
    "latitude": "29.931093972015592",
    "geocoded_column": {
      "latitude": "29.931093972015592",
      "longitude": "-90.09431225828352"
    }
  },
  {
    "service_request": "2022-943236",
    "request_type": "Trash/Recycling",
    "request_reason": "Missed Trash Pick-Up",
    "date_created": "2022-11-14T16:31:51.000",
    "date_modified": "2022-11-14T16:31:51.000",
    "request_status": "Pending",
    "responsible_agency": "Department of Sanitation",
    "final_address": "4515 DHemecourt St",
    "address_councildis": "A",
    "status": "Assigned to Contractor",
    "contractor": "Richards Disposal",
    "rowid": "943236",
    "final_x": "3668435.2059",
    "final_y": "537952.265609",
    "longitude": "-90.10910736697687",
    "latitude": "29.97357249007739",
    "geocoded_column": {
      "latitude": "29.97357249007739",
      "longitude": "-90.10910736697687"
    }
  },
  {
    "service_request": "2022-943237",
    "request_type": "Trash/Recycling",
    "request_reason": "Order Recycling Cart",
    "date_created": "2022-11-14T16:31:51.000",
    "date_modified": "2022-11-14T16:31:51.000",
    "request_status": "Pending",
    "responsible_agency": "Department of Sanitation",
    "final_address": "7325 St Charles Ave",
    "address_councildis": "A",
    "status": "Pending",
    "rowid": "943237",
    "final_x": "3662620.65677",
    "final_y": "525142.119037",
    "longitude": "-90.1278966511678",
    "latitude": "29.938518273115466",
    "geocoded_column": {
      "latitude": "29.938518273115466",
      "longitude": "-90.1278966511678"
    }
  },
  {
    "service_request": "2022-943235",
    "request_type": "Trash/Recycling",
    "request_reason": "Request a Large Item Pick Up",
    "date_created": "2022-11-14T16:31:32.000",
    "date_modified": "2022-11-14T16:31:32.000",
    "request_status": "Pending",
    "responsible_agency": "Department of Sanitation",
    "final_address": "1920 Delachaise St",
    "address_councildis": "B",
    "status": "Assigned to Contractor",
    "contractor": "Richards Disposal",
    "rowid": "943235",
    "final_x": "3673286.32916",
    "final_y": "522555.825658",
    "longitude": "-90.09431225828352",
    "latitude": "29.931093972015592",
    "geocoded_column": {
      "latitude": "29.931093972015592",
      "longitude": "-90.09431225828352"
    }
  },
  {
    "service_request": "2022-943234",
    "request_type": "Trash/Recycling",
    "request_reason": "Order Trash Cart",
    "date_created": "2022-11-14T16:30:21.000",
    "date_modified": "2022-11-14T16:30:21.000",
    "request_status": "Pending",
    "responsible_agency": "Department of Sanitation",
    "final_address": "7415 Devine Ave",
    "address_councildis": "E",
    "status": "Assigned to Contractor",
    "contractor": "Waste Pro",
    "rowid": "943234",
    "final_x": "3706016.58379",
    "final_y": "562567.638432",
    "longitude": "-89.98950666547107",
    "latitude": "30.040097820754326",
    "geocoded_column": {
      "latitude": "30.040097820754326",
      "longitude": "-89.98950666547107"
    }
  },
  {
    "service_request": "2022-943233",
    "request_type": "Trash/Recycling",
    "request_reason": "MIssed Recycling Pick-Up",
    "date_created": "2022-11-14T16:27:29.000",
    "date_modified": "2022-11-14T16:27:30.000",
    "request_status": "Pending",
    "responsible_agency": "Department of Sanitation",
    "final_address": "2929 Cambronne St",
    "address_councildis": "A",
    "status": "Assigned to Contractor",
    "contractor": "Richards Disposal",
    "rowid": "943233",
    "final_x": "3665474.91207",
    "final_y": "533772.949061",
    "longitude": "-90.1185965688917",
    "latitude": "29.962167386190533",
    "geocoded_column": {
      "latitude": "29.962167386190533",
      "longitude": "-90.1185965688917"
    }
  },
  {
    "service_request": "2022-943232",
    "request_type": "Trash/Recycling",
    "request_reason": "Missed Trash Pick-Up",
    "date_created": "2022-11-14T16:26:45.000",
    "date_modified": "2022-11-14T16:26:45.000",
    "request_status": "Pending",
    "responsible_agency": "Department of Sanitation",
    "final_address": "4666 Redwood St",
    "address_councildis": "E",
    "status": "Assigned to Contractor",
    "contractor": "Waste Pro",
    "rowid": "943232",
    "final_x": "3712453.69278",
    "final_y": "555743.528473",
    "longitude": "-89.96942026709158",
    "latitude": "30.021125078836622",
    "geocoded_column": {
      "latitude": "30.021125078836622",
      "longitude": "-89.96942026709158"
    }
  },
  {
    "service_request": "2022-943231",
    "request_type": "Roads/Drainage",
    "request_reason": "Road Shoulder Repair",
    "date_created": "2022-11-14T16:25:35.000",
    "date_modified": "2022-11-14T16:25:35.000",
    "request_status": "Pending",
    "responsible_agency": "Department of Public Works",
    "final_address": "6827 Marshal Foch St",
    "address_councildis": "A",
    "status": "Pending",
    "rowid": "943231",
    "final_x": "3670393.20174",
    "final_y": "552758.519766",
    "longitude": "-90.10242125432706",
    "latitude": "30.0142269100208",
    "geocoded_column": {
      "latitude": "30.0142269100208",
      "longitude": "-90.10242125432706"
    }
  },
  {
    "service_request": "2022-943230",
    "request_type": "Trash/Recycling",
    "request_reason": "MIssed Recycling Pick-Up",
    "date_created": "2022-11-14T16:25:25.000",
    "date_modified": "2022-11-14T16:25:26.000",
    "request_status": "Pending",
    "responsible_agency": "Department of Sanitation",
    "final_address": "2871 Kent Dr",
    "address_councildis": "C",
    "status": "Assigned to Contractor",
    "contractor": "Richards Disposal",
    "rowid": "943230",
    "final_x": "3708875.84433",
    "final_y": "519238.519479",
    "longitude": "-89.98208537869623",
    "latitude": "29.920866396696425",
    "geocoded_column": {
      "latitude": "29.920866396696425",
      "longitude": "-89.98208537869623"
    }
  },
  {
    "service_request": "2022-943229",
    "request_type": "Traffic Signals/Signs/Striping/Streetlights",
    "request_reason": "Street Light Outage/Malfunction",
    "date_created": "2022-11-14T16:24:55.000",
    "date_modified": "2022-11-14T16:24:56.000",
    "request_status": "Pending",
    "responsible_agency": "Department of Public Works",
    "final_address": "CHARTRES ST & EGANIA ST",
    "address_councildis": "E",
    "status": "Pending",
    "contractor": "Legacy Professional Services",
    "rowid": "943229",
    "final_x": "3696298.3",
    "final_y": "532227.88",
    "longitude": "-90.02131727074644",
    "latitude": "29.95698449545217",
    "geocoded_column": {
      "latitude": "29.95698449545217",
      "longitude": "-90.02131727074644"
    }
  },
  {
    "service_request": "2022-943228",
    "request_type": "Roads/Drainage",
    "request_reason": "Damaged Sidewalk",
    "date_created": "2022-11-14T16:24:15.000",
    "date_modified": "2022-11-14T16:24:15.000",
    "request_status": "Pending",
    "responsible_agency": "Department of Public Works",
    "final_address": "6827 Marshal Foch St",
    "address_councildis": "A",
    "status": "Pending",
    "rowid": "943228",
    "final_x": "3670393.20174",
    "final_y": "552758.519766",
    "longitude": "-90.10242125432706",
    "latitude": "30.0142269100208",
    "geocoded_column": {
      "latitude": "30.0142269100208",
      "longitude": "-90.10242125432706"
    }
  },
  {
    "service_request": "2022-943226",
    "request_type": "Trash/Recycling",
    "request_reason": "Order Trash Cart",
    "date_created": "2022-11-14T16:19:20.000",
    "date_modified": "2022-11-14T16:19:21.000",
    "request_status": "Pending",
    "responsible_agency": "Department of Sanitation",
    "final_address": "6316 Ransom St",
    "address_councildis": "D",
    "status": "Assigned to Contractor",
    "contractor": "Waste Pro",
    "rowid": "943226",
    "final_x": "3698187.15389",
    "final_y": "552869.710807",
    "longitude": "-90.01460274645679",
    "latitude": "30.013682386302673",
    "geocoded_column": {
      "latitude": "30.013682386302673",
      "longitude": "-90.01460274645679"
    }
  },
  {
    "service_request": "2022-943225",
    "request_type": "Trash/Recycling",
    "request_reason": "Request a Large Item Pick Up",
    "date_created": "2022-11-14T16:19:08.000",
    "date_modified": "2022-11-14T16:19:09.000",
    "request_status": "Pending",
    "responsible_agency": "Department of Sanitation",
    "final_address": "3620 Annunciation St",
    "address_councildis": "B",
    "status": "Assigned to Contractor",
    "contractor": "Richards Disposal",
    "rowid": "943225",
    "final_x": "3674347.06964",
    "final_y": "518172.687862",
    "longitude": "-90.09111364422056",
    "latitude": "29.919010172508006",
    "geocoded_column": {
      "latitude": "29.919010172508006",
      "longitude": "-90.09111364422056"
    }
  },
  {
    "service_request": "2022-943224",
    "request_type": "Trash/Recycling",
    "request_reason": "Replace Trash Cart",
    "date_created": "2022-11-14T16:19:03.000",
    "date_modified": "2022-11-14T16:19:04.000",
    "request_status": "Pending",
    "responsible_agency": "Department of Sanitation",
    "final_address": "4900 Constance St",
    "address_councildis": "B",
    "status": "Assigned to Contractor",
    "contractor": "Richards Disposal",
    "rowid": "943224",
    "final_x": "3668938.35873",
    "final_y": "518167.990646",
    "longitude": "-90.10818637476068",
    "latitude": "29.91915738019517",
    "geocoded_column": {
      "latitude": "29.91915738019517",
      "longitude": "-90.10818637476068"
    }
  },
  {
    "service_request": "2022-943223",
    "request_type": "Abandoned Vehicles",
    "request_reason": "Abandoned/Junk Vehicles",
    "date_created": "2022-11-14T16:19:01.000",
    "date_modified": "2022-11-14T16:19:01.000",
    "request_status": "Pending",
    "responsible_agency": "Department of Public Works",
    "final_address": "1619 Forstall St",
    "address_councildis": "E",
    "status": "Pending",
    "rowid": "943223",
    "final_x": "3696900.32535",
    "final_y": "536196.131975",
    "longitude": "-90.01927257287304",
    "latitude": "29.967876812009177",
    "geocoded_column": {
      "latitude": "29.967876812009177",
      "longitude": "-90.01927257287304"
    }
  },
  {
    "service_request": "2022-943222",
    "request_type": "Trash/Recycling",
    "request_reason": "MIssed Recycling Pick-Up",
    "date_created": "2022-11-14T16:18:08.000",
    "date_modified": "2022-11-14T16:18:08.000",
    "request_status": "Pending",
    "responsible_agency": "Department of Sanitation",
    "final_address": "4607 Constance St",
    "address_councildis": "B",
    "status": "Assigned to Contractor",
    "contractor": "Richards Disposal",
    "rowid": "943222",
    "final_x": "3670266.60647",
    "final_y": "518411.909814",
    "longitude": "-90.10398550172874",
    "latitude": "29.919788963513135",
    "geocoded_column": {
      "latitude": "29.919788963513135",
      "longitude": "-90.10398550172874"
    }
  },
  {
    "service_request": "2022-943221",
    "request_type": "Abandoned Vehicles",
    "request_reason": "Abandoned/Junk Vehicles",
    "date_created": "2022-11-14T16:17:15.000",
    "date_modified": "2022-11-14T16:17:15.000",
    "request_status": "Pending",
    "responsible_agency": "Department of Public Works",
    "final_address": "800 BLK Saint Mary St",
    "address_councildis": "B",
    "status": "Pending",
    "rowid": "943221",
    "final_x": "3680377.94367",
    "final_y": "522132.010314",
    "longitude": "-90.07193970371743",
    "latitude": "29.929715860830445",
    "geocoded_column": {
      "latitude": "29.929715860830445",
      "longitude": "-90.07193970371743"
    }
  },
  {
    "service_request": "2022-943220",
    "request_type": "Trash/Recycling",
    "request_reason": "Order Trash Cart",
    "date_created": "2022-11-14T16:16:21.000",
    "date_modified": "2022-11-14T16:16:22.000",
    "request_status": "Pending",
    "responsible_agency": "Department of Sanitation",
    "final_address": "3601 Eagle St",
    "address_councildis": "A",
    "status": "Assigned to Contractor",
    "contractor": "Richards Disposal",
    "rowid": "943220",
    "final_x": "3665958.85671",
    "final_y": "536363.844487",
    "longitude": "-90.11698148634068",
    "latitude": "29.9692773770381",
    "geocoded_column": {
      "latitude": "29.9692773770381",
      "longitude": "-90.11698148634068"
    }
  },
  {
    "service_request": "2022-943219",
    "request_type": "Trash/Recycling",
    "request_reason": "Illegal Dumping",
    "date_created": "2022-11-14T16:14:14.000",
    "date_modified": "2022-11-14T16:14:14.000",
    "request_status": "Pending",
    "responsible_agency": "Department of Sanitation",
    "final_address": "7701 Tricia Ct",
    "address_councildis": "E",
    "status": "Pending",
    "rowid": "943219",
    "final_x": "3717529.14316",
    "final_y": "571412.890152",
    "longitude": "-89.95278695237737",
    "latitude": "30.06404235005179",
    "geocoded_column": {
      "latitude": "30.06404235005179",
      "longitude": "-89.95278695237737"
    }
  },
  {
    "service_request": "2022-943218",
    "request_type": "Trash/Recycling",
    "request_reason": "Order Recycling Cart",
    "date_created": "2022-11-14T16:12:56.000",
    "date_modified": "2022-11-14T16:12:57.000",
    "request_status": "Pending",
    "responsible_agency": "Department of Sanitation",
    "final_address": "3213 N Miro St",
    "address_councildis": "D",
    "status": "Pending",
    "rowid": "943218",
    "final_x": "3690735.39676",
    "final_y": "540006.280459",
    "longitude": "-90.03860558339076",
    "latitude": "29.978546332452154",
    "geocoded_column": {
      "latitude": "29.978546332452154",
      "longitude": "-90.03860558339076"
    }
  },
  {
    "service_request": "2022-943217",
    "request_type": "Abandoned Vehicles",
    "request_reason": "Abandoned/Junk Vehicles",
    "date_created": "2022-11-14T16:11:13.000",
    "date_modified": "2022-11-14T16:11:13.000",
    "request_status": "Pending",
    "responsible_agency": "Department of Public Works",
    "final_address": "7641 Anne Marie Ct",
    "address_councildis": "E",
    "status": "Pending",
    "rowid": "943217",
    "final_x": "3717926.84575",
    "final_y": "571303.853736",
    "longitude": "-89.95153395534773",
    "latitude": "30.063729364279983",
    "geocoded_column": {
      "latitude": "30.063729364279983",
      "longitude": "-89.95153395534773"
    }
  },
  {
    "service_request": "2022-943216",
    "request_type": "Trash/Recycling",
    "request_reason": "Request a Large Item Pick Up",
    "date_created": "2022-11-14T16:11:07.000",
    "date_modified": "2022-11-14T16:11:08.000",
    "request_status": "Pending",
    "responsible_agency": "Department of Sanitation",
    "final_address": "2222 General Collins Ave",
    "address_councildis": "C",
    "status": "Assigned to Contractor",
    "contractor": "Richards Disposal",
    "rowid": "943216",
    "final_x": "3698498.9864",
    "final_y": "522798.808059",
    "longitude": "-90.01471086958401",
    "latitude": "29.93098837033078",
    "geocoded_column": {
      "latitude": "29.93098837033078",
      "longitude": "-90.01471086958401"
    }
  },
  {
    "service_request": "2022-943214",
    "request_type": "Abandoned Vehicles",
    "request_reason": "Abandoned/Junk Vehicles",
    "date_created": "2022-11-14T16:08:13.000",
    "date_modified": "2022-11-14T16:08:13.000",
    "request_status": "Pending",
    "responsible_agency": "Department of Public Works",
    "final_address": "173 Mary Jane Ln",
    "address_councildis": "E",
    "status": "Pending",
    "rowid": "943214",
    "final_x": "3718207.3566",
    "final_y": "571185.478376",
    "longitude": "-89.95065176774742",
    "latitude": "30.063394577249248",
    "geocoded_column": {
      "latitude": "30.063394577249248",
      "longitude": "-89.95065176774742"
    }
  },
  {
    "service_request": "2022-943213",
    "request_type": "Trash/Recycling",
    "request_reason": "Request a Large Item Pick Up",
    "date_created": "2022-11-14T16:07:11.000",
    "date_modified": "2022-11-14T16:07:12.000",
    "request_status": "Pending",
    "responsible_agency": "Department of Sanitation",
    "final_address": "2935 Marigny St",
    "address_councildis": "D",
    "status": "Assigned to Contractor",
    "contractor": "IV Waste",
    "rowid": "943213",
    "final_x": "3684870.43471",
    "final_y": "543637.053902",
    "longitude": "-90.05700153556985",
    "latitude": "29.988710594448957",
    "geocoded_column": {
      "latitude": "29.988710594448957",
      "longitude": "-90.05700153556985"
    }
  },
  {
    "service_request": "2022-943212",
    "request_type": "Trash/Recycling",
    "request_reason": "Order Recycling Cart",
    "date_created": "2022-11-14T16:07:05.000",
    "date_modified": "2022-11-14T16:07:05.000",
    "request_status": "Pending",
    "responsible_agency": "Department of Sanitation",
    "final_address": "10923 N Hardy St",
    "address_councildis": "E",
    "status": "Pending",
    "rowid": "943212",
    "final_x": "3712577.16773",
    "final_y": "562156.807135",
    "longitude": "-89.96878880679039",
    "latitude": "30.038755007217265",
    "geocoded_column": {
      "latitude": "30.038755007217265",
      "longitude": "-89.96878880679039"
    }
  },
  {
    "service_request": "2022-943211",
    "request_type": "Trash/Recycling",
    "request_reason": "Order Recycling Cart",
    "date_created": "2022-11-14T16:01:52.000",
    "date_modified": "2022-11-14T16:01:52.000",
    "request_status": "Pending",
    "responsible_agency": "Department of Sanitation",
    "final_address": "3325 St Ann St",
    "address_councildis": "A",
    "status": "Pending",
    "rowid": "943211",
    "final_x": "3674741.19643",
    "final_y": "538918.805322",
    "longitude": "-90.08915854033232",
    "latitude": "29.976043383068074",
    "geocoded_column": {
      "latitude": "29.976043383068074",
      "longitude": "-90.08915854033232"
    }
  },
  {
    "service_request": "2022-943210",
    "request_type": "Trash/Recycling",
    "request_reason": "Order Recycling Cart",
    "date_created": "2022-11-14T16:00:52.000",
    "date_modified": "2022-11-14T16:00:52.000",
    "request_status": "Pending",
    "responsible_agency": "Department of Sanitation",
    "final_address": "740 Turquoise St",
    "address_councildis": "D",
    "status": "Pending",
    "rowid": "943210",
    "final_x": "3670211.29242",
    "final_y": "555104.234329",
    "longitude": "-90.1029164149386",
    "latitude": "30.02068216401501",
    "geocoded_column": {
      "latitude": "30.02068216401501",
      "longitude": "-90.1029164149386"
    }
  },
  {
    "service_request": "2022-943209",
    "request_type": "Trash/Recycling",
    "request_reason": "Order Recycling Cart",
    "date_created": "2022-11-14T15:59:24.000",
    "date_modified": "2022-11-14T15:59:24.000",
    "request_status": "Pending",
    "responsible_agency": "Department of Sanitation",
    "final_address": "5213 Wentworth Dr",
    "address_councildis": "E",
    "status": "Pending",
    "rowid": "943209",
    "final_x": "3704656.58442",
    "final_y": "557039.441242",
    "longitude": "-89.9940088723753",
    "latitude": "30.024941226477935",
    "geocoded_column": {
      "latitude": "30.024941226477935",
      "longitude": "-89.9940088723753"
    }
  },
  {
    "service_request": "2022-943208",
    "request_type": "Trash/Recycling",
    "request_reason": "MIssed Recycling Pick-Up",
    "date_created": "2022-11-14T15:57:45.000",
    "date_modified": "2022-11-14T15:57:46.000",
    "request_status": "Pending",
    "responsible_agency": "Department of Sanitation",
    "final_address": "3141 Mansfield Ave",
    "address_councildis": "C",
    "status": "Assigned to Contractor",
    "contractor": "Richards Disposal",
    "rowid": "943208",
    "final_x": "3709056.63672",
    "final_y": "518654.244471",
    "longitude": "-89.98153646260958",
    "latitude": "29.919253981261125",
    "geocoded_column": {
      "latitude": "29.919253981261125",
      "longitude": "-89.98153646260958"
    }
  },
  {
    "service_request": "2022-943206",
    "request_type": "Roads/Drainage",
    "request_reason": "Accessibility Ramps, Curbs and Sidewalk Repair",
    "date_created": "2022-11-14T15:53:56.000",
    "date_modified": "2022-11-14T15:53:56.000",
    "request_status": "Pending",
    "responsible_agency": "Department of Public Works",
    "final_address": "6601 Dorchester St",
    "address_councildis": "E",
    "status": "Pending",
    "rowid": "943206",
    "final_x": "3697666.19856",
    "final_y": "558935.165404",
    "longitude": "-90.01602837278277",
    "latitude": "30.030376555312035",
    "geocoded_column": {
      "latitude": "30.030376555312035",
      "longitude": "-90.01602837278277"
    }
  },
  {
    "service_request": "2022-943205",
    "request_type": "Trash/Recycling",
    "request_reason": "Request a Large Item Pick Up",
    "date_created": "2022-11-14T15:53:15.000",
    "date_modified": "2022-11-14T15:53:15.000",
    "request_status": "Pending",
    "responsible_agency": "Department of Sanitation",
    "final_address": "1719 Marais St",
    "address_councildis": "C",
    "status": "Assigned to Contractor",
    "contractor": "IV Waste",
    "rowid": "943205",
    "final_x": "3683268.21858",
    "final_y": "536564.995847",
    "longitude": "-90.06231022449465",
    "latitude": "29.969313883991664",
    "geocoded_column": {
      "latitude": "29.969313883991664",
      "longitude": "-90.06231022449465"
    }
  },