[
  {
    "service_request": "2022-871569",
    "request_type": "Safety & Permits",
    "request_reason": "Licenses & Permits",
    "date_created": "2022-04-02T01:38:14.000",
    "date_modified": "2022-04-02T01:38:14.000",
    "request_status": "Pending",
    "responsible_agency": "Safety and Permits",
    "status": "Pending",
    "rowid": "871569",
    "longitude": "0.0",
    "latitude": "0.0",
    "geocoded_column": {
      "latitude": "0.0",
      "longitude": "0.0"
    }
  },
  {
    "service_request": "2022-871567",
    "request_type": "Trash/Recycling",
    "request_reason": "Missed Trash Pick-Up",
    "date_created": "2022-04-01T23:34:24.000",
    "date_modified": "2022-04-01T23:34:26.000",
    "request_status": "Pending",
    "responsible_agency": "Department of Sanitation",
    "final_address": "100 Bourbon St",
    "address_councildis": "C",
    "status": "Assigned to Contractor",
    "contractor": "Empire Services",
    "rowid": "871567",
    "final_x": "3681026.51387",
    "final_y": "530995.060226",
    "longitude": "-90.06958370079413",
    "latitude": "29.954066643745975",
    "geocoded_column": {
      "latitude": "29.954066643745975",
      "longitude": "-90.06958370079413"
    }
  },
  {
    "service_request": "2022-871566",
    "request_type": "Traffic Signals/Signs/Striping/Streetlights",
    "request_reason": "Street Light Outage/Malfunction",
    "date_created": "2022-04-01T23:31:44.000",
    "date_modified": "2022-04-01T23:31:45.000",
    "request_status": "Pending",
    "responsible_agency": "Department of Public Works",
    "final_address": "4134 DHemecourt St",
    "address_councildis": "A",
    "status": "Pending",
    "contractor": "Royal Engineering",
    "rowid": "871566",
    "final_x": "3669479.79079",
    "final_y": "537037.433032",
    "longitude": "-90.10583928814052",
    "latitude": "29.971026278883787",
    "geocoded_column": {
      "latitude": "29.971026278883787",
      "longitude": "-90.10583928814052"
    }
  },
  {
    "service_request": "2022-871564",
    "request_type": "Trash/Recycling",
    "request_reason": "MIssed Recycling Pick-Up",
    "date_created": "2022-04-01T23:00:04.000",
    "date_modified": "2022-04-01T23:00:05.000",
    "request_status": "Pending",
    "responsible_agency": "Department of Sanitation",
    "final_address": "208 Hillary St",
    "address_councildis": "A",
    "status": "Assigned to Contractor",
    "contractor": "Richards Disposal",
    "rowid": "871564",
    "final_x": "3660791.92806",
    "final_y": "524467.190908",
    "longitude": "-90.13369247583448",
    "latitude": "29.936715206414828",
    "geocoded_column": {
      "latitude": "29.936715206414828",
      "longitude": "-90.13369247583448"
    }
  },
  {
    "service_request": "2022-871563",
    "request_type": "Abandoned Vehicles",
    "request_reason": "Vehicle Blocking Your Driveway",
    "date_created": "2022-04-01T22:27:53.000",
    "date_modified": "2022-04-01T22:27:53.000",
    "request_status": "Pending",
    "responsible_agency": "Department of Public Works",
    "final_address": "517 S Telemachus St",
    "address_councildis": "B",
    "status": "Pending",
    "rowid": "871563",
    "final_x": "3671234.85787",
    "final_y": "536041.019911",
    "longitude": "-90.10033040424878",
    "latitude": "29.968234663669737",
    "geocoded_column": {
      "latitude": "29.968234663669737",
      "longitude": "-90.10033040424878"
    }
  },
  {
    "service_request": "2022-871562",
    "request_type": "Traffic Signals/Signs/Striping/Streetlights",
    "request_reason": "Street Light Outage/Malfunction",
    "date_created": "2022-04-01T21:45:26.000",
    "date_modified": "2022-04-01T21:45:27.000",
    "request_status": "Pending",
    "responsible_agency": "Department of Public Works",
    "final_address": "7 Richmond Pl",
    "address_councildis": "A",
    "status": "Pending",
    "contractor": "Royal Engineering",
    "rowid": "871562",
    "final_x": "3666562.78925",
    "final_y": "523565.468667",
    "longitude": "-90.11550379053458",
    "latitude": "29.934068366285565",
    "geocoded_column": {
      "latitude": "29.934068366285565",
      "longitude": "-90.11550379053458"
    }
  },
  {
    "service_request": "2022-871561",
    "request_type": "Roads/Drainage",
    "request_reason": "Catch Basin - Broken/Damage",
    "date_created": "2022-04-01T21:37:17.000",
    "date_modified": "2022-04-01T21:37:17.000",
    "request_status": "Pending",
    "responsible_agency": "Department of Public Works",
    "final_address": "5011 Michoud Blvd",
    "address_councildis": "E",
    "status": "Pending",
    "rowid": "871561",
    "final_x": "3724963.76697",
    "final_y": "561815.721055",
    "longitude": "-89.92965750582852",
    "latitude": "30.037405752899105",
    "geocoded_column": {
      "latitude": "30.037405752899105",
      "longitude": "-89.92965750582852"
    }
  },
  {
    "service_request": "2022-871560",
    "request_type": "Health Related Questions",
    "request_reason": "Noise Ordinance Complaint",
    "date_created": "2022-04-01T21:34:27.000",
    "date_modified": "2022-04-01T21:34:27.000",
    "request_status": "Pending",
    "responsible_agency": "Health Department",
    "final_address": "2200 Lafitte St, New Orleans, Louisiana, 70119",
    "status": "Pending",
    "rowid": "871560",
    "longitude": "0.0",
    "latitude": "0.0",
    "geocoded_column": {
      "latitude": "0.0",
      "longitude": "0.0"
    }
  },
  {
    "service_request": "2022-871559",
    "request_type": "Traffic Signals/Signs/Striping/Streetlights",
    "request_reason": "Street Light Outage/Malfunction",
    "date_created": "2022-04-01T21:20:04.000",
    "date_modified": "2022-04-01T21:20:05.000",
    "request_status": "Pending",
    "responsible_agency": "Department of Public Works",
    "final_address": "3731 Rue Delphine",
    "address_councildis": "C",
    "status": "Pending",
    "contractor": "Royal Engineering",
    "rowid": "871559",
    "final_x": "3702964.07876",
    "final_y": "516808.361077",
    "longitude": "-90.00083519715507",
    "latitude": "29.914374666451153",
    "geocoded_column": {
      "latitude": "29.914374666451153",
      "longitude": "-90.00083519715507"
    }
  },
  {
    "service_request": "2022-871558",
    "request_type": "Trash/Recycling",
    "request_reason": "Request a Large Item Pick Up",
    "date_created": "2022-04-01T20:34:47.000",
    "date_modified": "2022-04-01T20:34:47.000",
    "request_status": "Pending",
    "responsible_agency": "Department of Sanitation",
    "final_address": "3312 Laurel St",
    "address_councildis": "B",
    "status": "Assigned to Contractor",
    "contractor": "Richards Disposal",
    "rowid": "871558",
    "final_x": "3675592.04526",
    "final_y": "519033.938167",
    "longitude": "-90.08715432618528",
    "latitude": "29.921341163334084",
    "geocoded_column": {
      "latitude": "29.921341163334084",
      "longitude": "-90.08715432618528"
    }
  },
  {
    "service_request": "2022-871557",
    "request_type": "Trash/Recycling",
    "request_reason": "Order Trash Cart",
    "date_created": "2022-04-01T20:24:08.000",
    "date_modified": "2022-04-01T20:24:09.000",
    "request_status": "Pending",
    "responsible_agency": "Department of Sanitation",
    "final_address": "2914 Banks St",
    "address_councildis": "B",
    "status": "Assigned to Contractor",
    "contractor": "Richards Disposal",
    "rowid": "871557",
    "final_x": "3673726.06062",
    "final_y": "534733.992134",
    "longitude": "-90.09250776393813",
    "latitude": "29.964566832133123",
    "geocoded_column": {
      "latitude": "29.964566832133123",
      "longitude": "-90.09250776393813"
    }
  },
  {
    "service_request": "2022-871556",
    "request_type": "Abandoned Vehicles",
    "request_reason": "Abandoned/Junk Vehicles",
    "date_created": "2022-04-01T20:11:42.000",
    "date_modified": "2022-04-01T20:11:42.000",
    "request_status": "Pending",
    "responsible_agency": "Department of Public Works",
    "final_address": "6942 Bundy Rd",
    "address_councildis": "E",
    "status": "Pending",
    "rowid": "871556",
    "final_x": "3707067.41483",
    "final_y": "560572.971806",
    "longitude": "-89.9862598414211",
    "latitude": "30.034579347960676",
    "geocoded_column": {
      "latitude": "30.034579347960676",
      "longitude": "-89.9862598414211"
    }
  },
  {
    "service_request": "2022-871555",
    "request_type": "Abandoned Vehicles",
    "request_reason": "Abandoned/Junk Vehicles",
    "date_created": "2022-04-01T20:08:21.000",
    "date_modified": "2022-04-01T20:08:21.000",
    "request_status": "Pending",
    "responsible_agency": "Department of Public Works",
    "final_address": "6942 Bundy Rd",
    "address_councildis": "E",
    "status": "Pending",
    "rowid": "871555",
    "final_x": "3707067.41483",
    "final_y": "560572.971806",
    "longitude": "-89.9862598414211",
    "latitude": "30.034579347960676",
    "geocoded_column": {
      "latitude": "30.034579347960676",
      "longitude": "-89.9862598414211"
    }
  },
  {
    "service_request": "2022-871554",
    "request_type": "Abandoned Vehicles",
    "request_reason": "Abandoned/Junk Vehicles",
    "date_created": "2022-04-01T20:01:46.000",
    "date_modified": "2022-04-01T20:01:46.000",
    "request_status": "Pending",
    "responsible_agency": "Department of Public Works",
    "final_address": "6942 Bundy Rd",
    "address_councildis": "E",
    "status": "Pending",
    "rowid": "871554",
    "final_x": "3707067.41483",
    "final_y": "560572.971806",
    "longitude": "-89.9862598414211",
    "latitude": "30.034579347960676",
    "geocoded_column": {
      "latitude": "30.034579347960676",
      "longitude": "-89.9862598414211"
    }
  },
  {
    "service_request": "2022-871553",
    "request_type": "Traffic Signals/Signs/Striping/Streetlights",
    "request_reason": "Street Light Outage/Malfunction",
    "date_created": "2022-04-01T20:00:24.000",
    "date_modified": "2022-04-01T20:00:25.000",
    "request_status": "Pending",
    "responsible_agency": "Department of Public Works",
    "final_address": "707 Union St",
    "address_councildis": "B",
    "status": "Pending",
    "contractor": "Royal Engineering",
    "rowid": "871553",
    "final_x": "3680742.68091",
    "final_y": "529976.011137",
    "longitude": "-90.0705153922159",
    "latitude": "29.951273207038554",
    "geocoded_column": {
      "latitude": "29.951273207038554",
      "longitude": "-90.0705153922159"
    }
  },
  {
    "service_request": "2022-871552",
    "request_type": "Traffic Signals/Signs/Striping/Streetlights",
    "request_reason": "Street Light Outage/Malfunction",
    "date_created": "2022-04-01T19:58:16.000",
    "date_modified": "2022-04-01T19:58:17.000",
    "request_status": "Pending",
    "responsible_agency": "Department of Public Works",
    "final_address": "1010 Port St",
    "address_councildis": "C",
    "status": "Pending",
    "contractor": "Royal Engineering",
    "rowid": "871552",
    "final_x": "3687304.71433",
    "final_y": "536053.416519",
    "longitude": "-90.04958079145497",
    "latitude": "29.967783486682986",
    "geocoded_column": {
      "latitude": "29.967783486682986",
      "longitude": "-90.04958079145497"
    }
  },
  {
    "service_request": "2022-871551",
    "request_type": "Traffic Signals/Signs/Striping/Streetlights",
    "request_reason": "Street Light Outage/Malfunction",
    "date_created": "2022-04-01T19:44:04.000",
    "date_modified": "2022-04-01T19:44:04.000",
    "request_status": "Pending",
    "responsible_agency": "Department of Public Works",
    "final_address": "1515 Perdido St",
    "address_councildis": "B",
    "status": "Pending",
    "contractor": "Royal Engineering",
    "rowid": "871551",
    "final_x": "3678064.62933",
    "final_y": "530813.781314",
    "longitude": "-90.07894240123335",
    "latitude": "29.95365767758251",
    "geocoded_column": {
      "latitude": "29.95365767758251",
      "longitude": "-90.07894240123335"
    }
  },
  {
    "service_request": "2022-871550",
    "request_type": "Traffic Signals/Signs/Striping/Streetlights",
    "request_reason": "Street Light Outage/Malfunction",
    "date_created": "2022-04-01T19:39:28.000",
    "date_modified": "2022-04-01T19:39:29.000",
    "request_status": "Pending",
    "responsible_agency": "Department of Public Works",
    "final_address": "730 Gravier St",
    "address_councildis": "B",
    "status": "Pending",
    "contractor": "Royal Engineering",
    "rowid": "871550",
    "final_x": "3680657.22197",
    "final_y": "530056.224321",
    "longitude": "-90.07078243852914",
    "latitude": "29.95149635572678",
    "geocoded_column": {
      "latitude": "29.95149635572678",
      "longitude": "-90.07078243852914"
    }
  },
  {
    "service_request": "2022-871549",
    "request_type": "Traffic Signals/Signs/Striping/Streetlights",
    "request_reason": "Street Light Outage/Malfunction",
    "date_created": "2022-04-01T19:32:37.000",
    "date_modified": "2022-04-01T19:32:38.000",
    "request_status": "Pending",
    "responsible_agency": "Department of Public Works",
    "final_address": "734 Union St",
    "address_councildis": "B",
    "status": "Pending",
    "contractor": "Royal Engineering",
    "rowid": "871549",
    "final_x": "3680565.24315",
    "final_y": "529966.473345",
    "longitude": "-90.0710759845843",
    "latitude": "29.95125235715663",
    "geocoded_column": {
      "latitude": "29.95125235715663",
      "longitude": "-90.0710759845843"
    }
  },
  {
    "service_request": "2022-871548",
    "request_type": "Traffic Signals/Signs/Striping/Streetlights",
    "request_reason": "Street Light Outage/Malfunction",
    "date_created": "2022-04-01T19:24:40.000",
    "date_modified": "2022-04-01T19:24:41.000",
    "request_status": "Pending",
    "responsible_agency": "Department of Public Works",
    "final_address": "1515 Perdido St",
    "address_councildis": "B",
    "status": "Pending",
    "contractor": "Royal Engineering",
    "rowid": "871548",
    "final_x": "3678064.62933",
    "final_y": "530813.781314",
    "longitude": "-90.07894240123335",
    "latitude": "29.95365767758251",
    "geocoded_column": {
      "latitude": "29.95365767758251",
      "longitude": "-90.07894240123335"
    }
  },
  {
    "service_request": "2022-871547",
    "request_type": "Traffic Signals/Signs/Striping/Streetlights",
    "request_reason": "Street Light Outage/Malfunction",
    "date_created": "2022-04-01T19:19:27.000",
    "date_modified": "2022-04-01T19:19:27.000",
    "request_status": "Pending",
    "responsible_agency": "Department of Public Works",
    "final_address": "1515 Perdido St",
    "address_councildis": "B",
    "status": "Pending",
    "contractor": "Royal Engineering",
    "rowid": "871547",
    "final_x": "3678064.62933",
    "final_y": "530813.781314",
    "longitude": "-90.07894240123335",
    "latitude": "29.95365767758251",
    "geocoded_column": {
      "latitude": "29.95365767758251",
      "longitude": "-90.07894240123335"
    }
  },
  {
    "service_request": "2022-871546",
    "request_type": "Roads/Drainage",
    "request_reason": "Catch Basin - Clogged",
    "date_created": "2022-04-01T19:16:13.000",
    "date_modified": "2022-04-01T19:16:13.000",
    "request_status": "Pending",
    "responsible_agency": "Department of Public Works",
    "final_address": "1301 Simon Bolivar Ave",
    "address_councildis": "B",
    "status": "Pending",
    "rowid": "871546",
    "final_x": "3677558.27246",
    "final_y": "527277.501503",
    "longitude": "-90.08066333662578",
    "latitude": "29.943949318997994",
    "geocoded_column": {
      "latitude": "29.943949318997994",
      "longitude": "-90.08066333662578"
    }
  },
  {
    "service_request": "2022-871545",
    "request_type": "Property Maintenance",
    "request_reason": "Property Maintenance",
    "date_created": "2022-04-01T18:57:19.000",
    "date_modified": "2022-04-01T18:57:19.000",
    "request_status": "Pending",
    "responsible_agency": "Department of Code Enforcement",
    "final_address": "1842 Pauger St",
    "address_councildis": "C",
    "status": "Pending",
    "rowid": "871545",
    "final_x": "3683817.97948",
    "final_y": "536531.003719",
    "longitude": "-90.06057523197822",
    "latitude": "29.969203637950603",
    "geocoded_column": {
      "latitude": "29.969203637950603",
      "longitude": "-90.06057523197822"
    }
  },
  {
    "service_request": "2022-871544",
    "request_type": "Property Maintenance",
    "request_reason": "Property Maintenance",
    "date_created": "2022-04-01T18:40:28.000",
    "date_modified": "2022-04-01T18:40:28.000",
    "request_status": "Pending",
    "responsible_agency": "Department of Code Enforcement",
    "final_address": "7409 Dogwood Dr",
    "address_councildis": "E",
    "status": "Pending",
    "rowid": "871544",
    "final_x": "3701590.96471",
    "final_y": "560435.921886",
    "longitude": "-90.00357111898242",
    "latitude": "30.034378403825855",
    "geocoded_column": {
      "latitude": "30.034378403825855",
      "longitude": "-90.00357111898242"
    }
  },
  {
    "service_request": "2022-871543",
    "request_type": "Health Related Questions",
    "request_reason": "Noise Ordinance Complaint",
    "date_created": "2022-04-01T18:32:53.000",
    "date_modified": "2022-04-01T18:32:53.000",
    "request_status": "Pending",
    "responsible_agency": "Health Department",
    "final_address": "N BROAD ST & DUMAINE ST",
    "address_councildis": "D",
    "status": "Pending",
    "rowid": "871543",
    "final_x": "3677159.2",
    "final_y": "537514.28",
    "longitude": "-90.08157023820759",
    "latitude": "29.972109005661437",
    "geocoded_column": {
      "latitude": "29.972109005661437",
      "longitude": "-90.08157023820759"
    }
  },
  {
    "service_request": "2022-871542",
    "request_type": "Safety & Permits",
    "request_reason": "Licenses & Permits",
    "date_created": "2022-04-01T18:16:41.000",
    "date_modified": "2022-04-01T18:16:41.000",
    "request_status": "Pending",
    "responsible_agency": "Safety and Permits",
    "final_address": "4411 Canal St",
    "address_councildis": "A",
    "status": "Pending",
    "rowid": "871542",
    "final_x": "3669935.69818",
    "final_y": "539371.672074",
    "longitude": "-90.10432039936207",
    "latitude": "29.97743121282703",
    "geocoded_column": {
      "latitude": "29.97743121282703",
      "longitude": "-90.10432039936207"
    }
  },
  {
    "service_request": "2022-871541",
    "request_type": "Traffic Signals/Signs/Striping/Streetlights",
    "request_reason": "Traffic Sign Missing/Damaged",
    "date_created": "2022-04-01T17:47:35.000",
    "date_modified": "2022-04-01T17:47:35.000",
    "request_status": "Pending",
    "responsible_agency": "Department of Public Works",
    "final_address": "233 Walnut St",
    "address_councildis": "A",
    "status": "Pending",
    "rowid": "871541",
    "final_x": "3661448.78227",
    "final_y": "521325.549881",
    "longitude": "-90.13172275675723",
    "latitude": "29.92805775464452",
    "geocoded_column": {
      "latitude": "29.92805775464452",
      "longitude": "-90.13172275675723"
    }
  },
  {
    "service_request": "2022-871540",
    "request_type": "Abandoned Vehicles",
    "request_reason": "Abandoned/Junk Vehicles",
    "date_created": "2022-04-01T17:25:41.000",
    "date_modified": "2022-04-01T17:25:41.000",
    "request_status": "Pending",
    "responsible_agency": "Department of Public Works",
    "final_address": "3300 BLK Washington Ave",
    "address_councildis": "B",
    "status": "Pending",
    "rowid": "871540",
    "final_x": "3672483.16123",
    "final_y": "527724.169733",
    "longitude": "-90.09667166841606",
    "latitude": "29.945329093792864",
    "geocoded_column": {
      "latitude": "29.945329093792864",
      "longitude": "-90.09667166841606"
    }
  },
  {
    "service_request": "2022-871539",
    "request_type": "Trash/Recycling",
    "request_reason": "Replace Trash Cart",
    "date_created": "2022-04-01T17:13:20.000",
    "date_modified": "2022-04-01T17:13:21.000",
    "request_status": "Pending",
    "responsible_agency": "Department of Sanitation",
    "final_address": "7306 Malvern Dr",
    "address_councildis": "E",
    "status": "Assigned to Contractor",
    "contractor": "Metro Disposal",
    "rowid": "871539",
    "final_x": "3702745.10282",
    "final_y": "560576.410462",
    "longitude": "-89.99991874388358",
    "latitude": "30.034727813843553",
    "geocoded_column": {
      "latitude": "30.034727813843553",
      "longitude": "-89.99991874388358"
    }
  },
  {
    "service_request": "2022-871538",
    "request_type": "Safety & Permits",
    "request_reason": "Short term Rental (Enforcement)",
    "date_created": "2022-04-01T17:07:30.000",
    "date_modified": "2022-04-01T17:07:30.000",
    "request_status": "Pending",
    "responsible_agency": "Safety and Permits",
    "status": "Pending",
    "rowid": "871538",
    "longitude": "0.0",
    "latitude": "0.0",
    "geocoded_column": {
      "latitude": "0.0",
      "longitude": "0.0"
    }
  },
  {
    "service_request": "2022-871537",
    "request_type": "Trash/Recycling",
    "request_reason": "Request a Large Item Pick Up",
    "date_created": "2022-04-01T17:06:46.000",
    "date_modified": "2022-04-01T17:06:47.000",
    "request_status": "Pending",
    "responsible_agency": "Department of Sanitation",
    "final_address": "1812 Desire St",
    "address_councildis": "D",
    "status": "Assigned to Contractor",
    "contractor": "Metro Disposal",
    "rowid": "871537",
    "final_x": "3690823.66787",
    "final_y": "538465.255817",
    "longitude": "-90.03838179650715",
    "latitude": "29.974306319213607",
    "geocoded_column": {
      "latitude": "29.974306319213607",
      "longitude": "-90.03838179650715"
    }
  },
  {
    "service_request": "2022-871536",
    "request_type": "Trash/Recycling",
    "request_reason": "Request a Large Item Pick Up",
    "date_created": "2022-04-01T17:03:46.000",
    "date_modified": "2022-04-01T17:03:47.000",
    "request_status": "Pending",
    "responsible_agency": "Department of Sanitation",
    "final_address": "4218 S Robertson St",
    "address_councildis": "B",
    "status": "Assigned to Contractor",
    "contractor": "Richards Disposal",
    "rowid": "871536",
    "final_x": "3671064.58305",
    "final_y": "524396.486524",
    "longitude": "-90.10126355442604",
    "latitude": "29.93622106787921",
    "geocoded_column": {
      "latitude": "29.93622106787921",
      "longitude": "-90.10126355442604"
    }
  },
  {
    "service_request": "2022-871535",
    "request_type": "Trash/Recycling",
    "request_reason": "Missed Trash Pick-Up",
    "date_created": "2022-04-01T16:53:04.000",
    "date_modified": "2022-04-01T16:53:05.000",
    "request_status": "Pending",
    "responsible_agency": "Department of Sanitation",
    "final_address": "11210 N Parkwood Ct",
    "address_councildis": "E",
    "status": "Assigned to Contractor",
    "contractor": "Metro Disposal",
    "rowid": "871535",
    "final_x": "3716543.09157",
    "final_y": "559121.364124",
    "longitude": "-89.9563708162498",
    "latitude": "30.030278303222833",
    "geocoded_column": {
      "latitude": "30.030278303222833",
      "longitude": "-89.9563708162498"
    }
  },
  {
    "service_request": "2022-871534",
    "request_type": "Trash/Recycling",
    "request_reason": "Request a Large Item Pick Up",
    "date_created": "2022-04-01T16:48:45.000",
    "date_modified": "2022-04-01T16:48:46.000",
    "request_status": "Pending",
    "responsible_agency": "Department of Sanitation",
    "final_address": "3141 Mansfield Ave",
    "address_councildis": "C",
    "status": "Assigned to Contractor",
    "contractor": "Richards Disposal",
    "rowid": "871534",
    "final_x": "3709056.63672",
    "final_y": "518654.244471",
    "longitude": "-89.98153646260958",
    "latitude": "29.919253981261125",
    "geocoded_column": {
      "latitude": "29.919253981261125",
      "longitude": "-89.98153646260958"
    }
  },
  {
    "service_request": "2022-871533",
    "request_type": "Abandoned Vehicles",
    "request_reason": "Abandoned/Junk Vehicles",
    "date_created": "2022-04-01T16:46:26.000",
    "date_modified": "2022-04-01T16:46:26.000",
    "request_status": "Pending",
    "responsible_agency": "Department of Public Works",
    "final_address": "1519 Tupelo St",
    "address_councildis": "E",
    "status": "Pending",
    "rowid": "871533",
    "final_x": "3700149.36605",
    "final_y": "534854.576646",
    "longitude": "-90.00906103006561",
    "latitude": "29.964085163713506",
    "geocoded_column": {
      "latitude": "29.964085163713506",
      "longitude": "-90.00906103006561"
    }
  },
  {
    "service_request": "2022-871531",
    "request_type": "Abandoned Vehicles",
    "request_reason": "Abandoned/Junk Vehicles",
    "date_created": "2022-04-01T16:46:24.000",
    "date_modified": "2022-04-01T16:46:24.000",
    "request_status": "Pending",
    "responsible_agency": "Department of Public Works",
    "final_address": "1519 Tupelo St",
    "address_councildis": "E",
    "status": "Pending",
    "rowid": "871531",
    "final_x": "3700149.36605",
    "final_y": "534854.576646",
    "longitude": "-90.00906103006561",
    "latitude": "29.964085163713506",
    "geocoded_column": {
      "latitude": "29.964085163713506",
      "longitude": "-90.00906103006561"
    }
  },
  {
    "service_request": "2022-871532",
    "request_type": "Abandoned Vehicles",
    "request_reason": "Abandoned/Junk Vehicles",
    "date_created": "2022-04-01T16:46:24.000",
    "date_modified": "2022-04-01T16:46:24.000",
    "request_status": "Pending",
    "responsible_agency": "Department of Public Works",
    "final_address": "1519 Tupelo St",
    "address_councildis": "E",
    "status": "Pending",
    "rowid": "871532",
    "final_x": "3700149.36605",
    "final_y": "534854.576646",
    "longitude": "-90.00906103006561",
    "latitude": "29.964085163713506",
    "geocoded_column": {
      "latitude": "29.964085163713506",
      "longitude": "-90.00906103006561"
    }
  },
  {
    "service_request": "2022-871530",
    "request_type": "Trash/Recycling",
    "request_reason": "Repair Recycling Cart",
    "date_created": "2022-04-01T16:43:44.000",
    "date_modified": "2022-04-01T16:43:44.000",
    "request_status": "Pending",
    "responsible_agency": "Department of Sanitation",
    "final_address": "3712 Vincennes Pl",
    "address_councildis": "A",
    "status": "Pending",
    "rowid": "871530",
    "final_x": "3668121.59354",
    "final_y": "529299.836289",
    "longitude": "-90.11038947473114",
    "latitude": "29.94979037835651",
    "geocoded_column": {
      "latitude": "29.94979037835651",
      "longitude": "-90.11038947473114"
    }
  },
  {
    "service_request": "2022-871529",
    "request_type": "Abandoned Vehicles",
    "request_reason": "Abandoned/Junk Vehicles",
    "date_created": "2022-04-01T16:43:14.000",
    "date_modified": "2022-04-01T16:43:14.000",
    "request_status": "Pending",
    "responsible_agency": "Department of Public Works",
    "final_address": "1519 Tupelo St",
    "address_councildis": "E",
    "status": "Pending",
    "rowid": "871529",
    "final_x": "3700149.36605",
    "final_y": "534854.576646",
    "longitude": "-90.00906103006561",
    "latitude": "29.964085163713506",
    "geocoded_column": {
      "latitude": "29.964085163713506",
      "longitude": "-90.00906103006561"
    }
  },
  {
    "service_request": "2022-871528",
    "request_type": "Abandoned Vehicles",
    "request_reason": "Abandoned/Junk Vehicles",
    "date_created": "2022-04-01T16:43:09.000",
    "date_modified": "2022-04-01T16:43:09.000",
    "request_status": "Pending",
    "responsible_agency": "Department of Public Works",
    "final_address": "601 Philip St",
    "address_councildis": "B",
    "status": "Pending",
    "rowid": "871528",
    "final_x": "3679659.76994",
    "final_y": "520440.728888",
    "longitude": "-90.0742655184243",
    "latitude": "29.9250871094847",
    "geocoded_column": {
      "latitude": "29.9250871094847",
      "longitude": "-90.0742655184243"
    }
  },
  {
    "service_request": "2022-871527",
    "request_type": "Abandoned Vehicles",
    "request_reason": "Abandoned/Junk Vehicles",
    "date_created": "2022-04-01T16:42:12.000",
    "date_modified": "2022-04-01T16:42:12.000",
    "request_status": "Pending",
    "responsible_agency": "Department of Public Works",
    "final_address": "601 Philip St",
    "address_councildis": "B",
    "status": "Pending",
    "rowid": "871527",
    "final_x": "3679659.76994",
    "final_y": "520440.728888",
    "longitude": "-90.0742655184243",
    "latitude": "29.9250871094847",
    "geocoded_column": {
      "latitude": "29.9250871094847",
      "longitude": "-90.0742655184243"
    }
  },
  {
    "service_request": "2022-871526",
    "request_type": "Abandoned Vehicles",
    "request_reason": "Abandoned/Junk Vehicles",
    "date_created": "2022-04-01T16:41:19.000",
    "date_modified": "2022-04-01T16:41:19.000",
    "request_status": "Pending",
    "responsible_agency": "Department of Public Works",
    "final_address": "601 Philip St",
    "address_councildis": "B",
    "status": "Pending",
    "rowid": "871526",
    "final_x": "3679659.76994",
    "final_y": "520440.728888",
    "longitude": "-90.0742655184243",
    "latitude": "29.9250871094847",
    "geocoded_column": {
      "latitude": "29.9250871094847",
      "longitude": "-90.0742655184243"
    }
  },
  {
    "service_request": "2022-871525",
    "request_type": "Trash/Recycling",
    "request_reason": "Illegal Dumping",
    "date_created": "2022-04-01T16:39:43.000",
    "date_modified": "2022-04-01T16:39:43.000",
    "request_status": "Pending",
    "responsible_agency": "Department of Code Enforcement",
    "final_address": "3200 Toledano St",
    "address_councildis": "B",
    "status": "Pending",
    "rowid": "871525",
    "final_x": "3672117.19828",
    "final_y": "527363.796415",
    "longitude": "-90.09783940076962",
    "latitude": "29.944349040400784",
    "geocoded_column": {
      "latitude": "29.944349040400784",
      "longitude": "-90.09783940076962"
    }
  },
  {
    "service_request": "2022-871524",
    "request_type": "Abandoned Vehicles",
    "request_reason": "Abandoned/Junk Vehicles",
    "date_created": "2022-04-01T16:39:27.000",
    "date_modified": "2022-04-01T16:39:27.000",
    "request_status": "Pending",
    "responsible_agency": "Department of Public Works",
    "final_address": "601 Philip St",
    "address_councildis": "B",
    "status": "Pending",
    "rowid": "871524",
    "final_x": "3679659.76994",
    "final_y": "520440.728888",
    "longitude": "-90.0742655184243",
    "latitude": "29.9250871094847",
    "geocoded_column": {
      "latitude": "29.9250871094847",
      "longitude": "-90.0742655184243"
    }
  },
  {
    "service_request": "2022-871523",
    "request_type": "Trash/Recycling",
    "request_reason": "Request a Large Item Pick Up",
    "date_created": "2022-04-01T16:38:30.000",
    "date_modified": "2022-04-01T16:38:31.000",
    "request_status": "Pending",
    "responsible_agency": "Department of Sanitation",
    "final_address": "4219 Hollygrove St",
    "address_councildis": "A",
    "status": "Assigned to Contractor",
    "contractor": "Richards Disposal",
    "rowid": "871523",
    "final_x": "3666915.68781",
    "final_y": "538472.742025",
    "longitude": "-90.11388885111347",
    "latitude": "29.97504817843594",
    "geocoded_column": {
      "latitude": "29.97504817843594",
      "longitude": "-90.11388885111347"
    }
  },
  {
    "service_request": "2022-871522",
    "request_type": "Trash/Recycling",
    "request_reason": "Replace Trash Cart",
    "date_created": "2022-04-01T16:37:57.000",
    "date_modified": "2022-04-01T16:37:58.000",
    "request_status": "Pending",
    "responsible_agency": "Department of Sanitation",
    "final_address": "4219 Hollygrove St",
    "address_councildis": "A",
    "status": "Assigned to Contractor",
    "contractor": "Richards Disposal",
    "rowid": "871522",
    "final_x": "3666915.68781",
    "final_y": "538472.742025",
    "longitude": "-90.11388885111347",
    "latitude": "29.97504817843594",
    "geocoded_column": {
      "latitude": "29.97504817843594",
      "longitude": "-90.11388885111347"
    }
  },
  {
    "service_request": "2022-871521",
    "request_type": "Abandoned Vehicles",
    "request_reason": "Abandoned/Junk Vehicles",
    "date_created": "2022-04-01T16:37:35.000",
    "date_modified": "2022-04-01T16:37:35.000",
    "request_status": "Pending",
    "responsible_agency": "Department of Public Works",
    "final_address": "616 Philip St",
    "address_councildis": "B",
    "status": "Pending",
    "rowid": "871521",
    "final_x": "3679535.43797",
    "final_y": "520494.173112",
    "longitude": "-90.07465614118826",
    "latitude": "29.925237819629697",
    "geocoded_column": {
      "latitude": "29.925237819629697",
      "longitude": "-90.07465614118826"
    }
  },
  {
    "service_request": "2022-871520",
    "request_type": "Abandoned Vehicles",
    "request_reason": "Abandoned/Junk Vehicles",
    "date_created": "2022-04-01T16:36:15.000",
    "date_modified": "2022-04-01T16:36:15.000",
    "request_status": "Pending",
    "responsible_agency": "Department of Public Works",
    "final_address": "603 Philip St",
    "address_councildis": "B",
    "status": "Pending",
    "rowid": "871520",
    "final_x": "3679653.07285",
    "final_y": "520448.81516",
    "longitude": "-90.0742863785019",
    "latitude": "29.925109546437533",
    "geocoded_column": {
      "latitude": "29.925109546437533",
      "longitude": "-90.0742863785019"
    }
  },
  {
    "service_request": "2022-871519",
    "request_type": "Abandoned Vehicles",
    "request_reason": "Abandoned/Junk Vehicles",
    "date_created": "2022-04-01T16:33:38.000",
    "date_modified": "2022-04-01T16:33:38.000",
    "request_status": "Pending",
    "responsible_agency": "Department of Public Works",
    "final_address": "601 Philip St",
    "address_councildis": "B",
    "status": "Pending",
    "rowid": "871519",
    "final_x": "3679659.76994",
    "final_y": "520440.728888",
    "longitude": "-90.0742655184243",
    "latitude": "29.9250871094847",
    "geocoded_column": {
      "latitude": "29.9250871094847",
      "longitude": "-90.0742655184243"
    }
  },
  {
    "service_request": "2022-871518",
    "request_type": "Traffic Signals/Signs/Striping/Streetlights",
    "request_reason": "Traffic Sign Missing/Damaged",
    "date_created": "2022-04-01T16:33:22.000",
    "date_modified": "2022-04-01T16:33:22.000",
    "request_status": "Pending",
    "responsible_agency": "Department of Public Works",
    "final_address": "101 Magazine St",
    "address_councildis": "B",
    "status": "Pending",
    "rowid": "871518",
    "final_x": "3681694.06056",
    "final_y": "530136.289473",
    "longitude": "-90.06750581650434",
    "latitude": "29.951685053685758",
    "geocoded_column": {
      "latitude": "29.951685053685758",
      "longitude": "-90.06750581650434"
    }
  },
  {
    "service_request": "2022-871517",
    "request_type": "Parks & Parkways",
    "request_reason": "Request Tree Service (Right of Way/Public Property)",
    "date_created": "2022-04-01T16:33:17.000",
    "date_modified": "2022-04-01T16:34:57.000",
    "request_status": "Pending",
    "responsible_agency": "Department of Parks & Parkway",
    "final_address": "5830 Tchoupitoulas St",
    "address_councildis": "A",
    "status": "Pending",
    "rowid": "871517",
    "final_x": "3664880.47783",
    "final_y": "517276.375605",
    "longitude": "-90.12102486831586",
    "latitude": "29.916824394481672",
    "geocoded_column": {
      "latitude": "29.916824394481672",
      "longitude": "-90.12102486831586"
    }
  },
  {
    "service_request": "2022-871516",
    "request_type": "Trash/Recycling",
    "request_reason": "Request a Large Item Pick Up",
    "date_created": "2022-04-01T16:32:35.000",
    "date_modified": "2022-04-01T16:32:36.000",
    "request_status": "Pending",
    "responsible_agency": "Department of Sanitation",
    "final_address": "3825 Fairmont Dr",
    "address_councildis": "D",
    "status": "Assigned to Contractor",
    "contractor": "Metro Disposal",
    "rowid": "871516",
    "final_x": "3685117.7037",
    "final_y": "546635.278161",
    "longitude": "-90.05611492752284",
    "latitude": "29.996947065101647",
    "geocoded_column": {
      "latitude": "29.996947065101647",
      "longitude": "-90.05611492752284"
    }
  },
  {
    "service_request": "2022-871515",
    "request_type": "Abandoned Vehicles",
    "request_reason": "Abandoned/Junk Vehicles",
    "date_created": "2022-04-01T16:29:38.000",
    "date_modified": "2022-04-01T16:29:38.000",
    "request_status": "Pending",
    "responsible_agency": "Department of Public Works",
    "final_address": "1519 Tupelo St",
    "address_councildis": "E",
    "status": "Pending",
    "rowid": "871515",
    "final_x": "3700149.36605",
    "final_y": "534854.576646",
    "longitude": "-90.00906103006561",
    "latitude": "29.964085163713506",
    "geocoded_column": {
      "latitude": "29.964085163713506",
      "longitude": "-90.00906103006561"
    }
  },
  {
    "service_request": "2022-871514",
    "request_type": "Abandoned Vehicles",
    "request_reason": "Abandoned/Junk Vehicles",
    "date_created": "2022-04-01T16:27:32.000",
    "date_modified": "2022-04-01T16:27:32.000",
    "request_status": "Pending",
    "responsible_agency": "Department of Public Works",
    "final_address": "601 Philip St",
    "address_councildis": "B",
    "status": "Pending",
    "rowid": "871514",
    "final_x": "3679659.76994",
    "final_y": "520440.728888",
    "longitude": "-90.0742655184243",
    "latitude": "29.9250871094847",
    "geocoded_column": {
      "latitude": "29.9250871094847",
      "longitude": "-90.0742655184243"
    }
  },
  {
    "service_request": "2022-871513",
    "request_type": "Trash/Recycling",
    "request_reason": "Repair Trash Cart",
    "date_created": "2022-04-01T16:27:24.000",
    "date_modified": "2022-04-01T16:27:25.000",
    "request_status": "Pending",
    "responsible_agency": "Department of Sanitation",
    "final_address": "203 Rhodes Ave",
    "address_councildis": "C",
    "status": "Assigned to Contractor",
    "contractor": "Richards Disposal",
    "rowid": "871513",
    "final_x": "3706190.37195",
    "final_y": "519311.706231",
    "longitude": "-89.99055941325352",
    "latitude": "29.921154440347443",
    "geocoded_column": {
      "latitude": "29.921154440347443",
      "longitude": "-89.99055941325352"
    }
  },
  {
    "service_request": "2022-871512",
    "request_type": "Traffic Signals/Signs/Striping/Streetlights",
    "request_reason": "Traffic Sign Missing/Damaged",
    "date_created": "2022-04-01T16:18:17.000",
    "date_modified": "2022-04-01T16:18:17.000",
    "request_status": "Pending",
    "responsible_agency": "Department of Public Works",
    "final_address": "300 Poydras St",
    "address_councildis": "B",
    "status": "Pending",
    "rowid": "871512",
    "final_x": "3682130.82364",
    "final_y": "528855.199296",
    "longitude": "-90.06617146342124",
    "latitude": "29.9481492137223",
    "geocoded_column": {
      "latitude": "29.9481492137223",
      "longitude": "-90.06617146342124"
    }
  },
  {
    "service_request": "2022-871511",
    "request_type": "Trash/Recycling",
    "request_reason": "Missed Trash Pick-Up",
    "date_created": "2022-04-01T16:17:42.000",
    "date_modified": "2022-04-01T16:17:43.000",
    "request_status": "Pending",
    "responsible_agency": "Department of Sanitation",
    "final_address": "252 Vallette St, New Orleans, Louisiana, 70114",
    "address_councildis": "C",
    "status": "Assigned to Contractor",
    "contractor": "Richards Disposal",
    "rowid": "871511",
    "final_x": "3687630.04163",
    "final_y": "531035.908546",
    "longitude": "-90.04873104420795",
    "latitude": "29.953977051429145",
    "geocoded_column": {
      "latitude": "29.953977051429145",
      "longitude": "-90.04873104420795"
    }
  },
  {
    "service_request": "2022-871510",
    "request_type": "Traffic Signals/Signs/Striping/Streetlights",
    "request_reason": "Street Light Outage/Malfunction",
    "date_created": "2022-04-01T16:13:49.000",
    "date_modified": "2022-04-01T16:13:50.000",
    "request_status": "Pending",
    "responsible_agency": "Department of Public Works",
    "final_address": "507 Convention Center Blvd",
    "address_councildis": "B",
    "status": "Pending",
    "contractor": "Royal Engineering",
    "rowid": "871510",
    "final_x": "3682521.41423",
    "final_y": "528712.971072",
    "longitude": "-90.06494318203109",
    "latitude": "29.94774625119306",
    "geocoded_column": {
      "latitude": "29.94774625119306",
      "longitude": "-90.06494318203109"
    }
  },
  {
    "service_request": "2022-871508",
    "request_type": "Roads/Drainage",
    "request_reason": "Damaged Sidewalk",
    "date_created": "2022-04-01T16:04:42.000",
    "date_modified": "2022-04-01T16:04:42.000",
    "request_status": "Pending",
    "responsible_agency": "Department of Public Works",
    "final_address": "700 Fulton St",
    "address_councildis": "B",
    "status": "Pending",
    "rowid": "871508",
    "final_x": "3682366.08399",
    "final_y": "527998.300607",
    "longitude": "-90.06545858861404",
    "latitude": "29.945785874841356",
    "geocoded_column": {
      "latitude": "29.945785874841356",
      "longitude": "-90.06545858861404"
    }
  },
  {
    "service_request": "2022-871507",
    "request_type": "Trash/Recycling",
    "request_reason": "Missed Trash Pick-Up",
    "date_created": "2022-04-01T16:03:18.000",
    "date_modified": "2022-04-01T16:03:19.000",
    "request_status": "Pending",
    "responsible_agency": "Department of Sanitation",
    "final_address": "1500 BLK Third St",
    "address_councildis": "B",
    "status": "Assigned to Contractor",
    "contractor": "Richards Disposal",
    "rowid": "871507",
    "final_x": "3676596.65104",
    "final_y": "522642.314739",
    "longitude": "-90.08385902357196",
    "latitude": "29.93123294863763",
    "geocoded_column": {
      "latitude": "29.93123294863763",
      "longitude": "-90.08385902357196"
    }
  },
  {
    "service_request": "2022-871506",
    "request_type": "Trash/Recycling",
    "request_reason": "Request a Large Item Pick Up",
    "date_created": "2022-04-01T15:58:02.000",
    "date_modified": "2022-04-01T15:58:03.000",
    "request_status": "Pending",
    "responsible_agency": "Department of Sanitation",
    "final_address": "2533 Dumaine St",
    "address_councildis": "D",
    "status": "Assigned to Contractor",
    "contractor": "Richards Disposal",
    "rowid": "871506",
    "final_x": "3677807.47758",
    "final_y": "537081.491912",
    "longitude": "-90.07953782526211",
    "latitude": "29.97089949740604",
    "geocoded_column": {
      "latitude": "29.97089949740604",
      "longitude": "-90.07953782526211"
    }
  },
  {
    "service_request": "2022-871505",
    "request_type": "Roads/Drainage",
    "request_reason": "Damaged Sidewalk",
    "date_created": "2022-04-01T15:55:14.000",
    "date_modified": "2022-04-01T15:55:14.000",
    "request_status": "Pending",
    "responsible_agency": "Department of Public Works",
    "final_address": "700 Camp St",
    "address_councildis": "B",
    "status": "Pending",
    "rowid": "871505",
    "final_x": "3681038.13877",
    "final_y": "528353.351104",
    "longitude": "-90.06963898802405",
    "latitude": "29.94680248076086",
    "geocoded_column": {
      "latitude": "29.94680248076086",
      "longitude": "-90.06963898802405"
    }
  },
  {
    "service_request": "2022-871504",
    "request_type": "Traffic Signals/Signs/Striping/Streetlights",
    "request_reason": "Traffic Sign Missing/Damaged",
    "date_created": "2022-04-01T15:50:59.000",
    "date_modified": "2022-04-01T15:50:59.000",
    "request_status": "Pending",
    "responsible_agency": "Department of Public Works",
    "final_address": "610 Girod St",
    "address_councildis": "B",
    "status": "Pending",
    "rowid": "871504",
    "final_x": "3680766.96354",
    "final_y": "528455.326848",
    "longitude": "-90.07049163824882",
    "latitude": "29.947091100417584",
    "geocoded_column": {
      "latitude": "29.947091100417584",
      "longitude": "-90.07049163824882"
    }
  },
  {
    "service_request": "2022-871503",
    "request_type": "Roads/Drainage",
    "request_reason": "Damaged Sidewalk",
    "date_created": "2022-04-01T15:47:40.000",
    "date_modified": "2022-04-01T15:47:40.000",
    "request_status": "Pending",
    "responsible_agency": "Department of Public Works",
    "final_address": "720 Lafayette St",
    "address_councildis": "B",
    "status": "Pending",
    "rowid": "871503",
    "final_x": "3680419.89039",
    "final_y": "528924.81984",
    "longitude": "-90.07157115426376",
    "latitude": "29.94839256200995",
    "geocoded_column": {
      "latitude": "29.94839256200995",
      "longitude": "-90.07157115426376"
    }
  },
  {
    "service_request": "2022-871502",
    "request_type": "Trash/Recycling",
    "request_reason": "Order Trash Cart",
    "date_created": "2022-04-01T15:43:28.000",
    "date_modified": "2022-04-01T15:43:29.000",
    "request_status": "Pending",
    "responsible_agency": "Department of Sanitation",
    "final_address": "1913 N Robertson St",
    "address_councildis": "C",
    "status": "Assigned to Contractor",
    "contractor": "Metro Disposal",
    "rowid": "871502",
    "final_x": "3683888.19189",
    "final_y": "537722.809736",
    "longitude": "-90.0603116806403",
    "latitude": "29.97247854623437",
    "geocoded_column": {
      "latitude": "29.97247854623437",
      "longitude": "-90.0603116806403"
    }
  },
  {
    "service_request": "2022-871501",
    "request_type": "Roads/Drainage",
    "request_reason": "Catch Basin - Clogged",
    "date_created": "2022-04-01T15:40:27.000",
    "date_modified": "2022-04-01T15:40:27.000",
    "request_status": "Pending",
    "responsible_agency": "Department of Public Works",
    "final_address": "605 Canal St",
    "address_councildis": "C",
    "status": "Pending",
    "rowid": "871501",
    "final_x": "3681468.70933",
    "final_y": "530566.535618",
    "longitude": "-90.06820236746819",
    "latitude": "29.952874928570022",
    "geocoded_column": {
      "latitude": "29.952874928570022",
      "longitude": "-90.06820236746819"
    }
  },
  {
    "service_request": "2022-871500",
    "request_type": "Trash/Recycling",
    "request_reason": "Illegal Dumping",
    "date_created": "2022-04-01T15:40:02.000",
    "date_modified": "2022-04-01T15:40:02.000",
    "request_status": "Pending",
    "responsible_agency": "Department of Code Enforcement",
    "final_address": "3419 Louisiana Avenue Prkwy",
    "address_councildis": "B",
    "status": "Pending",
    "rowid": "871500",
    "final_x": "3671753.90951",
    "final_y": "527694.027071",
    "longitude": "-90.09897517854444",
    "latitude": "29.945267832547955",
    "geocoded_column": {
      "latitude": "29.945267832547955",
      "longitude": "-90.09897517854444"
    }
  },
  {
    "service_request": "2022-871499",
    "request_type": "Trash/Recycling",
    "request_reason": "Request a Large Item Pick Up",
    "date_created": "2022-04-01T15:29:04.000",
    "date_modified": "2022-04-01T15:29:06.000",
    "request_status": "Pending",
    "responsible_agency": "Department of Sanitation",
    "final_address": "3022 Delachaise St A",
    "address_councildis": "B",
    "status": "Assigned to Contractor",
    "contractor": "Richards Disposal",
    "rowid": "871499",
    "final_x": "3671748.69012",
    "final_y": "526321.616062",
    "longitude": "-90.09903833425366",
    "latitude": "29.941494304887982",
    "geocoded_column": {
      "latitude": "29.941494304887982",
      "longitude": "-90.09903833425366"
    }
  },
  {
    "service_request": "2022-871498",
    "request_type": "Trash/Recycling",
    "request_reason": "Replace Trash Cart",
    "date_created": "2022-04-01T15:22:50.000",
    "date_modified": "2022-04-01T15:22:51.000",
    "request_status": "Pending",
    "responsible_agency": "Department of Sanitation",
    "final_address": "4500 Viola St",
    "address_councildis": "E",
    "status": "Assigned to Contractor",
    "contractor": "Metro Disposal",
    "rowid": "871498",
    "final_x": "3704045.79703",
    "final_y": "553537.868951",
    "longitude": "-89.99606797508197",
    "latitude": "30.01533286702284",
    "geocoded_column": {
      "latitude": "30.01533286702284",
      "longitude": "-89.99606797508197"
    }
  },
  {
    "service_request": "2022-871497",
    "request_type": "Roads/Drainage",
    "request_reason": "Damaged Sidewalk",
    "date_created": "2022-04-01T15:22:47.000",
    "date_modified": "2022-04-01T15:22:47.000",
    "request_status": "Pending",
    "responsible_agency": "Department of Public Works",
    "final_address": "814 Lafayette St",
    "address_councildis": "B",
    "status": "Pending",
    "rowid": "871497",
    "final_x": "3680051.31048",
    "final_y": "529018.492928",
    "longitude": "-90.0727316598931",
    "latitude": "29.948661286470262",
    "geocoded_column": {
      "latitude": "29.948661286470262",
      "longitude": "-90.0727316598931"
    }
  },
  {
    "service_request": "2022-871496",
    "request_type": "Roads/Drainage",
    "request_reason": "Damaged Sidewalk",
    "date_created": "2022-04-01T15:19:47.000",
    "date_modified": "2022-04-01T15:19:47.000",
    "request_status": "Pending",
    "responsible_agency": "Department of Public Works",
    "final_address": "826 Lafayette St",
    "address_councildis": "B",
    "status": "Pending",
    "rowid": "871496",
    "final_x": "3679985.96117",
    "final_y": "529033.344448",
    "longitude": "-90.07293747949622",
    "latitude": "29.948704099863626",
    "geocoded_column": {
      "latitude": "29.948704099863626",
      "longitude": "-90.07293747949622"
    }
  },
  {
    "service_request": "2022-871495",
    "request_type": "Roads/Drainage",
    "request_reason": "Catch Basin - Clogged",
    "date_created": "2022-04-01T15:19:18.000",
    "date_modified": "2022-04-01T15:19:18.000",
    "request_status": "Pending",
    "responsible_agency": "Department of Public Works",
    "final_address": "701 Canal St",
    "address_councildis": "C",
    "status": "Pending",
    "rowid": "871495",
    "final_x": "3681221.29013",
    "final_y": "530758.078594",
    "longitude": "-90.06897693357314",
    "latitude": "29.953409116160664",
    "geocoded_column": {
      "latitude": "29.953409116160664",
      "longitude": "-90.06897693357314"
    }
  },
  {
    "service_request": "2022-871494",
    "request_type": "Traffic Signals/Signs/Striping/Streetlights",
    "request_reason": "Street Light Outage/Malfunction",
    "date_created": "2022-04-01T15:19:14.000",
    "date_modified": "2022-04-01T15:19:15.000",
    "request_status": "Pending",
    "responsible_agency": "Department of Public Works",
    "final_address": "5643 Chamberlain Dr, New Orleans, Louisiana, 70122",
    "address_councildis": "D",
    "status": "Pending",
    "contractor": "Royal Engineering",
    "rowid": "871494",
    "final_x": "3679481.41538",
    "final_y": "553323.577175",
    "longitude": "-90.07368742546011",
    "latitude": "30.015509036271915",
    "geocoded_column": {
      "latitude": "30.015509036271915",
      "longitude": "-90.07368742546011"
    }
  },
  {
    "service_request": "2022-871493",
    "request_type": "Trash/Recycling",
    "request_reason": "Start Trash Service",
    "date_created": "2022-04-01T15:17:46.000",
    "date_modified": "2022-04-01T15:17:47.000",
    "request_status": "Pending",
    "responsible_agency": "Department of Sanitation",
    "final_address": "5177 Basinview Dr",
    "address_councildis": "E",
    "status": "Assigned to Contractor",
    "contractor": "Metro Disposal",
    "rowid": "871493",
    "final_x": "3698781.17092",
    "final_y": "556560.225498",
    "longitude": "-90.0125915728228",
    "latitude": "30.023811088943102",
    "geocoded_column": {
      "latitude": "30.023811088943102",
      "longitude": "-90.0125915728228"
    }
  },
  {
    "service_request": "2022-871492",
    "request_type": "Trash/Recycling",
    "request_reason": "Order Trash Cart",
    "date_created": "2022-04-01T15:17:21.000",
    "date_modified": "2022-04-01T15:17:22.000",
    "request_status": "Pending",
    "responsible_agency": "Department of Sanitation",
    "final_address": "5177 Basinview Dr",
    "address_councildis": "E",
    "status": "Assigned to Contractor",
    "contractor": "Metro Disposal",
    "rowid": "871492",
    "final_x": "3698781.17092",
    "final_y": "556560.225498",
    "longitude": "-90.0125915728228",
    "latitude": "30.023811088943102",
    "geocoded_column": {
      "latitude": "30.023811088943102",
      "longitude": "-90.0125915728228"
    }
  },
  {
    "service_request": "2022-871491",
    "request_type": "Traffic Signals/Signs/Striping/Streetlights",
    "request_reason": "Request for Stop Sign",
    "date_created": "2022-04-01T15:15:58.000",
    "date_modified": "2022-04-01T15:15:58.000",
    "request_status": "Pending",
    "responsible_agency": "Department of Public Works",
    "final_address": "COLAPISSA ST & BURDETTE ST",
    "address_councildis": "B",
    "status": "Pending",
    "rowid": "871491",
    "final_x": "3667370.5",
    "final_y": "532641.08",
    "longitude": "-90.11264864091233",
    "latitude": "29.958999726714385",
    "geocoded_column": {
      "latitude": "29.958999726714385",
      "longitude": "-90.11264864091233"
    }
  },
  {
    "service_request": "2022-871490",
    "request_type": "Trash/Recycling",
    "request_reason": "Replace Trash Cart",
    "date_created": "2022-04-01T15:11:39.000",
    "date_modified": "2022-04-01T15:11:40.000",
    "request_status": "Pending",
    "responsible_agency": "Department of Sanitation",
    "final_address": "5819 S Johnson St",
    "address_councildis": "A",
    "status": "Assigned to Contractor",
    "contractor": "Richards Disposal",
    "rowid": "871490",
    "final_x": "3667608.01434",
    "final_y": "527261.509375",
    "longitude": "-90.11207968103191",
    "latitude": "29.94420070263057",
    "geocoded_column": {
      "latitude": "29.94420070263057",
      "longitude": "-90.11207968103191"
    }
  },
  {
    "service_request": "2022-871489",
    "request_type": "Trash/Recycling",
    "request_reason": "Illegal Dumping",
    "date_created": "2022-04-01T15:08:25.000",
    "date_modified": "2022-04-01T15:08:25.000",
    "request_status": "Pending",
    "responsible_agency": "Department of Sanitation",
    "final_address": "7TH ST & DRYADES ST",
    "address_councildis": "B",
    "status": "Pending",
    "rowid": "871489",
    "final_x": "3674646.3",
    "final_y": "522995.08",
    "longitude": "-90.09000395751244",
    "latitude": "29.932261273136856",
    "geocoded_column": {
      "latitude": "29.932261273136856",
      "longitude": "-90.09000395751244"
    }
  },
  {
    "service_request": "2022-871488",
    "request_type": "Roads/Drainage",
    "request_reason": "Pothole",
    "date_created": "2022-04-01T15:07:08.000",
    "date_modified": "2022-04-01T15:07:08.000",
    "request_status": "Pending",
    "responsible_agency": "Department of Public Works",
    "final_address": "550 Baronne St",
    "address_councildis": "B",
    "status": "Pending",
    "rowid": "871488",
    "final_x": "3679871.27515",
    "final_y": "529133.143296",
    "longitude": "-90.07329612681656",
    "latitude": "29.948981981496516",
    "geocoded_column": {
      "latitude": "29.948981981496516",
      "longitude": "-90.07329612681656"
    }
  },
  {
    "service_request": "2022-871487",
    "request_type": "Trash/Recycling",
    "request_reason": "Return Trash Cart",
    "date_created": "2022-04-01T15:04:02.000",
    "date_modified": "2022-04-01T15:04:03.000",
    "request_status": "Pending",
    "responsible_agency": "Department of Sanitation",
    "final_address": "8319 Green St",
    "address_councildis": "A",
    "status": "Assigned to Contractor",
    "contractor": "Richards Disposal",
    "rowid": "871487",
    "final_x": "3662523.18279",
    "final_y": "530301.459138",
    "longitude": "-90.12803304966593",
    "latitude": "29.952707627474965",
    "geocoded_column": {
      "latitude": "29.952707627474965",
      "longitude": "-90.12803304966593"
    }
  },
  {
    "service_request": "2022-871486",
    "request_type": "Roads/Drainage",
    "request_reason": "Catch Basin - Clogged",
    "date_created": "2022-04-01T15:01:33.000",
    "date_modified": "2022-04-01T15:01:33.000",
    "request_status": "Pending",
    "responsible_agency": "Department of Public Works",
    "final_address": "701 Canal St",
    "address_councildis": "C",
    "status": "Pending",
    "rowid": "871486",
    "final_x": "3681221.29013",
    "final_y": "530758.078594",
    "longitude": "-90.06897693357314",
    "latitude": "29.953409116160664",
    "geocoded_column": {
      "latitude": "29.953409116160664",
      "longitude": "-90.06897693357314"
    }
  },
  {
    "service_request": "2022-871485",
    "request_type": "Roads/Drainage",
    "request_reason": "Man hole cover issue",
    "date_created": "2022-04-01T14:59:02.000",
    "date_modified": "2022-04-01T14:59:02.000",
    "request_status": "Pending",
    "responsible_agency": "Department of Public Works",
    "final_address": "930 Poydras St",
    "address_councildis": "B",
    "status": "Pending",
    "rowid": "871485",
    "final_x": "3679659.53346",
    "final_y": "529542.218497",
    "longitude": "-90.0739504909318",
    "latitude": "29.950113201883553",
    "geocoded_column": {
      "latitude": "29.950113201883553",
      "longitude": "-90.0739504909318"
    }
  },
  {
    "service_request": "2022-871484",
    "request_type": "Property Maintenance",
    "request_reason": "Property Maintenance",
    "date_created": "2022-04-01T14:56:13.000",
    "date_modified": "2022-04-01T14:56:13.000",
    "request_status": "Pending",
    "responsible_agency": "Department of Code Enforcement",
    "final_address": "502 Nashville Ave",
    "address_councildis": "A",
    "status": "Pending",
    "rowid": "871484",
    "final_x": "3665262.91328",
    "final_y": "518053.415862",
    "longitude": "-90.11979176184829",
    "latitude": "29.918949881491216",
    "geocoded_column": {
      "latitude": "29.918949881491216",
      "longitude": "-90.11979176184829"
    }
  },
  {
    "service_request": "2022-871483",
    "request_type": "Roads/Drainage",
    "request_reason": "Damaged Sidewalk",
    "date_created": "2022-04-01T14:53:54.000",
    "date_modified": "2022-04-01T14:53:54.000",
    "request_status": "Pending",
    "responsible_agency": "Department of Public Works",
    "final_address": "833 Poydras St",
    "address_councildis": "B",
    "status": "Pending",
    "rowid": "871483",
    "final_x": "3680011.55458",
    "final_y": "529610.537345",
    "longitude": "-90.07283662222024",
    "latitude": "29.950290412537097",
    "geocoded_column": {
      "latitude": "29.950290412537097",
      "longitude": "-90.07283662222024"
    }
  },
  {
    "service_request": "2022-871482",
    "request_type": "Safety & Permits",
    "request_reason": "Licenses & Permits",
    "date_created": "2022-04-01T14:53:44.000",
    "date_modified": "2022-04-01T14:53:44.000",
    "request_status": "Pending",
    "responsible_agency": "Safety and Permits",
    "final_address": "1619 S Liberty St",
    "address_councildis": "B",
    "status": "Pending",
    "rowid": "871482",
    "final_x": "3676673.81403",
    "final_y": "526562.668158",
    "longitude": "-90.08348043486053",
    "latitude": "29.942010320855633",
    "geocoded_column": {
      "latitude": "29.942010320855633",
      "longitude": "-90.08348043486053"
    }
  },
  {
    "service_request": "2022-871481",
    "request_type": "Abandoned Vehicles",
    "request_reason": "Abandoned/Junk Vehicles",
    "date_created": "2022-04-01T14:41:53.000",
    "date_modified": "2022-04-01T14:43:41.000",
    "request_status": "Pending",
    "responsible_agency": "Department of Public Works",
    "final_address": "2417 Eagle St",
    "address_councildis": "A",
    "status": "Pending",
    "rowid": "871481",
    "final_x": "3663208.53248",
    "final_y": "533361.885636",
    "longitude": "-90.12576717200292",
    "latitude": "29.961102966200734",
    "geocoded_column": {
      "latitude": "29.961102966200734",
      "longitude": "-90.12576717200292"
    }
  },
  {
    "service_request": "2022-871480",
    "request_type": "Trash/Recycling",
    "request_reason": "Request a Large Item Pick Up",
    "date_created": "2022-04-01T14:24:07.000",
    "date_modified": "2022-04-01T14:24:08.000",
    "request_status": "Pending",
    "responsible_agency": "Department of Sanitation",
    "final_address": "7320 General Haig St",
    "address_councildis": "D",
    "status": "Assigned to Contractor",
    "contractor": "Metro Disposal",
    "rowid": "871480",
    "final_x": "3671193.68219",
    "final_y": "555325.569177",
    "longitude": "-90.09980481803319",
    "latitude": "30.02126171316125",
    "geocoded_column": {
      "latitude": "30.02126171316125",
      "longitude": "-90.09980481803319"
    }
  },
  {
    "service_request": "2022-871479",
    "request_type": "Mosquito, Termite & Rodent Control",
    "request_reason": "Non-Rodent Complaint (Mice, Possums, Snakes)",
    "date_created": "2022-04-01T14:21:42.000",
    "date_modified": "2022-04-01T14:21:42.000",
    "request_status": "Pending",
    "responsible_agency": "Mosquito, Termite & Rodent Control Board",
    "final_address": "5420 Vermillion Blvd",
    "address_councildis": "D",
    "status": "Pending",
    "rowid": "871479",
    "final_x": "3683160.40898",
    "final_y": "552750.457046",
    "longitude": "-90.06208360201023",
    "latitude": "30.013821445612592",
    "geocoded_column": {
      "latitude": "30.013821445612592",
      "longitude": "-90.06208360201023"
    }
  },
  {
    "service_request": "2022-871478",
    "request_type": "Trash/Recycling",
    "request_reason": "Missed Trash Pick-Up",
    "date_created": "2022-04-01T14:20:38.000",
    "date_modified": "2022-04-01T14:20:38.000",
    "request_status": "Pending",
    "responsible_agency": "Department of Sanitation",
    "final_address": "7124 Dorian St",
    "address_councildis": "D",
    "status": "Assigned to Contractor",
    "contractor": "Metro Disposal",
    "rowid": "871478",
    "final_x": "3696070.13424",
    "final_y": "556825.20649",
    "longitude": "-90.0211482814974",
    "latitude": "30.02462532916967",
    "geocoded_column": {
      "latitude": "30.02462532916967",
      "longitude": "-90.0211482814974"
    }
  },
  {
    "service_request": "2022-871477",
    "request_type": "Trash/Recycling",
    "request_reason": "Damaged Caused By Contractor",
    "date_created": "2022-04-01T14:19:22.000",
    "date_modified": "2022-04-01T14:19:23.000",
    "request_status": "Pending",
    "responsible_agency": "Department of Sanitation",
    "final_address": "2700 Marengo St",
    "address_councildis": "B",
    "status": "Assigned to Contractor",
    "contractor": "Richards Disposal",
    "rowid": "871477",
    "final_x": "3671510.59201",
    "final_y": "524888.211452",
    "longitude": "-90.09983877599038",
    "latitude": "29.93755995796886",
    "geocoded_column": {
      "latitude": "29.93755995796886",
      "longitude": "-90.09983877599038"
    }
  },
  {
    "service_request": "2022-871476",
    "request_type": "Traffic Signals/Signs/Striping/Streetlights",
    "request_reason": "Street Light Outage/Malfunction",
    "date_created": "2022-04-01T14:12:06.000",
    "date_modified": "2022-04-01T14:12:07.000",
    "request_status": "Pending",
    "responsible_agency": "Department of Public Works",
    "final_address": "7217 Benson Ct",
    "address_councildis": "E",
    "status": "Pending",
    "contractor": "Royal Engineering",
    "rowid": "871476",
    "final_x": "3705222.00983",
    "final_y": "560961.71523",
    "longitude": "-89.9920771599145",
    "latitude": "30.035707763512978",
    "geocoded_column": {
      "latitude": "30.035707763512978",
      "longitude": "-89.9920771599145"
    }
  },
  {
    "service_request": "2022-871475",
    "request_type": "Traffic Signals/Signs/Striping/Streetlights",
    "request_reason": "Street Light Outage/Malfunction",
    "date_created": "2022-04-01T14:10:02.000",
    "date_modified": "2022-04-01T18:55:07.000",
    "request_status": "Pending",
    "responsible_agency": "Department of Public Works",
    "final_address": "40 Gull St, New Orleans, Louisiana, 70124",
    "address_councildis": "D",
    "status": "Pending",
    "contractor": "Royal Engineering",
    "rowid": "871475",
    "final_x": "3674971.32392",
    "final_y": "555599.857497",
    "longitude": "-90.08785908402562",
    "latitude": "30.021903545600754",
    "geocoded_column": {
      "latitude": "30.021903545600754",
      "longitude": "-90.08785908402562"
    }
  },
  {
    "service_request": "2022-871474",
    "request_type": "Trash/Recycling",
    "request_reason": "MIssed Recycling Pick-Up",
    "date_created": "2022-04-01T14:03:43.000",
    "date_modified": "2022-04-01T14:03:44.000",
    "request_status": "Pending",
    "responsible_agency": "Department of Sanitation",
    "final_address": "335 Octavia St, New Orleans, Louisiana, 70115",
    "address_councildis": "A",
    "status": "Assigned to Contractor",
    "contractor": "Richards Disposal",
    "rowid": "871474",
    "final_x": "3666174.86125",
    "final_y": "517458.966454",
    "longitude": "-90.11693312070753",
    "latitude": "29.91728874282334",
    "geocoded_column": {
      "latitude": "29.91728874282334",
      "longitude": "-90.11693312070753"
    }
  },
  {
    "service_request": "2022-871471",
    "request_type": "Roads/Drainage",
    "request_reason": "Damaged Sidewalk",
    "date_created": "2022-04-01T13:59:59.000",
    "date_modified": "2022-04-01T14:00:00.000",
    "request_status": "Pending",
    "responsible_agency": "Department of Public Works",
    "final_address": "3550 Rue Nichole",
    "address_councildis": "C",
    "status": "Pending",
    "rowid": "871471",
    "final_x": "3704058.70545",
    "final_y": "517493.254774",
    "longitude": "-89.99735500599729",
    "latitude": "29.916222841608757",
    "geocoded_column": {
      "latitude": "29.916222841608757",
      "longitude": "-89.99735500599729"
    }
  },
  {
    "service_request": "2022-871468",
    "request_type": "Parks & Parkways",
    "request_reason": "Request Tree Service (Right of Way/Public Property)",
    "date_created": "2022-04-01T13:58:44.000",
    "date_modified": "2022-04-01T13:58:45.000",
    "request_status": "Pending",
    "responsible_agency": "Department of Parks & Parkway",
    "final_address": "3550 Rue Nichole",
    "address_councildis": "C",
    "status": "Pending",
    "rowid": "871468",
    "final_x": "3704058.70545",
    "final_y": "517493.254774",
    "longitude": "-89.99735500599729",
    "latitude": "29.916222841608757",
    "geocoded_column": {
      "latitude": "29.916222841608757",
      "longitude": "-89.99735500599729"
    }
  },
  {
    "service_request": "2022-871467",
    "request_type": "Trash/Recycling",
    "request_reason": "Order Recycling Cart",
    "date_created": "2022-04-01T13:55:33.000",
    "date_modified": "2022-04-01T13:55:33.000",
    "request_status": "Pending",
    "responsible_agency": "Department of Sanitation",
    "final_address": "2519 Milan St",
    "address_councildis": "B",
    "status": "Pending",
    "rowid": "871467",
    "final_x": "3671314.59073",
    "final_y": "524283.613948",
    "longitude": "-90.10047810480661",
    "latitude": "29.9359033107097",
    "geocoded_column": {
      "latitude": "29.9359033107097",
      "longitude": "-90.10047810480661"
    }
  },
  {
    "service_request": "2022-871466",
    "request_type": "Abandoned Vehicles",
    "request_reason": "Abandoned/Junk Vehicles",
    "date_created": "2022-04-01T13:37:53.000",
    "date_modified": "2022-04-01T13:37:53.000",
    "request_status": "Pending",
    "responsible_agency": "Department of Public Works",
    "final_address": "9216 Hayne Blvd",
    "address_councildis": "E",
    "status": "Pending",
    "rowid": "871466",
    "final_x": "3705354.63223",
    "final_y": "564556.852385",
    "longitude": "-89.99152500957342",
    "latitude": "30.045588700128807",
    "geocoded_column": {
      "latitude": "30.045588700128807",
      "longitude": "-89.99152500957342"
    }
  },
  {
    "service_request": "2022-871465",
    "request_type": "Trash/Recycling",
    "request_reason": "Replace Trash Cart",
    "date_created": "2022-04-01T13:37:11.000",
    "date_modified": "2022-04-01T13:37:15.000",
    "request_status": "Pending",
    "responsible_agency": "Department of Sanitation",
    "final_address": "5134 Sandhurst Dr",
    "address_councildis": "E",
    "status": "Assigned to Contractor",
    "contractor": "Metro Disposal",
    "rowid": "871465",
    "final_x": "3704960.73982",
    "final_y": "556881.936218",
    "longitude": "-89.99305361951755",
    "latitude": "30.024498369924988",
    "geocoded_column": {
      "latitude": "30.024498369924988",
      "longitude": "-89.99305361951755"
    }
  },
  {
    "service_request": "2022-871464",
    "request_type": "Trash/Recycling",
    "request_reason": "Repair Trash Cart",
    "date_created": "2022-04-01T13:35:19.000",
    "date_modified": "2022-04-01T13:35:20.000",
    "request_status": "Pending",
    "responsible_agency": "Department of Sanitation",
    "final_address": "4645 Stemway Dr",
    "address_councildis": "D",
    "status": "Assigned to Contractor",
    "contractor": "Metro Disposal",
    "rowid": "871464",
    "final_x": "3697027.45968",
    "final_y": "553747.297239",
    "longitude": "-90.01823493643799",
    "latitude": "30.01613206617326",
    "geocoded_column": {
      "latitude": "30.01613206617326",
      "longitude": "-90.01823493643799"
    }
  },
  {
    "service_request": "2022-871463",
    "request_type": "Roads/Drainage",
    "request_reason": "Man hole cover issue",
    "date_created": "2022-04-01T13:31:55.000",
    "date_modified": "2022-04-01T13:31:55.000",
    "request_status": "Pending",
    "responsible_agency": "Department of Public Works",
    "final_address": "2474 Vienna St",
    "address_councildis": "D",
    "status": "Pending",
    "rowid": "871463",
    "final_x": "3685651.89737",
    "final_y": "555086.517849",
    "longitude": "-90.0541293958047",
    "latitude": "30.02016851367095",
    "geocoded_column": {
      "latitude": "30.02016851367095",
      "longitude": "-90.0541293958047"
    }
  },
  {
    "service_request": "2022-871462",
    "request_type": "Roads/Drainage",
    "request_reason": "Catch Basin - Broken/Damage",
    "date_created": "2022-04-01T13:30:05.000",
    "date_modified": "2022-04-01T13:30:44.000",
    "request_status": "Pending",
    "responsible_agency": "Department of Public Works",
    "final_address": "1133 Pine St",
    "address_councildis": "A",
    "status": "Pending",
    "rowid": "871462",
    "final_x": "3663919.05843",
    "final_y": "526595.963326",
    "longitude": "-90.12374899222395",
    "latitude": "29.94247825852786",
    "geocoded_column": {
      "latitude": "29.94247825852786",
      "longitude": "-90.12374899222395"
    }
  },
  {
    "service_request": "2022-871460",
    "request_type": "Trash/Recycling",
    "request_reason": "Request a Large Item Pick Up",
    "date_created": "2022-04-01T13:29:14.000",
    "date_modified": "2022-04-01T13:29:14.000",
    "request_status": "Pending",
    "responsible_agency": "Department of Sanitation",
    "final_address": "3640 Rue Denise",
    "address_councildis": "C",
    "status": "Assigned to Contractor",
    "contractor": "Richards Disposal",
    "rowid": "871460",
    "final_x": "3704313.43057",
    "final_y": "517111.136885",
    "longitude": "-89.99656506933107",
    "latitude": "29.91516398010461",
    "geocoded_column": {
      "latitude": "29.91516398010461",
      "longitude": "-89.99656506933107"
    }
  },
  {
    "service_request": "2022-871459",
    "request_type": "Roads/Drainage",
    "request_reason": "Man hole cover issue",
    "date_created": "2022-04-01T13:27:41.000",
    "date_modified": "2022-04-01T13:27:41.000",
    "request_status": "Pending",
    "responsible_agency": "Department of Public Works",
    "final_address": "6201 London Ave",
    "address_councildis": "D",
    "status": "Pending",
    "rowid": "871459",
    "final_x": "3680622.69647",
    "final_y": "555585.623769",
    "longitude": "-90.07000270530018",
    "latitude": "30.021694293299173",
    "geocoded_column": {
      "latitude": "30.021694293299173",
      "longitude": "-90.07000270530018"
    }
  },
  {
    "service_request": "2022-871458",
    "request_type": "Roads/Drainage",
    "request_reason": "Drainage Issue (Catch Basins, Culverts, Ditches, and Manhole Covers)",
    "date_created": "2022-04-01T13:26:15.000",
    "date_modified": "2022-04-01T13:26:15.000",
    "request_status": "Pending",
    "responsible_agency": "Department of Public Works",
    "final_address": "2754 Mithra St",
    "address_councildis": "D",
    "status": "Pending",
    "rowid": "871458",
    "final_x": "3687811.16963",
    "final_y": "552951.621847",
    "longitude": "-90.04738249236485",
    "latitude": "30.01423187970382",
    "geocoded_column": {
      "latitude": "30.01423187970382",
      "longitude": "-90.04738249236485"
    }
  },
  {
    "service_request": "2022-871457",
    "request_type": "Property Maintenance",
    "request_reason": "Property Maintenance",
    "date_created": "2022-04-01T13:22:18.000",
    "date_modified": "2022-04-01T13:22:18.000",
    "request_status": "Pending",
    "responsible_agency": "Department of Code Enforcement",
    "final_address": "900 Canal St",
    "address_councildis": "B",
    "status": "Pending",
    "rowid": "871457",
    "final_x": "3680496.48795",
    "final_y": "531077.842498",
    "longitude": "-90.07125442807181",
    "latitude": "29.95431033000237",
    "geocoded_column": {
      "latitude": "29.95431033000237",
      "longitude": "-90.07125442807181"
    }
  },
  {
    "service_request": "2022-871456",
    "request_type": "Trash/Recycling",
    "request_reason": "Order Trash Cart",
    "date_created": "2022-04-01T13:20:03.000",
    "date_modified": "2022-04-01T13:20:07.000",
    "request_status": "Pending",
    "responsible_agency": "Department of Sanitation",
    "final_address": "474 Pine St",
    "address_councildis": "A",
    "status": "Assigned to Contractor",
    "contractor": "Richards Disposal",
    "rowid": "871456",
    "final_x": "3662271.71021",
    "final_y": "524353.757756",
    "longitude": "-90.12902447629864",
    "latitude": "29.936360618508427",
    "geocoded_column": {
      "latitude": "29.936360618508427",
      "longitude": "-90.12902447629864"
    }
  },
  {
    "service_request": "2022-871455",
    "request_type": "Trash/Recycling",
    "request_reason": "Order Recycling Cart",
    "date_created": "2022-04-01T13:18:22.000",
    "date_modified": "2022-04-01T13:18:22.000",
    "request_status": "Pending",
    "responsible_agency": "Department of Sanitation",
    "final_address": "474 Pine St",
    "address_councildis": "A",
    "status": "Pending",
    "rowid": "871455",
    "final_x": "3662271.71021",
    "final_y": "524353.757756",
    "longitude": "-90.12902447629864",
    "latitude": "29.936360618508427",
    "geocoded_column": {
      "latitude": "29.936360618508427",
      "longitude": "-90.12902447629864"
    }
  },
  {
    "service_request": "2022-871454",
    "request_type": "Trash/Recycling",
    "request_reason": "Request a Large Item Pick Up",
    "date_created": "2022-04-01T13:16:40.000",
    "date_modified": "2022-04-01T13:16:41.000",
    "request_status": "Pending",
    "responsible_agency": "Department of Sanitation",
    "final_address": "6545 Louisville St",
    "address_councildis": "A",
    "status": "Assigned to Contractor",
    "contractor": "Metro Disposal",
    "rowid": "871454",
    "final_x": "3668180.30689",
    "final_y": "551120.929045",
    "longitude": "-90.1094681800635",
    "latitude": "30.00978928907276",
    "geocoded_column": {
      "latitude": "30.00978928907276",
      "longitude": "-90.1094681800635"
    }
  },
  {
    "service_request": "2022-871453",
    "request_type": "Roads/Drainage",
    "request_reason": "Catch Basin - Clogged",
    "date_created": "2022-04-01T13:13:08.000",
    "date_modified": "2022-04-01T13:13:43.000",
    "case_close_date": "2022-04-01T08:13:43.000",
    "request_status": "Closed",
    "responsible_agency": "Department of Public Works",
    "final_address": "122 S Norman C Francis Prkwy Apt 101",
    "address_councildis": "B",
    "status": "Resolved",
    "rowid": "871453",
    "final_x": "3673169.54273",
    "final_y": "536414.008903",
    "longitude": "-90.09420783701795",
    "latitude": "29.96920287186335",
    "geocoded_column": {
      "latitude": "29.96920287186335",
      "longitude": "-90.09420783701795"
    }
  },
  {
    "service_request": "2022-871451",
    "request_type": "Roads/Drainage",
    "request_reason": "Street Subsidence (Sinking)",
    "date_created": "2022-04-01T13:11:54.000",
    "date_modified": "2022-04-01T13:11:54.000",
    "request_status": "Pending",
    "responsible_agency": "Department of Public Works",
    "final_address": "500 French St, New Orleans, Louisiana, 70124",
    "address_councildis": "A",
    "status": "Pending",
    "rowid": "871451",
    "final_x": "3667908.31636",
    "final_y": "548567.374419",
    "longitude": "-90.11041360165416",
    "latitude": "30.002775888842695",
    "geocoded_column": {
      "latitude": "30.002775888842695",
      "longitude": "-90.11041360165416"
    }
  },
  {
    "service_request": "2022-871450",
    "request_type": "Roads/Drainage",
    "request_reason": "Accessibility Ramps, Curbs and Sidewalk Repair",
    "date_created": "2022-04-01T13:10:22.000",
    "date_modified": "2022-04-01T13:10:22.000",
    "request_status": "Pending",
    "responsible_agency": "Department of Public Works",
    "final_address": "1010 Canal St",
    "address_councildis": "B",
    "status": "Pending",
    "rowid": "871450",
    "final_x": "3680168.74031",
    "final_y": "531332.838658",
    "longitude": "-90.0722804631463",
    "latitude": "29.955021405435037",
    "geocoded_column": {
      "latitude": "29.955021405435037",
      "longitude": "-90.0722804631463"
    }
  },
  {
    "service_request": "2022-871448",
    "request_type": "Trash/Recycling",
    "request_reason": "Replace Trash Cart",
    "date_created": "2022-04-01T13:06:39.000",
    "date_modified": "2022-04-01T13:09:40.000",
    "request_status": "Pending",
    "responsible_agency": "Department of Sanitation",
    "final_address": "1219 Frenchmen St",
    "address_councildis": "C",
    "status": "Assigned to Contractor",
    "contractor": "Metro Disposal",
    "rowid": "871448",
    "final_x": "3684579.25487",
    "final_y": "536801.129928",
    "longitude": "-90.05816157848079",
    "latitude": "29.96992311828069",
    "geocoded_column": {
      "latitude": "29.96992311828069",
      "longitude": "-90.05816157848079"
    }
  },
  {
    "service_request": "2022-871447",
    "request_type": "Roads/Drainage",
    "request_reason": "Catch Basin - Clogged",
    "date_created": "2022-04-01T13:01:34.000",
    "date_modified": "2022-04-01T13:01:34.000",
    "request_status": "Pending",
    "responsible_agency": "Department of Public Works",
    "final_address": "201 Loyola Ave",
    "address_councildis": "B",
    "status": "Pending",
    "rowid": "871447",
    "final_x": "3679340.81851",
    "final_y": "531447.969283",
    "longitude": "-90.07489073688018",
    "latitude": "29.955363003913728",
    "geocoded_column": {
      "latitude": "29.955363003913728",
      "longitude": "-90.07489073688018"
    }
  },
  {
    "service_request": "2022-871446",
    "request_type": "Health Related Questions",
    "request_reason": "Noise Ordinance Complaint",
    "date_created": "2022-04-01T13:00:28.000",
    "date_modified": "2022-04-01T13:00:31.000",
    "request_status": "Pending",
    "responsible_agency": "Health Department",
    "final_address": "4014 Franklin Ave",
    "address_councildis": "D",
    "status": "Pending",
    "rowid": "871446",
    "final_x": "3686960.18588",
    "final_y": "547610.296594",
    "longitude": "-90.05026013936559",
    "latitude": "29.999571414909248",
    "geocoded_column": {
      "latitude": "29.999571414909248",
      "longitude": "-90.05026013936559"
    }
  },
  {
    "service_request": "2022-871445",
    "request_type": "Roads/Drainage",
    "request_reason": "Street Subsidence (Sinking)",
    "date_created": "2022-04-01T12:55:34.000",
    "date_modified": "2022-04-01T12:55:34.000",
    "request_status": "Pending",
    "responsible_agency": "Department of Public Works",
    "final_address": "2809 Pocahontas St",
    "address_councildis": "D",
    "status": "Pending",
    "rowid": "871445",
    "final_x": "3688652.45878",
    "final_y": "548373.802002",
    "longitude": "-90.04488708415438",
    "latitude": "30.001618564541257",
    "geocoded_column": {
      "latitude": "30.001618564541257",
      "longitude": "-90.04488708415438"
    }
  },
  {
    "service_request": "2022-871444",
    "request_type": "Roads/Drainage",
    "request_reason": "Pothole",
    "date_created": "2022-04-01T12:51:25.000",
    "date_modified": "2022-04-01T12:51:25.000",
    "request_status": "Pending",
    "responsible_agency": "Department of Public Works",
    "final_address": "4360 Alba Rd",
    "address_councildis": "E",
    "status": "Pending",
    "rowid": "871444",
    "final_x": "3761485.69142",
    "final_y": "573037.900137",
    "longitude": "-89.81377253616445",
    "latitude": "30.066980904321774",
    "geocoded_column": {
      "latitude": "30.066980904321774",
      "longitude": "-89.81377253616445"
    }
  },
  {
    "service_request": "2022-871443",
    "request_type": "Roads/Drainage",
    "request_reason": "Damaged Sidewalk",
    "date_created": "2022-04-01T12:47:58.000",
    "date_modified": "2022-04-01T12:47:58.000",
    "request_status": "Pending",
    "responsible_agency": "Department of Public Works",
    "final_address": "700 Canal St",
    "address_councildis": "B",
    "status": "Pending",
    "rowid": "871443",
    "final_x": "3681088.32981",
    "final_y": "530625.904002",
    "longitude": "-90.06940136900302",
    "latitude": "29.95304971412305",
    "geocoded_column": {
      "latitude": "29.95304971412305",
      "longitude": "-90.06940136900302"
    }
  },
  {
    "service_request": "2022-871442",
    "request_type": "Roads/Drainage",
    "request_reason": "Leaking Hydrant",
    "date_created": "2022-04-01T12:47:47.000",
    "date_modified": "2022-04-01T12:47:47.000",
    "request_status": "Pending",
    "responsible_agency": "Department of Public Works",
    "final_address": "4619 Dart St, New Orleans, Louisiana, 70125",
    "address_councildis": "B",
    "status": "Pending",
    "rowid": "871442",
    "final_x": "3669253.07956",
    "final_y": "531634.037059",
    "longitude": "-90.10673794723184",
    "latitude": "29.956175410659288",
    "geocoded_column": {
      "latitude": "29.956175410659288",
      "longitude": "-90.10673794723184"
    }
  },
  {
    "service_request": "2022-871441",
    "request_type": "Traffic Signals/Signs/Striping/Streetlights",
    "request_reason": "Striping/Road Surface Markings",
    "date_created": "2022-04-01T12:40:39.000",
    "date_modified": "2022-04-01T12:40:39.000",
    "request_status": "Pending",
    "responsible_agency": "Department of Public Works",
    "final_address": "7540 Canal Blvd",
    "address_councildis": "D",
    "status": "Pending",
    "rowid": "871441",
    "final_x": "3669186.23911",
    "final_y": "556688.850138",
    "longitude": "-90.1061016637727",
    "latitude": "30.02506951814734",
    "geocoded_column": {
      "latitude": "30.02506951814734",
      "longitude": "-90.1061016637727"
    }
  },
  {
    "service_request": "2022-871440",
    "request_type": "Trash/Recycling",
    "request_reason": "Missed Trash Pick-Up",
    "date_created": "2022-04-01T12:37:57.000",
    "date_modified": "2022-04-01T12:37:58.000",
    "request_status": "Pending",
    "responsible_agency": "Department of Sanitation",
    "final_address": "3238 Desaix Blvd",
    "address_councildis": "A",
    "status": "Assigned to Contractor",
    "contractor": "Metro Disposal",
    "rowid": "871440",
    "final_x": "3677976.03701",
    "final_y": "543471.878542",
    "longitude": "-90.07878452958118",
    "latitude": "29.988465779126578",
    "geocoded_column": {
      "latitude": "29.988465779126578",
      "longitude": "-90.07878452958118"
    }
  },
  {
    "service_request": "2022-871439",
    "request_type": "Roads/Drainage",
    "request_reason": "Street Flooding / Drainage",
    "date_created": "2022-04-01T12:35:26.000",
    "date_modified": "2022-04-01T12:35:26.000",
    "request_status": "Pending",
    "responsible_agency": "Department of Public Works",
    "final_address": "447 Amethyst St",
    "address_councildis": "D",
    "status": "Pending",
    "rowid": "871439",
    "final_x": "3667768.83956",
    "final_y": "556760.056154",
    "longitude": "-90.11057803785924",
    "latitude": "30.025306974831338",
    "geocoded_column": {
      "latitude": "30.025306974831338",
      "longitude": "-90.11057803785924"
    }
  },
  {
    "service_request": "2022-871438",
    "request_type": "Abandoned Vehicles",
    "request_reason": "Vehicle Blocking Your Driveway",
    "date_created": "2022-04-01T12:33:54.000",
    "date_modified": "2022-04-01T12:41:23.000",
    "request_status": "Pending",
    "responsible_agency": "Department of Public Works",
    "final_address": "2326 N Villere St",
    "address_councildis": "C",
    "rowid": "871438",
    "final_x": "3685926.1679",
    "final_y": "537459.559176",
    "longitude": "-90.05388468749884",
    "latitude": "29.971692284661213",
    "geocoded_column": {
      "latitude": "29.971692284661213",
      "longitude": "-90.05388468749884"
    }
  },
  {
    "service_request": "2022-871437",
    "request_type": "Traffic Signals/Signs/Striping/Streetlights",
    "request_reason": "Traffic Sign Missing/Damaged",
    "date_created": "2022-04-01T12:33:24.000",
    "date_modified": "2022-04-01T12:33:24.000",
    "request_status": "Pending",
    "responsible_agency": "Department of Public Works",
    "final_address": "7TH ST & ST THOMAS ST",
    "address_councildis": "B",
    "status": "Pending",
    "rowid": "871437",
    "final_x": "3677375.8",
    "final_y": "518855.58",
    "longitude": "-90.0815299455695",
    "latitude": "29.920797273018437",
    "geocoded_column": {
      "latitude": "29.920797273018437",
      "longitude": "-90.0815299455695"
    }
  },
  {
    "service_request": "2022-871436",
    "request_type": "Roads/Drainage",
    "request_reason": "Road Shoulder Repair",
    "date_created": "2022-04-01T12:28:56.000",
    "date_modified": "2022-04-01T12:28:56.000",
    "request_status": "Pending",
    "responsible_agency": "Department of Public Works",
    "final_address": "1426 Joliet St",
    "address_councildis": "A",
    "status": "Pending",
    "rowid": "871436",
    "final_x": "3661494.04442",
    "final_y": "530045.213313",
    "longitude": "-90.13129111225612",
    "latitude": "29.952032760056557",
    "geocoded_column": {
      "latitude": "29.952032760056557",
      "longitude": "-90.13129111225612"
    }
  },
  {
    "service_request": "2022-871435",
    "request_type": "Trash/Recycling",
    "request_reason": "Illegal Dumping",
    "date_created": "2022-04-01T12:27:08.000",
    "date_modified": "2022-04-01T12:27:08.000",
    "request_status": "Pending",
    "responsible_agency": "Department of Sanitation",
    "final_address": "400 BLK Seventh St",
    "address_councildis": "B",
    "status": "Pending",
    "rowid": "871435",
    "final_x": "3677494.98585",
    "final_y": "518675.367293",
    "longitude": "-90.08115994656539",
    "latitude": "29.920298165431316",
    "geocoded_column": {
      "latitude": "29.920298165431316",
      "longitude": "-90.08115994656539"
    }
  },
  {
    "service_request": "2022-871434",
    "request_type": "Trash/Recycling",
    "request_reason": "Missed Trash Pick-Up",
    "date_created": "2022-04-01T12:26:30.000",
    "date_modified": "2022-04-01T14:20:27.000",
    "request_status": "Pending",
    "responsible_agency": "Department of Sanitation",
    "final_address": "New Orleans,LA",
    "address_councildis": "A",
    "status": "Assigned to Contractor",
    "contractor": "Richards Disposal",
    "rowid": "871434",
    "final_x": "3671898.56475",
    "final_y": "539691.96033",
    "longitude": "-90.09811009244325",
    "latitude": "29.978253860929733",
    "geocoded_column": {
      "latitude": "29.978253860929733",
      "longitude": "-90.09811009244325"
    }
  },
  {
    "service_request": "2022-871432",
    "request_type": "Safety & Permits",
    "request_reason": "Licenses & Permits",
    "date_created": "2022-04-01T12:13:22.000",
    "date_modified": "2022-04-01T12:13:22.000",
    "request_status": "Pending",
    "responsible_agency": "Safety and Permits",
    "final_address": "7529 Sardonyx St",
    "address_councildis": "D",
    "status": "Pending",
    "rowid": "871432",
    "final_x": "3669754.03406",
    "final_y": "556525.601626",
    "longitude": "-90.10431304875087",
    "latitude": "30.02460390968506",
    "geocoded_column": {
      "latitude": "30.02460390968506",
      "longitude": "-90.10431304875087"
    }
  },
  {
    "service_request": "2022-871431",
    "request_type": "Trash/Recycling",
    "request_reason": "Illegal Dumping",
    "date_created": "2022-04-01T12:06:52.000",
    "date_modified": "2022-04-01T12:07:36.000",
    "request_status": "Pending",
    "responsible_agency": "Department of Sanitation",
    "final_address": "2623 Joliet St",
    "address_councildis": "A",
    "status": "Pending",
    "rowid": "871431",
    "final_x": "3664462.4313",
    "final_y": "533185.791876",
    "longitude": "-90.12181345070285",
    "latitude": "29.960582371079607",
    "geocoded_column": {
      "latitude": "29.960582371079607",
      "longitude": "-90.12181345070285"
    }
  },
  {
    "service_request": "2022-871430",
    "request_type": "Roads/Drainage",
    "request_reason": "Street Flooding / Drainage",
    "date_created": "2022-04-01T11:55:03.000",
    "date_modified": "2022-04-01T11:55:03.000",
    "request_status": "Pending",
    "responsible_agency": "Department of Public Works",
    "final_address": "6060 Marshal Foch St",
    "address_councildis": "A",
    "status": "Pending",
    "rowid": "871430",
    "final_x": "3669777.18196",
    "final_y": "547643.038994",
    "longitude": "-90.10454089825942",
    "latitude": "30.000179311663953",
    "geocoded_column": {
      "latitude": "30.000179311663953",
      "longitude": "-90.10454089825942"
    }
  },
  {
    "service_request": "2022-871429",
    "request_type": "Trash/Recycling",
    "request_reason": "Replace Trash Cart",
    "date_created": "2022-04-01T11:54:31.000",
    "date_modified": "2022-04-01T11:54:32.000",
    "request_status": "Pending",
    "responsible_agency": "Department of Sanitation",
    "final_address": "2614 Behrman Hwy",
    "address_councildis": "C",
    "status": "Assigned to Contractor",
    "contractor": "Richards Disposal",
    "rowid": "871429",
    "final_x": "3692791.88374",
    "final_y": "520815.060345",
    "longitude": "-90.03279842388262",
    "latitude": "29.92571309145661",
    "geocoded_column": {
      "latitude": "29.92571309145661",
      "longitude": "-90.03279842388262"
    }
  },
  {
    "service_request": "2022-871428",
    "request_type": "Trash/Recycling",
    "request_reason": "Replace Trash Cart",
    "date_created": "2022-04-01T11:51:49.000",
    "date_modified": "2022-04-01T11:51:50.000",
    "request_status": "Pending",
    "responsible_agency": "Department of Sanitation",
    "final_address": "202 Fairfax Pl",
    "address_councildis": "C",
    "status": "Assigned to Contractor",
    "contractor": "Richards Disposal",
    "rowid": "871428",
    "final_x": "3706147.04196",
    "final_y": "517505.955702",
    "longitude": "-89.99076297110616",
    "latitude": "29.916190648726104",
    "geocoded_column": {
      "latitude": "29.916190648726104",
      "longitude": "-89.99076297110616"
    }
  },
  {
    "service_request": "2022-871427",
    "request_type": "Abandoned Vehicles",
    "request_reason": "Abandoned/Junk Vehicles",
    "date_created": "2022-04-01T11:50:14.000",
    "date_modified": "2022-04-01T11:50:14.000",
    "request_status": "Pending",
    "responsible_agency": "Department of Public Works",
    "final_address": "2726 Dumaine St, New Orleans, Louisiana, 70119",
    "address_councildis": "A",
    "status": "Pending",
    "rowid": "871427",
    "final_x": "3676896.54146",
    "final_y": "537655.841096",
    "longitude": "-90.08239487716814",
    "latitude": "29.972506137510738",
    "geocoded_column": {
      "latitude": "29.972506137510738",
      "longitude": "-90.08239487716814"
    }
  },
  {
    "service_request": "2022-871426",
    "request_type": "Abandoned Vehicles",
    "request_reason": "Abandoned/Junk Vehicles",
    "date_created": "2022-04-01T11:47:10.000",
    "date_modified": "2022-04-01T11:48:08.000",
    "request_status": "Pending",
    "responsible_agency": "Department of Public Works",
    "final_address": "WALMSLEY AVE & S RENDON ST",
    "address_councildis": "B",
    "status": "Pending",
    "rowid": "871426",
    "final_x": "3669325.5",
    "final_y": "530245.88",
    "longitude": "-90.10655619684681",
    "latitude": "29.952356303005665",
    "geocoded_column": {
      "latitude": "29.952356303005665",
      "longitude": "-90.10655619684681"
    }
  },
  {
    "service_request": "2022-871425",
    "request_type": "Trash/Recycling",
    "request_reason": "Illegal Dumping",
    "date_created": "2022-04-01T11:44:32.000",
    "date_modified": "2022-04-01T11:44:32.000",
    "request_status": "Pending",
    "responsible_agency": "Department of Sanitation",
    "final_address": "N PRIEUR ST & ST FERDINAND ST",
    "address_councildis": "D",
    "status": "Pending",
    "rowid": "871425",
    "final_x": "3688484.2",
    "final_y": "539318.78",
    "longitude": "-90.04574007422377",
    "latitude": "29.976725700469135",
    "geocoded_column": {
      "latitude": "29.976725700469135",
      "longitude": "-90.04574007422377"
    }
  },
  {
    "service_request": "2022-871424",
    "request_type": "Trash/Recycling",
    "request_reason": "Request a Large Item Pick Up",
    "date_created": "2022-04-01T11:41:46.000",
    "date_modified": "2022-04-01T11:41:47.000",
    "request_status": "Pending",
    "responsible_agency": "Department of Sanitation",
    "final_address": "3164 St Bernard Ave",
    "address_councildis": "D",
    "status": "Assigned to Contractor",
    "contractor": "Metro Disposal",
    "rowid": "871424",
    "final_x": "3678874.62568",
    "final_y": "544058.943054",
    "longitude": "-90.07592582309724",
    "latitude": "29.990052918132815",
    "geocoded_column": {
      "latitude": "29.990052918132815",
      "longitude": "-90.07592582309724"
    }
  },
  {
    "service_request": "2022-871423",
    "request_type": "Trash/Recycling",
    "request_reason": "Replace Trash Cart",
    "date_created": "2022-04-01T11:41:20.000",
    "date_modified": "2022-04-01T11:41:20.000",
    "request_status": "Pending",
    "responsible_agency": "Department of Sanitation",
    "final_address": "1334 Cambronne St",
    "address_councildis": "A",
    "status": "Assigned to Contractor",
    "contractor": "Richards Disposal",
    "rowid": "871423",
    "final_x": "3661568.60134",
    "final_y": "529608.984257",
    "longitude": "-90.1310701476341",
    "latitude": "29.950831119467395",
    "geocoded_column": {
      "latitude": "29.950831119467395",
      "longitude": "-90.1310701476341"
    }
  },
  {
    "service_request": "2022-871422",
    "request_type": "Trash/Recycling",
    "request_reason": "Illegal Dumping",
    "date_created": "2022-04-01T11:40:36.000",
    "date_modified": "2022-04-01T11:40:36.000",
    "request_status": "Pending",
    "responsible_agency": "Department of Code Enforcement",
    "final_address": "1312 Elmira Ave",
    "address_councildis": "C",
    "status": "Pending",
    "rowid": "871422",
    "final_x": "3688107.44335",
    "final_y": "526686.874494",
    "longitude": "-90.04737772539693",
    "latitude": "29.942003969065535",
    "geocoded_column": {
      "latitude": "29.942003969065535",
      "longitude": "-90.04737772539693"
    }
  },
  {
    "service_request": "2022-871421",
    "request_type": "Trash/Recycling",
    "request_reason": "Replace Trash Cart",
    "date_created": "2022-04-01T11:39:55.000",
    "date_modified": "2022-04-01T11:39:56.000",
    "request_status": "Pending",
    "responsible_agency": "Department of Sanitation",
    "final_address": "2547 N Tonti St",
    "address_councildis": "D",
    "status": "Assigned to Contractor",
    "contractor": "Metro Disposal",
    "rowid": "871421",
    "final_x": "3686911.36233",
    "final_y": "540938.884299",
    "longitude": "-90.05065029559097",
    "latitude": "29.981228919592404",
    "geocoded_column": {
      "latitude": "29.981228919592404",
      "longitude": "-90.05065029559097"
    }
  },
  {
    "service_request": "2022-871420",
    "request_type": "Trash/Recycling",
    "request_reason": "Request a Large Item Pick Up",
    "date_created": "2022-04-01T11:39:17.000",
    "date_modified": "2022-04-01T11:39:18.000",
    "request_status": "Pending",
    "responsible_agency": "Department of Sanitation",
    "final_address": "2004 St Roch Ave",
    "address_councildis": "D",
    "status": "Assigned to Contractor",
    "contractor": "Metro Disposal",
    "rowid": "871420",
    "final_x": "3686139.37743",
    "final_y": "539802.156682",
    "longitude": "-90.05312868257181",
    "latitude": "29.978127058684827",
    "geocoded_column": {
      "latitude": "29.978127058684827",
      "longitude": "-90.05312868257181"
    }
  },
  {
    "service_request": "2022-871419",
    "request_type": "Abandoned Vehicles",
    "request_reason": "Abandoned/Junk Vehicles",
    "date_created": "2022-04-01T11:34:09.000",
    "date_modified": "2022-04-01T11:34:09.000",
    "request_status": "Pending",
    "responsible_agency": "Department of Public Works",
    "final_address": "3402 Clematis St",
    "address_councildis": "D",
    "status": "Pending",
    "rowid": "871419",
    "final_x": "3686673.93519",
    "final_y": "545443.744656",
    "longitude": "-90.05124099382732",
    "latitude": "29.993622987268612",
    "geocoded_column": {
      "latitude": "29.993622987268612",
      "longitude": "-90.05124099382732"
    }
  },