[
  {
    "service_request": "2025-1198328",
    "request_type": "Trash/Recycling",
    "request_reason": "Request a Large Item Pick Up",
    "date_created": "2025-06-04T23:31:00.000",
    "date_modified": "2025-06-04T23:31:03.000",
    "request_status": "Pending",
    "responsible_agency": "Department of Sanitation",
    "final_address": "609 Wagner St",
    "address_councildis": "C",
    "status": "Assigned to Contractor",
    "contractor": "Richards Disposal",
    "rowid": "1198328",
    "final_x": "3690511.27728",
    "final_y": "529265.848513",
    "longitude": "-90.03969640984072",
    "latitude": "29.949020864497726",
    "geocoded_column": {
      "latitude": "29.949020864497726",
      "longitude": "-90.03969640984072"
    }
  },
  {
    "service_request": "2025-1198327",
    "request_type": "Abandoned Vehicles",
    "request_reason": "Abandoned/Junk Vehicles",
    "date_created": "2025-06-04T23:21:56.000",
    "date_modified": "2025-06-04T23:21:57.000",
    "request_status": "Pending",
    "responsible_agency": "Department of Public Works",
    "final_address": "1900 BLK Dublin St",
    "address_councildis": "A",
    "status": "Pending",
    "rowid": "1198327",
    "final_x": "3663474.81015",
    "final_y": "530558.450482",
    "longitude": "-90.12501966600193",
    "latitude": "29.95338671182171",
    "geocoded_column": {
      "latitude": "29.95338671182171",
      "longitude": "-90.12501966600193"
    }
  },
  {
    "service_request": "2025-1198326",
    "request_type": "Abandoned Vehicles",
    "request_reason": "Abandoned/Junk Vehicles",
    "date_created": "2025-06-04T23:16:43.000",
    "date_modified": "2025-06-04T23:16:45.000",
    "request_status": "Pending",
    "responsible_agency": "Department of Public Works",
    "final_address": "1900 BLK Dublin St",
    "address_councildis": "A",
    "status": "Pending",
    "rowid": "1198326",
    "final_x": "3663474.81015",
    "final_y": "530558.450482",
    "longitude": "-90.12501966600193",
    "latitude": "29.95338671182171",
    "geocoded_column": {
      "latitude": "29.95338671182171",
      "longitude": "-90.12501966600193"
    }
  },
  {
    "service_request": "2025-1198325",
    "request_type": "Trash/Recycling",
    "request_reason": "Request a Large Item Pick Up",
    "date_created": "2025-06-04T22:54:19.000",
    "date_modified": "2025-06-04T22:54:21.000",
    "request_status": "Pending",
    "responsible_agency": "Department of Sanitation",
    "final_address": "2401 Nashville Ave",
    "address_councildis": "A",
    "status": "Assigned to Contractor",
    "contractor": "IV Waste",
    "rowid": "1198325",
    "final_x": "3667135.09684",
    "final_y": "524889.891708",
    "longitude": "-90.11365252468843",
    "latitude": "29.93769336825969",
    "geocoded_column": {
      "latitude": "29.93769336825969",
      "longitude": "-90.11365252468843"
    }
  },
  {
    "service_request": "2025-1198324",
    "request_type": "Abandoned Vehicles",
    "request_reason": "Abandoned/Junk Vehicles",
    "date_created": "2025-06-04T22:46:38.000",
    "date_modified": "2025-06-04T22:46:39.000",
    "request_status": "Pending",
    "responsible_agency": "Department of Public Works",
    "final_address": "8327 Jeannette St",
    "address_councildis": "A",
    "status": "Pending",
    "rowid": "1198324",
    "final_x": "3661975.54445",
    "final_y": "529843.619265",
    "longitude": "-90.12977743957661",
    "latitude": "29.951464543454147",
    "geocoded_column": {
      "latitude": "29.951464543454147",
      "longitude": "-90.12977743957661"
    }
  },
  {
    "service_request": "2025-1198323",
    "request_type": "Roads and Streets",
    "request_reason": "Curb Damage",
    "date_created": "2025-06-04T22:41:35.000",
    "date_modified": "2025-06-04T22:41:43.000",
    "request_status": "Pending",
    "responsible_agency": "Department of Public Works",
    "final_address": "3200 Chippewa St",
    "address_councildis": "B",
    "status": "Pending",
    "rowid": "1198323",
    "final_x": "3676484.11368",
    "final_y": "518601.768375",
    "longitude": "-90.08435332636797",
    "latitude": "29.9201261285269",
    "geocoded_column": {
      "latitude": "29.9201261285269",
      "longitude": "-90.08435332636797"
    }
  },
  {
    "service_request": "2025-1198322",
    "request_type": "Trash/Recycling",
    "request_reason": "Return Trash Cart",
    "date_created": "2025-06-04T22:26:43.000",
    "date_modified": "2025-06-04T22:26:45.000",
    "request_status": "Pending",
    "responsible_agency": "Department of Sanitation",
    "final_address": "2508 Bienville Ave",
    "address_councildis": "B",
    "status": "Assigned to Contractor",
    "contractor": "IV Waste",
    "rowid": "1198322",
    "final_x": "3676491.21934",
    "final_y": "535136.860166",
    "longitude": "-90.08376171354287",
    "latitude": "29.965591957860646",
    "geocoded_column": {
      "latitude": "29.965591957860646",
      "longitude": "-90.08376171354287"
    }
  },
  {
    "service_request": "2025-1198321",
    "request_type": "Streetlights",
    "request_reason": "Streetlight Outage/Malfunction",
    "date_created": "2025-06-04T22:08:31.000",
    "date_modified": "2025-06-04T22:08:33.000",
    "request_status": "Pending",
    "responsible_agency": "Department of Public Works",
    "final_address": "1921 Peniston St",
    "address_councildis": "B",
    "status": "Pending",
    "contractor": "Legacy Professional Services",
    "rowid": "1198321",
    "final_x": "3672635.61864",
    "final_y": "522359.34713",
    "longitude": "-90.09637316536005",
    "latitude": "29.93057305084078",
    "geocoded_column": {
      "latitude": "29.93057305084078",
      "longitude": "-90.09637316536005"
    }
  },
  {
    "service_request": "2025-1198320",
    "request_type": "General Services",
    "request_reason": "General Service Request",
    "date_created": "2025-06-04T21:49:51.000",
    "date_modified": "2025-06-04T21:49:53.000",
    "request_status": "Pending",
    "responsible_agency": "Orleans Parish Communication District",
    "final_address": "New Orleans,LA",
    "status": "Pending",
    "rowid": "1198320",
    "longitude": "0.0",
    "latitude": "0.0",
    "geocoded_column": {
      "latitude": "0.0",
      "longitude": "0.0"
    }
  },
  {
    "service_request": "2025-1198319",
    "request_type": "Trash/Recycling",
    "request_reason": "Request a Large Item Pick Up",
    "date_created": "2025-06-04T21:46:35.000",
    "date_modified": "2025-06-04T21:46:37.000",
    "request_status": "Pending",
    "responsible_agency": "Department of Sanitation",
    "final_address": "7133 Yorktown Dr, New Orleans, Louisiana, 70127",
    "address_councildis": "E",
    "status": "Assigned to Contractor",
    "contractor": "Waste Pro",
    "rowid": "1198319",
    "final_x": "3705975.57329",
    "final_y": "561037.043678",
    "longitude": "-89.98969299230029",
    "latitude": "30.03589061172258",
    "geocoded_column": {
      "latitude": "30.03589061172258",
      "longitude": "-89.98969299230029"
    }
  },
  {
    "service_request": "2025-1198318",
    "request_type": "Street and Traffic Signs",
    "request_reason": "Street Name Sign Damaged or Missing",
    "date_created": "2025-06-04T21:40:38.000",
    "date_modified": "2025-06-04T21:40:40.000",
    "request_status": "Pending",
    "responsible_agency": "Department of Public Works",
    "final_address": "4973 Chantilly Dr",
    "address_councildis": "E",
    "status": "Pending",
    "rowid": "1198318",
    "final_x": "3700827.18922",
    "final_y": "555591.306009",
    "longitude": "-90.00616206248566",
    "latitude": "30.02108192779831",
    "geocoded_column": {
      "latitude": "30.02108192779831",
      "longitude": "-90.00616206248566"
    }
  },
  {
    "service_request": "2025-1198317",
    "request_type": "Trash/Recycling",
    "request_reason": "Request a Large Item Pick Up",
    "date_created": "2025-06-04T21:38:22.000",
    "date_modified": "2025-06-04T21:38:23.000",
    "request_status": "Pending",
    "responsible_agency": "Department of Sanitation",
    "final_address": "13536 N Lemans St",
    "address_councildis": "E",
    "status": "Assigned to Contractor",
    "contractor": "Waste Pro",
    "rowid": "1198317",
    "final_x": "3725772.34726",
    "final_y": "563088.809952",
    "longitude": "-89.92705286439964",
    "latitude": "30.040878960840672",
    "geocoded_column": {
      "latitude": "30.040878960840672",
      "longitude": "-89.92705286439964"
    }
  },
  {
    "service_request": "2025-1198316",
    "request_type": "Streetlights",
    "request_reason": "Streetlight Outage/Malfunction",
    "date_created": "2025-06-04T21:35:10.000",
    "date_modified": "2025-06-04T21:35:11.000",
    "request_status": "Pending",
    "responsible_agency": "Department of Public Works",
    "final_address": "3301 Timber Ridge Ct",
    "address_councildis": "C",
    "status": "Pending",
    "contractor": "Legacy Professional Services",
    "rowid": "1198316",
    "final_x": "3704107.92535",
    "final_y": "511742.657264",
    "longitude": "-89.99741127147867",
    "latitude": "29.90040908353209",
    "geocoded_column": {
      "latitude": "29.90040908353209",
      "longitude": "-89.99741127147867"
    }
  },
  {
    "service_request": "2025-1198315",
    "request_type": "Roads and Streets",
    "request_reason": "Pothole",
    "date_created": "2025-06-04T21:34:21.000",
    "date_modified": "2025-06-04T21:34:22.000",
    "request_status": "Pending",
    "responsible_agency": "Department of Public Works",
    "final_address": "4973 Chantilly Dr",
    "address_councildis": "E",
    "status": "Pending",
    "rowid": "1198315",
    "final_x": "3700827.18922",
    "final_y": "555591.306009",
    "longitude": "-90.00616206248566",
    "latitude": "30.02108192779831",
    "geocoded_column": {
      "latitude": "30.02108192779831",
      "longitude": "-90.00616206248566"
    }
  },
  {
    "service_request": "2025-1198314",
    "request_type": "Streetlights",
    "request_reason": "New Streetlight Request",
    "date_created": "2025-06-04T21:31:43.000",
    "date_modified": "2025-06-04T21:31:45.000",
    "request_status": "Pending",
    "responsible_agency": "Department of Public Works",
    "final_address": "3301 Timber Ridge Ct",
    "address_councildis": "C",
    "status": "Pending",
    "contractor": "Legacy Professional Services",
    "rowid": "1198314",
    "final_x": "3704107.92535",
    "final_y": "511742.657264",
    "longitude": "-89.99741127147867",
    "latitude": "29.90040908353209",
    "geocoded_column": {
      "latitude": "29.90040908353209",
      "longitude": "-89.99741127147867"
    }
  },
  {
    "service_request": "2025-1198313",
    "request_type": "Property Maintenance",
    "request_reason": "Property Maintenance",
    "date_created": "2025-06-04T21:29:31.000",
    "date_modified": "2025-06-04T21:29:32.000",
    "request_status": "Pending",
    "responsible_agency": "Department of Code Enforcement",
    "final_address": "4872 Chantilly Dr",
    "address_councildis": "E",
    "status": "Pending",
    "rowid": "1198313",
    "final_x": "3700728.74615",
    "final_y": "554944.396632",
    "longitude": "-90.00649678181237",
    "latitude": "30.019306309029762",
    "geocoded_column": {
      "latitude": "30.019306309029762",
      "longitude": "-90.00649678181237"
    }
  },
  {
    "service_request": "2025-1198312",
    "request_type": "Trash/Recycling",
    "request_reason": "Order Second Trash Cart",
    "date_created": "2025-06-04T21:28:30.000",
    "date_modified": "2025-06-04T21:28:32.000",
    "request_status": "Pending",
    "responsible_agency": "Department of Sanitation",
    "final_address": "1750 Pressburg Dr",
    "address_councildis": "D",
    "status": "Assigned to Contractor",
    "contractor": "IV Waste",
    "rowid": "1198312",
    "final_x": "3680057.69455",
    "final_y": "554089.576728",
    "longitude": "-90.07184000403821",
    "latitude": "30.017597825132807",
    "geocoded_column": {
      "latitude": "30.017597825132807",
      "longitude": "-90.07184000403821"
    }
  },
  {
    "service_request": "2025-1198311",
    "request_type": "Streetlights",
    "request_reason": "Streetlight Outage/Malfunction",
    "date_created": "2025-06-04T21:18:44.000",
    "date_modified": "2025-06-04T21:18:45.000",
    "request_status": "Pending",
    "responsible_agency": "Department of Public Works",
    "final_address": "4300 BLK Fort Macomb Rd",
    "address_councildis": "E",
    "status": "Pending",
    "contractor": "Legacy Professional Services",
    "rowid": "1198311",
    "final_x": "3763631.454",
    "final_y": "573105.23153",
    "longitude": "-89.80698676970432",
    "latitude": "30.067087617217954",
    "geocoded_column": {
      "latitude": "30.067087617217954",
      "longitude": "-89.80698676970432"
    }
  },
  {
    "service_request": "2025-1198310",
    "request_type": "Parks & Parkways",
    "request_reason": "Tree Stump (removal, grind)",
    "date_created": "2025-06-04T21:13:41.000",
    "date_modified": "2025-06-04T21:13:43.000",
    "request_status": "Pending",
    "responsible_agency": "Department of Parks & Parkway",
    "final_address": "2105 Magazine St",
    "address_councildis": "B",
    "status": "Pending",
    "rowid": "1198310",
    "final_x": "3679093.42402",
    "final_y": "522314.488954",
    "longitude": "-90.0759883857391",
    "latitude": "29.930256436777828",
    "geocoded_column": {
      "latitude": "29.930256436777828",
      "longitude": "-90.0759883857391"
    }
  },
  {
    "service_request": "2025-1198309",
    "request_type": "Trash/Recycling",
    "request_reason": "Request a Large Item Pick Up",
    "date_created": "2025-06-04T20:43:05.000",
    "date_modified": "2025-06-04T20:43:09.000",
    "request_status": "Pending",
    "responsible_agency": "Department of Sanitation",
    "final_address": "1835 Industry St",
    "address_councildis": "D",
    "status": "Assigned to Contractor",
    "contractor": "IV Waste",
    "rowid": "1198309",
    "final_x": "3681777.69724",
    "final_y": "542751.727053",
    "longitude": "-90.06680144090073",
    "latitude": "29.986370618706573",
    "geocoded_column": {
      "latitude": "29.986370618706573",
      "longitude": "-90.06680144090073"
    }
  },
  {
    "service_request": "2025-1198308",
    "request_type": "Trash/Recycling",
    "request_reason": "Order Recycling Cart",
    "date_created": "2025-06-04T20:23:35.000",
    "date_modified": "2025-06-04T20:23:37.000",
    "request_status": "Pending",
    "responsible_agency": "Department of Sanitation",
    "final_address": "225 Walnut St",
    "address_councildis": "A",
    "status": "Pending",
    "rowid": "1198308",
    "final_x": "3661395.55418",
    "final_y": "521207.350969",
    "longitude": "-90.13189469890942",
    "latitude": "29.927734279295464",
    "geocoded_column": {
      "latitude": "29.927734279295464",
      "longitude": "-90.13189469890942"
    }
  },
  {
    "service_request": "2025-1198307",
    "request_type": "Trash/Recycling",
    "request_reason": "Replace Trash Cart",
    "date_created": "2025-06-04T20:12:22.000",
    "date_modified": "2025-06-04T20:12:24.000",
    "request_status": "Pending",
    "responsible_agency": "Department of Sanitation",
    "final_address": "600 BLK S Pierce St",
    "address_councildis": "A",
    "status": "Assigned to Contractor",
    "contractor": "IV Waste",
    "rowid": "1198307",
    "final_x": "3669989.0235",
    "final_y": "536089.333449",
    "longitude": "-90.10426317705354",
    "latitude": "29.968404312956906",
    "geocoded_column": {
      "latitude": "29.968404312956906",
      "longitude": "-90.10426317705354"
    }
  },
  {
    "service_request": "2025-1198306",
    "request_type": "Trash/Recycling",
    "request_reason": "Order Recycling Cart",
    "date_created": "2025-06-04T20:06:37.000",
    "date_modified": "2025-06-04T20:06:39.000",
    "request_status": "Pending",
    "responsible_agency": "Department of Sanitation",
    "final_address": "600 BLK S Pierce St",
    "address_councildis": "A",
    "status": "Pending",
    "rowid": "1198306",
    "final_x": "3669989.0235",
    "final_y": "536089.333449",
    "longitude": "-90.10426317705354",
    "latitude": "29.968404312956906",
    "geocoded_column": {
      "latitude": "29.968404312956906",
      "longitude": "-90.10426317705354"
    }
  },
  {
    "service_request": "2025-1198305",
    "request_type": "Trash/Recycling",
    "request_reason": "MIssed Recycling Pick-Up",
    "date_created": "2025-06-04T19:56:10.000",
    "date_modified": "2025-06-04T19:56:12.000",
    "request_status": "Pending",
    "responsible_agency": "Department of Sanitation",
    "final_address": "7815 Spruce St",
    "address_councildis": "A",
    "status": "Assigned to Contractor",
    "contractor": "IV Waste",
    "rowid": "1198305",
    "final_x": "3664598.66586",
    "final_y": "529826.574081",
    "longitude": "-90.12149543457527",
    "latitude": "29.951341653876096",
    "geocoded_column": {
      "latitude": "29.951341653876096",
      "longitude": "-90.12149543457527"
    }
  },
  {
    "service_request": "2025-1198304",
    "request_type": "Trash/Recycling",
    "request_reason": "Replace Trash Cart",
    "date_created": "2025-06-04T19:52:52.000",
    "date_modified": "2025-06-04T19:53:02.000",
    "request_status": "Pending",
    "responsible_agency": "Department of Sanitation",
    "final_address": "13931 Dwyer Blvd",
    "address_councildis": "E",
    "status": "Assigned to Contractor",
    "contractor": "Waste Pro",
    "rowid": "1198304",
    "final_x": "3727903.14182",
    "final_y": "562808.088672",
    "longitude": "-89.92032986659817",
    "latitude": "30.040035016577193",
    "geocoded_column": {
      "latitude": "30.040035016577193",
      "longitude": "-89.92032986659817"
    }
  },
  {
    "service_request": "2025-1198303",
    "request_type": "Drainage",
    "request_reason": "Catch Basin Clogged",
    "date_created": "2025-06-04T19:50:53.000",
    "date_modified": "2025-06-04T19:50:54.000",
    "request_status": "Pending",
    "responsible_agency": "Sewerage & Water Board",
    "final_address": "1524 St Mary St",
    "address_councildis": "B",
    "status": "Pending",
    "rowid": "1198303",
    "final_x": "3678520.29608",
    "final_y": "524047.648188",
    "longitude": "-90.07773770634712",
    "latitude": "29.935039336339152",
    "geocoded_column": {
      "latitude": "29.935039336339152",
      "longitude": "-90.07773770634712"
    }
  },
  {
    "service_request": "2025-1198302",
    "request_type": "Drainage",
    "request_reason": "Catch Basin Clogged",
    "date_created": "2025-06-04T19:49:25.000",
    "date_modified": "2025-06-04T19:49:27.000",
    "request_status": "Pending",
    "responsible_agency": "Sewerage & Water Board",
    "final_address": "1524 St Mary St",
    "address_councildis": "B",
    "status": "Pending",
    "rowid": "1198302",
    "final_x": "3678520.29608",
    "final_y": "524047.648188",
    "longitude": "-90.07773770634712",
    "latitude": "29.935039336339152",
    "geocoded_column": {
      "latitude": "29.935039336339152",
      "longitude": "-90.07773770634712"
    }
  },
  {
    "service_request": "2025-1198301",
    "request_type": "Abandoned Vehicles",
    "request_reason": "Abandoned/Junk Vehicles",
    "date_created": "2025-06-04T19:44:30.000",
    "date_modified": "2025-06-04T19:44:31.000",
    "request_status": "Pending",
    "responsible_agency": "Department of Public Works",
    "final_address": "1824 Third St",
    "address_councildis": "B",
    "status": "Pending",
    "rowid": "1198301",
    "final_x": "3675895.362",
    "final_y": "523639.675387",
    "longitude": "-90.0860386326061",
    "latitude": "29.93399637395838",
    "geocoded_column": {
      "latitude": "29.93399637395838",
      "longitude": "-90.0860386326061"
    }
  },
  {
    "service_request": "2025-1198300",
    "request_type": "Trash/Recycling",
    "request_reason": "Request a Large Item Pick Up",
    "date_created": "2025-06-04T19:44:15.000",
    "date_modified": "2025-06-04T19:44:16.000",
    "request_status": "Pending",
    "responsible_agency": "Department of Sanitation",
    "final_address": "10311 Flossmoor Dr",
    "address_councildis": "E",
    "status": "Assigned to Contractor",
    "contractor": "Waste Pro",
    "rowid": "1198300",
    "final_x": "3709955.83768",
    "final_y": "563931.027297",
    "longitude": "-89.97700648445907",
    "latitude": "30.04371897655244",
    "geocoded_column": {
      "latitude": "30.04371897655244",
      "longitude": "-89.97700648445907"
    }
  },
  {
    "service_request": "2025-1198299",
    "request_type": "Trash/Recycling",
    "request_reason": "Replace Trash Cart",
    "date_created": "2025-06-04T19:43:11.000",
    "date_modified": "2025-06-04T19:43:13.000",
    "request_status": "Pending",
    "responsible_agency": "Department of Sanitation",
    "final_address": "3928 Perrier St",
    "address_councildis": "B",
    "status": "Assigned to Contractor",
    "contractor": "IV Waste",
    "rowid": "1198299",
    "final_x": "3672530.42779",
    "final_y": "520196.837688",
    "longitude": "-90.09677890976364",
    "latitude": "29.924629966692326",
    "geocoded_column": {
      "latitude": "29.924629966692326",
      "longitude": "-90.09677890976364"
    }
  },
  {
    "service_request": "2025-1198298",
    "request_type": "Abandoned Vehicles",
    "request_reason": "Abandoned/Junk Vehicles",
    "date_created": "2025-06-04T19:37:51.000",
    "date_modified": "2025-06-04T19:37:53.000",
    "request_status": "Pending",
    "responsible_agency": "Department of Public Works",
    "final_address": "419 14Th St",
    "address_councildis": "A",
    "status": "Pending",
    "rowid": "1198298",
    "final_x": "3664623.24704",
    "final_y": "548199.27637",
    "longitude": "-90.12080393498131",
    "latitude": "30.001859740889465",
    "geocoded_column": {
      "latitude": "30.001859740889465",
      "longitude": "-90.12080393498131"
    }
  },
  {
    "service_request": "2025-1198297",
    "request_type": "Abandoned Vehicles",
    "request_reason": "Abandoned/Junk Vehicles",
    "date_created": "2025-06-04T19:35:43.000",
    "date_modified": "2025-06-04T19:35:45.000",
    "request_status": "Pending",
    "responsible_agency": "Department of Public Works",
    "final_address": "419 14Th St",
    "address_councildis": "A",
    "status": "Pending",
    "rowid": "1198297",
    "final_x": "3664623.24704",
    "final_y": "548199.27637",
    "longitude": "-90.12080393498131",
    "latitude": "30.001859740889465",
    "geocoded_column": {
      "latitude": "30.001859740889465",
      "longitude": "-90.12080393498131"
    }
  },
  {
    "service_request": "2025-1198296",
    "request_type": "Property Maintenance",
    "request_reason": "Property Maintenance",
    "date_created": "2025-06-04T19:18:19.000",
    "date_modified": "2025-06-04T19:18:20.000",
    "request_status": "Pending",
    "responsible_agency": "Department of Code Enforcement",
    "final_address": "13010 N Lake Carmel Dr",
    "address_councildis": "E",
    "status": "Pending",
    "rowid": "1198296",
    "final_x": "3716651.11135",
    "final_y": "568712.029413",
    "longitude": "-89.9556650959877",
    "latitude": "30.05664516131172",
    "geocoded_column": {
      "latitude": "30.05664516131172",
      "longitude": "-89.9556650959877"
    }
  },
  {
    "service_request": "2025-1198295",
    "request_type": "Trash/Recycling",
    "request_reason": "Request a Large Item Pick Up",
    "date_created": "2025-06-04T19:15:59.000",
    "date_modified": "2025-06-04T19:16:01.000",
    "request_status": "Pending",
    "responsible_agency": "Department of Sanitation",
    "final_address": "5973 Dreux Ave",
    "address_councildis": "D",
    "status": "Assigned to Contractor",
    "contractor": "Waste Pro",
    "rowid": "1198295",
    "final_x": "3696605.38378",
    "final_y": "553916.125655",
    "longitude": "-90.01956238725798",
    "latitude": "30.01660959379011",
    "geocoded_column": {
      "latitude": "30.01660959379011",
      "longitude": "-90.01956238725798"
    }
  },
  {
    "service_request": "2025-1198294",
    "request_type": "Trash/Recycling",
    "request_reason": "Request a Large Item Pick Up",
    "date_created": "2025-06-04T18:57:50.000",
    "date_modified": "2025-06-04T18:57:52.000",
    "request_status": "Pending",
    "responsible_agency": "Department of Sanitation",
    "final_address": "2712 Baronne St",
    "address_councildis": "B",
    "status": "Assigned to Contractor",
    "contractor": "IV Waste",
    "rowid": "1198294",
    "final_x": "3675686.1556",
    "final_y": "523224.031099",
    "longitude": "-90.08671336531451",
    "latitude": "29.932859747832033",
    "geocoded_column": {
      "latitude": "29.932859747832033",
      "longitude": "-90.08671336531451"
    }
  },
  {
    "service_request": "2025-1198293",
    "request_type": "Trash/Recycling",
    "request_reason": "Return Recycling Cart",
    "date_created": "2025-06-04T18:54:54.000",
    "date_modified": "2025-06-04T18:54:56.000",
    "request_status": "Pending",
    "responsible_agency": "Department of Sanitation",
    "final_address": "4649 Franklin Ave",
    "address_councildis": "D",
    "status": "Pending",
    "rowid": "1198293",
    "final_x": "3686933.53206",
    "final_y": "550084.647572",
    "longitude": "-90.0502568121593",
    "latitude": "30.006375803014585",
    "geocoded_column": {
      "latitude": "30.006375803014585",
      "longitude": "-90.0502568121593"
    }
  },
  {
    "service_request": "2025-1198292",
    "request_type": "Trash/Recycling",
    "request_reason": "MIssed Recycling Pick-Up",
    "date_created": "2025-06-04T18:46:58.000",
    "date_modified": "2025-06-04T18:47:00.000",
    "request_status": "Pending",
    "responsible_agency": "Department of Sanitation",
    "final_address": "7620 Benjamin St",
    "address_councildis": "A",
    "status": "Assigned to Contractor",
    "contractor": "IV Waste",
    "rowid": "1198292",
    "final_x": "3661015.31469",
    "final_y": "524921.205756",
    "longitude": "-90.13297221473809",
    "latitude": "29.937957171277585",
    "geocoded_column": {
      "latitude": "29.937957171277585",
      "longitude": "-90.13297221473809"
    }
  },
  {
    "service_request": "2025-1198291",
    "request_type": "Trash/Recycling",
    "request_reason": "Missed Trash Pick-Up",
    "date_created": "2025-06-04T18:41:20.000",
    "date_modified": "2025-06-04T18:41:22.000",
    "request_status": "Pending",
    "responsible_agency": "Department of Sanitation",
    "final_address": "5600 Chatham Dr",
    "address_councildis": "D",
    "status": "Assigned to Contractor",
    "contractor": "IV Waste",
    "rowid": "1198291",
    "final_x": "3679631.64104",
    "final_y": "553035.570071",
    "longitude": "-90.07322278872405",
    "latitude": "30.01471257917726",
    "geocoded_column": {
      "latitude": "30.01471257917726",
      "longitude": "-90.07322278872405"
    }
  },
  {
    "service_request": "2025-1198290",
    "request_type": "Trash/Recycling",
    "request_reason": "Order Recycling Cart",
    "date_created": "2025-06-04T18:34:44.000",
    "date_modified": "2025-06-04T18:34:47.000",
    "request_status": "Pending",
    "responsible_agency": "Department of Sanitation",
    "final_address": "5151 Eastern St, New Orleans, LA 70122",
    "address_councildis": "D",
    "status": "Pending",
    "rowid": "1198290",
    "final_x": "3687945.41103",
    "final_y": "552082.147094",
    "longitude": "-90.04698919740646",
    "latitude": "30.011837000894044",
    "geocoded_column": {
      "latitude": "30.011837000894044",
      "longitude": "-90.04698919740646"
    }
  },
  {
    "service_request": "2025-1198289",
    "request_type": "Trash/Recycling",
    "request_reason": "Order Trash Cart",
    "date_created": "2025-06-04T18:32:30.000",
    "date_modified": "2025-06-04T18:32:32.000",
    "request_status": "Pending",
    "responsible_agency": "Department of Sanitation",
    "final_address": "7801 Unity Dr, New Orleans, LA 70128",
    "address_councildis": "E",
    "status": "Assigned to Contractor",
    "contractor": "Waste Pro",
    "rowid": "1198289",
    "final_x": "3711848.7141",
    "final_y": "567440.05898",
    "longitude": "-89.97089237145441",
    "latitude": "30.05330564983264",
    "geocoded_column": {
      "latitude": "30.05330564983264",
      "longitude": "-89.97089237145441"
    }
  },
  {
    "service_request": "2025-1198288",
    "request_type": "Trash/Recycling",
    "request_reason": "Order Trash Cart",
    "date_created": "2025-06-04T18:28:44.000",
    "date_modified": "2025-06-04T18:28:46.000",
    "request_status": "Pending",
    "responsible_agency": "Department of Sanitation",
    "final_address": "7801 Unity Dr",
    "address_councildis": "E",
    "status": "Assigned to Contractor",
    "contractor": "Waste Pro",
    "rowid": "1198288",
    "final_x": "3711848.7141",
    "final_y": "567440.05898",
    "longitude": "-89.97089237145441",
    "latitude": "30.05330564983264",
    "geocoded_column": {
      "latitude": "30.05330564983264",
      "longitude": "-89.97089237145441"
    }
  },
  {
    "service_request": "2025-1198287",
    "request_type": "Trash/Recycling",
    "request_reason": "Request a Large Item Pick Up",
    "date_created": "2025-06-04T18:27:10.000",
    "date_modified": "2025-06-04T18:27:13.000",
    "request_status": "Pending",
    "responsible_agency": "Department of Sanitation",
    "final_address": "640 Fats Domino Ave",
    "address_councildis": "E",
    "status": "Assigned to Contractor",
    "contractor": "Waste Pro",
    "rowid": "1198287",
    "final_x": "3697547.94704",
    "final_y": "532232.588803",
    "longitude": "-90.01737112816144",
    "latitude": "29.9569580396132",
    "geocoded_column": {
      "latitude": "29.9569580396132",
      "longitude": "-90.01737112816144"
    }
  },
  {
    "service_request": "2025-1198286",
    "request_type": "Trash/Recycling",
    "request_reason": "Order Recycling Cart",
    "date_created": "2025-06-04T18:23:58.000",
    "date_modified": "2025-06-04T18:24:01.000",
    "request_status": "Pending",
    "responsible_agency": "Department of Sanitation",
    "final_address": "5151 Eastern St",
    "address_councildis": "D",
    "status": "Pending",
    "rowid": "1198286",
    "final_x": "3687945.41103",
    "final_y": "552082.147094",
    "longitude": "-90.04698919740646",
    "latitude": "30.011837000894044",
    "geocoded_column": {
      "latitude": "30.011837000894044",
      "longitude": "-90.04698919740646"
    }
  },
  {
    "service_request": "2025-1198285",
    "request_type": "Trash/Recycling",
    "request_reason": "Request a Large Item Pick Up",
    "date_created": "2025-06-04T18:20:12.000",
    "date_modified": "2025-06-04T18:20:14.000",
    "request_status": "Pending",
    "responsible_agency": "Department of Sanitation",
    "final_address": "1423 Jackson Ave",
    "address_councildis": "B",
    "status": "Assigned to Contractor",
    "contractor": "IV Waste",
    "rowid": "1198285",
    "final_x": "3678172.36232",
    "final_y": "523074.648123",
    "longitude": "-90.07886976055788",
    "latitude": "29.93237438429335",
    "geocoded_column": {
      "latitude": "29.93237438429335",
      "longitude": "-90.07886976055788"
    }
  },
  {
    "service_request": "2025-1198284",
    "request_type": "Trash/Recycling",
    "request_reason": "Request a Large Item Pick Up",
    "date_created": "2025-06-04T18:13:47.000",
    "date_modified": "2025-06-04T18:13:49.000",
    "request_status": "Pending",
    "responsible_agency": "Department of Sanitation",
    "final_address": "1114 Upperline St",
    "address_councildis": "B",
    "status": "Assigned to Contractor",
    "contractor": "IV Waste",
    "rowid": "1198284",
    "final_x": "3668944.56718",
    "final_y": "519487.305847",
    "longitude": "-90.1081222490633",
    "latitude": "29.922784897541703",
    "geocoded_column": {
      "latitude": "29.922784897541703",
      "longitude": "-90.1081222490633"
    }
  },
  {
    "service_request": "2025-1198283",
    "request_type": "Abandoned Vehicles",
    "request_reason": "Abandoned/Junk Vehicles",
    "date_created": "2025-06-04T18:11:02.000",
    "date_modified": "2025-06-04T18:11:04.000",
    "request_status": "Pending",
    "responsible_agency": "Department of Public Works",
    "final_address": "937 Third St",
    "address_councildis": "B",
    "status": "Pending",
    "rowid": "1198283",
    "final_x": "3677821.94402",
    "final_y": "520846.899193",
    "longitude": "-90.08005292185548",
    "latitude": "29.926259345713152",
    "geocoded_column": {
      "latitude": "29.926259345713152",
      "longitude": "-90.08005292185548"
    }
  },
  {
    "service_request": "2025-1198282",
    "request_type": "Trash/Recycling",
    "request_reason": "Request a Large Item Pick Up",
    "date_created": "2025-06-04T18:05:51.000",
    "date_modified": "2025-06-04T18:05:54.000",
    "request_status": "Pending",
    "responsible_agency": "Department of Sanitation",
    "final_address": "13932 Wales St, New Orleans, Louisiana, 70128",
    "address_councildis": "E",
    "status": "Assigned to Contractor",
    "contractor": "Waste Pro",
    "rowid": "1198282",
    "final_x": "3718052.4174",
    "final_y": "572387.623593",
    "longitude": "-89.95109569327667",
    "latitude": "30.066705113770553",
    "geocoded_column": {
      "latitude": "30.066705113770553",
      "longitude": "-89.95109569327667"
    }
  },
  {
    "service_request": "2025-1198281",
    "request_type": "Trash/Recycling",
    "request_reason": "Request a Large Item Pick Up",
    "date_created": "2025-06-04T18:05:25.000",
    "date_modified": "2025-06-04T18:05:27.000",
    "request_status": "Pending",
    "responsible_agency": "Department of Sanitation",
    "final_address": "5432 Douglass St",
    "address_councildis": "E",
    "status": "Assigned to Contractor",
    "contractor": "Waste Pro",
    "rowid": "1198281",
    "final_x": "3696835.45917",
    "final_y": "531717.414275",
    "longitude": "-90.0196395795817",
    "latitude": "29.95556397163048",
    "geocoded_column": {
      "latitude": "29.95556397163048",
      "longitude": "-90.0196395795817"
    }
  },
  {
    "service_request": "2025-1198280",
    "request_type": "Abandoned Vehicles",
    "request_reason": "Abandoned/Junk Vehicles",
    "date_created": "2025-06-04T18:05:16.000",
    "date_modified": "2025-06-04T18:05:19.000",
    "request_status": "Pending",
    "responsible_agency": "Department of Public Works",
    "final_address": "513 S Solomon St",
    "address_councildis": "A",
    "status": "Pending",
    "rowid": "1198280",
    "final_x": "3669518.34369",
    "final_y": "537382.591112",
    "longitude": "-90.10570585405594",
    "latitude": "29.97197421215128",
    "geocoded_column": {
      "latitude": "29.97197421215128",
      "longitude": "-90.10570585405594"
    }
  },
  {
    "service_request": "2025-1198279",
    "request_type": "Trash/Recycling",
    "request_reason": "Request a Large Item Pick Up",
    "date_created": "2025-06-04T18:03:21.000",
    "date_modified": "2025-06-04T18:03:23.000",
    "request_status": "Pending",
    "responsible_agency": "Department of Sanitation",
    "final_address": "5432 Douglass St",
    "address_councildis": "E",
    "status": "Assigned to Contractor",
    "contractor": "Waste Pro",
    "rowid": "1198279",
    "final_x": "3696835.45917",
    "final_y": "531717.414275",
    "longitude": "-90.0196395795817",
    "latitude": "29.95556397163048",
    "geocoded_column": {
      "latitude": "29.95556397163048",
      "longitude": "-90.0196395795817"
    }
  },
  {
    "service_request": "2025-1198278",
    "request_type": "Abandoned Vehicles",
    "request_reason": "Abandoned/Junk Vehicles",
    "date_created": "2025-06-04T18:03:09.000",
    "date_modified": "2025-06-04T18:03:10.000",
    "request_status": "Pending",
    "responsible_agency": "Department of Public Works",
    "final_address": "513 S Solomon St",
    "address_councildis": "A",
    "status": "Pending",
    "rowid": "1198278",
    "final_x": "3669518.34369",
    "final_y": "537382.591112",
    "longitude": "-90.10570585405594",
    "latitude": "29.97197421215128",
    "geocoded_column": {
      "latitude": "29.97197421215128",
      "longitude": "-90.10570585405594"
    }
  },
  {
    "service_request": "2025-1198277",
    "request_type": "Trash/Recycling",
    "request_reason": "Request a Large Item Pick Up",
    "date_created": "2025-06-04T17:53:50.000",
    "date_modified": "2025-06-04T17:53:52.000",
    "request_status": "Pending",
    "responsible_agency": "Department of Sanitation",
    "final_address": "8941 Gervais St",
    "address_councildis": "E",
    "status": "Assigned to Contractor",
    "contractor": "Waste Pro",
    "rowid": "1198277",
    "final_x": "3705058.30046",
    "final_y": "563369.981216",
    "longitude": "-89.99250545062806",
    "latitude": "30.04233481331336",
    "geocoded_column": {
      "latitude": "30.04233481331336",
      "longitude": "-89.99250545062806"
    }
  },
  {
    "service_request": "2025-1198276",
    "request_type": "General Services",
    "request_reason": "General Service Request",
    "date_created": "2025-06-04T17:48:51.000",
    "date_modified": "2025-06-04T17:48:53.000",
    "request_status": "Pending",
    "responsible_agency": "Orleans Parish Communication District",
    "final_address": "The sidewalk in front of my house at 520 Burgundy New Orleans Can you please have it removed and Is block of burgundy between St Louis & Toulouse in French Quarter",
    "status": "Pending",
    "rowid": "1198276",
    "longitude": "0.0",
    "latitude": "0.0",
    "geocoded_column": {
      "latitude": "0.0",
      "longitude": "0.0"
    }
  },
  {
    "service_request": "2025-1198275",
    "request_type": "Streetlights",
    "request_reason": "Streetlight Outage/Malfunction",
    "date_created": "2025-06-04T17:47:17.000",
    "date_modified": "2025-06-04T17:47:19.000",
    "request_status": "Pending",
    "responsible_agency": "Department of Public Works",
    "final_address": "910 Piety St",
    "address_councildis": "C",
    "status": "Pending",
    "contractor": "Legacy Professional Services",
    "rowid": "1198275",
    "final_x": "3689630.76156",
    "final_y": "535108.50087",
    "longitude": "-90.04226871357393",
    "latitude": "29.96511343830445",
    "geocoded_column": {
      "latitude": "29.96511343830445",
      "longitude": "-90.04226871357393"
    }
  },
  {
    "service_request": "2025-1198274",
    "request_type": "Trash/Recycling",
    "request_reason": "Request a Large Item Pick Up",
    "date_created": "2025-06-04T17:34:35.000",
    "date_modified": "2025-06-04T17:34:37.000",
    "request_status": "Pending",
    "responsible_agency": "Department of Sanitation",
    "final_address": "2714 Saint Anthony St, New Orleans, Louisiana, 70119",
    "status": "Assigned to Contractor",
    "rowid": "1198274",
    "longitude": "0.0",
    "latitude": "0.0",
    "geocoded_column": {
      "latitude": "0.0",
      "longitude": "0.0"
    }
  },
  {
    "service_request": "2025-1198273",
    "request_type": "Trash/Recycling",
    "request_reason": "Replace Trash Cart",
    "date_created": "2025-06-04T17:16:28.000",
    "date_modified": "2025-06-04T17:16:30.000",
    "request_status": "Pending",
    "responsible_agency": "Department of Sanitation",
    "final_address": "642 N White St",
    "address_councildis": "A",
    "status": "Assigned to Contractor",
    "contractor": "IV Waste",
    "rowid": "1198273",
    "final_x": "3676166.21614",
    "final_y": "537089.696392",
    "longitude": "-90.08472086034173",
    "latitude": "29.970971335748377",
    "geocoded_column": {
      "latitude": "29.970971335748377",
      "longitude": "-90.08472086034173"
    }
  },
  {
    "service_request": "2025-1198272",
    "request_type": "Roads and Streets",
    "request_reason": "Push-up/Pavement Expansion",
    "date_created": "2025-06-04T17:11:30.000",
    "date_modified": "2025-06-04T17:11:31.000",
    "request_status": "Pending",
    "responsible_agency": "Department of Public Works",
    "final_address": "11041 Kinneil Rd",
    "address_councildis": "E",
    "status": "Pending",
    "rowid": "1198272",
    "final_x": "3711680.70629",
    "final_y": "564566.614113",
    "longitude": "-89.97153133397583",
    "latitude": "30.04541033198751",
    "geocoded_column": {
      "latitude": "30.04541033198751",
      "longitude": "-89.97153133397583"
    }
  },
  {
    "service_request": "2025-1198271",
    "request_type": "Abandoned Vehicles",
    "request_reason": "Abandoned/Junk Vehicles",
    "date_created": "2025-06-04T17:05:46.000",
    "date_modified": "2025-06-04T17:05:48.000",
    "request_status": "Pending",
    "responsible_agency": "Department of Public Works",
    "final_address": "2500 BLK Allen Toussaint Blvd",
    "address_councildis": "D",
    "status": "Pending",
    "rowid": "1198271",
    "final_x": "3685819.8301",
    "final_y": "555951.868199",
    "longitude": "-90.05356824382561",
    "latitude": "30.0225427511028",
    "geocoded_column": {
      "latitude": "30.0225427511028",
      "longitude": "-90.05356824382561"
    }
  },
  {
    "service_request": "2025-1198270",
    "request_type": "Trash/Recycling",
    "request_reason": "Missed Trash Pick-Up",
    "date_created": "2025-06-04T17:00:39.000",
    "date_modified": "2025-06-04T17:00:40.000",
    "request_status": "Pending",
    "responsible_agency": "Department of Sanitation",
    "final_address": "6139 Franklin Ave",
    "address_councildis": "D",
    "status": "Assigned to Contractor",
    "contractor": "IV Waste",
    "rowid": "1198270",
    "final_x": "3686480.60943",
    "final_y": "555887.153497",
    "longitude": "-90.05148263008456",
    "latitude": "30.022344500532284",
    "geocoded_column": {
      "latitude": "30.022344500532284",
      "longitude": "-90.05148263008456"
    }
  },
  {
    "service_request": "2025-1198269",
    "request_type": "Trash/Recycling",
    "request_reason": "Request a Large Item Pick Up",
    "date_created": "2025-06-04T17:00:32.000",
    "date_modified": "2025-06-04T17:00:35.000",
    "request_status": "Pending",
    "responsible_agency": "Department of Sanitation",
    "final_address": "4409 Skyview Dr",
    "address_councildis": "D",
    "status": "Assigned to Contractor",
    "contractor": "Waste Pro",
    "rowid": "1198269",
    "final_x": "3696898.62589",
    "final_y": "552607.031318",
    "longitude": "-90.01868332725606",
    "latitude": "30.013000829117143",
    "geocoded_column": {
      "latitude": "30.013000829117143",
      "longitude": "-90.01868332725606"
    }
  },
  {
    "service_request": "2025-1198268",
    "request_type": "Trash/Recycling",
    "request_reason": "Request a Large Item Pick Up",
    "date_created": "2025-06-04T16:59:43.000",
    "date_modified": "2025-06-04T16:59:45.000",
    "request_status": "Pending",
    "responsible_agency": "Department of Sanitation",
    "final_address": "7315 Freret St",
    "address_councildis": "A",
    "status": "Assigned to Contractor",
    "contractor": "IV Waste",
    "rowid": "1198268",
    "final_x": "3663430.62848",
    "final_y": "526174.774014",
    "longitude": "-90.125305103828",
    "latitude": "29.94133429067064",
    "geocoded_column": {
      "latitude": "29.94133429067064",
      "longitude": "-90.125305103828"
    }
  },
  {
    "service_request": "2025-1198267",
    "request_type": "Property Maintenance",
    "request_reason": "Property Maintenance",
    "date_created": "2025-06-04T16:59:11.000",
    "date_modified": "2025-06-04T16:59:13.000",
    "request_status": "Pending",
    "responsible_agency": "Department of Code Enforcement",
    "final_address": "2744 Allen Toussaint Blvd",
    "address_councildis": "D",
    "status": "Pending",
    "rowid": "1198267",
    "final_x": "3687480.71119",
    "final_y": "555976.088729",
    "longitude": "-90.04831940860063",
    "latitude": "30.022558238193067",
    "geocoded_column": {
      "latitude": "30.022558238193067",
      "longitude": "-90.04831940860063"
    }
  },
  {
    "service_request": "2025-1198266",
    "request_type": "Streetlights",
    "request_reason": "Streetlight Outage/Malfunction",
    "date_created": "2025-06-04T16:58:24.000",
    "date_modified": "2025-06-04T16:58:26.000",
    "request_status": "Pending",
    "responsible_agency": "Department of Public Works",
    "final_address": "911 Piety St",
    "address_councildis": "C",
    "status": "Pending",
    "contractor": "Legacy Professional Services",
    "rowid": "1198266",
    "final_x": "3689692.88924",
    "final_y": "535101.647238",
    "longitude": "-90.0420727623567",
    "latitude": "29.965092668259388",
    "geocoded_column": {
      "latitude": "29.965092668259388",
      "longitude": "-90.0420727623567"
    }
  },
  {
    "service_request": "2025-1198265",
    "request_type": "Streetlights",
    "request_reason": "Streetlight Outage/Malfunction",
    "date_created": "2025-06-04T16:56:57.000",
    "date_modified": "2025-06-04T16:57:00.000",
    "request_status": "Pending",
    "responsible_agency": "Department of Public Works",
    "final_address": "911 Piety St",
    "address_councildis": "C",
    "status": "Pending",
    "contractor": "Legacy Professional Services",
    "rowid": "1198265",
    "final_x": "3689692.88924",
    "final_y": "535101.647238",
    "longitude": "-90.0420727623567",
    "latitude": "29.965092668259388",
    "geocoded_column": {
      "latitude": "29.965092668259388",
      "longitude": "-90.0420727623567"
    }
  },
  {
    "service_request": "2025-1198264",
    "request_type": "Trash/Recycling",
    "request_reason": "Request a Large Item Pick Up",
    "date_created": "2025-06-04T16:56:09.000",
    "date_modified": "2025-06-04T16:56:11.000",
    "request_status": "Pending",
    "responsible_agency": "Department of Sanitation",
    "final_address": "7461 Lake Barrington Dr",
    "address_councildis": "E",
    "status": "Assigned to Contractor",
    "contractor": "Waste Pro",
    "rowid": "1198264",
    "final_x": "3712801.7621",
    "final_y": "565200.106914",
    "longitude": "-89.96796443149506",
    "latitude": "30.04711549883253",
    "geocoded_column": {
      "latitude": "30.04711549883253",
      "longitude": "-89.96796443149506"
    }
  },
  {
    "service_request": "2025-1198263",
    "request_type": "Trash/Recycling",
    "request_reason": "Request a Large Item Pick Up",
    "date_created": "2025-06-04T16:55:58.000",
    "date_modified": "2025-06-04T16:56:40.000",
    "request_status": "Pending",
    "responsible_agency": "Department of Sanitation",
    "final_address": "6139 Franklin Ave",
    "address_councildis": "D",
    "status": "Assigned to Contractor",
    "contractor": "IV Waste",
    "rowid": "1198263",
    "final_x": "3686480.60943",
    "final_y": "555887.153497",
    "longitude": "-90.05148263008456",
    "latitude": "30.022344500532284",
    "geocoded_column": {
      "latitude": "30.022344500532284",
      "longitude": "-90.05148263008456"
    }
  },
  {
    "service_request": "2025-1198262",
    "request_type": "Mosquito, Termite & Rodent Control",
    "request_reason": "Mosquito Complaint",
    "date_created": "2025-06-04T16:55:49.000",
    "date_modified": "2025-06-04T16:55:51.000",
    "request_status": "Pending",
    "responsible_agency": "Mosquito, Termite & Rodent Control Board",
    "final_address": "11040 Roger Dr",
    "address_councildis": "E",
    "status": "Pending",
    "rowid": "1198262",
    "final_x": "3712397.49253",
    "final_y": "563579.453024",
    "longitude": "-89.96930310364468",
    "latitude": "30.042672594059926",
    "geocoded_column": {
      "latitude": "30.042672594059926",
      "longitude": "-89.96930310364468"
    }
  },
  {
    "service_request": "2025-1198261",
    "request_type": "Trash/Recycling",
    "request_reason": "Request a Large Item Pick Up",
    "date_created": "2025-06-04T16:53:34.000",
    "date_modified": "2025-06-04T16:53:35.000",
    "request_status": "Pending",
    "responsible_agency": "Department of Sanitation",
    "final_address": "1035 St Ferdinand St",
    "address_councildis": "C",
    "status": "Assigned to Contractor",
    "contractor": "IV Waste",
    "rowid": "1198261",
    "final_x": "3687701.89027",
    "final_y": "536146.245639",
    "longitude": "-90.04832321405269",
    "latitude": "29.968026492969273",
    "geocoded_column": {
      "latitude": "29.968026492969273",
      "longitude": "-90.04832321405269"
    }
  },
  {
    "service_request": "2025-1198260",
    "request_type": "Trash/Recycling",
    "request_reason": "Request a Large Item Pick Up",
    "date_created": "2025-06-04T16:49:26.000",
    "date_modified": "2025-06-04T16:49:29.000",
    "request_status": "Pending",
    "responsible_agency": "Department of Sanitation",
    "final_address": "7220 Farwood Dr",
    "address_councildis": "E",
    "status": "Assigned to Contractor",
    "contractor": "Waste Pro",
    "rowid": "1198260",
    "final_x": "3701157.74999",
    "final_y": "556728.537178",
    "longitude": "-90.00507593757095",
    "latitude": "30.02419834557102",
    "geocoded_column": {
      "latitude": "30.02419834557102",
      "longitude": "-90.00507593757095"
    }
  },
  {
    "service_request": "2025-1198259",
    "request_type": "Abandoned Vehicles",
    "request_reason": "Abandoned/Junk Vehicles",
    "date_created": "2025-06-04T16:44:05.000",
    "date_modified": "2025-06-04T16:44:07.000",
    "request_status": "Pending",
    "responsible_agency": "Department of Public Works",
    "final_address": "2506 Gravier St",
    "address_councildis": "B",
    "status": "Pending",
    "rowid": "1198259",
    "final_x": "3674815.84488",
    "final_y": "532893.3897",
    "longitude": "-90.08912941486425",
    "latitude": "29.95947329960297",
    "geocoded_column": {
      "latitude": "29.95947329960297",
      "longitude": "-90.08912941486425"
    }
  },
  {
    "service_request": "2025-1198258",
    "request_type": "Roads and Streets",
    "request_reason": "Abandoned Service Cut",
    "date_created": "2025-06-04T16:42:25.000",
    "date_modified": "2025-06-04T16:42:26.000",
    "request_status": "Pending",
    "responsible_agency": "Department of Public Works",
    "final_address": "935 Harmony St",
    "address_councildis": "B",
    "status": "Pending",
    "rowid": "1198258",
    "final_x": "3676029.40782",
    "final_y": "519606.852472",
    "longitude": "-90.08575407379264",
    "latitude": "29.922903406679154",
    "geocoded_column": {
      "latitude": "29.922903406679154",
      "longitude": "-90.08575407379264"
    }
  },
  {
    "service_request": "2025-1198257",
    "request_type": "Property Maintenance",
    "request_reason": "Property Maintenance",
    "date_created": "2025-06-04T16:42:22.000",
    "date_modified": "2025-06-04T16:42:23.000",
    "request_status": "Pending",
    "responsible_agency": "Department of Code Enforcement",
    "final_address": "2556 Frankfort St",
    "address_councildis": "D",
    "status": "Pending",
    "rowid": "1198257",
    "final_x": "3686067.7446",
    "final_y": "557068.34217",
    "longitude": "-90.0527454679793",
    "latitude": "30.02560502429495",
    "geocoded_column": {
      "latitude": "30.02560502429495",
      "longitude": "-90.0527454679793"
    }
  },
  {
    "service_request": "2025-1198256",
    "request_type": "Trash/Recycling",
    "request_reason": "Request a Large Item Pick Up",
    "date_created": "2025-06-04T16:40:23.000",
    "date_modified": "2025-06-04T16:40:24.000",
    "request_status": "Pending",
    "responsible_agency": "Department of Sanitation",
    "final_address": "7801 Haney Dr",
    "address_councildis": "E",
    "status": "Assigned to Contractor",
    "contractor": "Waste Pro",
    "rowid": "1198256",
    "final_x": "3712318.41291",
    "final_y": "567764.826276",
    "longitude": "-89.9693955733758",
    "latitude": "30.05418326292344",
    "geocoded_column": {
      "latitude": "30.05418326292344",
      "longitude": "-89.9693955733758"
    }
  },
  {
    "service_request": "2025-1198255",
    "request_type": "Abandoned Vehicles",
    "request_reason": "Abandoned/Junk Vehicles",
    "date_created": "2025-06-04T16:40:14.000",
    "date_modified": "2025-06-04T16:40:15.000",
    "request_status": "Pending",
    "responsible_agency": "Department of Public Works",
    "final_address": "6877 Mayo Rd",
    "address_councildis": "E",
    "status": "Pending",
    "rowid": "1198255",
    "final_x": "3701980.90628",
    "final_y": "557792.707419",
    "longitude": "-90.00243587785255",
    "latitude": "30.02709814065389",
    "geocoded_column": {
      "latitude": "30.02709814065389",
      "longitude": "-90.00243587785255"
    }
  },
  {
    "service_request": "2025-1198254",
    "request_type": "Trash/Recycling",
    "request_reason": "Request a Large Item Pick Up",
    "date_created": "2025-06-04T16:39:43.000",
    "date_modified": "2025-06-04T16:39:44.000",
    "request_status": "Pending",
    "responsible_agency": "Department of Sanitation",
    "final_address": "7736 Dorsett Dr",
    "address_councildis": "E",
    "status": "Assigned to Contractor",
    "contractor": "Waste Pro",
    "rowid": "1198254",
    "final_x": "3712495.98565",
    "final_y": "567820.773476",
    "longitude": "-89.96883220766074",
    "latitude": "30.054331281801",
    "geocoded_column": {
      "latitude": "30.054331281801",
      "longitude": "-89.96883220766074"
    }
  },
  {
    "service_request": "2025-1198253",
    "request_type": "Property Maintenance",
    "request_reason": "Property Maintenance",
    "date_created": "2025-06-04T16:37:40.000",
    "date_modified": "2025-06-04T16:39:03.000",
    "request_status": "Pending",
    "responsible_agency": "Department of Code Enforcement",
    "final_address": "6877 Mayo Rd",
    "address_councildis": "E",
    "status": "Pending",
    "rowid": "1198253",
    "final_x": "3701980.90628",
    "final_y": "557792.707419",
    "longitude": "-90.00243587785255",
    "latitude": "30.02709814065389",
    "geocoded_column": {
      "latitude": "30.02709814065389",
      "longitude": "-90.00243587785255"
    }
  },
  {
    "service_request": "2025-1198252",
    "request_type": "Abandoned Vehicles",
    "request_reason": "Abandoned/Junk Vehicles",
    "date_created": "2025-06-04T16:37:08.000",
    "date_modified": "2025-06-04T16:38:39.000",
    "request_status": "Pending",
    "responsible_agency": "Department of Public Works",
    "final_address": "2214 Clio St",
    "address_councildis": "B",
    "status": "Pending",
    "rowid": "1198252",
    "final_x": "3677233.99803",
    "final_y": "527848.247615",
    "longitude": "-90.08166747637026",
    "latitude": "29.945528425416818",
    "geocoded_column": {
      "latitude": "29.945528425416818",
      "longitude": "-90.08166747637026"
    }
  },
  {
    "service_request": "2025-1198251",
    "request_type": "Trash/Recycling",
    "request_reason": "Replace Trash Cart",
    "date_created": "2025-06-04T16:32:37.000",
    "date_modified": "2025-06-04T16:32:39.000",
    "request_status": "Pending",
    "responsible_agency": "Department of Sanitation",
    "final_address": "3609 Eagle St",
    "address_councildis": "A",
    "status": "Assigned to Contractor",
    "contractor": "IV Waste",
    "rowid": "1198251",
    "final_x": "3666001.70196",
    "final_y": "536409.696135",
    "longitude": "-90.1168446399399",
    "latitude": "29.969402203193802",
    "geocoded_column": {
      "latitude": "29.969402203193802",
      "longitude": "-90.1168446399399"
    }
  },
  {
    "service_request": "2025-1198250",
    "request_type": "Trash/Recycling",
    "request_reason": "Request a Large Item Pick Up",
    "date_created": "2025-06-04T16:30:49.000",
    "date_modified": "2025-06-04T16:30:53.000",
    "request_status": "Pending",
    "responsible_agency": "Department of Sanitation",
    "final_address": "2016 Hendee St",
    "address_councildis": "C",
    "status": "Assigned to Contractor",
    "contractor": "Richards Disposal",
    "rowid": "1198250",
    "final_x": "3690638.96854",
    "final_y": "523235.367163",
    "longitude": "-90.0395082338189",
    "latitude": "29.932435134141873",
    "geocoded_column": {
      "latitude": "29.932435134141873",
      "longitude": "-90.0395082338189"
    }
  },
  {
    "service_request": "2025-1198249",
    "request_type": "Parks & Parkways",
    "request_reason": "Request Tree Service (Right of Way/Public Property)",
    "date_created": "2025-06-04T16:28:34.000",
    "date_modified": "2025-06-04T16:28:37.000",
    "request_status": "Pending",
    "responsible_agency": "Department of Parks & Parkway",
    "final_address": "1824 Louisiana Ave",
    "address_councildis": "B",
    "status": "Pending",
    "rowid": "1198249",
    "final_x": "3673762.01083",
    "final_y": "522377.708474",
    "longitude": "-90.0928166791153",
    "latitude": "29.93059005546274",
    "geocoded_column": {
      "latitude": "29.93059005546274",
      "longitude": "-90.0928166791153"
    }
  },
  {
    "service_request": "2025-1198248",
    "request_type": "Streetlights",
    "request_reason": "Streetlight Outage/Malfunction",
    "date_created": "2025-06-04T16:24:05.000",
    "date_modified": "2025-06-04T16:24:06.000",
    "request_status": "Pending",
    "responsible_agency": "Department of Public Works",
    "final_address": "1027 Opelousas Ave",
    "address_councildis": "C",
    "status": "Pending",
    "contractor": "Legacy Professional Services",
    "rowid": "1198248",
    "final_x": "3688693.00131",
    "final_y": "529004.325888",
    "longitude": "-90.04544676248187",
    "latitude": "29.948358086871497",
    "geocoded_column": {
      "latitude": "29.948358086871497",
      "longitude": "-90.04544676248187"
    }
  },
  {
    "service_request": "2025-1198247",
    "request_type": "Trash/Recycling",
    "request_reason": "Repair Trash Cart",
    "date_created": "2025-06-04T16:23:41.000",
    "date_modified": "2025-06-04T16:23:42.000",
    "request_status": "Pending",
    "responsible_agency": "Department of Sanitation",
    "final_address": "3932 Hollygrove St",
    "address_councildis": "A",
    "status": "Assigned to Contractor",
    "contractor": "IV Waste",
    "rowid": "1198247",
    "final_x": "3666233.68717",
    "final_y": "537837.232841",
    "longitude": "-90.1160641161104",
    "latitude": "29.973320680009007",
    "geocoded_column": {
      "latitude": "29.973320680009007",
      "longitude": "-90.1160641161104"
    }
  },
  {
    "service_request": "2025-1198246",
    "request_type": "Streetlights",
    "request_reason": "Streetlight Knocked Down/Leaning",
    "date_created": "2025-06-04T16:21:45.000",
    "date_modified": "2025-06-04T16:21:48.000",
    "request_status": "Pending",
    "responsible_agency": "Department of Public Works",
    "final_address": "1443 Alvar St",
    "address_councildis": "D",
    "status": "Pending",
    "contractor": "Legacy Professional Services",
    "rowid": "1198246",
    "final_x": "3691896.84572",
    "final_y": "536821.789384",
    "longitude": "-90.03505127144199",
    "latitude": "29.969753976538588",
    "geocoded_column": {
      "latitude": "29.969753976538588",
      "longitude": "-90.03505127144199"
    }
  },
  {
    "service_request": "2025-1198245",
    "request_type": "Trash/Recycling",
    "request_reason": "Missed Trash Pick-Up",
    "date_created": "2025-06-04T16:15:17.000",
    "date_modified": "2025-06-04T17:14:31.000",
    "case_close_date": "2025-06-04T12:14:30.000",
    "request_status": "Closed",
    "responsible_agency": "Department of Sanitation",
    "final_address": "2 Glacier Ct",
    "address_councildis": "C",
    "status": "Resolved",
    "contractor": "Richards Disposal",
    "contractor_action": "Completed",
    "rowid": "1198245",
    "final_x": "3700316.3089",
    "final_y": "516250.366836",
    "longitude": "-90.0092127549692",
    "latitude": "29.91292477136277",
    "geocoded_column": {
      "latitude": "29.91292477136277",
      "longitude": "-90.0092127549692"
    }
  },
  {
    "service_request": "2025-1198244",
    "request_type": "Safety & Permits",
    "request_reason": "Zoning Enforcement",
    "date_created": "2025-06-04T16:13:11.000",
    "date_modified": "2025-06-04T16:13:13.000",
    "request_status": "Pending",
    "responsible_agency": "Safety and Permits",
    "final_address": "4401 Knight Dr",
    "address_councildis": "E",
    "status": "Pending",
    "rowid": "1198244",
    "final_x": "3708389.25656",
    "final_y": "553724.823511",
    "longitude": "-89.98233782673758",
    "latitude": "30.0157068235578",
    "geocoded_column": {
      "latitude": "30.0157068235578",
      "longitude": "-89.98233782673758"
    }
  },
  {
    "service_request": "2025-1198243",
    "request_type": "Parks & Parkways",
    "request_reason": "Request Tree Service (Right of Way/Public Property)",
    "date_created": "2025-06-04T16:12:23.000",
    "date_modified": "2025-06-04T16:12:25.000",
    "request_status": "Pending",
    "responsible_agency": "Department of Parks & Parkway",
    "final_address": "1739 Marengo St",
    "address_councildis": "B",
    "status": "Pending",
    "rowid": "1198243",
    "final_x": "3671983.04334",
    "final_y": "521665.961721",
    "longitude": "-90.09845684318262",
    "latitude": "29.92868581843458",
    "geocoded_column": {
      "latitude": "29.92868581843458",
      "longitude": "-90.09845684318262"
    }
  },
  {
    "service_request": "2025-1198242",
    "request_type": "Health Related Request",
    "request_reason": "Noise Ordinance Complaint",
    "date_created": "2025-06-04T16:09:15.000",
    "date_modified": "2025-06-04T16:09:17.000",
    "request_status": "Pending",
    "responsible_agency": "Health Department",
    "final_address": "700 BLK Webster St",
    "address_councildis": "A",
    "status": "Pending",
    "rowid": "1198242",
    "final_x": "3664062.99598",
    "final_y": "519266.102332",
    "longitude": "-90.1235388838002",
    "latitude": "29.92231927973129",
    "geocoded_column": {
      "latitude": "29.92231927973129",
      "longitude": "-90.1235388838002"
    }
  },
  {
    "service_request": "2025-1198241",
    "request_type": "Trash/Recycling",
    "request_reason": "Request a Large Item Pick Up",
    "date_created": "2025-06-04T16:08:54.000",
    "date_modified": "2025-06-04T16:09:00.000",
    "request_status": "Pending",
    "responsible_agency": "Department of Sanitation",
    "final_address": "6124 N Galvez St",
    "address_councildis": "E",
    "status": "Assigned to Contractor",
    "contractor": "Waste Pro",
    "rowid": "1198241",
    "final_x": "3701098.83357",
    "final_y": "536708.950023",
    "longitude": "-90.00599488092195",
    "latitude": "29.96915381591089",
    "geocoded_column": {
      "latitude": "29.96915381591089",
      "longitude": "-90.00599488092195"
    }
  },
  {
    "service_request": "2025-1198240",
    "request_type": "Roads and Streets",
    "request_reason": "Pothole",
    "date_created": "2025-06-04T16:08:14.000",
    "date_modified": "2025-06-04T16:08:15.000",
    "request_status": "Pending",
    "responsible_agency": "Department of Public Works",
    "final_address": "7700 Alabama St",
    "address_councildis": "D",
    "status": "Pending",
    "rowid": "1198240",
    "final_x": "3694803.81795",
    "final_y": "558754.242652",
    "longitude": "-90.02508001096925",
    "latitude": "30.02996925834715",
    "geocoded_column": {
      "latitude": "30.02996925834715",
      "longitude": "-90.02508001096925"
    }
  },
  {
    "service_request": "2025-1198239",
    "request_type": "Trash/Recycling",
    "request_reason": "Request a Large Item Pick Up",
    "date_created": "2025-06-04T16:04:03.000",
    "date_modified": "2025-06-04T16:04:04.000",
    "request_status": "Pending",
    "responsible_agency": "Department of Sanitation",
    "final_address": "7827 Lafourche St",
    "address_councildis": "E",
    "status": "Assigned to Contractor",
    "contractor": "Waste Pro",
    "rowid": "1198239",
    "final_x": "3709772.20088",
    "final_y": "566334.814499",
    "longitude": "-89.97749695812023",
    "latitude": "30.050334400061057",
    "geocoded_column": {
      "latitude": "30.050334400061057",
      "longitude": "-89.97749695812023"
    }
  },
  {
    "service_request": "2025-1198238",
    "request_type": "Trash/Recycling",
    "request_reason": "Repair Recycling Cart",
    "date_created": "2025-06-04T16:02:04.000",
    "date_modified": "2025-06-04T16:02:07.000",
    "request_status": "Pending",
    "responsible_agency": "Department of Sanitation",
    "final_address": "1828 Cadiz St",
    "address_councildis": "B",
    "status": "Pending",
    "rowid": "1198238",
    "final_x": "3669967.4281",
    "final_y": "521757.270138",
    "longitude": "-90.10481664809302",
    "latitude": "29.928996462939104",
    "geocoded_column": {
      "latitude": "29.928996462939104",
      "longitude": "-90.10481664809302"
    }
  },
  {
    "service_request": "2025-1198237",
    "request_type": "Mosquito, Termite & Rodent Control",
    "request_reason": "Rodent Complaint (Mice & Rats)",
    "date_created": "2025-06-04T15:58:18.000",
    "date_modified": "2025-06-04T15:58:20.000",
    "request_status": "Pending",
    "responsible_agency": "Mosquito, Termite & Rodent Control Board",
    "final_address": "722 Webster St",
    "address_councildis": "A",
    "status": "Pending",
    "rowid": "1198237",
    "final_x": "3664027.44256",
    "final_y": "519300.402999",
    "longitude": "-90.1236499688338",
    "latitude": "29.922414627965892",
    "geocoded_column": {
      "latitude": "29.922414627965892",
      "longitude": "-90.1236499688338"
    }
  },
  {
    "service_request": "2025-1198236",
    "request_type": "Trash/Recycling",
    "request_reason": "Replace Trash Cart",
    "date_created": "2025-06-04T15:56:39.000",
    "date_modified": "2025-06-04T15:56:40.000",
    "request_status": "Pending",
    "responsible_agency": "Department of Sanitation",
    "final_address": "6313 S Rocheblave St",
    "address_councildis": "A",
    "status": "Assigned to Contractor",
    "contractor": "IV Waste",
    "rowid": "1198236",
    "final_x": "3667346.60532",
    "final_y": "528954.724992",
    "longitude": "-90.11284808383624",
    "latitude": "29.94886415525657",
    "geocoded_column": {
      "latitude": "29.94886415525657",
      "longitude": "-90.11284808383624"
    }
  },
  {
    "service_request": "2025-1198235",
    "request_type": "Trash/Recycling",
    "request_reason": "Request a Large Item Pick Up",
    "date_created": "2025-06-04T15:56:36.000",
    "date_modified": "2025-06-04T15:56:38.000",
    "request_status": "Pending",
    "responsible_agency": "Department of Sanitation",
    "final_address": "603 Fats Domino Ave",
    "address_councildis": "E",
    "status": "Assigned to Contractor",
    "contractor": "Waste Pro",
    "rowid": "1198235",
    "final_x": "3697601.45994",
    "final_y": "531965.147139",
    "longitude": "-90.01721185211875",
    "latitude": "29.956220979519568",
    "geocoded_column": {
      "latitude": "29.956220979519568",
      "longitude": "-90.01721185211875"
    }
  },
  {
    "service_request": "2025-1198234",
    "request_type": "Abandoned Vehicles",
    "request_reason": "Abandoned/Junk Vehicles",
    "date_created": "2025-06-04T15:55:56.000",
    "date_modified": "2025-06-04T15:55:58.000",
    "request_status": "Pending",
    "responsible_agency": "Department of Public Works",
    "final_address": "8730 Hammond St",
    "address_councildis": "E",
    "status": "Pending",
    "rowid": "1198234",
    "final_x": "3707722.45963",
    "final_y": "555881.200473",
    "longitude": "-89.98436437405931",
    "latitude": "30.02165762448965",
    "geocoded_column": {
      "latitude": "30.02165762448965",
      "longitude": "-89.98436437405931"
    }
  },
  {
    "service_request": "2025-1198233",
    "request_type": "Trash/Recycling",
    "request_reason": "Repair Trash Cart",
    "date_created": "2025-06-04T15:49:39.000",
    "date_modified": "2025-06-04T15:49:41.000",
    "request_status": "Pending",
    "responsible_agency": "Department of Sanitation",
    "final_address": "4736 Western St",
    "address_councildis": "D",
    "status": "Assigned to Contractor",
    "contractor": "IV Waste",
    "rowid": "1198233",
    "final_x": "3684077.70594",
    "final_y": "550373.082708",
    "longitude": "-90.05926893714178",
    "latitude": "30.007256515864196",
    "geocoded_column": {
      "latitude": "30.007256515864196",
      "longitude": "-90.05926893714178"
    }
  },
  {
    "service_request": "2025-1198232",
    "request_type": "Trash/Recycling",
    "request_reason": "Return Trash Cart",
    "date_created": "2025-06-04T15:43:30.000",
    "date_modified": "2025-06-04T15:43:33.000",
    "request_status": "Pending",
    "responsible_agency": "Department of Sanitation",
    "final_address": "2432 Soniat St",
    "address_councildis": "B",
    "status": "Assigned to Contractor",
    "contractor": "IV Waste",
    "rowid": "1198232",
    "final_x": "3668491.50599",
    "final_y": "524576.762556",
    "longitude": "-90.10938078289585",
    "latitude": "29.936792593778666",
    "geocoded_column": {
      "latitude": "29.936792593778666",
      "longitude": "-90.10938078289585"
    }
  },
  {
    "service_request": "2025-1198231",
    "request_type": "Trash/Recycling",
    "request_reason": "Return Recycling Cart",
    "date_created": "2025-06-04T15:38:54.000",
    "date_modified": "2025-06-04T15:39:00.000",
    "request_status": "Pending",
    "responsible_agency": "Department of Sanitation",
    "final_address": "56 Pinehurst Dr",
    "address_councildis": "C",
    "status": "Pending",
    "rowid": "1198231",
    "final_x": "3714578.31531",
    "final_y": "516030.068276",
    "longitude": "-89.96420648674534",
    "latitude": "29.911858151244346",
    "geocoded_column": {
      "latitude": "29.911858151244346",
      "longitude": "-89.96420648674534"
    }
  },
  {
    "service_request": "2025-1198230",
    "request_type": "Trash/Recycling",
    "request_reason": "Illegal Dumping",
    "date_created": "2025-06-04T15:38:48.000",
    "date_modified": "2025-06-04T15:38:51.000",
    "request_status": "Pending",
    "responsible_agency": "Department of Sanitation",
    "final_address": "1432 Elysian Fields Ave",
    "address_councildis": "C",
    "status": "Pending",
    "rowid": "1198230",
    "final_x": "3684806.99849",
    "final_y": "537672.522696",
    "longitude": "-90.05741169984833",
    "latitude": "29.972312174249257",
    "geocoded_column": {
      "latitude": "29.972312174249257",
      "longitude": "-90.05741169984833"
    }
  },
  {
    "service_request": "2025-1198229",
    "request_type": "Trash/Recycling",
    "request_reason": "Missed Trash Pick-Up",
    "date_created": "2025-06-04T15:36:43.000",
    "date_modified": "2025-06-04T15:36:45.000",
    "request_status": "Pending",
    "responsible_agency": "Department of Sanitation",
    "final_address": "4 Five Oaks Dr",
    "address_councildis": "C",
    "status": "Assigned to Contractor",
    "contractor": "Richards Disposal",
    "rowid": "1198229",
    "final_x": "3699225.5889",
    "final_y": "526131.385022",
    "longitude": "-90.01229580775204",
    "latitude": "29.940128789561918",
    "geocoded_column": {
      "latitude": "29.940128789561918",
      "longitude": "-90.01229580775204"
    }
  },
  {
    "service_request": "2025-1198228",
    "request_type": "Healthy Homes",
    "request_reason": "Healthy Homes",
    "date_created": "2025-06-04T15:33:23.000",
    "date_modified": "2025-06-04T15:33:25.000",
    "request_status": "Pending",
    "responsible_agency": "Department of Code Enforcement",
    "final_address": "4509 Werner Dr",
    "address_councildis": "E",
    "status": "Pending",
    "rowid": "1198228",
    "final_x": "3704965.34455",
    "final_y": "553785.281879",
    "longitude": "-89.99315351361962",
    "latitude": "30.01598361738487",
    "geocoded_column": {
      "latitude": "30.01598361738487",
      "longitude": "-89.99315351361962"
    }
  },
  {
    "service_request": "2025-1198227",
    "request_type": "Trash/Recycling",
    "request_reason": "Request a Large Item Pick Up",
    "date_created": "2025-06-04T15:32:30.000",
    "date_modified": "2025-06-04T15:32:31.000",
    "request_status": "Pending",
    "responsible_agency": "Department of Sanitation",
    "final_address": "4856 Tchoupitoulas St",
    "address_councildis": "B",
    "status": "Assigned to Contractor",
    "contractor": "IV Waste",
    "rowid": "1198227",
    "final_x": "3669223.33018",
    "final_y": "517212.147509",
    "longitude": "-90.1073191445732",
    "latitude": "29.916520731579396",
    "geocoded_column": {
      "latitude": "29.916520731579396",
      "longitude": "-90.1073191445732"
    }
  },
  {
    "service_request": "2025-1198226",
    "request_type": "Trash/Recycling",
    "request_reason": "Replace Trash Cart",
    "date_created": "2025-06-04T15:27:38.000",
    "date_modified": "2025-06-04T15:27:40.000",
    "request_status": "Pending",
    "responsible_agency": "Department of Sanitation",
    "final_address": "3534 Pittari Pl",
    "address_councildis": "C",
    "status": "Assigned to Contractor",
    "contractor": "Richards Disposal",
    "rowid": "1198226",
    "final_x": "3709646.18033",
    "final_y": "517623.879094",
    "longitude": "-89.97971401062387",
    "latitude": "29.916401699322744",
    "geocoded_column": {
      "latitude": "29.916401699322744",
      "longitude": "-89.97971401062387"
    }
  },
  {
    "service_request": "2025-1198225",
    "request_type": "Parks & Parkways",
    "request_reason": "Request Tree Service (Right of Way/Public Property)",
    "date_created": "2025-06-04T15:26:14.000",
    "date_modified": "2025-06-04T15:26:16.000",
    "request_status": "Pending",
    "responsible_agency": "Department of Parks & Parkway",
    "final_address": "2011 Magazine St",
    "address_councildis": "B",
    "status": "Pending",
    "rowid": "1198225",
    "final_x": "3679412.13563",
    "final_y": "522558.71705",
    "longitude": "-90.07497379677524",
    "latitude": "29.930918363750585",
    "geocoded_column": {
      "latitude": "29.930918363750585",
      "longitude": "-90.07497379677524"
    }
  },
  {
    "service_request": "2025-1198224",
    "request_type": "Trash/Recycling",
    "request_reason": "Repair Trash Cart",
    "date_created": "2025-06-04T15:23:59.000",
    "date_modified": "2025-06-04T15:24:01.000",
    "request_status": "Pending",
    "responsible_agency": "Department of Sanitation",
    "final_address": "1210 Lowerline St",
    "address_councildis": "A",
    "status": "Assigned to Contractor",
    "contractor": "IV Waste",
    "rowid": "1198224",
    "final_x": "3663718.10247",
    "final_y": "526952.420926",
    "longitude": "-90.12437158477547",
    "latitude": "29.943464234425903",
    "geocoded_column": {
      "latitude": "29.943464234425903",
      "longitude": "-90.12437158477547"
    }
  },
  {
    "service_request": "2025-1198223",
    "request_type": "Trash/Recycling",
    "request_reason": "Request a Large Item Pick Up",
    "date_created": "2025-06-04T15:18:25.000",
    "date_modified": "2025-06-04T15:18:27.000",
    "request_status": "Pending",
    "responsible_agency": "Department of Sanitation",
    "final_address": "5535 Wimbledon Ct",
    "address_councildis": "C",
    "status": "Assigned to Contractor",
    "contractor": "Richards Disposal",
    "rowid": "1198223",
    "final_x": "3704553.43748",
    "final_y": "518981.781111",
    "longitude": "-89.99573860096585",
    "latitude": "29.920299905063672",
    "geocoded_column": {
      "latitude": "29.920299905063672",
      "longitude": "-89.99573860096585"
    }
  },
  {
    "service_request": "2025-1198222",
    "request_type": "Trash/Recycling",
    "request_reason": "Request a Large Item Pick Up",
    "date_created": "2025-06-04T15:17:10.000",
    "date_modified": "2025-06-04T15:17:12.000",
    "request_status": "Pending",
    "responsible_agency": "Department of Sanitation",
    "final_address": "4812 Francis Dr",
    "address_councildis": "D",
    "status": "Assigned to Contractor",
    "contractor": "Waste Pro",
    "rowid": "1198222",
    "final_x": "3698165.49066",
    "final_y": "554681.16124",
    "longitude": "-90.01460532292654",
    "latitude": "30.018663875532187",
    "geocoded_column": {
      "latitude": "30.018663875532187",
      "longitude": "-90.01460532292654"
    }
  },
  {
    "service_request": "2025-1198221",
    "request_type": "Trash/Recycling",
    "request_reason": "Request a Large Item Pick Up",
    "date_created": "2025-06-04T15:13:38.000",
    "date_modified": "2025-06-04T15:13:40.000",
    "request_status": "Pending",
    "responsible_agency": "Department of Sanitation",
    "final_address": "2829 Burgundy St",
    "address_councildis": "C",
    "status": "Assigned to Contractor",
    "contractor": "IV Waste",
    "rowid": "1198221",
    "final_x": "3687759.79939",
    "final_y": "535498.875334",
    "longitude": "-90.04816326552141",
    "latitude": "29.96624466466092",
    "geocoded_column": {
      "latitude": "29.96624466466092",
      "longitude": "-90.04816326552141"
    }
  },
  {
    "service_request": "2025-1198220",
    "request_type": "Trash/Recycling",
    "request_reason": "Return Recycling Cart",
    "date_created": "2025-06-04T15:12:47.000",
    "date_modified": "2025-06-04T15:12:49.000",
    "request_status": "Pending",
    "responsible_agency": "Department of Sanitation",
    "final_address": "3530 S Tonti St",
    "address_councildis": "B",
    "status": "Pending",
    "rowid": "1198220",
    "final_x": "3670984.10049",
    "final_y": "528196.001152",
    "longitude": "-90.10138867521084",
    "latitude": "29.946670877173187",
    "geocoded_column": {
      "latitude": "29.946670877173187",
      "longitude": "-90.10138867521084"
    }
  },
  {
    "service_request": "2025-1198219",
    "request_type": "Property Maintenance",
    "request_reason": "Property Maintenance",
    "date_created": "2025-06-04T15:12:39.000",
    "date_modified": "2025-06-04T15:26:02.000",
    "case_close_date": "2025-06-04T10:26:00.000",
    "request_status": "Closed",
    "responsible_agency": "Department of Code Enforcement",
    "final_address": "5611 Bentley Dr",
    "address_councildis": "E",
    "status": "Referred to Code Enforcement",
    "rowid": "1198219",
    "final_x": "3703947.28996",
    "final_y": "556738.519386",
    "longitude": "-89.99626120672762",
    "latitude": "30.024136584900514",
    "geocoded_column": {
      "latitude": "30.024136584900514",
      "longitude": "-89.99626120672762"
    }
  },
  {
    "service_request": "2025-1198218",
    "request_type": "Trash/Recycling",
    "request_reason": "Request a Large Item Pick Up",
    "date_created": "2025-06-04T15:09:24.000",
    "date_modified": "2025-06-04T15:09:26.000",
    "request_status": "Pending",
    "responsible_agency": "Department of Sanitation",
    "final_address": "940 Andry St",
    "address_councildis": "E",
    "status": "Assigned to Contractor",
    "contractor": "Waste Pro",
    "rowid": "1198218",
    "final_x": "3696985.8017",
    "final_y": "533510.32122",
    "longitude": "-90.01909992089129",
    "latitude": "29.96048909202732",
    "geocoded_column": {
      "latitude": "29.96048909202732",
      "longitude": "-90.01909992089129"
    }
  },
  {
    "service_request": "2025-1198217",
    "request_type": "Parks & Parkways",
    "request_reason": "Request Grass Cutting Service (City Owned Property)",
    "date_created": "2025-06-04T15:05:38.000",
    "date_modified": "2025-06-04T15:07:30.000",
    "request_status": "Pending",
    "responsible_agency": "Department of Parks & Parkway",
    "final_address": "6154 Press Dr",
    "address_councildis": "D",
    "status": "Pending",
    "rowid": "1198217",
    "final_x": "3688712.69244",
    "final_y": "556000.847897",
    "longitude": "-90.04442577083076",
    "latitude": "30.022588269729045",
    "geocoded_column": {
      "latitude": "30.022588269729045",
      "longitude": "-90.04442577083076"
    }
  },
  {
    "service_request": "2025-1198216",
    "request_type": "Property Maintenance",
    "request_reason": "Property Maintenance",
    "date_created": "2025-06-04T15:02:52.000",
    "date_modified": "2025-06-04T15:19:59.000",
    "case_close_date": "2025-06-04T10:19:58.000",
    "request_status": "Closed",
    "responsible_agency": "Department of Code Enforcement",
    "final_address": "2516 Upperline St",
    "address_councildis": "B",
    "status": "Referred to Code Enforcement",
    "rowid": "1198216",
    "final_x": "3669122.19316",
    "final_y": "524073.230908",
    "longitude": "-90.1074066749095",
    "latitude": "29.935389504590745",
    "geocoded_column": {
      "latitude": "29.935389504590745",
      "longitude": "-90.1074066749095"
    }
  },
  {
    "service_request": "2025-1198215",
    "request_type": "Property Maintenance",
    "request_reason": "Property Maintenance",
    "date_created": "2025-06-04T14:58:14.000",
    "date_modified": "2025-06-04T15:06:41.000",
    "case_close_date": "2025-06-04T10:06:40.000",
    "request_status": "Closed",
    "responsible_agency": "Department of Code Enforcement",
    "final_address": "2327 Second St",
    "address_councildis": "B",
    "status": "Referred to Code Enforcement",
    "rowid": "1198215",
    "final_x": "3675227.18504",
    "final_y": "525330.291709",
    "longitude": "-90.08809004073166",
    "latitude": "29.938664999040196",
    "geocoded_column": {
      "latitude": "29.938664999040196",
      "longitude": "-90.08809004073166"
    }
  },
  {
    "service_request": "2025-1198214",
    "request_type": "Trash/Recycling",
    "request_reason": "Order Trash Cart",
    "date_created": "2025-06-04T14:55:18.000",
    "date_modified": "2025-06-04T14:55:21.000",
    "request_status": "Pending",
    "responsible_agency": "Department of Sanitation",
    "final_address": "3322 N Johnson St",
    "address_councildis": "D",
    "status": "Assigned to Contractor",
    "contractor": "IV Waste",
    "rowid": "1198214",
    "final_x": "3690857.90896",
    "final_y": "539086.277514",
    "longitude": "-90.03825148761752",
    "latitude": "29.976012844524416",
    "geocoded_column": {
      "latitude": "29.976012844524416",
      "longitude": "-90.03825148761752"
    }
  },
  {
    "service_request": "2025-1198213",
    "request_type": "Trash/Recycling",
    "request_reason": "Order Recycling Cart",
    "date_created": "2025-06-04T14:53:44.000",
    "date_modified": "2025-06-04T14:53:46.000",
    "request_status": "Pending",
    "responsible_agency": "Department of Sanitation",
    "final_address": "3322 N Johnson St",
    "address_councildis": "D",
    "status": "Pending",
    "rowid": "1198213",
    "final_x": "3690857.90896",
    "final_y": "539086.277514",
    "longitude": "-90.03825148761752",
    "latitude": "29.976012844524416",
    "geocoded_column": {
      "latitude": "29.976012844524416",
      "longitude": "-90.03825148761752"
    }
  },
  {
    "service_request": "2025-1198212",
    "request_type": "Trash/Recycling",
    "request_reason": "Order Recycling Cart",
    "date_created": "2025-06-04T14:51:30.000",
    "date_modified": "2025-06-04T14:51:32.000",
    "request_status": "Pending",
    "responsible_agency": "Department of Sanitation",
    "final_address": "3320 N Johnson St",
    "address_councildis": "D",
    "status": "Pending",
    "rowid": "1198212",
    "final_x": "3690828.24406",
    "final_y": "539093.323914",
    "longitude": "-90.03834492610403",
    "latitude": "29.9760331415102",
    "geocoded_column": {
      "latitude": "29.9760331415102",
      "longitude": "-90.03834492610403"
    }
  },
  {
    "service_request": "2025-1198211",
    "request_type": "Trash/Recycling",
    "request_reason": "Request a Large Item Pick Up",
    "date_created": "2025-06-04T14:47:38.000",
    "date_modified": "2025-06-04T14:47:40.000",
    "request_status": "Pending",
    "responsible_agency": "Department of Sanitation",
    "final_address": "5441 Urquhart St",
    "address_councildis": "E",
    "status": "Assigned to Contractor",
    "contractor": "Waste Pro",
    "rowid": "1198211",
    "final_x": "3697705.59242",
    "final_y": "534643.904646",
    "longitude": "-90.01678585117743",
    "latitude": "29.963583323530717",
    "geocoded_column": {
      "latitude": "29.963583323530717",
      "longitude": "-90.01678585117743"
    }
  },
  {
    "service_request": "2025-1198210",
    "request_type": "Trash/Recycling",
    "request_reason": "Order Trash Cart",
    "date_created": "2025-06-04T14:46:20.000",
    "date_modified": "2025-06-04T15:09:39.000",
    "request_status": "Pending",
    "responsible_agency": "Department of Sanitation",
    "final_address": "3320 N Johnson St",
    "address_councildis": "D",
    "status": "Assigned to Contractor",
    "contractor": "IV Waste",
    "rowid": "1198210",
    "final_x": "3690828.24406",
    "final_y": "539093.323914",
    "longitude": "-90.03834492610403",
    "latitude": "29.9760331415102",
    "geocoded_column": {
      "latitude": "29.9760331415102",
      "longitude": "-90.03834492610403"
    }
  },
  {
    "service_request": "2025-1198209",
    "request_type": "Trash/Recycling",
    "request_reason": "Request a Large Item Pick Up",
    "date_created": "2025-06-04T14:46:01.000",
    "date_modified": "2025-06-04T14:46:03.000",
    "request_status": "Pending",
    "responsible_agency": "Department of Sanitation",
    "final_address": "760 Florida Blvd",
    "address_councildis": "A",
    "status": "Assigned to Contractor",
    "contractor": "IV Waste",
    "rowid": "1198209",
    "final_x": "3668896.83431",
    "final_y": "545201.908303",
    "longitude": "-90.1074044797423",
    "latitude": "29.993492974578754",
    "geocoded_column": {
      "latitude": "29.993492974578754",
      "longitude": "-90.1074044797423"
    }
  },
  {
    "service_request": "2025-1198208",
    "request_type": "Traffic Signals",
    "request_reason": "Traffic Signal Malfunctioning or Damaged",
    "date_created": "2025-06-04T14:41:46.000",
    "date_modified": "2025-06-04T14:41:48.000",
    "request_status": "Pending",
    "responsible_agency": "Department of Public Works",
    "final_address": "2201 Elysian Fields Ave",
    "address_councildis": "D",
    "status": "Pending",
    "rowid": "1198208",
    "final_x": "3684799.69173",
    "final_y": "540400.599051",
    "longitude": "-90.05733883205848",
    "latitude": "29.97981365334176",
    "geocoded_column": {
      "latitude": "29.97981365334176",
      "longitude": "-90.05733883205848"
    }
  },
  {
    "service_request": "2025-1198207",
    "request_type": "Roads and Streets",
    "request_reason": "Sidewalk Damaged or Missing",
    "date_created": "2025-06-04T14:39:45.000",
    "date_modified": "2025-06-04T14:39:46.000",
    "request_status": "Pending",
    "responsible_agency": "Department of Public Works",
    "final_address": "710 Royal St",
    "address_councildis": "C",
    "status": "Pending",
    "rowid": "1198207",
    "final_x": "3682613.94562",
    "final_y": "532502.945476",
    "longitude": "-90.06451851713489",
    "latitude": "29.95816457907887",
    "geocoded_column": {
      "latitude": "29.95816457907887",
      "longitude": "-90.06451851713489"
    }
  },
  {
    "service_request": "2025-1198206",
    "request_type": "Trash/Recycling",
    "request_reason": "Repair Trash Cart",
    "date_created": "2025-06-04T14:39:27.000",
    "date_modified": "2025-06-04T14:40:57.000",
    "request_status": "Pending",
    "responsible_agency": "Department of Sanitation",
    "final_address": "1728 Gordon St B",
    "address_councildis": "E",
    "status": "Assigned to Contractor",
    "contractor": "Waste Pro",
    "rowid": "1198206",
    "final_x": "3700084.33604",
    "final_y": "535866.486151",
    "longitude": "-90.0092294612227",
    "latitude": "29.966869618099384",
    "geocoded_column": {
      "latitude": "29.966869618099384",
      "longitude": "-90.0092294612227"
    }
  },
  {
    "service_request": "2025-1198205",
    "request_type": "Trash/Recycling",
    "request_reason": "Order Recycling Cart",
    "date_created": "2025-06-04T14:38:49.000",
    "date_modified": "2025-06-04T14:38:52.000",
    "request_status": "Pending",
    "responsible_agency": "Department of Sanitation",
    "final_address": "26 Fairway Oaks Dr",
    "address_councildis": "C",
    "status": "Pending",
    "rowid": "1198205",
    "final_x": "3716473.59448",
    "final_y": "515663.961716",
    "longitude": "-89.95823843103372",
    "latitude": "29.91078908242429",
    "geocoded_column": {
      "latitude": "29.91078908242429",
      "longitude": "-89.95823843103372"
    }
  },
  {
    "service_request": "2025-1198204",
    "request_type": "Trash/Recycling",
    "request_reason": "Request a Large Item Pick Up",
    "date_created": "2025-06-04T14:38:24.000",
    "date_modified": "2025-06-04T14:38:26.000",
    "request_status": "Pending",
    "responsible_agency": "Department of Sanitation",
    "final_address": "1315 Leboeuf St",
    "address_councildis": "C",
    "status": "Assigned to Contractor",
    "contractor": "Richards Disposal",
    "rowid": "1198204",
    "final_x": "3689630.98371",
    "final_y": "526412.412158",
    "longitude": "-90.04257736049354",
    "latitude": "29.941202188312285",
    "geocoded_column": {
      "latitude": "29.941202188312285",
      "longitude": "-90.04257736049354"
    }
  },
  {
    "service_request": "2025-1198203",
    "request_type": "Abandoned Vehicles",
    "request_reason": "Abandoned/Junk Vehicles",
    "date_created": "2025-06-04T14:38:19.000",
    "date_modified": "2025-06-04T14:38:21.000",
    "request_status": "Pending",
    "responsible_agency": "Department of Public Works",
    "final_address": "2608 Dryades St",
    "address_councildis": "B",
    "status": "Pending",
    "rowid": "1198203",
    "final_x": "3675767.09486",
    "final_y": "523699.165947",
    "longitude": "-90.08644152350601",
    "latitude": "29.93416379216697",
    "geocoded_column": {
      "latitude": "29.93416379216697",
      "longitude": "-90.08644152350601"
    }
  },
  {
    "service_request": "2025-1198202",
    "request_type": "Trash/Recycling",
    "request_reason": "MIssed Recycling Pick-Up",
    "date_created": "2025-06-04T14:37:55.000",
    "date_modified": "2025-06-04T14:37:57.000",
    "request_status": "Pending",
    "responsible_agency": "Department of Sanitation",
    "final_address": "4420 Longfellow Dr",
    "address_councildis": "E",
    "status": "Assigned to Contractor",
    "contractor": "Waste Pro",
    "rowid": "1198202",
    "final_x": "3709719.63326",
    "final_y": "554190.373784",
    "longitude": "-89.9781170834316",
    "latitude": "30.01694370897143",
    "geocoded_column": {
      "latitude": "30.01694370897143",
      "longitude": "-89.9781170834316"
    }
  },
  {
    "service_request": "2025-1198201",
    "request_type": "Trash/Recycling",
    "request_reason": "Request a Large Item Pick Up",
    "date_created": "2025-06-04T14:37:33.000",
    "date_modified": "2025-06-04T14:59:16.000",
    "request_status": "Pending",
    "responsible_agency": "Department of Sanitation",
    "final_address": "4922 Clara St",
    "address_councildis": "B",
    "status": "Assigned to Contractor",
    "contractor": "IV Waste",
    "rowid": "1198201",
    "final_x": "3669011.5906",
    "final_y": "524931.062844",
    "longitude": "-90.10772688160439",
    "latitude": "29.93775151975768",
    "geocoded_column": {
      "latitude": "29.93775151975768",
      "longitude": "-90.10772688160439"
    }
  },
  {
    "service_request": "2025-1198200",
    "request_type": "Trash/Recycling",
    "request_reason": "Request a Large Item Pick Up",
    "date_created": "2025-06-04T14:37:27.000",
    "date_modified": "2025-06-04T14:37:30.000",
    "request_status": "Pending",
    "responsible_agency": "Department of Sanitation",
    "final_address": "5761 Wingate Dr",
    "address_councildis": "D",
    "status": "Assigned to Contractor",
    "contractor": "IV Waste",
    "rowid": "1198200",
    "final_x": "3681302.80463",
    "final_y": "554405.292568",
    "longitude": "-90.06789493256329",
    "latitude": "30.01842817829403",
    "geocoded_column": {
      "latitude": "30.01842817829403",
      "longitude": "-90.06789493256329"
    }
  },
  {
    "service_request": "2025-1198199",
    "request_type": "Mosquito, Termite & Rodent Control",
    "request_reason": "Mosquito Complaint",
    "date_created": "2025-06-04T14:36:32.000",
    "date_modified": "2025-06-04T14:36:35.000",
    "request_status": "Pending",
    "responsible_agency": "Mosquito, Termite & Rodent Control Board",
    "final_address": "1920 Clio St",
    "address_councildis": "B",
    "status": "Pending",
    "rowid": "1198199",
    "final_x": "3678391.28917",
    "final_y": "527160.175999",
    "longitude": "-90.07803733161228",
    "latitude": "29.943601645835773",
    "geocoded_column": {
      "latitude": "29.943601645835773",
      "longitude": "-90.07803733161228"
    }
  },
  {
    "service_request": "2025-1198198",
    "request_type": "Trash/Recycling",
    "request_reason": "Request a Large Item Pick Up",
    "date_created": "2025-06-04T14:32:55.000",
    "date_modified": "2025-06-04T14:32:57.000",
    "request_status": "Pending",
    "responsible_agency": "Department of Sanitation",
    "final_address": "8004 Freret St",
    "address_councildis": "A",
    "status": "Assigned to Contractor",
    "contractor": "IV Waste",
    "rowid": "1198198",
    "final_x": "3661734.97901",
    "final_y": "527579.715903",
    "longitude": "-90.130612063513",
    "latitude": "29.945246479944824",
    "geocoded_column": {
      "latitude": "29.945246479944824",
      "longitude": "-90.130612063513"
    }
  },
  {
    "service_request": "2025-1198197",
    "request_type": "Property Maintenance",
    "request_reason": "Property Maintenance",
    "date_created": "2025-06-04T14:32:52.000",
    "date_modified": "2025-06-04T14:46:06.000",
    "case_close_date": "2025-06-04T09:46:05.000",
    "request_status": "Closed",
    "responsible_agency": "Department of Code Enforcement",
    "final_address": "4609 Laine Ave",
    "address_councildis": "E",
    "status": "Referred to Code Enforcement",
    "rowid": "1198197",
    "final_x": "3705840.65111",
    "final_y": "554523.119192",
    "longitude": "-89.99036063449206",
    "latitude": "30.017984207023407",
    "geocoded_column": {
      "latitude": "30.017984207023407",
      "longitude": "-89.99036063449206"
    }
  },
  {
    "service_request": "2025-1198196",
    "request_type": "Safety & Permits",
    "request_reason": "Zoning Enforcement",
    "date_created": "2025-06-04T14:32:08.000",
    "date_modified": "2025-06-04T14:32:10.000",
    "request_status": "Pending",
    "responsible_agency": "Safety and Permits",
    "final_address": "4621 Laine Ave",
    "address_councildis": "E",
    "status": "Pending",
    "rowid": "1198196",
    "final_x": "3705838.41681",
    "final_y": "554621.730904",
    "longitude": "-89.9903640421947",
    "latitude": "30.01825542319683",
    "geocoded_column": {
      "latitude": "30.01825542319683",
      "longitude": "-89.9903640421947"
    }
  },
  {
    "service_request": "2025-1198195",
    "request_type": "Trash/Recycling",
    "request_reason": "Request a Large Item Pick Up",
    "date_created": "2025-06-04T14:29:45.000",
    "date_modified": "2025-06-04T14:29:48.000",
    "request_status": "Pending",
    "responsible_agency": "Department of Sanitation",
    "final_address": "3228 Conti St",
    "address_councildis": "B",
    "status": "Assigned to Contractor",
    "contractor": "IV Waste",
    "rowid": "1198195",
    "final_x": "3674349.85947",
    "final_y": "537283.705288",
    "longitude": "-90.09045051260172",
    "latitude": "29.971559092474283",
    "geocoded_column": {
      "latitude": "29.971559092474283",
      "longitude": "-90.09045051260172"
    }
  },
  {
    "service_request": "2025-1198194",
    "request_type": "Property Maintenance",
    "request_reason": "Property Maintenance",
    "date_created": "2025-06-04T14:27:44.000",
    "date_modified": "2025-06-04T14:52:02.000",
    "case_close_date": "2025-06-04T09:52:00.000",
    "request_status": "Closed",
    "responsible_agency": "Department of Code Enforcement",
    "final_address": "7800 BLK S Coronet Ct",
    "address_councildis": "E",
    "status": "Referred to Code Enforcement",
    "rowid": "1198194",
    "final_x": "3703243.02786",
    "final_y": "557352.130162",
    "longitude": "-89.99846393927412",
    "latitude": "30.02584635497195",
    "geocoded_column": {
      "latitude": "30.02584635497195",
      "longitude": "-89.99846393927412"
    }
  },
  {
    "service_request": "2025-1198193",
    "request_type": "Roads and Streets",
    "request_reason": "Pothole",
    "date_created": "2025-06-04T14:25:12.000",
    "date_modified": "2025-06-04T14:25:13.000",
    "request_status": "Pending",
    "responsible_agency": "Department of Public Works",
    "final_address": "3126 Dauphine St",
    "address_councildis": "C",
    "status": "Pending",
    "rowid": "1198193",
    "final_x": "3688935.22588",
    "final_y": "534760.744262",
    "longitude": "-90.04447752256405",
    "latitude": "29.964178759365762",
    "geocoded_column": {
      "latitude": "29.964178759365762",
      "longitude": "-90.04447752256405"
    }
  },
  {
    "service_request": "2025-1198192",
    "request_type": "Trash/Recycling",
    "request_reason": "Request a Large Item Pick Up",
    "date_created": "2025-06-04T14:18:14.000",
    "date_modified": "2025-06-04T14:18:56.000",
    "request_status": "Pending",
    "responsible_agency": "Department of Sanitation",
    "final_address": "4554 Francisco Verrett Dr",
    "address_councildis": "E",
    "status": "Assigned to Contractor",
    "contractor": "Waste Pro",
    "rowid": "1198192",
    "final_x": "3704298.45802",
    "final_y": "553980.038296",
    "longitude": "-89.99525337596097",
    "latitude": "30.016540552905717",
    "geocoded_column": {
      "latitude": "30.016540552905717",
      "longitude": "-89.99525337596097"
    }
  },
  {
    "service_request": "2025-1198191",
    "request_type": "Mosquito, Termite & Rodent Control",
    "request_reason": "Rodent Complaint (Mice & Rats)",
    "date_created": "2025-06-04T14:16:01.000",
    "date_modified": "2025-06-04T14:17:07.000",
    "request_status": "Pending",
    "responsible_agency": "Mosquito, Termite & Rodent Control Board",
    "final_address": "10 Avoyelles Pl",
    "address_councildis": "E",
    "status": "Pending",
    "rowid": "1198191",
    "final_x": "3725616.91347",
    "final_y": "564466.947489",
    "longitude": "-89.92749064488848",
    "latitude": "30.044673511796",
    "geocoded_column": {
      "latitude": "30.044673511796",
      "longitude": "-89.92749064488848"
    }
  },