[
  {
    "service_request": "2026-1287810",
    "request_type": "Health Related Request",
    "request_reason": "Noise Ordinance Complaint",
    "date_created": "2026-06-04T23:46:49.000",
    "date_modified": "2026-06-04T23:46:51.000",
    "request_status": "Pending",
    "responsible_agency": "Health Department",
    "final_address": "800 Bourbon St, New Orleans, Louisiana, 70116",
    "address_councildis": "C",
    "status": "Pending",
    "rowid": "1287810",
    "final_x": "3682553.51528",
    "final_y": "533013.631428",
    "longitude": "-90.06469148499534",
    "latitude": "29.95957063099051",
    "geocoded_column": {
      "latitude": "29.95957063099051",
      "longitude": "-90.06469148499534"
    }
  },
  {
    "service_request": "2026-1287809",
    "request_type": "Trash/Recycling",
    "request_reason": "Order Recycling Cart",
    "date_created": "2026-06-04T23:42:55.000",
    "date_modified": "2026-06-04T23:42:57.000",
    "request_status": "Pending",
    "responsible_agency": "Department of Sanitation",
    "final_address": "87 Allard Blvd",
    "address_councildis": "A",
    "status": "Pending",
    "rowid": "1287809",
    "final_x": "3672751.8898",
    "final_y": "540252.564939",
    "longitude": "-90.09539585034395",
    "latitude": "29.979770010997722",
    "geocoded_column": {
      "latitude": "29.979770010997722",
      "longitude": "-90.09539585034395"
    }
  },
  {
    "service_request": "2026-1287808",
    "request_type": "Trash/Recycling",
    "request_reason": "Request a Large Item Pick Up",
    "date_created": "2026-06-04T23:40:52.000",
    "date_modified": "2026-06-04T23:40:54.000",
    "request_status": "Pending",
    "responsible_agency": "Department of Sanitation",
    "final_address": "2934 Palmer Ave",
    "address_councildis": "A",
    "status": "Assigned to Contractor",
    "contractor": "IV Waste",
    "rowid": "1287808",
    "final_x": "3667053.76436",
    "final_y": "527412.580479",
    "longitude": "-90.1138245347555",
    "latitude": "29.944632330796722",
    "geocoded_column": {
      "latitude": "29.944632330796722",
      "longitude": "-90.1138245347555"
    }
  },
  {
    "service_request": "2026-1287807",
    "request_type": "Trash/Recycling",
    "request_reason": "Request a Large Item Pick Up",
    "date_created": "2026-06-04T23:23:50.000",
    "date_modified": "2026-06-04T23:23:52.000",
    "request_status": "Pending",
    "responsible_agency": "Department of Sanitation",
    "final_address": "4541 Lafon Dr",
    "address_councildis": "E",
    "status": "Assigned to Contractor",
    "contractor": "Waste Pro",
    "rowid": "1287807",
    "final_x": "3701331.08625",
    "final_y": "553196.669655",
    "longitude": "-90.00465763843353",
    "latitude": "30.014481534089313",
    "geocoded_column": {
      "latitude": "30.014481534089313",
      "longitude": "-90.00465763843353"
    }
  },
  {
    "service_request": "2026-1287806",
    "request_type": "Trash/Recycling",
    "request_reason": "Illegal Dumping",
    "date_created": "2026-06-04T22:44:18.000",
    "date_modified": "2026-06-04T22:44:19.000",
    "request_status": "Pending",
    "responsible_agency": "Department of Sanitation",
    "final_address": "11731 W Barrington Dr",
    "address_councildis": "E",
    "status": "Pending",
    "rowid": "1287806",
    "final_x": "3713973.11711",
    "final_y": "565589.99197",
    "longitude": "-89.96424763282866",
    "latitude": "30.04814909396246",
    "geocoded_column": {
      "latitude": "30.04814909396246",
      "longitude": "-89.96424763282866"
    }
  },
  {
    "service_request": "2026-1287805",
    "request_type": "Trash/Recycling",
    "request_reason": "Illegal Dumping",
    "date_created": "2026-06-04T22:40:08.000",
    "date_modified": "2026-06-04T22:40:11.000",
    "request_status": "Pending",
    "responsible_agency": "Department of Sanitation",
    "final_address": "11811 W Barrington Dr",
    "address_councildis": "E",
    "status": "Pending",
    "rowid": "1287805",
    "final_x": "3714063.97874",
    "final_y": "565660.341026",
    "longitude": "-89.96395780388232",
    "latitude": "30.048339539846868",
    "geocoded_column": {
      "latitude": "30.048339539846868",
      "longitude": "-89.96395780388232"
    }
  },
  {
    "service_request": "2026-1287804",
    "request_type": "Health Related Request",
    "request_reason": "Noise Ordinance Complaint",
    "date_created": "2026-06-04T22:32:56.000",
    "date_modified": "2026-06-04T22:32:58.000",
    "request_status": "Pending",
    "responsible_agency": "Health Department",
    "final_address": "800 Bourbon St, New Orleans, Louisiana, 70116",
    "address_councildis": "C",
    "status": "Pending",
    "rowid": "1287804",
    "final_x": "3682553.51528",
    "final_y": "533013.631428",
    "longitude": "-90.06469148499534",
    "latitude": "29.95957063099051",
    "geocoded_column": {
      "latitude": "29.95957063099051",
      "longitude": "-90.06469148499534"
    }
  },
  {
    "service_request": "2026-1287803",
    "request_type": "Streetlights",
    "request_reason": "Streetlight Outage/Malfunction",
    "date_created": "2026-06-04T22:24:47.000",
    "date_modified": "2026-06-04T22:24:50.000",
    "request_status": "Pending",
    "responsible_agency": "Department of Public Works",
    "final_address": "4127 Fontainebleau Dr",
    "address_councildis": "B",
    "status": "Pending",
    "rowid": "1287803",
    "final_x": "3669881.82177",
    "final_y": "529175.25504",
    "longitude": "-90.10483582744327",
    "latitude": "29.949396046023413",
    "geocoded_column": {
      "latitude": "29.949396046023413",
      "longitude": "-90.10483582744327"
    }
  },
  {
    "service_request": "2026-1287802",
    "request_type": "Trash/Recycling",
    "request_reason": "Replace Trash Cart",
    "date_created": "2026-06-04T22:10:40.000",
    "date_modified": "2026-06-04T22:10:42.000",
    "request_status": "Pending",
    "responsible_agency": "Department of Sanitation",
    "final_address": "14508 Beekman Rd",
    "address_councildis": "E",
    "status": "Assigned to Contractor",
    "contractor": "Waste Pro",
    "rowid": "1287802",
    "final_x": "3720816.43686",
    "final_y": "572785.344489",
    "longitude": "-89.942343031808",
    "latitude": "30.06770670977812",
    "geocoded_column": {
      "latitude": "30.06770670977812",
      "longitude": "-89.942343031808"
    }
  },
  {
    "service_request": "2026-1287801",
    "request_type": "Trash/Recycling",
    "request_reason": "Replace Trash Cart",
    "date_created": "2026-06-04T21:55:59.000",
    "date_modified": "2026-06-04T21:56:02.000",
    "request_status": "Pending",
    "responsible_agency": "Department of Sanitation",
    "final_address": "7430 Newcastle St",
    "address_councildis": "E",
    "status": "Assigned to Contractor",
    "contractor": "Waste Pro",
    "rowid": "1287801",
    "final_x": "3697257.08151",
    "final_y": "558936.679516",
    "longitude": "-90.01732112498014",
    "latitude": "30.030393644723194",
    "geocoded_column": {
      "latitude": "30.030393644723194",
      "longitude": "-90.01732112498014"
    }
  },
  {
    "service_request": "2026-1287800",
    "request_type": "Abandoned Vehicles",
    "request_reason": "Abandoned/Junk Vehicles",
    "date_created": "2026-06-04T21:37:18.000",
    "date_modified": "2026-06-04T21:37:19.000",
    "request_status": "Pending",
    "responsible_agency": "Department of Public Works",
    "final_address": "1232 Magazine St",
    "address_councildis": "B",
    "status": "Pending",
    "rowid": "1287800",
    "final_x": "3680624.22971",
    "final_y": "525348.283325",
    "longitude": "-90.07105037231962",
    "latitude": "29.938552091805473",
    "geocoded_column": {
      "latitude": "29.938552091805473",
      "longitude": "-90.07105037231962"
    }
  },
  {
    "service_request": "2026-1287799",
    "request_type": "Street and Traffic Signs",
    "request_reason": "Stop Sign Missing or Damaged",
    "date_created": "2026-06-04T21:10:29.000",
    "date_modified": "2026-06-04T21:10:32.000",
    "request_status": "Pending",
    "responsible_agency": "Department of Public Works",
    "final_address": "8506 Apricot St",
    "address_councildis": "A",
    "status": "Pending",
    "rowid": "1287799",
    "final_x": "3664686.92685",
    "final_y": "533611.932741",
    "longitude": "-90.12109029887758",
    "latitude": "29.961747590287853",
    "geocoded_column": {
      "latitude": "29.961747590287853",
      "longitude": "-90.12109029887758"
    }
  },
  {
    "service_request": "2026-1287798",
    "request_type": "Trash/Recycling",
    "request_reason": "Return Recycling Cart",
    "date_created": "2026-06-04T20:37:26.000",
    "date_modified": "2026-06-04T20:37:28.000",
    "request_status": "Pending",
    "responsible_agency": "Department of Sanitation",
    "final_address": "823 Exposition Blvd",
    "address_councildis": "A",
    "status": "Pending",
    "rowid": "1287798",
    "final_x": "3663272.97984",
    "final_y": "520022.931832",
    "longitude": "-90.12600748104524",
    "latitude": "29.924423236203097",
    "geocoded_column": {
      "latitude": "29.924423236203097",
      "longitude": "-90.12600748104524"
    }
  },
  {
    "service_request": "2026-1287797",
    "request_type": "Trash/Recycling",
    "request_reason": "Damaged Caused By Contractor",
    "date_created": "2026-06-04T20:37:06.000",
    "date_modified": "2026-06-04T20:37:09.000",
    "request_status": "Pending",
    "responsible_agency": "Department of Sanitation",
    "final_address": "5906 Patton St",
    "address_councildis": "A",
    "status": "Assigned to Contractor",
    "contractor": "IV Waste",
    "rowid": "1287797",
    "final_x": "3664972.3442",
    "final_y": "518398.797686",
    "longitude": "-90.12069740491624",
    "latitude": "29.919908032242542",
    "geocoded_column": {
      "latitude": "29.919908032242542",
      "longitude": "-90.12069740491624"
    }
  },
  {
    "service_request": "2026-1287796",
    "request_type": "Roads and Streets",
    "request_reason": "Pothole",
    "date_created": "2026-06-04T20:29:56.000",
    "date_modified": "2026-06-04T20:29:58.000",
    "request_status": "Pending",
    "responsible_agency": "Department of Public Works",
    "final_address": "3810 Prytania St",
    "address_councildis": "B",
    "status": "Pending",
    "rowid": "1287796",
    "final_x": "3672915.57441",
    "final_y": "520473.155384",
    "longitude": "-90.09555370687322",
    "latitude": "29.925378317431434",
    "geocoded_column": {
      "latitude": "29.925378317431434",
      "longitude": "-90.09555370687322"
    }
  },
  {
    "service_request": "2026-1287795",
    "request_type": "Roads and Streets",
    "request_reason": "Pothole",
    "date_created": "2026-06-04T20:24:27.000",
    "date_modified": "2026-06-04T20:24:29.000",
    "request_status": "Pending",
    "responsible_agency": "Department of Public Works",
    "final_address": "3900 Prytania St",
    "address_councildis": "B",
    "status": "Pending",
    "rowid": "1287795",
    "final_x": "3672723.27707",
    "final_y": "520461.066168",
    "longitude": "-90.0961611426503",
    "latitude": "29.9253507863756",
    "geocoded_column": {
      "latitude": "29.9253507863756",
      "longitude": "-90.0961611426503"
    }
  },
  {
    "service_request": "2026-1287794",
    "request_type": "Trash/Recycling",
    "request_reason": "Replace Trash Cart",
    "date_created": "2026-06-04T20:05:00.000",
    "date_modified": "2026-06-04T20:05:02.000",
    "request_status": "Pending",
    "responsible_agency": "Department of Sanitation",
    "final_address": "1367 Magazine St",
    "address_councildis": "B",
    "status": "Assigned to Contractor",
    "contractor": "IV Waste",
    "rowid": "1287794",
    "final_x": "3680363.67535",
    "final_y": "524695.77766",
    "longitude": "-90.07189564773527",
    "latitude": "29.936765807356302",
    "geocoded_column": {
      "latitude": "29.936765807356302",
      "longitude": "-90.07189564773527"
    }
  },
  {
    "service_request": "2026-1287793",
    "request_type": "Trash/Recycling",
    "request_reason": "Missed Trash Pick-Up",
    "date_created": "2026-06-04T19:53:59.000",
    "date_modified": "2026-06-04T19:54:07.000",
    "request_status": "Pending",
    "responsible_agency": "Department of Sanitation",
    "final_address": "1021 Egania St",
    "address_councildis": "E",
    "status": "Assigned to Contractor",
    "contractor": "Waste Pro",
    "rowid": "1287793",
    "final_x": "3696777.2424",
    "final_y": "533779.656709",
    "longitude": "-90.01974875528867",
    "latitude": "29.961236245011037",
    "geocoded_column": {
      "latitude": "29.961236245011037",
      "longitude": "-90.01974875528867"
    }
  },
  {
    "service_request": "2026-1287792",
    "request_type": "Property Maintenance",
    "request_reason": "Property Maintenance",
    "date_created": "2026-06-04T19:53:09.000",
    "date_modified": "2026-06-04T19:53:11.000",
    "request_status": "Pending",
    "responsible_agency": "Department of Code Enforcement",
    "final_address": "1701 Joseph Guillaume Pl",
    "address_councildis": "C",
    "status": "Pending",
    "rowid": "1287792",
    "final_x": "3683162.19989",
    "final_y": "535852.430087",
    "longitude": "-90.06266999408543",
    "latitude": "29.967357807521996",
    "geocoded_column": {
      "latitude": "29.967357807521996",
      "longitude": "-90.06266999408543"
    }
  },
  {
    "service_request": "2026-1287791",
    "request_type": "Roads and Streets",
    "request_reason": "Street Subsidence (Sinking)",
    "date_created": "2026-06-04T19:50:59.000",
    "date_modified": "2026-06-04T19:51:01.000",
    "request_status": "Pending",
    "responsible_agency": "Sewerage & Water Board",
    "final_address": "400 Thayer St",
    "address_councildis": "C",
    "status": "Pending",
    "rowid": "1287791",
    "final_x": "3689599.41718",
    "final_y": "530227.087937",
    "longitude": "-90.0425413498096",
    "latitude": "29.951692217900163",
    "geocoded_column": {
      "latitude": "29.951692217900163",
      "longitude": "-90.0425413498096"
    }
  },
  {
    "service_request": "2026-1287790",
    "request_type": "Property Maintenance",
    "request_reason": "Property Maintenance",
    "date_created": "2026-06-04T19:50:15.000",
    "date_modified": "2026-06-04T19:50:16.000",
    "request_status": "Pending",
    "responsible_agency": "Department of Code Enforcement",
    "final_address": "1750 Henriette Delille St",
    "address_councildis": "C",
    "status": "Pending",
    "rowid": "1287790",
    "final_x": "3683352.70191",
    "final_y": "536135.674439",
    "longitude": "-90.06205846246749",
    "latitude": "29.968130821510766",
    "geocoded_column": {
      "latitude": "29.968130821510766",
      "longitude": "-90.06205846246749"
    }
  },
  {
    "service_request": "2026-1287789",
    "request_type": "Property Maintenance",
    "request_reason": "Property Maintenance",
    "date_created": "2026-06-04T19:48:15.000",
    "date_modified": "2026-06-04T19:48:17.000",
    "request_status": "Pending",
    "responsible_agency": "Department of Code Enforcement",
    "final_address": "1121 St Anthony St",
    "address_councildis": "C",
    "status": "Pending",
    "rowid": "1287789",
    "final_x": "3683690.61135",
    "final_y": "536021.700871",
    "longitude": "-90.06099532916774",
    "latitude": "29.967807120812477",
    "geocoded_column": {
      "latitude": "29.967807120812477",
      "longitude": "-90.06099532916774"
    }
  },
  {
    "service_request": "2026-1287788",
    "request_type": "Abandoned Vehicles",
    "request_reason": "Abandoned/Junk Vehicles",
    "date_created": "2026-06-04T19:45:26.000",
    "date_modified": "2026-06-04T19:45:28.000",
    "request_status": "Pending",
    "responsible_agency": "Department of Public Works",
    "final_address": "8212 Birch St",
    "address_councildis": "A",
    "status": "Pending",
    "rowid": "1287788",
    "final_x": "3662539.21664",
    "final_y": "529698.366081",
    "longitude": "-90.12800245339791",
    "latitude": "29.95104885212607",
    "geocoded_column": {
      "latitude": "29.95104885212607",
      "longitude": "-90.12800245339791"
    }
  },
  {
    "service_request": "2026-1287787",
    "request_type": "Trash/Recycling",
    "request_reason": "Request a Large Item Pick Up",
    "date_created": "2026-06-04T19:38:32.000",
    "date_modified": "2026-06-04T19:38:34.000",
    "request_status": "Pending",
    "responsible_agency": "Department of Sanitation",
    "final_address": "5937 Beechcraft St",
    "address_councildis": "D",
    "status": "Assigned to Contractor",
    "contractor": "Waste Pro",
    "rowid": "1287787",
    "final_x": "3696453.81322",
    "final_y": "553197.118679",
    "longitude": "-90.02006732014151",
    "latitude": "30.014637372804536",
    "geocoded_column": {
      "latitude": "30.014637372804536",
      "longitude": "-90.02006732014151"
    }
  },
  {
    "service_request": "2026-1287786",
    "request_type": "Trash/Recycling",
    "request_reason": "Order Recycling Cart",
    "date_created": "2026-06-04T19:37:18.000",
    "date_modified": "2026-06-04T19:37:21.000",
    "request_status": "Pending",
    "responsible_agency": "Department of Sanitation",
    "final_address": "5142 Toulon St",
    "address_councildis": "E",
    "status": "Pending",
    "rowid": "1287786",
    "final_x": "3723543.84159",
    "final_y": "562038.272671",
    "longitude": "-89.93413615009774",
    "latitude": "30.03806542980204",
    "geocoded_column": {
      "latitude": "30.03806542980204",
      "longitude": "-89.93413615009774"
    }
  },
  {
    "service_request": "2026-1287785",
    "request_type": "Mosquito, Termite & Rodent Control",
    "request_reason": "Mosquito Complaint",
    "date_created": "2026-06-04T19:24:25.000",
    "date_modified": "2026-06-04T19:24:26.000",
    "request_status": "Pending",
    "responsible_agency": "Mosquito, Termite & Rodent Control Board",
    "final_address": "5210 Chamberlain Dr",
    "address_councildis": "D",
    "status": "Pending",
    "rowid": "1287785",
    "final_x": "3679456.95759",
    "final_y": "551429.954837",
    "longitude": "-90.07383046542655",
    "latitude": "30.010302997265022",
    "geocoded_column": {
      "latitude": "30.010302997265022",
      "longitude": "-90.07383046542655"
    }
  },
  {
    "service_request": "2026-1287784",
    "request_type": "Trash/Recycling",
    "request_reason": "Order Trash Cart",
    "date_created": "2026-06-04T19:15:18.000",
    "date_modified": "2026-06-04T19:15:21.000",
    "request_status": "Pending",
    "responsible_agency": "Department of Sanitation",
    "final_address": "5030 Mithra St",
    "address_councildis": "D",
    "status": "Assigned to Contractor",
    "contractor": "IV Waste",
    "rowid": "1287784",
    "final_x": "3692263.44035",
    "final_y": "553739.740631",
    "longitude": "-90.0332873502289",
    "latitude": "30.016260770676194",
    "geocoded_column": {
      "latitude": "30.016260770676194",
      "longitude": "-90.0332873502289"
    }
  },
  {
    "service_request": "2026-1287783",
    "request_type": "Trash/Recycling",
    "request_reason": "Order Trash Cart",
    "date_created": "2026-06-04T18:59:46.000",
    "date_modified": "2026-06-04T18:59:48.000",
    "request_status": "Pending",
    "responsible_agency": "Department of Sanitation",
    "final_address": "1422 Lizardi St",
    "address_councildis": "E",
    "status": "Assigned to Contractor",
    "contractor": "Waste Pro",
    "rowid": "1287783",
    "final_x": "3696865.63914",
    "final_y": "535462.294854",
    "longitude": "-90.01940868671616",
    "latitude": "29.965860115338526",
    "geocoded_column": {
      "latitude": "29.965860115338526",
      "longitude": "-90.01940868671616"
    }
  },
  {
    "service_request": "2026-1287782",
    "request_type": "Trash/Recycling",
    "request_reason": "Request a Large Item Pick Up",
    "date_created": "2026-06-04T18:56:59.000",
    "date_modified": "2026-06-04T18:57:01.000",
    "request_status": "Pending",
    "responsible_agency": "Department of Sanitation",
    "final_address": "4848 Eastview Dr",
    "address_councildis": "E",
    "status": "Assigned to Contractor",
    "contractor": "Waste Pro",
    "rowid": "1287782",
    "final_x": "3704976.11012",
    "final_y": "556033.546457",
    "longitude": "-89.99303640942786",
    "latitude": "30.022165132281128",
    "geocoded_column": {
      "latitude": "30.022165132281128",
      "longitude": "-89.99303640942786"
    }
  },
  {
    "service_request": "2026-1287781",
    "request_type": "Trash/Recycling",
    "request_reason": "Replace Trash Cart",
    "date_created": "2026-06-04T18:16:24.000",
    "date_modified": "2026-06-04T18:16:25.000",
    "request_status": "Pending",
    "responsible_agency": "Department of Sanitation",
    "final_address": "1930 Elysian Fields Ave",
    "address_councildis": "D",
    "status": "Assigned to Contractor",
    "contractor": "IV Waste",
    "rowid": "1287781",
    "final_x": "3684640.90677",
    "final_y": "539498.80129",
    "longitude": "-90.05787204363068",
    "latitude": "29.977338886850514",
    "geocoded_column": {
      "latitude": "29.977338886850514",
      "longitude": "-90.05787204363068"
    }
  },
  {
    "service_request": "2026-1287780",
    "request_type": "Drainage",
    "request_reason": "Catch Basin Not Draining",
    "date_created": "2026-06-04T18:08:42.000",
    "date_modified": "2026-06-04T18:08:44.000",
    "request_status": "Pending",
    "responsible_agency": "Sewerage & Water Board",
    "final_address": "2525 Mistletoe St",
    "address_councildis": "A",
    "status": "Pending",
    "rowid": "1287780",
    "final_x": "3662383.68179",
    "final_y": "534539.356613",
    "longitude": "-90.12833281059393",
    "latitude": "29.96436450386319",
    "geocoded_column": {
      "latitude": "29.96436450386319",
      "longitude": "-90.12833281059393"
    }
  },
  {
    "service_request": "2026-1287779",
    "request_type": "Trash/Recycling",
    "request_reason": "Request a Large Item Pick Up",
    "date_created": "2026-06-04T18:06:42.000",
    "date_modified": "2026-06-04T18:06:45.000",
    "request_status": "Pending",
    "responsible_agency": "Department of Sanitation",
    "final_address": "1620 Gentilly Blvd",
    "address_councildis": "D",
    "status": "Assigned to Contractor",
    "contractor": "IV Waste",
    "rowid": "1287779",
    "final_x": "3678519.39688",
    "final_y": "540816.970699",
    "longitude": "-90.0771601623921",
    "latitude": "29.981149337845928",
    "geocoded_column": {
      "latitude": "29.981149337845928",
      "longitude": "-90.0771601623921"
    }
  },
  {
    "service_request": "2026-1287778",
    "request_type": "Trash/Recycling",
    "request_reason": "Missed Trash Pick-Up",
    "date_created": "2026-06-04T18:03:48.000",
    "date_modified": "2026-06-04T18:03:49.000",
    "request_status": "Pending",
    "responsible_agency": "Department of Sanitation",
    "final_address": "11013 S Hardy St",
    "address_councildis": "E",
    "status": "Assigned to Contractor",
    "contractor": "Waste Pro",
    "rowid": "1287778",
    "final_x": "3713270.13842",
    "final_y": "561952.963231",
    "longitude": "-89.96660653520388",
    "latitude": "30.03817180925248",
    "geocoded_column": {
      "latitude": "30.03817180925248",
      "longitude": "-89.96660653520388"
    }
  },
  {
    "service_request": "2026-1287777",
    "request_type": "Trash/Recycling",
    "request_reason": "Request a Large Item Pick Up",
    "date_created": "2026-06-04T18:02:05.000",
    "date_modified": "2026-06-04T18:02:06.000",
    "request_status": "Pending",
    "responsible_agency": "Department of Sanitation",
    "final_address": "5925 Annunciation St",
    "address_councildis": "A",
    "status": "Assigned to Contractor",
    "contractor": "IV Waste",
    "rowid": "1287777",
    "final_x": "3664731.27917",
    "final_y": "517857.040758",
    "longitude": "-90.12147641929081",
    "latitude": "29.918425382428893",
    "geocoded_column": {
      "latitude": "29.918425382428893",
      "longitude": "-90.12147641929081"
    }
  },
  {
    "service_request": "2026-1287776",
    "request_type": "Trash/Recycling",
    "request_reason": "Request a Large Item Pick Up",
    "date_created": "2026-06-04T17:56:37.000",
    "date_modified": "2026-06-04T17:56:39.000",
    "request_status": "Pending",
    "responsible_agency": "Department of Sanitation",
    "final_address": "231 Porteous St",
    "address_councildis": "A",
    "status": "Assigned to Contractor",
    "contractor": "IV Waste",
    "rowid": "1287776",
    "final_x": "3667390.47373",
    "final_y": "551785.11855",
    "longitude": "-90.1119411874065",
    "latitude": "30.01163875058549",
    "geocoded_column": {
      "latitude": "30.01163875058549",
      "longitude": "-90.1119411874065"
    }
  },
  {
    "service_request": "2026-1287775",
    "request_type": "Trash/Recycling",
    "request_reason": "Request a Large Item Pick Up",
    "date_created": "2026-06-04T17:51:01.000",
    "date_modified": "2026-06-04T17:51:03.000",
    "request_status": "Pending",
    "responsible_agency": "Department of Sanitation",
    "final_address": "5925 Annunciation St",
    "address_councildis": "A",
    "status": "Assigned to Contractor",
    "contractor": "IV Waste",
    "rowid": "1287775",
    "final_x": "3664731.27917",
    "final_y": "517857.040758",
    "longitude": "-90.12147641929081",
    "latitude": "29.918425382428893",
    "geocoded_column": {
      "latitude": "29.918425382428893",
      "longitude": "-90.12147641929081"
    }
  },
  {
    "service_request": "2026-1287774",
    "request_type": "Mosquito, Termite & Rodent Control",
    "request_reason": "Non-Rodent Complaint (Possums & Snakes)",
    "date_created": "2026-06-04T17:12:15.000",
    "date_modified": "2026-06-04T17:12:17.000",
    "request_status": "Pending",
    "responsible_agency": "Mosquito, Termite & Rodent Control Board",
    "final_address": "7041 Roy St",
    "address_councildis": "A",
    "status": "Pending",
    "rowid": "1287774",
    "final_x": "3665248.19085",
    "final_y": "554580.417304",
    "longitude": "-90.11861595719427",
    "latitude": "30.01938745815265",
    "geocoded_column": {
      "latitude": "30.01938745815265",
      "longitude": "-90.11861595719427"
    }
  },
  {
    "service_request": "2026-1287773",
    "request_type": "Trash/Recycling",
    "request_reason": "Illegal Dumping",
    "date_created": "2026-06-04T17:06:44.000",
    "date_modified": "2026-06-04T17:06:45.000",
    "request_status": "Pending",
    "responsible_agency": "Department of Sanitation",
    "final_address": "1616 Spain St",
    "address_councildis": "D",
    "status": "Pending",
    "rowid": "1287773",
    "final_x": "3685944.60162",
    "final_y": "538376.898057",
    "longitude": "-90.0537941197977",
    "latitude": "29.9742140798663",
    "geocoded_column": {
      "latitude": "29.9742140798663",
      "longitude": "-90.0537941197977"
    }
  },
  {
    "service_request": "2026-1287772",
    "request_type": "Streetlights",
    "request_reason": "Streetlight Outage/Malfunction",
    "date_created": "2026-06-04T16:53:39.000",
    "date_modified": "2026-06-04T16:53:40.000",
    "request_status": "Pending",
    "responsible_agency": "Department of Public Works",
    "final_address": "4000 BLK America St",
    "address_councildis": "E",
    "status": "Pending",
    "rowid": "1287772",
    "final_x": "3700056.29539",
    "final_y": "551579.424516",
    "longitude": "-90.00874439136156",
    "latitude": "30.010075304980965",
    "geocoded_column": {
      "latitude": "30.010075304980965",
      "longitude": "-90.00874439136156"
    }
  },
  {
    "service_request": "2026-1287771",
    "request_type": "Trash/Recycling",
    "request_reason": "Request a Large Item Pick Up",
    "date_created": "2026-06-04T16:43:25.000",
    "date_modified": "2026-06-04T16:43:27.000",
    "request_status": "Pending",
    "responsible_agency": "Department of Sanitation",
    "final_address": "7701 Dogwood Dr",
    "address_councildis": "E",
    "status": "Assigned to Contractor",
    "contractor": "Waste Pro",
    "rowid": "1287771",
    "final_x": "3701272.82769",
    "final_y": "561266.111774",
    "longitude": "-90.00454604507651",
    "latitude": "30.03667125054502",
    "geocoded_column": {
      "latitude": "30.03667125054502",
      "longitude": "-90.00454604507651"
    }
  },
  {
    "service_request": "2026-1287770",
    "request_type": "Trash/Recycling",
    "request_reason": "Request a Large Item Pick Up",
    "date_created": "2026-06-04T16:42:57.000",
    "date_modified": "2026-06-04T16:42:59.000",
    "request_status": "Pending",
    "responsible_agency": "Department of Sanitation",
    "final_address": "4812 Constance St",
    "address_councildis": "B",
    "status": "Assigned to Contractor",
    "contractor": "IV Waste",
    "rowid": "1287770",
    "final_x": "3669502.5913",
    "final_y": "518218.072182",
    "longitude": "-90.10640368213878",
    "latitude": "29.919278488156905",
    "geocoded_column": {
      "latitude": "29.919278488156905",
      "longitude": "-90.10640368213878"
    }
  },
  {
    "service_request": "2026-1287769",
    "request_type": "Trash/Recycling",
    "request_reason": "Change Size of Trash Cart",
    "date_created": "2026-06-04T16:42:13.000",
    "date_modified": "2026-06-04T16:42:20.000",
    "request_status": "Pending",
    "responsible_agency": "Department of Sanitation",
    "final_address": "2590 Myrtle St",
    "address_councildis": "D",
    "status": "Assigned to Contractor",
    "contractor": "IV Waste",
    "rowid": "1287769",
    "final_x": "3686973.63842",
    "final_y": "546017.054864",
    "longitude": "-90.05027400078457",
    "latitude": "29.995190160290928",
    "geocoded_column": {
      "latitude": "29.995190160290928",
      "longitude": "-90.05027400078457"
    }
  },
  {
    "service_request": "2026-1287768",
    "request_type": "Trash/Recycling",
    "request_reason": "Change Size of Trash Cart",
    "date_created": "2026-06-04T16:42:12.000",
    "date_modified": "2026-06-04T16:42:15.000",
    "request_status": "Pending",
    "responsible_agency": "Department of Sanitation",
    "final_address": "2590 Myrtle St",
    "address_councildis": "D",
    "status": "Assigned to Contractor",
    "contractor": "IV Waste",
    "rowid": "1287768",
    "final_x": "3686973.63842",
    "final_y": "546017.054864",
    "longitude": "-90.05027400078457",
    "latitude": "29.995190160290928",
    "geocoded_column": {
      "latitude": "29.995190160290928",
      "longitude": "-90.05027400078457"
    }
  },
  {
    "service_request": "2026-1287767",
    "request_type": "Trash/Recycling",
    "request_reason": "Repair Trash Cart",
    "date_created": "2026-06-04T16:40:52.000",
    "date_modified": "2026-06-04T16:40:54.000",
    "request_status": "Pending",
    "responsible_agency": "Department of Sanitation",
    "final_address": "2220 Fern St",
    "address_councildis": "A",
    "status": "Assigned to Contractor",
    "contractor": "IV Waste",
    "rowid": "1287767",
    "final_x": "3664986.82087",
    "final_y": "530606.46381",
    "longitude": "-90.12024375630753",
    "latitude": "29.95347480424071",
    "geocoded_column": {
      "latitude": "29.95347480424071",
      "longitude": "-90.12024375630753"
    }
  },
  {
    "service_request": "2026-1287766",
    "request_type": "Roads and Streets",
    "request_reason": "Pothole",
    "date_created": "2026-06-04T16:37:56.000",
    "date_modified": "2026-06-04T16:37:57.000",
    "request_status": "Pending",
    "responsible_agency": "Department of Public Works",
    "final_address": "4204 Iris St",
    "address_councildis": "D",
    "status": "Pending",
    "rowid": "1287766",
    "final_x": "3686198.02383",
    "final_y": "548420.836562",
    "longitude": "-90.0526392122071",
    "latitude": "30.00182355165553",
    "geocoded_column": {
      "latitude": "30.00182355165553",
      "longitude": "-90.0526392122071"
    }
  },
  {
    "service_request": "2026-1287765",
    "request_type": "Trash/Recycling",
    "request_reason": "Request a Large Item Pick Up",
    "date_created": "2026-06-04T16:37:18.000",
    "date_modified": "2026-06-04T16:37:20.000",
    "request_status": "Pending",
    "responsible_agency": "Department of Sanitation",
    "final_address": "3232 Laurel St",
    "address_councildis": "B",
    "status": "Assigned to Contractor",
    "contractor": "IV Waste",
    "rowid": "1287765",
    "final_x": "3675870.474",
    "final_y": "519171.087287",
    "longitude": "-90.08627073676406",
    "latitude": "29.9217099500363",
    "geocoded_column": {
      "latitude": "29.9217099500363",
      "longitude": "-90.08627073676406"
    }
  },
  {
    "service_request": "2026-1287764",
    "request_type": "Abandoned Vehicles",
    "request_reason": "Abandoned/Junk Vehicles",
    "date_created": "2026-06-04T16:33:22.000",
    "date_modified": "2026-06-04T16:33:24.000",
    "request_status": "Pending",
    "responsible_agency": "Department of Public Works",
    "final_address": "11235 Fernley Dr",
    "address_councildis": "E",
    "status": "Pending",
    "rowid": "1287764",
    "final_x": "3717363.37208",
    "final_y": "559934.145117",
    "longitude": "-89.95374783157818",
    "latitude": "30.032485994731484",
    "geocoded_column": {
      "latitude": "30.032485994731484",
      "longitude": "-89.95374783157818"
    }
  },
  {
    "service_request": "2026-1287763",
    "request_type": "Property Maintenance",
    "request_reason": "Property Maintenance",
    "date_created": "2026-06-04T16:32:42.000",
    "date_modified": "2026-06-04T16:32:43.000",
    "request_status": "Pending",
    "responsible_agency": "Department of Code Enforcement",
    "final_address": "1943 Feliciana St",
    "address_councildis": "D",
    "status": "Pending",
    "rowid": "1287763",
    "final_x": "3689648.47715",
    "final_y": "539387.651594",
    "longitude": "-90.04206048449947",
    "latitude": "29.976879047592185",
    "geocoded_column": {
      "latitude": "29.976879047592185",
      "longitude": "-90.04206048449947"
    }
  },
  {
    "service_request": "2026-1287762",
    "request_type": "Trash/Recycling",
    "request_reason": "Request a Large Item Pick Up",
    "date_created": "2026-06-04T16:31:16.000",
    "date_modified": "2026-06-04T16:31:18.000",
    "request_status": "Pending",
    "responsible_agency": "Department of Sanitation",
    "final_address": "5321 N Villere St",
    "address_councildis": "E",
    "status": "Assigned to Contractor",
    "contractor": "Waste Pro",
    "rowid": "1287762",
    "final_x": "3697301.42083",
    "final_y": "535163.428742",
    "longitude": "-90.01804334364687",
    "latitude": "29.965024592648643",
    "geocoded_column": {
      "latitude": "29.965024592648643",
      "longitude": "-90.01804334364687"
    }
  },
  {
    "service_request": "2026-1287761",
    "request_type": "Trash/Recycling",
    "request_reason": "Request a Large Item Pick Up",
    "date_created": "2026-06-04T16:29:11.000",
    "date_modified": "2026-06-04T16:29:12.000",
    "request_status": "Pending",
    "responsible_agency": "Department of Sanitation",
    "final_address": "3661 Rue Delphine",
    "address_councildis": "C",
    "status": "Assigned to Contractor",
    "contractor": "Richards Disposal",
    "rowid": "1287761",
    "final_x": "3702973.13962",
    "final_y": "517055.263093",
    "longitude": "-90.000797535427",
    "latitude": "29.9150532726773",
    "geocoded_column": {
      "latitude": "29.9150532726773",
      "longitude": "-90.000797535427"
    }
  },
  {
    "service_request": "2026-1287760",
    "request_type": "Trash/Recycling",
    "request_reason": "Request a Large Item Pick Up",
    "date_created": "2026-06-04T16:25:54.000",
    "date_modified": "2026-06-04T16:25:56.000",
    "request_status": "Pending",
    "responsible_agency": "Department of Sanitation",
    "final_address": "14806 Curran Rd",
    "address_councildis": "E",
    "status": "Assigned to Contractor",
    "contractor": "Waste Pro",
    "rowid": "1287760",
    "final_x": "3720448.40242",
    "final_y": "573917.19089",
    "longitude": "-89.94346304519027",
    "latitude": "30.070831088689058",
    "geocoded_column": {
      "latitude": "30.070831088689058",
      "longitude": "-89.94346304519027"
    }
  },
  {
    "service_request": "2026-1287759",
    "request_type": "Alley Ways",
    "request_reason": "Alley Way Issues",
    "date_created": "2026-06-04T16:22:35.000",
    "date_modified": "2026-06-04T16:22:37.000",
    "request_status": "Pending",
    "responsible_agency": "Department of Public Works",
    "final_address": "6135 Argonne Blvd",
    "address_councildis": "A",
    "status": "Pending",
    "rowid": "1287759",
    "final_x": "3670301.61492",
    "final_y": "548076.258258",
    "longitude": "-90.10286948523935",
    "latitude": "30.001355039453347",
    "geocoded_column": {
      "latitude": "30.001355039453347",
      "longitude": "-90.10286948523935"
    }
  },
  {
    "service_request": "2026-1287758",
    "request_type": "Trash/Recycling",
    "request_reason": "Damaged Caused By Contractor",
    "date_created": "2026-06-04T16:21:01.000",
    "date_modified": "2026-06-04T16:21:02.000",
    "request_status": "Pending",
    "responsible_agency": "Department of Sanitation",
    "final_address": "909 Fourth St",
    "address_councildis": "B",
    "status": "Assigned to Contractor",
    "contractor": "IV Waste",
    "rowid": "1287758",
    "final_x": "3677708.1725",
    "final_y": "520480.457976",
    "longitude": "-90.08042471467652",
    "latitude": "29.92525517260911",
    "geocoded_column": {
      "latitude": "29.92525517260911",
      "longitude": "-90.08042471467652"
    }
  },
  {
    "service_request": "2026-1287757",
    "request_type": "Trash/Recycling",
    "request_reason": "Order Second Trash Cart",
    "date_created": "2026-06-04T16:19:40.000",
    "date_modified": "2026-06-04T16:19:42.000",
    "request_status": "Pending",
    "responsible_agency": "Department of Sanitation",
    "final_address": "7930 Wave Dr",
    "address_councildis": "E",
    "status": "Assigned to Contractor",
    "contractor": "Waste Pro",
    "rowid": "1287757",
    "final_x": "3714167.02885",
    "final_y": "569727.654054",
    "longitude": "-89.96347842724394",
    "latitude": "30.05951959889848",
    "geocoded_column": {
      "latitude": "30.05951959889848",
      "longitude": "-89.96347842724394"
    }
  },
  {
    "service_request": "2026-1287756",
    "request_type": "Streetlights",
    "request_reason": "Streetlight Outage/Malfunction",
    "date_created": "2026-06-04T16:19:18.000",
    "date_modified": "2026-06-04T16:20:18.000",
    "request_status": "Pending",
    "responsible_agency": "Department of Public Works",
    "final_address": "WOODLAND DR & BERKLEY DR",
    "address_councildis": "C",
    "status": "Pending",
    "rowid": "1287756",
    "final_x": "3705489.5",
    "final_y": "518109.58",
    "longitude": "-89.99281612760552",
    "latitude": "29.91787157497775",
    "geocoded_column": {
      "latitude": "29.91787157497775",
      "longitude": "-89.99281612760552"
    }
  },
  {
    "service_request": "2026-1287755",
    "request_type": "Trash/Recycling",
    "request_reason": "Replace Trash Cart",
    "date_created": "2026-06-04T16:18:41.000",
    "date_modified": "2026-06-04T16:18:42.000",
    "request_status": "Pending",
    "responsible_agency": "Department of Sanitation",
    "final_address": "316 Broadway St",
    "address_councildis": "A",
    "status": "Assigned to Contractor",
    "contractor": "IV Waste",
    "rowid": "1287755",
    "final_x": "3661518.09338",
    "final_y": "522631.590458",
    "longitude": "-90.13146071134248",
    "latitude": "29.931646958358698",
    "geocoded_column": {
      "latitude": "29.931646958358698",
      "longitude": "-90.13146071134248"
    }
  },
  {
    "service_request": "2026-1287754",
    "request_type": "Trash/Recycling",
    "request_reason": "Request a Large Item Pick Up",
    "date_created": "2026-06-04T16:15:29.000",
    "date_modified": "2026-06-04T16:15:31.000",
    "request_status": "Pending",
    "responsible_agency": "Department of Sanitation",
    "final_address": "7930 Wave Dr",
    "address_councildis": "E",
    "status": "Assigned to Contractor",
    "contractor": "Waste Pro",
    "rowid": "1287754",
    "final_x": "3714167.02885",
    "final_y": "569727.654054",
    "longitude": "-89.96347842724394",
    "latitude": "30.05951959889848",
    "geocoded_column": {
      "latitude": "30.05951959889848",
      "longitude": "-89.96347842724394"
    }
  },
  {
    "service_request": "2026-1287753",
    "request_type": "Drainage",
    "request_reason": "Catch Basin Not Draining",
    "date_created": "2026-06-04T16:14:11.000",
    "date_modified": "2026-06-04T16:14:13.000",
    "request_status": "Pending",
    "responsible_agency": "Sewerage & Water Board",
    "final_address": "217 S Solomon St",
    "address_councildis": "A",
    "status": "Pending",
    "rowid": "1287753",
    "final_x": "3670201.34881",
    "final_y": "538291.429321",
    "longitude": "-90.1035180017303",
    "latitude": "29.974453072765638",
    "geocoded_column": {
      "latitude": "29.974453072765638",
      "longitude": "-90.1035180017303"
    }
  },
  {
    "service_request": "2026-1287752",
    "request_type": "Trash/Recycling",
    "request_reason": "Order Trash Cart",
    "date_created": "2026-06-04T16:11:01.000",
    "date_modified": "2026-06-04T16:11:03.000",
    "request_status": "Pending",
    "responsible_agency": "Department of Sanitation",
    "final_address": "4021 Franklin Ave",
    "address_councildis": "D",
    "status": "Assigned to Contractor",
    "contractor": "IV Waste",
    "rowid": "1287752",
    "final_x": "3687087.39881",
    "final_y": "547709.315922",
    "longitude": "-90.04985476642604",
    "latitude": "29.99983976481551",
    "geocoded_column": {
      "latitude": "29.99983976481551",
      "longitude": "-90.04985476642604"
    }
  },
  {
    "service_request": "2026-1287751",
    "request_type": "Drainage",
    "request_reason": "Drainage Manhole Cover Missing or Damaged",
    "date_created": "2026-06-04T16:08:05.000",
    "date_modified": "2026-06-04T16:08:07.000",
    "request_status": "Pending",
    "responsible_agency": "Sewerage & Water Board",
    "final_address": "217 S Solomon St",
    "address_councildis": "A",
    "status": "Pending",
    "rowid": "1287751",
    "final_x": "3670201.34881",
    "final_y": "538291.429321",
    "longitude": "-90.1035180017303",
    "latitude": "29.974453072765638",
    "geocoded_column": {
      "latitude": "29.974453072765638",
      "longitude": "-90.1035180017303"
    }
  },
  {
    "service_request": "2026-1287750",
    "request_type": "Property Maintenance",
    "request_reason": "Property Maintenance",
    "date_created": "2026-06-04T16:06:00.000",
    "date_modified": "2026-06-04T16:06:01.000",
    "request_status": "Pending",
    "responsible_agency": "Department of Code Enforcement",
    "final_address": "3712 Herschel St",
    "address_councildis": "C",
    "status": "Pending",
    "rowid": "1287750",
    "final_x": "3697383.69379",
    "final_y": "521206.070457",
    "longitude": "-90.01828938289724",
    "latitude": "29.926644131756852",
    "geocoded_column": {
      "latitude": "29.926644131756852",
      "longitude": "-90.01828938289724"
    }
  },
  {
    "service_request": "2026-1287749",
    "request_type": "Abandoned Vehicles",
    "request_reason": "Abandoned/Junk Vehicles",
    "date_created": "2026-06-04T16:04:33.000",
    "date_modified": "2026-06-04T16:04:36.000",
    "request_status": "Pending",
    "responsible_agency": "Department of Public Works",
    "final_address": "7TH ST & CHESTNUT ST",
    "address_councildis": "B",
    "status": "Pending",
    "rowid": "1287749",
    "final_x": "3675966.5",
    "final_y": "520988.58",
    "longitude": "-90.08590516675065",
    "latitude": "29.92670459411253",
    "geocoded_column": {
      "latitude": "29.92670459411253",
      "longitude": "-90.08590516675065"
    }
  },
  {
    "service_request": "2026-1287748",
    "request_type": "Trash/Recycling",
    "request_reason": "Order Recycling Cart",
    "date_created": "2026-06-04T16:03:39.000",
    "date_modified": "2026-06-04T16:03:40.000",
    "request_status": "Pending",
    "responsible_agency": "Department of Sanitation",
    "final_address": "4021 Franklin Ave",
    "address_councildis": "D",
    "status": "Pending",
    "rowid": "1287748",
    "final_x": "3687087.39881",
    "final_y": "547709.315922",
    "longitude": "-90.04985476642604",
    "latitude": "29.99983976481551",
    "geocoded_column": {
      "latitude": "29.99983976481551",
      "longitude": "-90.04985476642604"
    }
  },
  {
    "service_request": "2026-1287747",
    "request_type": "Trash/Recycling",
    "request_reason": "Repair Trash Cart",
    "date_created": "2026-06-04T16:02:43.000",
    "date_modified": "2026-06-04T16:02:46.000",
    "request_status": "Pending",
    "responsible_agency": "Department of Sanitation",
    "final_address": "4021 Franklin Ave",
    "address_councildis": "D",
    "status": "Assigned to Contractor",
    "contractor": "IV Waste",
    "rowid": "1287747",
    "final_x": "3687087.39881",
    "final_y": "547709.315922",
    "longitude": "-90.04985476642604",
    "latitude": "29.99983976481551",
    "geocoded_column": {
      "latitude": "29.99983976481551",
      "longitude": "-90.04985476642604"
    }
  },
  {
    "service_request": "2026-1287746",
    "request_type": "Trash/Recycling",
    "request_reason": "Request a Large Item Pick Up",
    "date_created": "2026-06-04T15:59:20.000",
    "date_modified": "2026-06-04T15:59:22.000",
    "request_status": "Pending",
    "responsible_agency": "Department of Sanitation",
    "final_address": "4708 Bonita Dr",
    "address_councildis": "E",
    "status": "Assigned to Contractor",
    "contractor": "Waste Pro",
    "rowid": "1287746",
    "final_x": "3704470.64369",
    "final_y": "555042.767897",
    "longitude": "-89.99467011904031",
    "latitude": "30.019457120811442",
    "geocoded_column": {
      "latitude": "30.019457120811442",
      "longitude": "-89.99467011904031"
    }
  },
  {
    "service_request": "2026-1287745",
    "request_type": "Safety & Permits",
    "request_reason": "Licenses & Permits",
    "date_created": "2026-06-04T15:58:09.000",
    "date_modified": "2026-06-04T15:58:10.000",
    "request_status": "Pending",
    "responsible_agency": "Safety and Permits",
    "final_address": "1823 Marais St",
    "address_councildis": "C",
    "status": "Pending",
    "rowid": "1287745",
    "final_x": "3683681.06345",
    "final_y": "536597.960583",
    "longitude": "-90.06100527433433",
    "latitude": "29.969391927145153",
    "geocoded_column": {
      "latitude": "29.969391927145153",
      "longitude": "-90.06100527433433"
    }
  },
  {
    "service_request": "2026-1287744",
    "request_type": "Trash/Recycling",
    "request_reason": "Dead Animal Pick Up",
    "date_created": "2026-06-04T15:57:33.000",
    "date_modified": "2026-06-04T17:32:23.000",
    "request_status": "Pending",
    "responsible_agency": "Department of Sanitation",
    "final_address": "200 Harrison Ave",
    "address_councildis": "A",
    "status": "Assigned to Contractor",
    "contractor": "IV Waste",
    "rowid": "1287744",
    "final_x": "3666932.60801",
    "final_y": "549326.368595",
    "longitude": "-90.1134704822259",
    "latitude": "30.004891456919903",
    "geocoded_column": {
      "latitude": "30.004891456919903",
      "longitude": "-90.1134704822259"
    }
  },
  {
    "service_request": "2026-1287743",
    "request_type": "Trash/Recycling",
    "request_reason": "Request a Large Item Pick Up",
    "date_created": "2026-06-04T15:56:27.000",
    "date_modified": "2026-06-04T15:56:29.000",
    "request_status": "Pending",
    "responsible_agency": "Department of Sanitation",
    "final_address": "7810 Duke Ct",
    "address_councildis": "E",
    "status": "Assigned to Contractor",
    "contractor": "Waste Pro",
    "rowid": "1287743",
    "final_x": "3699990.4664",
    "final_y": "561121.932638",
    "longitude": "-90.00860381818379",
    "latitude": "30.03631564140625",
    "geocoded_column": {
      "latitude": "30.03631564140625",
      "longitude": "-90.00860381818379"
    }
  },
  {
    "service_request": "2026-1287742",
    "request_type": "Abandoned Vehicles",
    "request_reason": "Abandoned/Junk Vehicles",
    "date_created": "2026-06-04T15:54:08.000",
    "date_modified": "2026-06-04T15:54:10.000",
    "request_status": "Pending",
    "responsible_agency": "Department of Public Works",
    "final_address": "2316 N Derbigny St",
    "address_councildis": "D",
    "status": "Pending",
    "rowid": "1287742",
    "final_x": "3685759.02582",
    "final_y": "538555.662985",
    "longitude": "-90.05437390839347",
    "latitude": "29.974711317613213",
    "geocoded_column": {
      "latitude": "29.974711317613213",
      "longitude": "-90.05437390839347"
    }
  },
  {
    "service_request": "2026-1287741",
    "request_type": "Trash/Recycling",
    "request_reason": "Request a Large Item Pick Up",
    "date_created": "2026-06-04T15:53:47.000",
    "date_modified": "2026-06-04T16:20:06.000",
    "request_status": "Pending",
    "responsible_agency": "Department of Sanitation",
    "final_address": "4600 Kendall Dr",
    "address_councildis": "D",
    "status": "Assigned to Contractor",
    "contractor": "IV Waste",
    "rowid": "1287741",
    "final_x": "3690678.45744",
    "final_y": "550418.432468",
    "longitude": "-90.03841377892871",
    "latitude": "30.00717775238279",
    "geocoded_column": {
      "latitude": "30.00717775238279",
      "longitude": "-90.03841377892871"
    }
  },
  {
    "service_request": "2026-1287740",
    "request_type": "Trash/Recycling",
    "request_reason": "Order Recycling Cart",
    "date_created": "2026-06-04T15:51:13.000",
    "date_modified": "2026-06-04T15:51:14.000",
    "request_status": "Pending",
    "responsible_agency": "Department of Sanitation",
    "final_address": "507 Harrison Ave",
    "address_councildis": "A",
    "status": "Pending",
    "rowid": "1287740",
    "final_x": "3668008.75169",
    "final_y": "549437.193875",
    "longitude": "-90.11006697607102",
    "latitude": "30.005164642282004",
    "geocoded_column": {
      "latitude": "30.005164642282004",
      "longitude": "-90.11006697607102"
    }
  },
  {
    "service_request": "2026-1287739",
    "request_type": "Drainage",
    "request_reason": "Ditch and Culvert Maintenance",
    "date_created": "2026-06-04T15:49:07.000",
    "date_modified": "2026-06-04T15:49:09.000",
    "request_status": "Pending",
    "responsible_agency": "Department of Public Works",
    "final_address": "326 S Gayoso St",
    "address_councildis": "B",
    "status": "Pending",
    "rowid": "1287739",
    "final_x": "3673749.92852",
    "final_y": "535017.451974",
    "longitude": "-90.09242269656946",
    "latitude": "29.965345540648517",
    "geocoded_column": {
      "latitude": "29.965345540648517",
      "longitude": "-90.09242269656946"
    }
  },
  {
    "service_request": "2026-1287738",
    "request_type": "Trash/Recycling",
    "request_reason": "Request a Large Item Pick Up",
    "date_created": "2026-06-04T15:46:44.000",
    "date_modified": "2026-06-04T15:46:46.000",
    "request_status": "Pending",
    "responsible_agency": "Department of Sanitation",
    "final_address": "1521 Forstall St",
    "address_councildis": "E",
    "status": "Assigned to Contractor",
    "contractor": "Waste Pro",
    "rowid": "1287738",
    "final_x": "3696790.81853",
    "final_y": "535820.882567",
    "longitude": "-90.01963198352074",
    "latitude": "29.96684846265562",
    "geocoded_column": {
      "latitude": "29.96684846265562",
      "longitude": "-90.01963198352074"
    }
  },
  {
    "service_request": "2026-1287737",
    "request_type": "Trash/Recycling",
    "request_reason": "Request a Large Item Pick Up",
    "date_created": "2026-06-04T15:42:16.000",
    "date_modified": "2026-06-04T15:42:19.000",
    "request_status": "Pending",
    "responsible_agency": "Department of Sanitation",
    "final_address": "1921 Carnot St",
    "address_councildis": "D",
    "status": "Assigned to Contractor",
    "contractor": "IV Waste",
    "rowid": "1287737",
    "final_x": "3681854.42447",
    "final_y": "549843.834708",
    "longitude": "-90.06631138564023",
    "latitude": "30.005869060246898",
    "geocoded_column": {
      "latitude": "30.005869060246898",
      "longitude": "-90.06631138564023"
    }
  },
  {
    "service_request": "2026-1287736",
    "request_type": "Abandoned Vehicles",
    "request_reason": "Abandoned/Junk Vehicles",
    "date_created": "2026-06-04T15:38:54.000",
    "date_modified": "2026-06-04T15:38:55.000",
    "request_status": "Pending",
    "responsible_agency": "Department of Public Works",
    "final_address": "216 S Roadway St",
    "address_councildis": "A",
    "status": "Pending",
    "rowid": "1287736",
    "final_x": "3666217.77313",
    "final_y": "556182.03849",
    "longitude": "-90.11549860676338",
    "latitude": "30.023763051746272",
    "geocoded_column": {
      "latitude": "30.023763051746272",
      "longitude": "-90.11549860676338"
    }
  },
  {
    "service_request": "2026-1287735",
    "request_type": "Streetlights",
    "request_reason": "Streetlight Outage/Malfunction",
    "date_created": "2026-06-04T15:37:16.000",
    "date_modified": "2026-06-04T15:37:18.000",
    "request_status": "Pending",
    "responsible_agency": "Department of Public Works",
    "final_address": "216 S Roadway St",
    "address_councildis": "A",
    "status": "Pending",
    "rowid": "1287735",
    "final_x": "3666217.77313",
    "final_y": "556182.03849",
    "longitude": "-90.11549860676338",
    "latitude": "30.023763051746272",
    "geocoded_column": {
      "latitude": "30.023763051746272",
      "longitude": "-90.11549860676338"
    }
  },
  {
    "service_request": "2026-1287734",
    "request_type": "Traffic Signals",
    "request_reason": "Traffic Signal Malfunctioning or Damaged",
    "date_created": "2026-06-04T15:36:32.000",
    "date_modified": "2026-06-04T15:36:37.000",
    "request_status": "Pending",
    "responsible_agency": "Department of Public Works",
    "final_address": "1111 Canal St",
    "address_councildis": "C",
    "status": "Pending",
    "rowid": "1287734",
    "final_x": "3679986.71823",
    "final_y": "531707.587395",
    "longitude": "-90.07284220329849",
    "latitude": "29.956057344840524",
    "geocoded_column": {
      "latitude": "29.956057344840524",
      "longitude": "-90.07284220329849"
    }
  },
  {
    "service_request": "2026-1287733",
    "request_type": "Roads and Streets",
    "request_reason": "Sidewalk Damaged or Missing",
    "date_created": "2026-06-04T15:36:27.000",
    "date_modified": "2026-06-04T15:37:54.000",
    "request_status": "Pending",
    "responsible_agency": "Department of Public Works",
    "final_address": "618 Pauline St",
    "address_councildis": "C",
    "status": "Pending",
    "rowid": "1287733",
    "final_x": "3690760.98896",
    "final_y": "533761.991429",
    "longitude": "-90.03874757298632",
    "latitude": "29.961375943977163",
    "geocoded_column": {
      "latitude": "29.961375943977163",
      "longitude": "-90.03874757298632"
    }
  },
  {
    "service_request": "2026-1287732",
    "request_type": "Trash/Recycling",
    "request_reason": "Illegal Dumping",
    "date_created": "2026-06-04T15:32:38.000",
    "date_modified": "2026-06-04T15:32:40.000",
    "request_status": "Pending",
    "responsible_agency": "Department of Sanitation",
    "final_address": "2016 Dufossat St",
    "address_councildis": "B",
    "status": "Pending",
    "rowid": "1287732",
    "final_x": "3668154.23194",
    "final_y": "523050.421627",
    "longitude": "-90.11049700222063",
    "latitude": "29.93260554696835",
    "geocoded_column": {
      "latitude": "29.93260554696835",
      "longitude": "-90.11049700222063"
    }
  },
  {
    "service_request": "2026-1287731",
    "request_type": "Trash/Recycling",
    "request_reason": "Request a Large Item Pick Up",
    "date_created": "2026-06-04T15:31:41.000",
    "date_modified": "2026-06-04T15:31:43.000",
    "request_status": "Pending",
    "responsible_agency": "Department of Sanitation",
    "final_address": "5892 Rhodes Ave",
    "address_councildis": "C",
    "status": "Assigned to Contractor",
    "contractor": "Richards Disposal",
    "rowid": "1287731",
    "final_x": "3705461.201",
    "final_y": "519493.473847",
    "longitude": "-89.99285434943258",
    "latitude": "29.921677713750565",
    "geocoded_column": {
      "latitude": "29.921677713750565",
      "longitude": "-89.99285434943258"
    }
  },
  {
    "service_request": "2026-1287730",
    "request_type": "Roads and Streets",
    "request_reason": "Pothole",
    "date_created": "2026-06-04T15:30:52.000",
    "date_modified": "2026-06-04T15:30:54.000",
    "request_status": "Pending",
    "responsible_agency": "Department of Public Works",
    "final_address": "1938 Robert St",
    "address_councildis": "B",
    "status": "Pending",
    "rowid": "1287730",
    "final_x": "3668736.53063",
    "final_y": "522820.102203",
    "longitude": "-90.10866649973627",
    "latitude": "29.93195514217539",
    "geocoded_column": {
      "latitude": "29.93195514217539",
      "longitude": "-90.10866649973627"
    }
  },
  {
    "service_request": "2026-1287729",
    "request_type": "Trash/Recycling",
    "request_reason": "Request a Large Item Pick Up",
    "date_created": "2026-06-04T15:29:10.000",
    "date_modified": "2026-06-04T15:29:12.000",
    "request_status": "Pending",
    "responsible_agency": "Department of Sanitation",
    "final_address": "5425 Vicksburg St",
    "address_councildis": "A",
    "status": "Assigned to Contractor",
    "contractor": "IV Waste",
    "rowid": "1287729",
    "final_x": "3668666.04046",
    "final_y": "543050.316173",
    "longitude": "-90.10820619186633",
    "latitude": "29.987583620607044",
    "geocoded_column": {
      "latitude": "29.987583620607044",
      "longitude": "-90.10820619186633"
    }
  },
  {
    "service_request": "2026-1287728",
    "request_type": "Trash/Recycling",
    "request_reason": "Illegal Dumping",
    "date_created": "2026-06-04T15:26:28.000",
    "date_modified": "2026-06-04T15:27:54.000",
    "request_status": "Pending",
    "responsible_agency": "Department of Sanitation",
    "final_address": "MONTEGUT ST & LAW ST",
    "address_councildis": "D",
    "status": "Assigned to Contractor",
    "contractor": "IV Waste",
    "rowid": "1287728",
    "final_x": "3689847.0",
    "final_y": "541787.08",
    "longitude": "-90.0413480416112",
    "latitude": "29.983470468848388",
    "geocoded_column": {
      "latitude": "29.983470468848388",
      "longitude": "-90.0413480416112"
    }
  },
  {
    "service_request": "2026-1287727",
    "request_type": "Trash/Recycling",
    "request_reason": "Replace Trash Cart",
    "date_created": "2026-06-04T15:25:04.000",
    "date_modified": "2026-06-04T15:25:05.000",
    "request_status": "Pending",
    "responsible_agency": "Department of Sanitation",
    "final_address": "3709 Octavia St",
    "address_councildis": "B",
    "status": "Assigned to Contractor",
    "contractor": "IV Waste",
    "rowid": "1287727",
    "final_x": "3668768.26215",
    "final_y": "529131.165184",
    "longitude": "-90.10835333205058",
    "latitude": "29.949307594281926",
    "geocoded_column": {
      "latitude": "29.949307594281926",
      "longitude": "-90.10835333205058"
    }
  },
  {
    "service_request": "2026-1287726",
    "request_type": "Roads and Streets",
    "request_reason": "Abandoned Service Cut",
    "date_created": "2026-06-04T15:21:06.000",
    "date_modified": "2026-06-04T15:26:14.000",
    "request_status": "Pending",
    "responsible_agency": "Department of Public Works",
    "final_address": "1264 Tennessee St",
    "address_councildis": "E",
    "status": "Pending",
    "rowid": "1287726",
    "final_x": "3695826.47146",
    "final_y": "535032.63111",
    "longitude": "-90.02270584798961",
    "latitude": "29.964711416678217",
    "geocoded_column": {
      "latitude": "29.964711416678217",
      "longitude": "-90.02270584798961"
    }
  },
  {
    "service_request": "2026-1287725",
    "request_type": "Streetlights",
    "request_reason": "Streetlight Outage/Malfunction",
    "date_created": "2026-06-04T15:19:33.000",
    "date_modified": "2026-06-04T15:19:34.000",
    "request_status": "Pending",
    "responsible_agency": "Department of Public Works",
    "final_address": "800 BLK Commerce St",
    "address_councildis": "B",
    "status": "Pending",
    "rowid": "1287725",
    "final_x": "3681984.58481",
    "final_y": "527333.336197",
    "longitude": "-90.06668631609762",
    "latitude": "29.9439690474267",
    "geocoded_column": {
      "latitude": "29.9439690474267",
      "longitude": "-90.06668631609762"
    }
  },
  {
    "service_request": "2026-1287724",
    "request_type": "Streetlights",
    "request_reason": "Streetlight Outage/Malfunction",
    "date_created": "2026-06-04T15:17:56.000",
    "date_modified": "2026-06-04T15:17:58.000",
    "request_status": "Pending",
    "responsible_agency": "Department of Public Works",
    "final_address": "COMMERCE ST & JULIA ST",
    "address_councildis": "B",
    "status": "Pending",
    "rowid": "1287724",
    "final_x": "3681989.9",
    "final_y": "527632.98",
    "longitude": "-90.06665907635893",
    "latitude": "29.944792805859517",
    "geocoded_column": {
      "latitude": "29.944792805859517",
      "longitude": "-90.06665907635893"
    }
  },
  {
    "service_request": "2026-1287723",
    "request_type": "Trash/Recycling",
    "request_reason": "Repair Recycling Cart",
    "date_created": "2026-06-04T15:15:50.000",
    "date_modified": "2026-06-04T15:15:52.000",
    "request_status": "Pending",
    "responsible_agency": "Department of Sanitation",
    "final_address": "11350 Prentiss Ave",
    "address_councildis": "E",
    "status": "Pending",
    "rowid": "1287723",
    "final_x": "3717410.25394",
    "final_y": "556680.989658",
    "longitude": "-89.9537234580674",
    "latitude": "30.023539568083912",
    "geocoded_column": {
      "latitude": "30.023539568083912",
      "longitude": "-89.9537234580674"
    }
  },
  {
    "service_request": "2026-1287722",
    "request_type": "Abandoned Vehicles",
    "request_reason": "Abandoned/Junk Vehicles",
    "date_created": "2026-06-04T15:15:37.000",
    "date_modified": "2026-06-04T15:18:06.000",
    "request_status": "Pending",
    "responsible_agency": "Department of Public Works",
    "final_address": "4012 Orleans Ave",
    "address_councildis": "A",
    "status": "Pending",
    "rowid": "1287722",
    "final_x": "3672821.42529",
    "final_y": "539891.310794",
    "longitude": "-90.09518855748652",
    "latitude": "29.978774619529464",
    "geocoded_column": {
      "latitude": "29.978774619529464",
      "longitude": "-90.09518855748652"
    }
  },
  {
    "service_request": "2026-1287721",
    "request_type": "Traffic Signals",
    "request_reason": "Traffic Signal Malfunctioning or Damaged",
    "date_created": "2026-06-04T15:15:18.000",
    "date_modified": "2026-06-04T15:15:19.000",
    "request_status": "Pending",
    "responsible_agency": "Department of Public Works",
    "final_address": "0 BLK Poydras St",
    "address_councildis": "B",
    "status": "Pending",
    "rowid": "1287721",
    "final_x": "3682820.46766",
    "final_y": "528816.972666",
    "longitude": "-90.06399531569016",
    "latitude": "29.948023114681554",
    "geocoded_column": {
      "latitude": "29.948023114681554",
      "longitude": "-90.06399531569016"
    }
  },
  {
    "service_request": "2026-1287720",
    "request_type": "Property Maintenance",
    "request_reason": "Property Maintenance",
    "date_created": "2026-06-04T15:15:07.000",
    "date_modified": "2026-06-04T15:15:08.000",
    "request_status": "Pending",
    "responsible_agency": "Department of Code Enforcement",
    "final_address": "1249 Southlawn Blvd",
    "address_councildis": "C",
    "status": "Pending",
    "rowid": "1287720",
    "final_x": "3695123.08067",
    "final_y": "526848.09043",
    "longitude": "-90.02522216149036",
    "latitude": "29.942228897292413",
    "geocoded_column": {
      "latitude": "29.942228897292413",
      "longitude": "-90.02522216149036"
    }
  },
  {
    "service_request": "2026-1287719",
    "request_type": "Trash/Recycling",
    "request_reason": "Repair Trash Cart",
    "date_created": "2026-06-04T15:14:37.000",
    "date_modified": "2026-06-04T15:14:39.000",
    "request_status": "Pending",
    "responsible_agency": "Department of Sanitation",
    "final_address": "1115 Allen Toussaint Blvd",
    "address_councildis": "D",
    "status": "Assigned to Contractor",
    "contractor": "IV Waste",
    "rowid": "1287719",
    "final_x": "3674601.99643",
    "final_y": "554716.942168",
    "longitude": "-90.0890563599312",
    "latitude": "30.01948687942195",
    "geocoded_column": {
      "latitude": "30.01948687942195",
      "longitude": "-90.0890563599312"
    }
  },
  {
    "service_request": "2026-1287718",
    "request_type": "Abandoned Vehicles",
    "request_reason": "Abandoned/Junk Vehicles",
    "date_created": "2026-06-04T15:14:27.000",
    "date_modified": "2026-06-04T15:14:28.000",
    "request_status": "Pending",
    "responsible_agency": "Department of Public Works",
    "final_address": "4014 Orleans Ave",
    "address_councildis": "A",
    "status": "Pending",
    "rowid": "1287718",
    "final_x": "3672808.92532",
    "final_y": "539901.03297",
    "longitude": "-90.09522770538726",
    "latitude": "29.97880172358559",
    "geocoded_column": {
      "latitude": "29.97880172358559",
      "longitude": "-90.09522770538726"
    }
  },
  {
    "service_request": "2026-1287717",
    "request_type": "Street and Traffic Signs",
    "request_reason": "Traffic or Parking Sign Damaged or Missing",
    "date_created": "2026-06-04T15:04:28.000",
    "date_modified": "2026-06-04T15:05:48.000",
    "request_status": "Pending",
    "responsible_agency": "Department of Public Works",
    "final_address": "READ BLVD & HAMMOND ST",
    "address_councildis": "E",
    "status": "Pending",
    "rowid": "1287717",
    "final_x": "3712718.6",
    "final_y": "556386.88",
    "longitude": "-89.96855903181068",
    "latitude": "30.022885369429847",
    "geocoded_column": {
      "latitude": "30.022885369429847",
      "longitude": "-89.96855903181068"
    }
  },
  {
    "service_request": "2026-1287716",
    "request_type": "Trash/Recycling",
    "request_reason": "Replace Trash Cart",
    "date_created": "2026-06-04T15:01:46.000",
    "date_modified": "2026-06-04T15:01:48.000",
    "request_status": "Pending",
    "responsible_agency": "Department of Sanitation",
    "final_address": "612 Hagan St",
    "address_councildis": "A",
    "status": "Assigned to Contractor",
    "contractor": "IV Waste",
    "rowid": "1287716",
    "final_x": "3674496.35438",
    "final_y": "538196.278473",
    "longitude": "-90.08995658562264",
    "latitude": "29.974063988362612",
    "geocoded_column": {
      "latitude": "29.974063988362612",
      "longitude": "-90.08995658562264"
    }
  },
  {
    "service_request": "2026-1287715",
    "request_type": "Trash/Recycling",
    "request_reason": "Illegal Dumping",
    "date_created": "2026-06-04T15:01:10.000",
    "date_modified": "2026-06-04T15:01:12.000",
    "request_status": "Pending",
    "responsible_agency": "Department of Sanitation",
    "final_address": "7810 Shubrick Ave",
    "address_councildis": "E",
    "status": "Pending",
    "rowid": "1287715",
    "final_x": "3706461.93681",
    "final_y": "564145.158625",
    "longitude": "-89.98804068732564",
    "latitude": "30.04442100599297",
    "geocoded_column": {
      "latitude": "30.04442100599297",
      "longitude": "-89.98804068732564"
    }
  },
  {
    "service_request": "2026-1287714",
    "request_type": "Trash/Recycling",
    "request_reason": "Request a Large Item Pick Up",
    "date_created": "2026-06-04T15:00:42.000",
    "date_modified": "2026-06-04T15:00:44.000",
    "request_status": "Pending",
    "responsible_agency": "Department of Sanitation",
    "final_address": "7830 Shubrick Ave",
    "address_councildis": "E",
    "status": "Assigned to Contractor",
    "contractor": "Waste Pro",
    "rowid": "1287714",
    "final_x": "3706404.37457",
    "final_y": "564249.315297",
    "longitude": "-89.98821874440895",
    "latitude": "30.04470925349603",
    "geocoded_column": {
      "latitude": "30.04470925349603",
      "longitude": "-89.98821874440895"
    }
  },
  {
    "service_request": "2026-1287713",
    "request_type": "Trash/Recycling",
    "request_reason": "Request a Large Item Pick Up",
    "date_created": "2026-06-04T14:58:00.000",
    "date_modified": "2026-06-04T14:58:02.000",
    "request_status": "Pending",
    "responsible_agency": "Department of Sanitation",
    "final_address": "8067 Driftwood Dr",
    "address_councildis": "E",
    "status": "Assigned to Contractor",
    "contractor": "Waste Pro",
    "rowid": "1287713",
    "final_x": "3702485.09802",
    "final_y": "561993.732127",
    "longitude": "-90.00068830048633",
    "latitude": "30.038633211127145",
    "geocoded_column": {
      "latitude": "30.038633211127145",
      "longitude": "-90.00068830048633"
    }
  },
  {
    "service_request": "2026-1287712",
    "request_type": "Tree Service",
    "request_reason": "Tree Trim",
    "date_created": "2026-06-04T14:55:42.000",
    "date_modified": "2026-06-04T14:55:45.000",
    "request_status": "Pending",
    "responsible_agency": "Department of Parks & Parkways",
    "final_address": "39 Sullivan Pl",
    "address_councildis": "C",
    "status": "Pending",
    "rowid": "1287712",
    "final_x": "3702148.38122",
    "final_y": "521893.387834",
    "longitude": "-90.00322348564274",
    "latitude": "29.928382797161845",
    "geocoded_column": {
      "latitude": "29.928382797161845",
      "longitude": "-90.00322348564274"
    }
  },
  {
    "service_request": "2026-1287711",
    "request_type": "Trash/Recycling",
    "request_reason": "Request a Large Item Pick Up",
    "date_created": "2026-06-04T14:49:04.000",
    "date_modified": "2026-06-04T14:49:06.000",
    "request_status": "Pending",
    "responsible_agency": "Department of Sanitation",
    "final_address": "4609 Elysian Fields Ave",
    "address_councildis": "D",
    "status": "Assigned to Contractor",
    "contractor": "IV Waste",
    "rowid": "1287711",
    "final_x": "3684045.30223",
    "final_y": "549726.991572",
    "longitude": "-90.05939400307712",
    "latitude": "30.005480989650422",
    "geocoded_column": {
      "latitude": "30.005480989650422",
      "longitude": "-90.05939400307712"
    }
  },
  {
    "service_request": "2026-1287710",
    "request_type": "Trash/Recycling",
    "request_reason": "Request a Large Item Pick Up",
    "date_created": "2026-06-04T14:48:41.000",
    "date_modified": "2026-06-04T14:48:43.000",
    "request_status": "Pending",
    "responsible_agency": "Department of Sanitation",
    "final_address": "1939 Lizardi St",
    "address_councildis": "E",
    "status": "Assigned to Contractor",
    "contractor": "Waste Pro",
    "rowid": "1287710",
    "final_x": "3697497.01392",
    "final_y": "537432.93972",
    "longitude": "-90.01734336347286",
    "latitude": "29.97125876122988",
    "geocoded_column": {
      "latitude": "29.97125876122988",
      "longitude": "-90.01734336347286"
    }
  },
  {
    "service_request": "2026-1287709",
    "request_type": "Abandoned Vehicles",
    "request_reason": "Abandoned/Junk Vehicles",
    "date_created": "2026-06-04T14:48:22.000",
    "date_modified": "2026-06-04T14:48:24.000",
    "request_status": "Pending",
    "responsible_agency": "Department of Public Works",
    "final_address": "7515 West End Blvd",
    "address_councildis": "D",
    "status": "Pending",
    "rowid": "1287709",
    "final_x": "3667159.15079",
    "final_y": "556318.490842",
    "longitude": "-90.11251943583729",
    "latitude": "30.024110702783805",
    "geocoded_column": {
      "latitude": "30.024110702783805",
      "longitude": "-90.11251943583729"
    }
  },
  {
    "service_request": "2026-1287708",
    "request_type": "Trash/Recycling",
    "request_reason": "Replace Trash Cart",
    "date_created": "2026-06-04T14:46:31.000",
    "date_modified": "2026-06-04T14:46:33.000",
    "request_status": "Pending",
    "responsible_agency": "Department of Sanitation",
    "final_address": "2816 Josephine St",
    "address_councildis": "B",
    "status": "Assigned to Contractor",
    "contractor": "IV Waste",
    "rowid": "1287708",
    "final_x": "3675221.38907",
    "final_y": "527385.571711",
    "longitude": "-90.08803781982368",
    "latitude": "29.944316516902653",
    "geocoded_column": {
      "latitude": "29.944316516902653",
      "longitude": "-90.08803781982368"
    }
  },
  {
    "service_request": "2026-1287707",
    "request_type": "Trash/Recycling",
    "request_reason": "Missed Trash Pick-Up",
    "date_created": "2026-06-04T14:44:30.000",
    "date_modified": "2026-06-04T14:44:32.000",
    "request_status": "Pending",
    "responsible_agency": "Department of Sanitation",
    "final_address": "4801 Warren Dr",
    "address_councildis": "E",
    "status": "Assigned to Contractor",
    "contractor": "Waste Pro",
    "rowid": "1287707",
    "final_x": "3713506.88869",
    "final_y": "556505.944922",
    "longitude": "-89.96606375579896",
    "latitude": "30.023186911014083",
    "geocoded_column": {
      "latitude": "30.023186911014083",
      "longitude": "-89.96606375579896"
    }
  },
  {
    "service_request": "2026-1287706",
    "request_type": "Trash/Recycling",
    "request_reason": "Repair Trash Cart",
    "date_created": "2026-06-04T14:44:22.000",
    "date_modified": "2026-06-04T14:44:23.000",
    "request_status": "Pending",
    "responsible_agency": "Department of Sanitation",
    "final_address": "417 S Alexander St",
    "address_councildis": "A",
    "status": "Assigned to Contractor",
    "contractor": "IV Waste",
    "rowid": "1287706",
    "final_x": "3669126.24084",
    "final_y": "538082.296137",
    "longitude": "-90.10692053016865",
    "latitude": "29.97390971129877",
    "geocoded_column": {
      "latitude": "29.97390971129877",
      "longitude": "-90.10692053016865"
    }
  },
  {
    "service_request": "2026-1287705",
    "request_type": "Trash/Recycling",
    "request_reason": "Request a Large Item Pick Up",
    "date_created": "2026-06-04T14:43:44.000",
    "date_modified": "2026-06-04T14:43:48.000",
    "request_status": "Pending",
    "responsible_agency": "Department of Sanitation",
    "final_address": "5710 New England Dr",
    "address_councildis": "E",
    "status": "Assigned to Contractor",
    "contractor": "Waste Pro",
    "rowid": "1287705",
    "final_x": "3723528.74323",
    "final_y": "564692.384034",
    "longitude": "-89.93408143791062",
    "latitude": "30.0453636486076",
    "geocoded_column": {
      "latitude": "30.0453636486076",
      "longitude": "-89.93408143791062"
    }
  },
  {
    "service_request": "2026-1287704",
    "request_type": "Streetlights",
    "request_reason": "Streetlight Outage/Malfunction",
    "date_created": "2026-06-04T14:43:28.000",
    "date_modified": "2026-06-04T14:43:29.000",
    "request_status": "Pending",
    "responsible_agency": "Department of Public Works",
    "final_address": "2416 Division St",
    "address_councildis": "B",
    "status": "Pending",
    "rowid": "1287704",
    "final_x": "3679088.15554",
    "final_y": "519684.648568",
    "longitude": "-90.076096108448",
    "latitude": "29.923025392964185",
    "geocoded_column": {
      "latitude": "29.923025392964185",
      "longitude": "-90.076096108448"
    }
  },
  {
    "service_request": "2026-1287703",
    "request_type": "Trash/Recycling",
    "request_reason": "Replace Recycling Cart",
    "date_created": "2026-06-04T14:43:12.000",
    "date_modified": "2026-06-04T14:43:14.000",
    "request_status": "Pending",
    "responsible_agency": "Department of Sanitation",
    "final_address": "4727 Press Dr",
    "address_councildis": "D",
    "status": "Pending",
    "rowid": "1287703",
    "final_x": "3689713.48809",
    "final_y": "550800.158293",
    "longitude": "-90.04144877678652",
    "latitude": "30.00825730819516",
    "geocoded_column": {
      "latitude": "30.00825730819516",
      "longitude": "-90.04144877678652"
    }
  },
  {
    "service_request": "2026-1287702",
    "request_type": "Trash/Recycling",
    "request_reason": "Replace Trash Cart",
    "date_created": "2026-06-04T14:40:44.000",
    "date_modified": "2026-06-04T14:40:46.000",
    "request_status": "Pending",
    "responsible_agency": "Department of Sanitation",
    "final_address": "4721 Werner Dr",
    "address_councildis": "E",
    "status": "Assigned to Contractor",
    "contractor": "Waste Pro",
    "rowid": "1287702",
    "final_x": "3704821.20836",
    "final_y": "555154.705433",
    "longitude": "-89.99355832553287",
    "latitude": "30.01975363990112",
    "geocoded_column": {
      "latitude": "30.01975363990112",
      "longitude": "-89.99355832553287"
    }
  },
  {
    "service_request": "2026-1287701",
    "request_type": "Trash/Recycling",
    "request_reason": "Illegal Dumping",
    "date_created": "2026-06-04T14:40:21.000",
    "date_modified": "2026-06-04T15:36:56.000",
    "request_status": "Pending",
    "responsible_agency": "Department of Sanitation",
    "final_address": "5701 Wickfield Dr",
    "address_councildis": "D",
    "status": "Pending",
    "rowid": "1287701",
    "final_x": "3681105.80783",
    "final_y": "553694.987223",
    "longitude": "-90.06854214254793",
    "latitude": "30.016481077823563",
    "geocoded_column": {
      "latitude": "30.016481077823563",
      "longitude": "-90.06854214254793"
    }
  },
  {
    "service_request": "2026-1287700",
    "request_type": "Trash/Recycling",
    "request_reason": "Request a Large Item Pick Up",
    "date_created": "2026-06-04T14:40:15.000",
    "date_modified": "2026-06-04T14:40:18.000",
    "request_status": "Pending",
    "responsible_agency": "Department of Sanitation",
    "final_address": "7719 Scottwood Dr",
    "address_councildis": "E",
    "status": "Assigned to Contractor",
    "contractor": "Waste Pro",
    "rowid": "1287700",
    "final_x": "3717052.47666",
    "final_y": "571201.73572",
    "longitude": "-89.95430174746073",
    "latitude": "30.06347754580379",
    "geocoded_column": {
      "latitude": "30.06347754580379",
      "longitude": "-89.95430174746073"
    }
  },
  {
    "service_request": "2026-1287699",
    "request_type": "Road Striping",
    "request_reason": "Lane Striping or other Pavement Markings",
    "date_created": "2026-06-04T14:34:05.000",
    "date_modified": "2026-06-04T14:34:08.000",
    "request_status": "Pending",
    "responsible_agency": "Department of Public Works",
    "final_address": "PONTCHARTRAIN BLVD & VETERANS HWY & POLK AVE",
    "address_councildis": "A",
    "status": "Pending",
    "rowid": "1287699",
    "final_x": "3666077.8",
    "final_y": "547430.48",
    "longitude": "-90.11623462521324",
    "latitude": "29.9997034127852",
    "geocoded_column": {
      "latitude": "29.9997034127852",
      "longitude": "-90.11623462521324"
    }
  },
  {
    "service_request": "2026-1287698",
    "request_type": "Road Striping",
    "request_reason": "Lane Striping or other Pavement Markings",
    "date_created": "2026-06-04T14:33:08.000",
    "date_modified": "2026-06-04T14:33:10.000",
    "request_status": "Pending",
    "responsible_agency": "Department of Public Works",
    "final_address": "FILMORE AVE & WEST END BLVD",
    "address_councildis": "A",
    "status": "Pending",
    "rowid": "1287698",
    "final_x": "3666722.84",
    "final_y": "552245.57",
    "longitude": "-90.1140350486133",
    "latitude": "30.01292438195584",
    "geocoded_column": {
      "latitude": "30.01292438195584",
      "longitude": "-90.1140350486133"
    }
  },
  {
    "service_request": "2026-1287697",
    "request_type": "Road Striping",
    "request_reason": "Lane Striping or other Pavement Markings",
    "date_created": "2026-06-04T14:32:17.000",
    "date_modified": "2026-06-04T14:32:19.000",
    "request_status": "Pending",
    "responsible_agency": "Department of Public Works",
    "final_address": "WEST END BLVD & HARRISON AVE",
    "address_councildis": "A",
    "status": "Pending",
    "rowid": "1287697",
    "final_x": "3666577.6",
    "final_y": "549507.18",
    "longitude": "-90.11458595337537",
    "latitude": "30.00539901285092",
    "geocoded_column": {
      "latitude": "30.00539901285092",
      "longitude": "-90.11458595337537"
    }
  },
  {
    "service_request": "2026-1287696",
    "request_type": "Streetlights",
    "request_reason": "Streetlight Outage/Malfunction",
    "date_created": "2026-06-04T14:30:38.000",
    "date_modified": "2026-06-04T14:30:41.000",
    "request_status": "Pending",
    "responsible_agency": "Department of Public Works",
    "final_address": "CANAL BLVD & CHAPELLE ST",
    "address_councildis": "A",
    "status": "Pending",
    "rowid": "1287696",
    "final_x": "3669031.0",
    "final_y": "552669.08",
    "longitude": "-90.10672816793502",
    "latitude": "30.014021148386703",
    "geocoded_column": {
      "latitude": "30.014021148386703",
      "longitude": "-90.10672816793502"
    }
  },
  {
    "service_request": "2026-1287695",
    "request_type": "Trash/Recycling",
    "request_reason": "Request a Large Item Pick Up",
    "date_created": "2026-06-04T14:29:02.000",
    "date_modified": "2026-06-04T15:24:21.000",
    "request_status": "Pending",
    "responsible_agency": "Department of Sanitation",
    "final_address": "3913 N Rampart St",
    "address_councildis": "C",
    "status": "Assigned to Contractor",
    "contractor": "IV Waste",
    "rowid": "1287695",
    "final_x": "3691506.60822",
    "final_y": "534948.49735",
    "longitude": "-90.03635063610045",
    "latitude": "29.964615234977725",
    "geocoded_column": {
      "latitude": "29.964615234977725",
      "longitude": "-90.03635063610045"
    }
  },
  {
    "service_request": "2026-1287694",
    "request_type": "Trash/Recycling",
    "request_reason": "Request a Large Item Pick Up",
    "date_created": "2026-06-04T14:28:50.000",
    "date_modified": "2026-06-04T14:28:52.000",
    "request_status": "Pending",
    "responsible_agency": "Department of Sanitation",
    "final_address": "4406 Dale St",
    "address_councildis": "E",
    "status": "Assigned to Contractor",
    "contractor": "Waste Pro",
    "rowid": "1287694",
    "final_x": "3699573.23408",
    "final_y": "553158.968023",
    "longitude": "-90.01021292569337",
    "latitude": "30.01443379867491",
    "geocoded_column": {
      "latitude": "30.01443379867491",
      "longitude": "-90.01021292569337"
    }
  },
  {
    "service_request": "2026-1287693",
    "request_type": "Trash/Recycling",
    "request_reason": "Request a Large Item Pick Up",
    "date_created": "2026-06-04T14:27:52.000",
    "date_modified": "2026-06-04T14:27:54.000",
    "request_status": "Pending",
    "responsible_agency": "Department of Sanitation",
    "final_address": "7715 Hickman St",
    "address_councildis": "E",
    "status": "Assigned to Contractor",
    "contractor": "Waste Pro",
    "rowid": "1287693",
    "final_x": "3706059.66929",
    "final_y": "563620.772833",
    "longitude": "-89.98933146453597",
    "latitude": "30.0429921334462",
    "geocoded_column": {
      "latitude": "30.0429921334462",
      "longitude": "-89.98933146453597"
    }
  },
  {
    "service_request": "2026-1287692",
    "request_type": "Abandoned Vehicles",
    "request_reason": "Abandoned/Junk Vehicles",
    "date_created": "2026-06-04T14:27:42.000",
    "date_modified": "2026-06-04T14:29:16.000",
    "request_status": "Pending",
    "responsible_agency": "Department of Public Works",
    "final_address": "111 Audubon St",
    "address_councildis": "A",
    "status": "Inspected",
    "rowid": "1287692",
    "final_x": "3660916.91347",
    "final_y": "521057.297401",
    "longitude": "-90.13341062217289",
    "latitude": "29.927335469788034",
    "geocoded_column": {
      "latitude": "29.927335469788034",
      "longitude": "-90.13341062217289"
    }
  },
  {
    "service_request": "2026-1287691",
    "request_type": "Streetlights",
    "request_reason": "Streetlight Outage/Malfunction",
    "date_created": "2026-06-04T14:27:34.000",
    "date_modified": "2026-06-04T14:27:36.000",
    "request_status": "Pending",
    "responsible_agency": "Department of Public Works",
    "final_address": "MOUTON ST & CANAL BLVD",
    "address_councildis": "A",
    "status": "Pending",
    "rowid": "1287691",
    "final_x": "3669094.9",
    "final_y": "553327.78",
    "longitude": "-90.10650399315386",
    "latitude": "30.01583045977217",
    "geocoded_column": {
      "latitude": "30.01583045977217",
      "longitude": "-90.10650399315386"
    }
  },
  {
    "service_request": "2026-1287690",
    "request_type": "Roads and Streets",
    "request_reason": "Pothole",
    "date_created": "2026-06-04T14:26:42.000",
    "date_modified": "2026-06-04T14:26:44.000",
    "request_status": "Pending",
    "responsible_agency": "Department of Public Works",
    "final_address": "4842 Perrier St",
    "address_councildis": "B",
    "status": "Pending",
    "rowid": "1287690",
    "final_x": "3669077.44206",
    "final_y": "519854.5694",
    "longitude": "-90.10769041377823",
    "latitude": "29.92379084852855",
    "geocoded_column": {
      "latitude": "29.92379084852855",
      "longitude": "-90.10769041377823"
    }
  },
  {
    "service_request": "2026-1287689",
    "request_type": "Trash/Recycling",
    "request_reason": "Request a Large Item Pick Up",
    "date_created": "2026-06-04T14:26:22.000",
    "date_modified": "2026-06-04T15:23:33.000",
    "request_status": "Pending",
    "responsible_agency": "Department of Sanitation",
    "final_address": "919 St Roch Ave",
    "address_councildis": "C",
    "status": "Assigned to Contractor",
    "contractor": "IV Waste",
    "rowid": "1287689",
    "final_x": "3686567.3599",
    "final_y": "535881.161863",
    "longitude": "-90.05191545620613",
    "latitude": "29.967332540679948",
    "geocoded_column": {
      "latitude": "29.967332540679948",
      "longitude": "-90.05191545620613"
    }
  },
  {
    "service_request": "2026-1287688",
    "request_type": "Trash/Recycling",
    "request_reason": "Request a Large Item Pick Up",
    "date_created": "2026-06-04T14:26:11.000",
    "date_modified": "2026-06-04T14:26:13.000",
    "request_status": "Pending",
    "responsible_agency": "Department of Sanitation",
    "final_address": "146 Huntlee Dr",
    "address_councildis": "C",
    "status": "Assigned to Contractor",
    "contractor": "Richards Disposal",
    "rowid": "1287688",
    "final_x": "3702488.31652",
    "final_y": "523720.767291",
    "longitude": "-90.0020833711898",
    "latitude": "29.933396600265805",
    "geocoded_column": {
      "latitude": "29.933396600265805",
      "longitude": "-90.0020833711898"
    }
  },
  {
    "service_request": "2026-1287687",
    "request_type": "Trash/Recycling",
    "request_reason": "Repair Trash Cart",
    "date_created": "2026-06-04T14:24:14.000",
    "date_modified": "2026-06-04T14:24:16.000",
    "request_status": "Pending",
    "responsible_agency": "Department of Sanitation",
    "final_address": "823 Jewel St",
    "address_councildis": "D",
    "status": "Assigned to Contractor",
    "contractor": "IV Waste",
    "rowid": "1287687",
    "final_x": "3670562.74638",
    "final_y": "556071.487578",
    "longitude": "-90.10177307291933",
    "latitude": "30.02333138306952",
    "geocoded_column": {
      "latitude": "30.02333138306952",
      "longitude": "-90.10177307291933"
    }
  },
  {
    "service_request": "2026-1287686",
    "request_type": "Trash/Recycling",
    "request_reason": "Replace Trash Cart",
    "date_created": "2026-06-04T14:23:31.000",
    "date_modified": "2026-06-04T14:23:34.000",
    "request_status": "Pending",
    "responsible_agency": "Department of Sanitation",
    "final_address": "820 Nunez St",
    "address_councildis": "C",
    "status": "Assigned to Contractor",
    "contractor": "Richards Disposal",
    "rowid": "1287686",
    "final_x": "3686986.41186",
    "final_y": "528510.747904",
    "longitude": "-90.05085260193374",
    "latitude": "29.94705354792499",
    "geocoded_column": {
      "latitude": "29.94705354792499",
      "longitude": "-90.05085260193374"
    }
  },
  {
    "service_request": "2026-1287685",
    "request_type": "Streetlights",
    "request_reason": "Streetlight Outage/Malfunction",
    "date_created": "2026-06-04T14:23:01.000",
    "date_modified": "2026-06-04T14:23:03.000",
    "request_status": "Pending",
    "responsible_agency": "Department of Public Works",
    "final_address": "ROBERT E LEE BLVD & MEMPHIS ST",
    "address_councildis": "D",
    "status": "Pending",
    "rowid": "1287685",
    "final_x": "3669865.52",
    "final_y": "554635.0",
    "longitude": "-90.10402486288731",
    "latitude": "30.019402141366438",
    "geocoded_column": {
      "latitude": "30.019402141366438",
      "longitude": "-90.10402486288731"
    }
  },
  {
    "service_request": "2026-1287684",
    "request_type": "Abandoned Vehicles",
    "request_reason": "Abandoned/Junk Vehicles",
    "date_created": "2026-06-04T14:22:51.000",
    "date_modified": "2026-06-04T14:23:46.000",
    "request_status": "Pending",
    "responsible_agency": "Department of Public Works",
    "final_address": "5700 Camp St",
    "address_councildis": "A",
    "status": "Pending",
    "rowid": "1287684",
    "final_x": "3665830.4064",
    "final_y": "519252.035255",
    "longitude": "-90.11796034163349",
    "latitude": "29.92222917080766",
    "geocoded_column": {
      "latitude": "29.92222917080766",
      "longitude": "-90.11796034163349"
    }
  },
  {
    "service_request": "2026-1287683",
    "request_type": "Healthy Homes",
    "request_reason": "Healthy Homes",
    "date_created": "2026-06-04T14:13:38.000",
    "date_modified": "2026-06-04T15:13:19.000",
    "case_close_date": "2026-06-04T10:13:19.000",
    "request_status": "Closed",
    "responsible_agency": "Department of Code Enforcement",
    "final_address": "2623 Ursulines Ave",
    "address_councildis": "C",
    "status": "Referred to Code Enforcement",
    "rowid": "1287683",
    "final_x": "3677946.7083",
    "final_y": "537992.015753",
    "longitude": "-90.07906664022526",
    "latitude": "29.973398936215705",
    "geocoded_column": {
      "latitude": "29.973398936215705",
      "longitude": "-90.07906664022526"
    }
  },
  {
    "service_request": "2026-1287682",
    "request_type": "Trash/Recycling",
    "request_reason": "Replace Trash Cart",
    "date_created": "2026-06-04T14:11:11.000",
    "date_modified": "2026-06-04T14:11:13.000",
    "request_status": "Pending",
    "responsible_agency": "Department of Sanitation",
    "final_address": "1928 Constance St",
    "address_councildis": "B",
    "status": "Assigned to Contractor",
    "contractor": "IV Waste",
    "rowid": "1287682",
    "final_x": "3679857.78517",
    "final_y": "522361.260538",
    "longitude": "-90.07357379591319",
    "latitude": "29.930361958466676",
    "geocoded_column": {
      "latitude": "29.930361958466676",
      "longitude": "-90.07357379591319"
    }
  },
  {
    "service_request": "2026-1287681",
    "request_type": "Streetlights",
    "request_reason": "Streetlight Outage/Malfunction",
    "date_created": "2026-06-04T14:05:59.000",
    "date_modified": "2026-06-04T14:06:02.000",
    "request_status": "Pending",
    "responsible_agency": "Department of Public Works",
    "final_address": "S CARROLLTON AVE & TULANE AVE",
    "address_councildis": "A",
    "status": "Pending",
    "rowid": "1287681",
    "final_x": "3669337.8",
    "final_y": "536308.78",
    "longitude": "-90.10631235722039",
    "latitude": "29.96902690865695",
    "geocoded_column": {
      "latitude": "29.96902690865695",
      "longitude": "-90.10631235722039"
    }
  },
  {
    "service_request": "2026-1287680",
    "request_type": "Mosquito, Termite & Rodent Control",
    "request_reason": "Mosquito Complaint",
    "date_created": "2026-06-04T14:04:24.000",
    "date_modified": "2026-06-04T14:04:25.000",
    "request_status": "Pending",
    "responsible_agency": "Mosquito, Termite & Rodent Control Board",
    "final_address": "2218 Charbonnet St",
    "address_councildis": "E",
    "status": "Pending",
    "rowid": "1287680",
    "final_x": "3699740.3624",
    "final_y": "537931.162953",
    "longitude": "-90.0102404343468",
    "latitude": "29.972557660570562",
    "geocoded_column": {
      "latitude": "29.972557660570562",
      "longitude": "-90.0102404343468"
    }
  },
  {
    "service_request": "2026-1287679",
    "request_type": "Mosquito, Termite & Rodent Control",
    "request_reason": "Mosquito Complaint",
    "date_created": "2026-06-04T14:04:19.000",
    "date_modified": "2026-06-04T14:04:20.000",
    "request_status": "Pending",
    "responsible_agency": "Mosquito, Termite & Rodent Control Board",
    "final_address": "3122 Hamilton St",
    "address_councildis": "A",
    "status": "Pending",
    "rowid": "1287679",
    "final_x": "3664036.48359",
    "final_y": "535942.806919",
    "longitude": "-90.12306655849386",
    "latitude": "29.96817563412154",
    "geocoded_column": {
      "latitude": "29.96817563412154",
      "longitude": "-90.12306655849386"
    }
  },
  {
    "service_request": "2026-1287678",
    "request_type": "Homeless Related Request",
    "request_reason": "Homeless Encampment Complaint",
    "date_created": "2026-06-04T14:03:56.000",
    "date_modified": "2026-06-04T14:03:58.000",
    "request_status": "Pending",
    "responsible_agency": "Office Of Homeless Services And Strategy",
    "final_address": "700 BLK S Clark St",
    "address_councildis": "B",
    "status": "Pending",
    "rowid": "1287678",
    "final_x": "3671326.04347",
    "final_y": "534974.295653",
    "longitude": "-90.10007869312855",
    "latitude": "29.965298831027553",
    "geocoded_column": {
      "latitude": "29.965298831027553",
      "longitude": "-90.10007869312855"
    }
  },
  {
    "service_request": "2026-1287677",
    "request_type": "Traffic Signals",
    "request_reason": "Traffic Signal Malfunctioning or Damaged",
    "date_created": "2026-06-04T14:01:06.000",
    "date_modified": "2026-06-04T14:01:08.000",
    "request_status": "Pending",
    "responsible_agency": "Department of Public Works",
    "final_address": "TULANE AVE & S CARROLLTON AVE",
    "address_councildis": "A",
    "status": "Pending",
    "rowid": "1287677",
    "final_x": "3669243.6",
    "final_y": "536304.18",
    "longitude": "-90.1066100036471",
    "latitude": "29.96901703354732",
    "geocoded_column": {
      "latitude": "29.96901703354732",
      "longitude": "-90.1066100036471"
    }
  },
  {
    "service_request": "2026-1287676",
    "request_type": "Trash/Recycling",
    "request_reason": "Request a Large Item Pick Up",
    "date_created": "2026-06-04T14:00:33.000",
    "date_modified": "2026-06-04T14:00:35.000",
    "request_status": "Pending",
    "responsible_agency": "Department of Sanitation",
    "final_address": "7121 Cove Dr",
    "address_councildis": "E",
    "status": "Assigned to Contractor",
    "contractor": "Waste Pro",
    "rowid": "1287676",
    "final_x": "3700335.43204",
    "final_y": "558686.491356",
    "longitude": "-90.00760271281641",
    "latitude": "30.02960815088477",
    "geocoded_column": {
      "latitude": "30.02960815088477",
      "longitude": "-90.00760271281641"
    }
  },
  {
    "service_request": "2026-1287675",
    "request_type": "Roads and Streets",
    "request_reason": "Pothole",
    "date_created": "2026-06-04T13:56:59.000",
    "date_modified": "2026-06-04T13:57:01.000",
    "request_status": "Pending",
    "responsible_agency": "Department of Public Works",
    "final_address": "5530 S Liberty St",
    "address_councildis": "A",
    "status": "Pending",
    "rowid": "1287675",
    "final_x": "3667200.96954",
    "final_y": "523325.183291",
    "longitude": "-90.11349714795887",
    "latitude": "29.933388992421577",
    "geocoded_column": {
      "latitude": "29.933388992421577",
      "longitude": "-90.11349714795887"
    }
  },
  {
    "service_request": "2026-1287674",
    "request_type": "Trash/Recycling",
    "request_reason": "Return Trash Cart",
    "date_created": "2026-06-04T13:56:28.000",
    "date_modified": "2026-06-04T13:56:29.000",
    "request_status": "Pending",
    "responsible_agency": "Department of Sanitation",
    "final_address": "613 Jefferson Ave",
    "address_councildis": "B",
    "status": "Assigned to Contractor",
    "contractor": "IV Waste",
    "rowid": "1287674",
    "final_x": "3666595.36481",
    "final_y": "517678.179574",
    "longitude": "-90.11559847159887",
    "latitude": "29.91787922909839",
    "geocoded_column": {
      "latitude": "29.91787922909839",
      "longitude": "-90.11559847159887"
    }
  },
  {
    "service_request": "2026-1287673",
    "request_type": "Property Maintenance",
    "request_reason": "Property Maintenance",
    "date_created": "2026-06-04T13:51:12.000",
    "date_modified": "2026-06-04T13:51:14.000",
    "request_status": "Pending",
    "responsible_agency": "Department of Code Enforcement",
    "final_address": "9126 Fig St",
    "address_councildis": "A",
    "status": "Pending",
    "rowid": "1287673",
    "final_x": "3663505.61152",
    "final_y": "535640.568582",
    "longitude": "-90.12475314959892",
    "latitude": "29.96735998542442",
    "geocoded_column": {
      "latitude": "29.96735998542442",
      "longitude": "-90.12475314959892"
    }
  },
  {
    "service_request": "2026-1287672",
    "request_type": "Trash/Recycling",
    "request_reason": "Repair Trash Cart",
    "date_created": "2026-06-04T13:48:06.000",
    "date_modified": "2026-06-04T13:48:09.000",
    "request_status": "Pending",
    "responsible_agency": "Department of Sanitation",
    "final_address": "1718 Cadiz St",
    "address_councildis": "B",
    "status": "Assigned to Contractor",
    "contractor": "IV Waste",
    "rowid": "1287672",
    "final_x": "3670012.06375",
    "final_y": "521342.614201",
    "longitude": "-90.10468977761647",
    "latitude": "29.92785497564647",
    "geocoded_column": {
      "latitude": "29.92785497564647",
      "longitude": "-90.10468977761647"
    }
  },