[
  {
    "service_request": "2024-1131218",
    "request_type": "Trash/Recycling",
    "request_reason": "Request a Large Item Pick Up",
    "date_created": "2024-09-13T23:15:14.000",
    "date_modified": "2024-09-13T23:15:15.000",
    "request_status": "Pending",
    "responsible_agency": "Department of Sanitation",
    "final_address": "48 Morrison Ct",
    "address_councildis": "E",
    "status": "Assigned to Contractor",
    "contractor": "Waste Pro",
    "rowid": "1131218",
    "final_x": "3704039.79594",
    "final_y": "561367.661342",
    "longitude": "-89.99579816478452",
    "latitude": "30.036861953283275",
    "geocoded_column": {
      "latitude": "30.036861953283275",
      "longitude": "-89.99579816478452"
    }
  },
  {
    "service_request": "2024-1131217",
    "request_type": "Hurricane Francine Tree-Related Issues or Emergencies\t",
    "request_reason": "Hurricane Francine Tree-Related Issues or Emergencies",
    "date_created": "2024-09-13T23:01:31.000",
    "date_modified": "2024-09-13T23:01:31.000",
    "request_status": "Pending",
    "responsible_agency": "Department of Parks & Parkway",
    "final_address": "3614 Robert St",
    "address_councildis": "A",
    "status": "Pending",
    "rowid": "1131217",
    "final_x": "3668868.17748",
    "final_y": "528098.432447",
    "longitude": "-90.10807272211252",
    "latitude": "29.946464978238428",
    "geocoded_column": {
      "latitude": "29.946464978238428",
      "longitude": "-90.10807272211252"
    }
  },
  {
    "service_request": "2024-1131216",
    "request_type": "Trash/Recycling",
    "request_reason": "Request a Large Item Pick Up",
    "date_created": "2024-09-13T22:57:11.000",
    "date_modified": "2024-09-13T22:57:12.000",
    "request_status": "Pending",
    "responsible_agency": "Department of Sanitation",
    "final_address": "233 S Norman C Francis Prkwy",
    "address_councildis": "B",
    "status": "Assigned to Contractor",
    "contractor": "IV Waste",
    "rowid": "1131216",
    "final_x": "3672672.44372",
    "final_y": "536273.913671",
    "longitude": "-90.09578249381828",
    "latitude": "29.968832429138686",
    "geocoded_column": {
      "latitude": "29.968832429138686",
      "longitude": "-90.09578249381828"
    }
  },
  {
    "service_request": "2024-1131215",
    "request_type": "Trash/Recycling",
    "request_reason": "Replace Trash Cart",
    "date_created": "2024-09-13T22:11:53.000",
    "date_modified": "2024-09-13T22:11:54.000",
    "request_status": "Pending",
    "responsible_agency": "Department of Sanitation",
    "final_address": "2400 Danbury Dr",
    "address_councildis": "C",
    "status": "Assigned to Contractor",
    "contractor": "Richards Disposal",
    "rowid": "1131215",
    "final_x": "3703960.27351",
    "final_y": "522197.058874",
    "longitude": "-89.99749260460075",
    "latitude": "29.929159829369954",
    "geocoded_column": {
      "latitude": "29.929159829369954",
      "longitude": "-89.99749260460075"
    }
  },
  {
    "service_request": "2024-1131214",
    "request_type": "Streetlights",
    "request_reason": "Streetlight Outage/Malfunction",
    "date_created": "2024-09-13T22:10:34.000",
    "date_modified": "2024-09-13T22:10:35.000",
    "request_status": "Pending",
    "responsible_agency": "Department of Public Works",
    "final_address": "2306 Louisiana Ave",
    "address_councildis": "B",
    "status": "Pending",
    "contractor": "Legacy Professional Services",
    "rowid": "1131214",
    "final_x": "3673101.43393",
    "final_y": "523886.29862",
    "longitude": "-90.09485055203845",
    "latitude": "29.93475783814789",
    "geocoded_column": {
      "latitude": "29.93475783814789",
      "longitude": "-90.09485055203845"
    }
  },
  {
    "service_request": "2024-1131213",
    "request_type": "Trash/Recycling",
    "request_reason": "Storm Debris Collection",
    "date_created": "2024-09-13T22:09:25.000",
    "date_modified": "2024-09-13T22:09:25.000",
    "request_status": "Pending",
    "responsible_agency": "Department of Sanitation",
    "final_address": "2400 Danbury Dr",
    "address_councildis": "C",
    "status": "Pending",
    "rowid": "1131213",
    "final_x": "3703960.27351",
    "final_y": "522197.058874",
    "longitude": "-89.99749260460075",
    "latitude": "29.929159829369954",
    "geocoded_column": {
      "latitude": "29.929159829369954",
      "longitude": "-89.99749260460075"
    }
  },
  {
    "service_request": "2024-1131212",
    "request_type": "Utility Poles",
    "request_reason": "Utility Pole Leaning",
    "date_created": "2024-09-13T22:06:02.000",
    "date_modified": "2024-09-13T22:06:07.000",
    "request_status": "Pending",
    "responsible_agency": "Utility Company Collective",
    "final_address": "3434 S Liberty St",
    "address_councildis": "B",
    "status": "Pending",
    "rowid": "1131212",
    "final_x": "3672924.64904",
    "final_y": "523678.480251",
    "longitude": "-90.09541574814378",
    "latitude": "29.934191657828656",
    "geocoded_column": {
      "latitude": "29.934191657828656",
      "longitude": "-90.09541574814378"
    }
  },
  {
    "service_request": "2024-1131211",
    "request_type": "Abandoned Vehicles",
    "request_reason": "Abandoned/Junk Vehicles",
    "date_created": "2024-09-13T21:39:37.000",
    "date_modified": "2024-09-13T21:39:37.000",
    "request_status": "Pending",
    "responsible_agency": "Department of Public Works",
    "final_address": "DAHLIA WALK & BAY ST",
    "address_councildis": "D",
    "status": "Pending",
    "rowid": "1131211",
    "final_x": "3687976.4",
    "final_y": "545256.58",
    "longitude": "-90.04713335458955",
    "latitude": "29.993068215775697",
    "geocoded_column": {
      "latitude": "29.993068215775697",
      "longitude": "-90.04713335458955"
    }
  },
  {
    "service_request": "2024-1131210",
    "request_type": "Trash/Recycling",
    "request_reason": "Storm Debris Collection",
    "date_created": "2024-09-13T21:11:03.000",
    "date_modified": "2024-09-13T21:11:03.000",
    "request_status": "Pending",
    "responsible_agency": "Department of Sanitation",
    "final_address": "100 Maumus Ave",
    "address_councildis": "C",
    "status": "Pending",
    "rowid": "1131210",
    "final_x": "3705550.33675",
    "final_y": "516855.039157",
    "longitude": "-89.99267043270008",
    "latitude": "29.9144200637765",
    "geocoded_column": {
      "latitude": "29.9144200637765",
      "longitude": "-89.99267043270008"
    }
  },
  {
    "service_request": "2024-1131209",
    "request_type": "Trash/Recycling",
    "request_reason": "Storm Debris Collection",
    "date_created": "2024-09-13T21:09:46.000",
    "date_modified": "2024-09-13T21:09:46.000",
    "request_status": "Pending",
    "responsible_agency": "Department of Sanitation",
    "final_address": "4950 Longfellow Dr",
    "address_councildis": "E",
    "status": "Pending",
    "rowid": "1131209",
    "final_x": "3709450.1116",
    "final_y": "556988.016666",
    "longitude": "-89.97886416412743",
    "latitude": "30.024644897676225",
    "geocoded_column": {
      "latitude": "30.024644897676225",
      "longitude": "-89.97886416412743"
    }
  },
  {
    "service_request": "2024-1131208",
    "request_type": "Trash/Recycling",
    "request_reason": "Storm Debris Collection",
    "date_created": "2024-09-13T21:04:39.000",
    "date_modified": "2024-09-13T21:04:39.000",
    "request_status": "Pending",
    "responsible_agency": "Department of Sanitation",
    "final_address": "100 BLK Maumus Ave",
    "address_councildis": "C",
    "status": "Pending",
    "rowid": "1131208",
    "final_x": "3705684.88912",
    "final_y": "516779.862882",
    "longitude": "-89.99224852020879",
    "latitude": "29.914209025459854",
    "geocoded_column": {
      "latitude": "29.914209025459854",
      "longitude": "-89.99224852020879"
    }
  },
  {
    "service_request": "2024-1131207",
    "request_type": "Streetlights",
    "request_reason": "Streetlight Outage/Malfunction",
    "date_created": "2024-09-13T20:47:32.000",
    "date_modified": "2024-09-13T20:47:33.000",
    "request_status": "Pending",
    "responsible_agency": "Department of Public Works",
    "final_address": "5400 BLK Magnolia St",
    "address_councildis": "A",
    "status": "Pending",
    "contractor": "Legacy Professional Services",
    "rowid": "1131207",
    "final_x": "3667895.55951",
    "final_y": "524720.922131",
    "longitude": "-90.11125736702326",
    "latitude": "29.937206476541583",
    "geocoded_column": {
      "latitude": "29.937206476541583",
      "longitude": "-90.11125736702326"
    }
  },
  {
    "service_request": "2024-1131206",
    "request_type": "Trash/Recycling",
    "request_reason": "Request a Large Item Pick Up",
    "date_created": "2024-09-13T20:38:52.000",
    "date_modified": "2024-09-13T20:38:53.000",
    "request_status": "Pending",
    "responsible_agency": "Department of Sanitation",
    "final_address": "7207 Chatelain Dr",
    "address_councildis": "E",
    "status": "Assigned to Contractor",
    "contractor": "Waste Pro",
    "rowid": "1131206",
    "final_x": "3715514.15333",
    "final_y": "566868.616932",
    "longitude": "-89.95932867074453",
    "latitude": "30.051614071930224",
    "geocoded_column": {
      "latitude": "30.051614071930224",
      "longitude": "-89.95932867074453"
    }
  },
  {
    "service_request": "2024-1131205",
    "request_type": "Streetlights",
    "request_reason": "Streetlight Outage/Malfunction",
    "date_created": "2024-09-13T20:38:17.000",
    "date_modified": "2024-09-13T20:38:18.000",
    "request_status": "Pending",
    "responsible_agency": "Department of Public Works",
    "final_address": "4605 Cartier Ave",
    "address_councildis": "D",
    "status": "Pending",
    "contractor": "Legacy Professional Services",
    "rowid": "1131205",
    "final_x": "3677981.6788",
    "final_y": "549477.518611",
    "longitude": "-90.07855897525096",
    "latitude": "30.004979001445115",
    "geocoded_column": {
      "latitude": "30.004979001445115",
      "longitude": "-90.07855897525096"
    }
  },
  {
    "service_request": "2024-1131203",
    "request_type": "Streetlights",
    "request_reason": "Streetlight Outage/Malfunction",
    "date_created": "2024-09-13T20:35:56.000",
    "date_modified": "2024-09-13T20:35:57.000",
    "request_status": "Pending",
    "responsible_agency": "Department of Public Works",
    "final_address": "4605 Cartier Ave",
    "address_councildis": "D",
    "status": "Pending",
    "contractor": "Legacy Professional Services",
    "rowid": "1131203",
    "final_x": "3677981.6788",
    "final_y": "549477.518611",
    "longitude": "-90.07855897525096",
    "latitude": "30.004979001445115",
    "geocoded_column": {
      "latitude": "30.004979001445115",
      "longitude": "-90.07855897525096"
    }
  },
  {
    "service_request": "2024-1131202",
    "request_type": "Hurricane Francine Tree-Related Issues or Emergencies\t",
    "request_reason": "Hurricane Francine Tree-Related Issues or Emergencies",
    "date_created": "2024-09-13T20:23:42.000",
    "date_modified": "2024-09-13T20:23:42.000",
    "request_status": "Pending",
    "responsible_agency": "Department of Parks & Parkway",
    "final_address": "1920 Delachaise St",
    "address_councildis": "B",
    "status": "Pending",
    "rowid": "1131202",
    "final_x": "3673286.32916",
    "final_y": "522555.825658",
    "longitude": "-90.09431225828352",
    "latitude": "29.931093972015592",
    "geocoded_column": {
      "latitude": "29.931093972015592",
      "longitude": "-90.09431225828352"
    }
  },
  {
    "service_request": "2024-1131201",
    "request_type": "Hurricane Francine Tree-Related Issues or Emergencies\t",
    "request_reason": "Hurricane Francine Tree-Related Issues or Emergencies",
    "date_created": "2024-09-13T20:21:54.000",
    "date_modified": "2024-09-13T20:21:54.000",
    "request_status": "Pending",
    "responsible_agency": "Department of Parks & Parkway",
    "final_address": "1920 Delachaise St",
    "address_councildis": "B",
    "status": "Pending",
    "rowid": "1131201",
    "final_x": "3673286.32916",
    "final_y": "522555.825658",
    "longitude": "-90.09431225828352",
    "latitude": "29.931093972015592",
    "geocoded_column": {
      "latitude": "29.931093972015592",
      "longitude": "-90.09431225828352"
    }
  },
  {
    "service_request": "2024-1131200",
    "request_type": "Parks & Parkways",
    "request_reason": "Request Tree Service (Right of Way/Public Property)",
    "date_created": "2024-09-13T20:14:42.000",
    "date_modified": "2024-09-13T20:14:42.000",
    "request_status": "Pending",
    "responsible_agency": "Department of Parks & Parkway",
    "final_address": "SAIGON DR & GILBERT ST",
    "address_councildis": "E",
    "status": "Pending",
    "rowid": "1131200",
    "final_x": "3729302.4",
    "final_y": "562880.48",
    "longitude": "-89.91590500837023",
    "latitude": "30.040186543516924",
    "geocoded_column": {
      "latitude": "30.040186543516924",
      "longitude": "-89.91590500837023"
    }
  },
  {
    "service_request": "2024-1131199",
    "request_type": "Trash/Recycling",
    "request_reason": "Missed Trash Pick-Up",
    "date_created": "2024-09-13T19:45:28.000",
    "date_modified": "2024-09-13T19:45:29.000",
    "request_status": "Pending",
    "responsible_agency": "Department of Sanitation",
    "final_address": "4745 Music St",
    "address_councildis": "D",
    "status": "Assigned to Contractor",
    "contractor": "IV Waste",
    "rowid": "1131199",
    "final_x": "3685716.41026",
    "final_y": "550557.72642",
    "longitude": "-90.05408531148966",
    "latitude": "30.00771401643756",
    "geocoded_column": {
      "latitude": "30.00771401643756",
      "longitude": "-90.05408531148966"
    }
  },
  {
    "service_request": "2024-1131198",
    "request_type": "Trash/Recycling",
    "request_reason": "Request a Large Item Pick Up",
    "date_created": "2024-09-13T19:44:20.000",
    "date_modified": "2024-09-13T19:44:22.000",
    "request_status": "Pending",
    "responsible_agency": "Department of Sanitation",
    "final_address": "2036 Deslonde St",
    "address_councildis": "E",
    "status": "Assigned to Contractor",
    "contractor": "Waste Pro",
    "rowid": "1131198",
    "final_x": "3696376.39786",
    "final_y": "538091.006729",
    "longitude": "-90.02085860071462",
    "latitude": "29.973103550709936",
    "geocoded_column": {
      "latitude": "29.973103550709936",
      "longitude": "-90.02085860071462"
    }
  },
  {
    "service_request": "2024-1131197",
    "request_type": "Property Maintenance",
    "request_reason": "Property Maintenance",
    "date_created": "2024-09-13T19:30:14.000",
    "date_modified": "2024-09-13T19:30:14.000",
    "request_status": "Pending",
    "responsible_agency": "Department of Code Enforcement",
    "final_address": "2701 Holiday Dr",
    "address_councildis": "C",
    "status": "Pending",
    "rowid": "1131197",
    "final_x": "3698726.71191",
    "final_y": "521395.146169",
    "longitude": "-90.01404299453495",
    "latitude": "29.927121575074324",
    "geocoded_column": {
      "latitude": "29.927121575074324",
      "longitude": "-90.01404299453495"
    }
  },
  {
    "service_request": "2024-1131196",
    "request_type": "Hurricane Francine Tree-Related Issues or Emergencies\t",
    "request_reason": "Hurricane Francine Tree-Related Issues or Emergencies",
    "date_created": "2024-09-13T19:28:57.000",
    "date_modified": "2024-09-13T19:28:57.000",
    "request_status": "Pending",
    "responsible_agency": "Department of Parks & Parkway",
    "final_address": "4716 Cleveland Ave",
    "address_councildis": "A",
    "status": "Pending",
    "rowid": "1131196",
    "final_x": "3668713.26382",
    "final_y": "539574.180042",
    "longitude": "-90.10817442898205",
    "latitude": "29.97802403738913",
    "geocoded_column": {
      "latitude": "29.97802403738913",
      "longitude": "-90.10817442898205"
    }
  },
  {
    "service_request": "2024-1131195",
    "request_type": "Trash/Recycling",
    "request_reason": "Request a Large Item Pick Up",
    "date_created": "2024-09-13T19:18:07.000",
    "date_modified": "2024-09-13T19:18:08.000",
    "request_status": "Pending",
    "responsible_agency": "Department of Sanitation",
    "final_address": "263 Lowerline St",
    "address_councildis": "A",
    "status": "Assigned to Contractor",
    "contractor": "IV Waste",
    "rowid": "1131195",
    "final_x": "3661329.30266",
    "final_y": "523239.855419",
    "longitude": "-90.13203657356324",
    "latitude": "29.93332493961432",
    "geocoded_column": {
      "latitude": "29.93332493961432",
      "longitude": "-90.13203657356324"
    }
  },
  {
    "service_request": "2024-1131194",
    "request_type": "Abandoned Vehicles",
    "request_reason": "Abandoned/Junk Vehicles",
    "date_created": "2024-09-13T18:54:37.000",
    "date_modified": "2024-09-13T18:54:37.000",
    "request_status": "Pending",
    "responsible_agency": "Department of Public Works",
    "final_address": "3233 Bienville Ave",
    "address_councildis": "B",
    "status": "Pending",
    "rowid": "1131194",
    "final_x": "3674160.69313",
    "final_y": "537082.639368",
    "longitude": "-90.09105481325255",
    "latitude": "29.97101186997147",
    "geocoded_column": {
      "latitude": "29.97101186997147",
      "longitude": "-90.09105481325255"
    }
  },
  {
    "service_request": "2024-1131193",
    "request_type": "Abandoned Vehicles",
    "request_reason": "Abandoned/Junk Vehicles",
    "date_created": "2024-09-13T18:50:33.000",
    "date_modified": "2024-09-13T18:50:33.000",
    "request_status": "Pending",
    "responsible_agency": "Department of Public Works",
    "final_address": "3233 Bienville Ave",
    "address_councildis": "B",
    "status": "Pending",
    "rowid": "1131193",
    "final_x": "3674160.69313",
    "final_y": "537082.639368",
    "longitude": "-90.09105481325255",
    "latitude": "29.97101186997147",
    "geocoded_column": {
      "latitude": "29.97101186997147",
      "longitude": "-90.09105481325255"
    }
  },
  {
    "service_request": "2024-1131192",
    "request_type": "Abandoned Vehicles",
    "request_reason": "Abandoned/Junk Vehicles",
    "date_created": "2024-09-13T18:48:48.000",
    "date_modified": "2024-09-13T18:48:48.000",
    "request_status": "Pending",
    "responsible_agency": "Department of Public Works",
    "final_address": "3233 Bienville Ave",
    "address_councildis": "B",
    "status": "Pending",
    "rowid": "1131192",
    "final_x": "3674160.69313",
    "final_y": "537082.639368",
    "longitude": "-90.09105481325255",
    "latitude": "29.97101186997147",
    "geocoded_column": {
      "latitude": "29.97101186997147",
      "longitude": "-90.09105481325255"
    }
  },
  {
    "service_request": "2024-1131191",
    "request_type": "Street and Traffic Signs",
    "request_reason": "Stop Sign Missing or Damaged",
    "date_created": "2024-09-13T18:32:18.000",
    "date_modified": "2024-09-13T18:32:18.000",
    "request_status": "Pending",
    "responsible_agency": "Department of Public Works",
    "final_address": "1300 BLK Elysian Fields Ave",
    "address_councildis": "C",
    "status": "Pending",
    "rowid": "1131191",
    "final_x": "3684887.30506",
    "final_y": "537220.043786",
    "longitude": "-90.05717399361248",
    "latitude": "29.971065555742346",
    "geocoded_column": {
      "latitude": "29.971065555742346",
      "longitude": "-90.05717399361248"
    }
  },
  {
    "service_request": "2024-1131190",
    "request_type": "Trash/Recycling",
    "request_reason": "Order Trash Cart",
    "date_created": "2024-09-13T18:32:04.000",
    "date_modified": "2024-09-13T18:32:05.000",
    "request_status": "Pending",
    "responsible_agency": "Department of Sanitation",
    "final_address": "133 N Clark St",
    "address_councildis": "B",
    "status": "Assigned to Contractor",
    "contractor": "IV Waste",
    "rowid": "1131190",
    "final_x": "3673043.80603",
    "final_y": "537306.387272",
    "longitude": "-90.0945744561982",
    "latitude": "29.971660349045756",
    "geocoded_column": {
      "latitude": "29.971660349045756",
      "longitude": "-90.0945744561982"
    }
  },
  {
    "service_request": "2024-1131189",
    "request_type": "Trash/Recycling",
    "request_reason": "Order Recycling Cart",
    "date_created": "2024-09-13T18:31:07.000",
    "date_modified": "2024-09-13T18:31:07.000",
    "request_status": "Pending",
    "responsible_agency": "Department of Sanitation",
    "final_address": "133 N Clark St",
    "address_councildis": "B",
    "status": "Pending",
    "rowid": "1131189",
    "final_x": "3673043.80603",
    "final_y": "537306.387272",
    "longitude": "-90.0945744561982",
    "latitude": "29.971660349045756",
    "geocoded_column": {
      "latitude": "29.971660349045756",
      "longitude": "-90.0945744561982"
    }
  },
  {
    "service_request": "2024-1131188",
    "request_type": "Trash/Recycling",
    "request_reason": "Missed Trash Pick-Up",
    "date_created": "2024-09-13T18:25:42.000",
    "date_modified": "2024-09-13T18:25:43.000",
    "request_status": "Pending",
    "responsible_agency": "Department of Sanitation",
    "final_address": "6324 Arts St",
    "address_councildis": "D",
    "status": "Assigned to Contractor",
    "contractor": "IV Waste",
    "rowid": "1131188",
    "final_x": "3685556.71593",
    "final_y": "556499.275418",
    "longitude": "-90.05438031444537",
    "latitude": "30.024055995816934",
    "geocoded_column": {
      "latitude": "30.024055995816934",
      "longitude": "-90.05438031444537"
    }
  },
  {
    "service_request": "2024-1131187",
    "request_type": "Trash/Recycling",
    "request_reason": "Missed Trash Pick-Up",
    "date_created": "2024-09-13T18:20:08.000",
    "date_modified": "2024-09-13T18:20:09.000",
    "request_status": "Pending",
    "responsible_agency": "Department of Sanitation",
    "final_address": "2837 Livaudais St",
    "address_councildis": "B",
    "status": "Assigned to Contractor",
    "contractor": "IV Waste",
    "rowid": "1131187",
    "final_x": "3677924.57794",
    "final_y": "518927.179063",
    "longitude": "-90.07979523159263",
    "latitude": "29.920977650839923",
    "geocoded_column": {
      "latitude": "29.920977650839923",
      "longitude": "-90.07979523159263"
    }
  },
  {
    "service_request": "2024-1131186",
    "request_type": "Trash/Recycling",
    "request_reason": "Missed Trash Pick-Up",
    "date_created": "2024-09-13T18:17:24.000",
    "date_modified": "2024-09-13T18:17:25.000",
    "request_status": "Pending",
    "responsible_agency": "Department of Sanitation",
    "final_address": "715 Eleonore St",
    "address_councildis": "A",
    "status": "Assigned to Contractor",
    "contractor": "IV Waste",
    "rowid": "1131186",
    "final_x": "3665224.62522",
    "final_y": "518855.425271",
    "longitude": "-90.11988580900595",
    "latitude": "29.921156271529615",
    "geocoded_column": {
      "latitude": "29.921156271529615",
      "longitude": "-90.11988580900595"
    }
  },
  {
    "service_request": "2024-1131185",
    "request_type": "Trash/Recycling",
    "request_reason": "Request a Large Item Pick Up",
    "date_created": "2024-09-13T18:13:26.000",
    "date_modified": "2024-09-13T18:13:26.000",
    "request_status": "Pending",
    "responsible_agency": "Department of Sanitation",
    "final_address": "5518 Cherlyn Dr",
    "address_councildis": "A",
    "status": "Assigned to Contractor",
    "contractor": "IV Waste",
    "rowid": "1131185",
    "final_x": "3665081.15668",
    "final_y": "544546.128399",
    "longitude": "-90.11947960028147",
    "latitude": "29.991801502327316",
    "geocoded_column": {
      "latitude": "29.991801502327316",
      "longitude": "-90.11947960028147"
    }
  },
  {
    "service_request": "2024-1131184",
    "request_type": "Hurricane Francine Tree-Related Issues or Emergencies\t",
    "request_reason": "Hurricane Francine Tree-Related Issues or Emergencies",
    "date_created": "2024-09-13T18:11:11.000",
    "date_modified": "2024-09-13T18:11:11.000",
    "request_status": "Pending",
    "responsible_agency": "Department of Parks & Parkway",
    "final_address": "5404 Marigny St",
    "address_councildis": "D",
    "status": "Pending",
    "rowid": "1131184",
    "final_x": "3684052.51529",
    "final_y": "552750.661974",
    "longitude": "-90.05926500114903",
    "latitude": "30.013794764515225",
    "geocoded_column": {
      "latitude": "30.013794764515225",
      "longitude": "-90.05926500114903"
    }
  },
  {
    "service_request": "2024-1131183",
    "request_type": "Mosquito, Termite & Rodent Control",
    "request_reason": "Rodent Complaint (Rats)",
    "date_created": "2024-09-13T18:04:43.000",
    "date_modified": "2024-09-13T18:04:43.000",
    "request_status": "Pending",
    "responsible_agency": "Mosquito, Termite & Rodent Control Board",
    "final_address": "2701 Holiday Dr",
    "address_councildis": "C",
    "status": "Pending",
    "rowid": "1131183",
    "final_x": "3698726.71191",
    "final_y": "521395.146169",
    "longitude": "-90.01404299453495",
    "latitude": "29.927121575074324",
    "geocoded_column": {
      "latitude": "29.927121575074324",
      "longitude": "-90.01404299453495"
    }
  },
  {
    "service_request": "2024-1131182",
    "request_type": "Trash/Recycling",
    "request_reason": "Missed Trash Pick-Up",
    "date_created": "2024-09-13T17:58:34.000",
    "date_modified": "2024-09-13T17:58:34.000",
    "request_status": "Pending",
    "responsible_agency": "Department of Sanitation",
    "final_address": "620 Soraparu St",
    "address_councildis": "B",
    "status": "Assigned to Contractor",
    "contractor": "IV Waste",
    "rowid": "1131182",
    "final_x": "3679239.42933",
    "final_y": "520277.98508",
    "longitude": "-90.0755980373529",
    "latitude": "29.924652310462665",
    "geocoded_column": {
      "latitude": "29.924652310462665",
      "longitude": "-90.0755980373529"
    }
  },
  {
    "service_request": "2024-1131181",
    "request_type": "Trash/Recycling",
    "request_reason": "Storm Debris Collection",
    "date_created": "2024-09-13T17:57:27.000",
    "date_modified": "2024-09-13T17:57:27.000",
    "request_status": "Pending",
    "responsible_agency": "Department of Sanitation",
    "final_address": "2906 Conti St",
    "address_councildis": "B",
    "status": "Pending",
    "rowid": "1131181",
    "final_x": "3675244.22165",
    "final_y": "536598.798919",
    "longitude": "-90.08764949601378",
    "latitude": "29.969649127746514",
    "geocoded_column": {
      "latitude": "29.969649127746514",
      "longitude": "-90.08764949601378"
    }
  },
  {
    "service_request": "2024-1131180",
    "request_type": "Trash/Recycling",
    "request_reason": "Request a Large Item Pick Up",
    "date_created": "2024-09-13T17:56:31.000",
    "date_modified": "2024-09-13T17:56:32.000",
    "request_status": "Pending",
    "responsible_agency": "Department of Sanitation",
    "final_address": "2906 Conti St",
    "address_councildis": "B",
    "status": "Assigned to Contractor",
    "contractor": "IV Waste",
    "rowid": "1131180",
    "final_x": "3675244.22165",
    "final_y": "536598.798919",
    "longitude": "-90.08764949601378",
    "latitude": "29.969649127746514",
    "geocoded_column": {
      "latitude": "29.969649127746514",
      "longitude": "-90.08764949601378"
    }
  },
  {
    "service_request": "2024-1131179",
    "request_type": "Roads and Streets",
    "request_reason": "Pothole",
    "date_created": "2024-09-13T17:55:06.000",
    "date_modified": "2024-09-13T17:55:06.000",
    "request_status": "Pending",
    "responsible_agency": "Department of Public Works",
    "final_address": "5600 BLK Wisner Blvd",
    "address_councildis": "A",
    "status": "Pending",
    "rowid": "1131179",
    "final_x": "3675719.61834",
    "final_y": "553136.202898",
    "longitude": "-90.08557943270203",
    "latitude": "30.015106996898865",
    "geocoded_column": {
      "latitude": "30.015106996898865",
      "longitude": "-90.08557943270203"
    }
  },
  {
    "service_request": "2024-1131178",
    "request_type": "Trash/Recycling",
    "request_reason": "Missed Trash Pick-Up",
    "date_created": "2024-09-13T17:54:57.000",
    "date_modified": "2024-09-13T17:54:58.000",
    "request_status": "Pending",
    "responsible_agency": "Department of Sanitation",
    "final_address": "4923 St Anthony Ave",
    "address_councildis": "D",
    "status": "Assigned to Contractor",
    "contractor": "IV Waste",
    "rowid": "1131178",
    "final_x": "3682410.55772",
    "final_y": "550875.000277",
    "longitude": "-90.06451835879467",
    "latitude": "30.00868747289333",
    "geocoded_column": {
      "latitude": "30.00868747289333",
      "longitude": "-90.06451835879467"
    }
  },
  {
    "service_request": "2024-1131177",
    "request_type": "Trash/Recycling",
    "request_reason": "Repair Recycling Cart",
    "date_created": "2024-09-13T17:53:01.000",
    "date_modified": "2024-09-13T17:53:01.000",
    "request_status": "Pending",
    "responsible_agency": "Department of Sanitation",
    "final_address": "2419 Mazant St",
    "address_councildis": "D",
    "status": "Pending",
    "rowid": "1131177",
    "final_x": "3693407.7768",
    "final_y": "540284.235595",
    "longitude": "-90.03015527265391",
    "latitude": "29.97922730979968",
    "geocoded_column": {
      "latitude": "29.97922730979968",
      "longitude": "-90.03015527265391"
    }
  },
  {
    "service_request": "2024-1131176",
    "request_type": "Mosquito, Termite & Rodent Control",
    "request_reason": "Rodent Complaint (Rats)",
    "date_created": "2024-09-13T17:51:18.000",
    "date_modified": "2024-09-13T17:51:18.000",
    "request_status": "Pending",
    "responsible_agency": "Mosquito, Termite & Rodent Control Board",
    "final_address": "2701 Holiday Dr",
    "address_councildis": "C",
    "status": "Pending",
    "rowid": "1131176",
    "final_x": "3698726.71191",
    "final_y": "521395.146169",
    "longitude": "-90.01404299453495",
    "latitude": "29.927121575074324",
    "geocoded_column": {
      "latitude": "29.927121575074324",
      "longitude": "-90.01404299453495"
    }
  },
  {
    "service_request": "2024-1131175",
    "request_type": "Mosquito, Termite & Rodent Control",
    "request_reason": "Rodent Complaint (Rats)",
    "date_created": "2024-09-13T17:45:54.000",
    "date_modified": "2024-09-13T17:45:54.000",
    "request_status": "Pending",
    "responsible_agency": "Mosquito, Termite & Rodent Control Board",
    "final_address": "2701 Holiday Dr",
    "address_councildis": "C",
    "status": "Pending",
    "rowid": "1131175",
    "final_x": "3698726.71191",
    "final_y": "521395.146169",
    "longitude": "-90.01404299453495",
    "latitude": "29.927121575074324",
    "geocoded_column": {
      "latitude": "29.927121575074324",
      "longitude": "-90.01404299453495"
    }
  },
  {
    "service_request": "2024-1131174",
    "request_type": "Roads and Streets",
    "request_reason": "Street Subsidence (Sinking)",
    "date_created": "2024-09-13T17:28:31.000",
    "date_modified": "2024-09-13T17:28:31.000",
    "request_status": "Pending",
    "responsible_agency": "Department of Public Works",
    "final_address": "CADIZ ST & BARONNE ST",
    "address_councildis": "B",
    "status": "Pending",
    "rowid": "1131174",
    "final_x": "3670031.1",
    "final_y": "521520.48",
    "longitude": "-90.10462366358895",
    "latitude": "29.928343488501337",
    "geocoded_column": {
      "latitude": "29.928343488501337",
      "longitude": "-90.10462366358895"
    }
  },
  {
    "service_request": "2024-1131173",
    "request_type": "Trash/Recycling",
    "request_reason": "Missed Trash Pick-Up",
    "date_created": "2024-09-13T17:28:14.000",
    "date_modified": "2024-09-13T17:33:05.000",
    "case_close_date": "2024-09-13T12:33:05.000",
    "request_status": "Closed",
    "responsible_agency": "Department of Sanitation",
    "final_address": "1014 Desire St",
    "address_councildis": "C",
    "status": "Invalid Request",
    "contractor": "IV Waste",
    "contractor_action": "Invalid Request",
    "rowid": "1131173",
    "final_x": "3690078.27043",
    "final_y": "535408.076614",
    "longitude": "-90.04084483903002",
    "latitude": "29.96592329460682",
    "geocoded_column": {
      "latitude": "29.96592329460682",
      "longitude": "-90.04084483903002"
    }
  },
  {
    "service_request": "2024-1131172",
    "request_type": "Roads and Streets",
    "request_reason": "Street Subsidence (Sinking)",
    "date_created": "2024-09-13T17:27:20.000",
    "date_modified": "2024-09-13T17:27:20.000",
    "request_status": "Pending",
    "responsible_agency": "Department of Public Works",
    "final_address": "CLARA ST & MARENGO ST",
    "address_councildis": "B",
    "status": "Pending",
    "rowid": "1131172",
    "final_x": "3671541.1",
    "final_y": "525194.38",
    "longitude": "-90.09973205353874",
    "latitude": "29.938400919118006",
    "geocoded_column": {
      "latitude": "29.938400919118006",
      "longitude": "-90.09973205353874"
    }
  },
  {
    "service_request": "2024-1131171",
    "request_type": "Roads and Streets",
    "request_reason": "Pothole",
    "date_created": "2024-09-13T17:22:43.000",
    "date_modified": "2024-09-13T17:22:43.000",
    "request_status": "Pending",
    "responsible_agency": "Department of Public Works",
    "final_address": "4700 Wisner Blvd",
    "address_councildis": "A",
    "status": "Pending",
    "rowid": "1131171",
    "final_x": "3674964.32302",
    "final_y": "543747.25051",
    "longitude": "-90.08828814169578",
    "latitude": "29.989313280864376",
    "geocoded_column": {
      "latitude": "29.989313280864376",
      "longitude": "-90.08828814169578"
    }
  },
  {
    "service_request": "2024-1131170",
    "request_type": "Trash/Recycling",
    "request_reason": "Missed Trash Pick-Up",
    "date_created": "2024-09-13T17:20:30.000",
    "date_modified": "2024-09-13T17:33:34.000",
    "case_close_date": "2024-09-13T12:33:34.000",
    "request_status": "Closed",
    "responsible_agency": "Department of Sanitation",
    "final_address": "5336 Dryades St",
    "address_councildis": "B",
    "status": "Invalid Request",
    "contractor": "IV Waste",
    "contractor_action": "Invalid Request",
    "rowid": "1131170",
    "final_x": "3667609.66049",
    "final_y": "521793.283898",
    "longitude": "-90.11225846699281",
    "latitude": "29.929164787498774",
    "geocoded_column": {
      "latitude": "29.929164787498774",
      "longitude": "-90.11225846699281"
    }
  },
  {
    "service_request": "2024-1131169",
    "request_type": "Streetlights",
    "request_reason": "Streetlight Knocked Down/Leaning",
    "date_created": "2024-09-13T17:12:47.000",
    "date_modified": "2024-09-13T17:12:48.000",
    "request_status": "Pending",
    "responsible_agency": "Department of Public Works",
    "final_address": "1916 Governor Nicholls St",
    "address_councildis": "D",
    "status": "Pending",
    "contractor": "Legacy Professional Services",
    "rowid": "1131169",
    "final_x": "3680155.44456",
    "final_y": "536576.038535",
    "longitude": "-90.07214021844693",
    "latitude": "29.969438821785634",
    "geocoded_column": {
      "latitude": "29.969438821785634",
      "longitude": "-90.07214021844693"
    }
  },
  {
    "service_request": "2024-1131168",
    "request_type": "Trash/Recycling",
    "request_reason": "Request a Large Item Pick Up",
    "date_created": "2024-09-13T17:08:30.000",
    "date_modified": "2024-09-13T17:08:31.000",
    "request_status": "Pending",
    "responsible_agency": "Department of Sanitation",
    "final_address": "4909 Bonita Dr",
    "address_councildis": "E",
    "status": "Assigned to Contractor",
    "contractor": "Waste Pro",
    "rowid": "1131168",
    "final_x": "3704486.10826",
    "final_y": "556105.583834",
    "longitude": "-89.99458202155914",
    "latitude": "30.022378957855267",
    "geocoded_column": {
      "latitude": "30.022378957855267",
      "longitude": "-89.99458202155914"
    }
  },
  {
    "service_request": "2024-1131167",
    "request_type": "Trash/Recycling",
    "request_reason": "Missed Trash Pick-Up",
    "date_created": "2024-09-13T16:56:52.000",
    "date_modified": "2024-09-13T16:56:54.000",
    "request_status": "Pending",
    "responsible_agency": "Department of Sanitation",
    "final_address": "4827 Friar Tuck Dr",
    "address_councildis": "E",
    "status": "Assigned to Contractor",
    "contractor": "Waste Pro",
    "rowid": "1131167",
    "final_x": "3717786.22969",
    "final_y": "557399.841179",
    "longitude": "-89.95250809430375",
    "latitude": "30.025503670340008",
    "geocoded_column": {
      "latitude": "30.025503670340008",
      "longitude": "-89.95250809430375"
    }
  },
  {
    "service_request": "2024-1131166",
    "request_type": "Drainage",
    "request_reason": "Catch Basin Clogged",
    "date_created": "2024-09-13T16:56:25.000",
    "date_modified": "2024-09-13T16:56:26.000",
    "request_status": "Pending",
    "responsible_agency": "Department of Public Works",
    "final_address": "6105 N Rampart St",
    "address_councildis": "E",
    "status": "Pending",
    "rowid": "1131166",
    "final_x": "3699406.29309",
    "final_y": "532901.755268",
    "longitude": "-90.01147871536342",
    "latitude": "29.958739194174704",
    "geocoded_column": {
      "latitude": "29.958739194174704",
      "longitude": "-90.01147871536342"
    }
  },
  {
    "service_request": "2024-1131165",
    "request_type": "Trash/Recycling",
    "request_reason": "Missed Trash Pick-Up",
    "date_created": "2024-09-13T16:54:22.000",
    "date_modified": "2024-09-13T17:15:02.000",
    "case_close_date": "2024-09-13T12:15:02.000",
    "request_status": "Closed",
    "responsible_agency": "Department of Sanitation",
    "final_address": "4750 Spain St",
    "address_councildis": "D",
    "status": "Invalid Request",
    "contractor": "IV Waste",
    "contractor_action": "Invalid Request",
    "rowid": "1131165",
    "final_x": "3684894.79036",
    "final_y": "550539.092948",
    "longitude": "-90.05668170088994",
    "latitude": "30.007687977442906",
    "geocoded_column": {
      "latitude": "30.007687977442906",
      "longitude": "-90.05668170088994"
    }
  },
  {
    "service_request": "2024-1131164",
    "request_type": "Hurricane Francine Tree-Related Issues or Emergencies\t",
    "request_reason": "Hurricane Francine Tree-Related Issues or Emergencies",
    "date_created": "2024-09-13T16:54:02.000",
    "date_modified": "2024-09-13T16:54:04.000",
    "request_status": "Pending",
    "responsible_agency": "Department of Parks & Parkway",
    "final_address": "5132 Michoud Blvd",
    "address_councildis": "E",
    "status": "Pending",
    "rowid": "1131164",
    "final_x": "3724703.08595",
    "final_y": "562278.950943",
    "longitude": "-89.93046338393621",
    "latitude": "30.038688222375367",
    "geocoded_column": {
      "latitude": "30.038688222375367",
      "longitude": "-89.93046338393621"
    }
  },
  {
    "service_request": "2024-1131163",
    "request_type": "Trash/Recycling",
    "request_reason": "Storm Debris Collection",
    "date_created": "2024-09-13T16:48:59.000",
    "date_modified": "2024-09-13T16:49:00.000",
    "request_status": "Pending",
    "responsible_agency": "Department of Sanitation",
    "final_address": "5480 Grand Bayou Dr",
    "address_councildis": "E",
    "status": "Pending",
    "rowid": "1131163",
    "final_x": "3725401.31084",
    "final_y": "563419.703264",
    "longitude": "-89.92821262610495",
    "latitude": "30.04180129618493",
    "geocoded_column": {
      "latitude": "30.04180129618493",
      "longitude": "-89.92821262610495"
    }
  },
  {
    "service_request": "2024-1131162",
    "request_type": "Streetlights",
    "request_reason": "Streetlight Outage/Malfunction",
    "date_created": "2024-09-13T16:47:46.000",
    "date_modified": "2024-09-13T16:47:48.000",
    "request_status": "Pending",
    "responsible_agency": "Department of Public Works",
    "final_address": "7547 Michigan St",
    "address_councildis": "E",
    "status": "Pending",
    "contractor": "Legacy Professional Services",
    "rowid": "1131162",
    "final_x": "3712085.95013",
    "final_y": "566130.186851",
    "longitude": "-89.97019179135285",
    "latitude": "30.049696275501958",
    "geocoded_column": {
      "latitude": "30.049696275501958",
      "longitude": "-89.97019179135285"
    }
  },
  {
    "service_request": "2024-1131161",
    "request_type": "Roads and Streets",
    "request_reason": "Street Subsidence (Sinking)",
    "date_created": "2024-09-13T16:46:33.000",
    "date_modified": "2024-09-13T16:46:34.000",
    "request_status": "Pending",
    "responsible_agency": "Department of Public Works",
    "final_address": "DREUX AVE & MONTEGUT DR",
    "address_councildis": "D",
    "status": "Pending",
    "rowid": "1131161",
    "final_x": "3689652.9",
    "final_y": "552712.98",
    "longitude": "-90.04157206493534",
    "latitude": "30.013518741161178",
    "geocoded_column": {
      "latitude": "30.013518741161178",
      "longitude": "-90.04157206493534"
    }
  },
  {
    "service_request": "2024-1131160",
    "request_type": "Trash/Recycling",
    "request_reason": "Missed Trash Pick-Up",
    "date_created": "2024-09-13T16:44:29.000",
    "date_modified": "2024-09-13T17:33:58.000",
    "case_close_date": "2024-09-13T12:33:58.000",
    "request_status": "Closed",
    "responsible_agency": "Department of Sanitation",
    "final_address": "2557 Acacia St",
    "address_councildis": "D",
    "status": "Invalid Request",
    "contractor": "IV Waste",
    "contractor_action": "Invalid Request",
    "rowid": "1131160",
    "final_x": "3686884.84418",
    "final_y": "546377.636688",
    "longitude": "-90.05054174014849",
    "latitude": "29.996184364213704",
    "geocoded_column": {
      "latitude": "29.996184364213704",
      "longitude": "-90.05054174014849"
    }
  },
  {
    "service_request": "2024-1131159",
    "request_type": "Drainage",
    "request_reason": "Catch Basin Damaged",
    "date_created": "2024-09-13T16:44:19.000",
    "date_modified": "2024-09-13T16:44:19.000",
    "request_status": "Pending",
    "responsible_agency": "Department of Public Works",
    "final_address": "1363 Holiday Pl",
    "address_councildis": "C",
    "status": "Pending",
    "rowid": "1131159",
    "final_x": "3698930.30487",
    "final_y": "526222.667262",
    "longitude": "-90.01322473891636",
    "latitude": "29.940389141375956",
    "geocoded_column": {
      "latitude": "29.940389141375956",
      "longitude": "-90.01322473891636"
    }
  },
  {
    "service_request": "2024-1131158",
    "request_type": "Street and Traffic Signs",
    "request_reason": "Crosswalk Signage Damaged or Missing",
    "date_created": "2024-09-13T16:43:31.000",
    "date_modified": "2024-09-13T16:43:32.000",
    "request_status": "Pending",
    "responsible_agency": "Department of Public Works",
    "final_address": "CAMBRONNE ST & PALMETTO ST",
    "address_councildis": "A",
    "status": "Pending",
    "rowid": "1131158",
    "final_x": "3667321.0",
    "final_y": "535851.88",
    "longitude": "-90.11269694266282",
    "latitude": "29.967829815474726",
    "geocoded_column": {
      "latitude": "29.967829815474726",
      "longitude": "-90.11269694266282"
    }
  },
  {
    "service_request": "2024-1131157",
    "request_type": "Utility Poles",
    "request_reason": "Utility Pole Leaning",
    "date_created": "2024-09-13T16:42:26.000",
    "date_modified": "2024-09-13T16:42:31.000",
    "request_status": "Pending",
    "responsible_agency": "Utility Company Collective",
    "final_address": "4009 Behrman Hwy",
    "address_councildis": "C",
    "status": "Pending",
    "rowid": "1131157",
    "final_x": "3697399.68253",
    "final_y": "514876.118003",
    "longitude": "-90.0184682056419",
    "latitude": "29.90923840285292",
    "geocoded_column": {
      "latitude": "29.90923840285292",
      "longitude": "-90.0184682056419"
    }
  },
  {
    "service_request": "2024-1131156",
    "request_type": "Trash/Recycling",
    "request_reason": "Return Trash Cart",
    "date_created": "2024-09-13T16:40:34.000",
    "date_modified": "2024-09-13T16:40:35.000",
    "request_status": "Pending",
    "responsible_agency": "Department of Sanitation",
    "final_address": "226 Bourbon St",
    "address_councildis": "C",
    "status": "Assigned to Contractor",
    "contractor": "Empire Services",
    "rowid": "1131156",
    "final_x": "3681325.49999",
    "final_y": "531399.324995",
    "longitude": "-90.06862553515782",
    "latitude": "29.95516916451283",
    "geocoded_column": {
      "latitude": "29.95516916451283",
      "longitude": "-90.06862553515782"
    }
  },
  {
    "service_request": "2024-1131155",
    "request_type": "Roads and Streets",
    "request_reason": "Street Subsidence (Sinking)",
    "date_created": "2024-09-13T16:37:29.000",
    "date_modified": "2024-09-13T16:38:19.000",
    "request_status": "Pending",
    "responsible_agency": "Department of Public Works",
    "final_address": "CONSTANCE ST & HENRY CLAY AVE",
    "address_councildis": "A",
    "status": "Pending",
    "rowid": "1131155",
    "final_x": "3663665.3",
    "final_y": "519266.98",
    "longitude": "-90.12479422372154",
    "latitude": "29.922333232764196",
    "geocoded_column": {
      "latitude": "29.922333232764196",
      "longitude": "-90.12479422372154"
    }
  },
  {
    "service_request": "2024-1131154",
    "request_type": "Trash/Recycling",
    "request_reason": "Storm Debris Collection",
    "date_created": "2024-09-13T16:36:39.000",
    "date_modified": "2024-09-13T16:36:39.000",
    "request_status": "Pending",
    "responsible_agency": "Department of Sanitation",
    "final_address": "6900 BLK Louisville St",
    "address_councildis": "A",
    "status": "Pending",
    "rowid": "1131154",
    "final_x": "3668327.89658",
    "final_y": "553727.572451",
    "longitude": "-90.1089138888726",
    "latitude": "30.016952306019423",
    "geocoded_column": {
      "latitude": "30.016952306019423",
      "longitude": "-90.1089138888726"
    }
  },
  {
    "service_request": "2024-1131153",
    "request_type": "Hurricane Francine Tree-Related Issues or Emergencies\t",
    "request_reason": "Hurricane Francine Tree-Related Issues or Emergencies",
    "date_created": "2024-09-13T16:33:29.000",
    "date_modified": "2024-09-13T16:33:30.000",
    "request_status": "Pending",
    "responsible_agency": "Department of Parks & Parkway",
    "final_address": "1041 Teche St",
    "address_councildis": "C",
    "status": "Pending",
    "rowid": "1131153",
    "final_x": "3686537.70825",
    "final_y": "527569.381375",
    "longitude": "-90.05230255252833",
    "latitude": "29.944478911180934",
    "geocoded_column": {
      "latitude": "29.944478911180934",
      "longitude": "-90.05230255252833"
    }
  },
  {
    "service_request": "2024-1131152",
    "request_type": "Hurricane Francine Tree-Related Issues or Emergencies\t",
    "request_reason": "Hurricane Francine Tree-Related Issues or Emergencies",
    "date_created": "2024-09-13T16:31:38.000",
    "date_modified": "2024-09-13T16:31:38.000",
    "request_status": "Pending",
    "responsible_agency": "Department of Parks & Parkway",
    "final_address": "6245 Louisville St",
    "address_councildis": "A",
    "status": "Pending",
    "rowid": "1131152",
    "final_x": "3667995.037",
    "final_y": "549031.414291",
    "longitude": "-90.11012398887507",
    "latitude": "30.004049292134656",
    "geocoded_column": {
      "latitude": "30.004049292134656",
      "longitude": "-90.11012398887507"
    }
  },
  {
    "service_request": "2024-1131151",
    "request_type": "Trash/Recycling",
    "request_reason": "Storm Debris Collection",
    "date_created": "2024-09-13T16:30:42.000",
    "date_modified": "2024-09-13T16:30:42.000",
    "request_status": "Pending",
    "responsible_agency": "Department of Sanitation",
    "final_address": "6973 Louisville St",
    "address_councildis": "A",
    "status": "Pending",
    "rowid": "1131151",
    "final_x": "3668440.6882",
    "final_y": "553946.480344",
    "longitude": "-90.10855011983175",
    "latitude": "30.01755091079071",
    "geocoded_column": {
      "latitude": "30.01755091079071",
      "longitude": "-90.10855011983175"
    }
  },
  {
    "service_request": "2024-1131150",
    "request_type": "Trash/Recycling",
    "request_reason": "Storm Debris Collection",
    "date_created": "2024-09-13T16:28:57.000",
    "date_modified": "2024-09-13T16:28:58.000",
    "request_status": "Pending",
    "responsible_agency": "Department of Sanitation",
    "final_address": "1719 Bordeaux St",
    "address_councildis": "B",
    "status": "Pending",
    "rowid": "1131150",
    "final_x": "3669362.6969",
    "final_y": "521259.470649",
    "longitude": "-90.10674249216794",
    "latitude": "29.927645487202934",
    "geocoded_column": {
      "latitude": "29.927645487202934",
      "longitude": "-90.10674249216794"
    }
  },
  {
    "service_request": "2024-1131149",
    "request_type": "Trash/Recycling",
    "request_reason": "Missed Trash Pick-Up",
    "date_created": "2024-09-13T16:28:35.000",
    "date_modified": "2024-09-13T16:28:36.000",
    "request_status": "Pending",
    "responsible_agency": "Department of Sanitation",
    "final_address": "3942 S Pin Oak Ave",
    "address_councildis": "C",
    "status": "Assigned to Contractor",
    "contractor": "Richards Disposal",
    "rowid": "1131149",
    "final_x": "3705019.33758",
    "final_y": "513477.326514",
    "longitude": "-89.99447100460442",
    "latitude": "29.905149584057483",
    "geocoded_column": {
      "latitude": "29.905149584057483",
      "longitude": "-89.99447100460442"
    }
  },
  {
    "service_request": "2024-1131148",
    "request_type": "Trash/Recycling",
    "request_reason": "Repair Trash Cart",
    "date_created": "2024-09-13T16:27:52.000",
    "date_modified": "2024-09-13T16:27:53.000",
    "request_status": "Pending",
    "responsible_agency": "Department of Sanitation",
    "final_address": "3942 S Pin Oak Ave",
    "address_councildis": "C",
    "status": "Assigned to Contractor",
    "contractor": "Richards Disposal",
    "rowid": "1131148",
    "final_x": "3705019.33758",
    "final_y": "513477.326514",
    "longitude": "-89.99447100460442",
    "latitude": "29.905149584057483",
    "geocoded_column": {
      "latitude": "29.905149584057483",
      "longitude": "-89.99447100460442"
    }
  },
  {
    "service_request": "2024-1131147",
    "request_type": "Trash/Recycling",
    "request_reason": "Hurricane Francine Tree-Related Issues or Emergencies",
    "date_created": "2024-09-13T16:26:43.000",
    "date_modified": "2024-09-13T16:26:43.000",
    "request_status": "Pending",
    "responsible_agency": "Department of Parks & Parkway",
    "final_address": "210 Oakmont Dr",
    "address_councildis": "E",
    "status": "Pending",
    "rowid": "1131147",
    "final_x": "3720417.36985",
    "final_y": "562821.16688",
    "longitude": "-89.94398646801724",
    "latitude": "30.040322672457364",
    "geocoded_column": {
      "latitude": "30.040322672457364",
      "longitude": "-89.94398646801724"
    }
  },
  {
    "service_request": "2024-1131146",
    "request_type": "Drainage",
    "request_reason": "Catch Basin Clogged",
    "date_created": "2024-09-13T16:25:42.000",
    "date_modified": "2024-09-13T16:25:42.000",
    "request_status": "Pending",
    "responsible_agency": "Department of Public Works",
    "final_address": "205 S Norman C Francis Prkwy",
    "address_councildis": "B",
    "status": "Pending",
    "rowid": "1131146",
    "final_x": "3672788.18856",
    "final_y": "536441.717895",
    "longitude": "-90.09541123850897",
    "latitude": "29.969290396356918",
    "geocoded_column": {
      "latitude": "29.969290396356918",
      "longitude": "-90.09541123850897"
    }
  },
  {
    "service_request": "2024-1131145",
    "request_type": "Trash/Recycling",
    "request_reason": "Storm Debris Collection",
    "date_created": "2024-09-13T16:25:32.000",
    "date_modified": "2024-09-13T16:25:32.000",
    "request_status": "Pending",
    "responsible_agency": "Department of Sanitation",
    "final_address": "4737 Bancroft Dr",
    "address_councildis": "D",
    "status": "Pending",
    "rowid": "1131145",
    "final_x": "3676400.2724",
    "final_y": "549702.118292",
    "longitude": "-90.08354722943483",
    "latitude": "30.005644092969806",
    "geocoded_column": {
      "latitude": "30.005644092969806",
      "longitude": "-90.08354722943483"
    }
  },
  {
    "service_request": "2024-1131144",
    "request_type": "Trash/Recycling",
    "request_reason": "Illegal Dumping",
    "date_created": "2024-09-13T16:22:01.000",
    "date_modified": "2024-09-13T16:22:02.000",
    "request_status": "Pending",
    "responsible_agency": "Department of Sanitation",
    "final_address": "6100 BLK N Miro St",
    "address_councildis": "E",
    "status": "Pending",
    "rowid": "1131144",
    "final_x": "3701246.55023",
    "final_y": "537160.842133",
    "longitude": "-90.00551184669852",
    "latitude": "29.97039164994043",
    "geocoded_column": {
      "latitude": "29.97039164994043",
      "longitude": "-90.00551184669852"
    }
  },
  {
    "service_request": "2024-1131143",
    "request_type": "Trash/Recycling",
    "request_reason": "Storm Debris Collection",
    "date_created": "2024-09-13T16:20:01.000",
    "date_modified": "2024-09-13T16:20:01.000",
    "request_status": "Pending",
    "responsible_agency": "Department of Sanitation",
    "final_address": "5922 Warwick Ct",
    "address_councildis": "C",
    "status": "Pending",
    "rowid": "1131143",
    "final_x": "3705652.83652",
    "final_y": "515945.724596",
    "longitude": "-89.99238049932589",
    "latitude": "29.911916463910455",
    "geocoded_column": {
      "latitude": "29.911916463910455",
      "longitude": "-89.99238049932589"
    }
  },
  {
    "service_request": "2024-1131142",
    "request_type": "Street and Traffic Signs",
    "request_reason": "Stop Sign Missing or Damaged",
    "date_created": "2024-09-13T16:19:28.000",
    "date_modified": "2024-09-13T16:19:29.000",
    "request_status": "Pending",
    "responsible_agency": "Department of Public Works",
    "final_address": "N MIRO ST & ST MAURICE AVE",
    "address_councildis": "E",
    "status": "Pending",
    "rowid": "1131142",
    "final_x": "3701421.4",
    "final_y": "537092.88",
    "longitude": "-90.00496214370072",
    "latitude": "29.970199206193584",
    "geocoded_column": {
      "latitude": "29.970199206193584",
      "longitude": "-90.00496214370072"
    }
  },
  {
    "service_request": "2024-1131141",
    "request_type": "Trash/Recycling",
    "request_reason": "Request a Large Item Pick Up",
    "date_created": "2024-09-13T16:15:59.000",
    "date_modified": "2024-09-13T16:16:00.000",
    "request_status": "Pending",
    "responsible_agency": "Department of Sanitation",
    "final_address": "6320 Mckenna St",
    "address_councildis": "A",
    "status": "Assigned to Contractor",
    "contractor": "IV Waste",
    "rowid": "1131141",
    "final_x": "3667530.10151",
    "final_y": "529409.449729",
    "longitude": "-90.11225340503044",
    "latitude": "29.95010912485791",
    "geocoded_column": {
      "latitude": "29.95010912485791",
      "longitude": "-90.11225340503044"
    }
  },
  {
    "service_request": "2024-1131140",
    "request_type": "Hurricane Francine Tree-Related Issues or Emergencies\t",
    "request_reason": "Hurricane Francine Tree-Related Issues or Emergencies",
    "date_created": "2024-09-13T16:15:13.000",
    "date_modified": "2024-09-13T16:15:14.000",
    "request_status": "Pending",
    "responsible_agency": "Department of Parks & Parkway",
    "final_address": "6320 Mckenna St",
    "address_councildis": "A",
    "status": "Pending",
    "rowid": "1131140",
    "final_x": "3667530.10151",
    "final_y": "529409.449729",
    "longitude": "-90.11225340503044",
    "latitude": "29.95010912485791",
    "geocoded_column": {
      "latitude": "29.95010912485791",
      "longitude": "-90.11225340503044"
    }
  },
  {
    "service_request": "2024-1131139",
    "request_type": "Hurricane Francine Tree-Related Issues or Emergencies\t",
    "request_reason": "Hurricane Francine Tree-Related Issues or Emergencies",
    "date_created": "2024-09-13T16:12:17.000",
    "date_modified": "2024-09-13T16:12:18.000",
    "request_status": "Pending",
    "responsible_agency": "Department of Parks & Parkway",
    "final_address": "PALMETTO ST & MISTLETOE ST",
    "address_councildis": "A",
    "status": "Pending",
    "rowid": "1131139",
    "final_x": "3665251.2",
    "final_y": "537740.68",
    "longitude": "-90.11917025506519",
    "latitude": "29.973083854340736",
    "geocoded_column": {
      "latitude": "29.973083854340736",
      "longitude": "-90.11917025506519"
    }
  },
  {
    "service_request": "2024-1131138",
    "request_type": "Trash/Recycling",
    "request_reason": "Storm Debris Collection",
    "date_created": "2024-09-13T16:09:55.000",
    "date_modified": "2024-09-13T16:09:55.000",
    "request_status": "Pending",
    "responsible_agency": "Department of Sanitation",
    "final_address": "600 BLK Evelina St",
    "address_councildis": "C",
    "status": "Pending",
    "rowid": "1131138",
    "final_x": "3687398.04577",
    "final_y": "529495.284629",
    "longitude": "-90.04951809489775",
    "latitude": "29.94974801315236",
    "geocoded_column": {
      "latitude": "29.94974801315236",
      "longitude": "-90.04951809489775"
    }
  },
  {
    "service_request": "2024-1131137",
    "request_type": "Trash/Recycling",
    "request_reason": "Request a Large Item Pick Up",
    "date_created": "2024-09-13T16:08:11.000",
    "date_modified": "2024-09-13T16:08:12.000",
    "request_status": "Pending",
    "responsible_agency": "Department of Sanitation",
    "final_address": "2200 BLK Dumaine St",
    "address_councildis": "D",
    "status": "Assigned to Contractor",
    "contractor": "IV Waste",
    "rowid": "1131137",
    "final_x": "3678658.46745",
    "final_y": "536370.232821",
    "longitude": "-90.07687492137718",
    "latitude": "29.968918147078508",
    "geocoded_column": {
      "latitude": "29.968918147078508",
      "longitude": "-90.07687492137718"
    }
  },
  {
    "service_request": "2024-1131136",
    "request_type": "Trash/Recycling",
    "request_reason": "Storm Debris Collection",
    "date_created": "2024-09-13T16:05:04.000",
    "date_modified": "2024-09-13T16:08:30.000",
    "request_status": "Pending",
    "responsible_agency": "Department of Sanitation",
    "final_address": "4747 Babylon St",
    "address_councildis": "D",
    "rowid": "1131136",
    "final_x": "3696684.67581",
    "final_y": "554257.284696",
    "longitude": "-90.01929949812799",
    "latitude": "30.01754515244721",
    "geocoded_column": {
      "latitude": "30.01754515244721",
      "longitude": "-90.01929949812799"
    }
  },
  {
    "service_request": "2024-1131135",
    "request_type": "Trash/Recycling",
    "request_reason": "MIssed Recycling Pick-Up",
    "date_created": "2024-09-13T16:04:29.000",
    "date_modified": "2024-09-13T16:04:30.000",
    "request_status": "Pending",
    "responsible_agency": "Department of Sanitation",
    "final_address": "4430 Lancelot Dr, New Orleans, Louisiana, 70127",
    "address_councildis": "E",
    "status": "Assigned to Contractor",
    "contractor": "Waste Pro",
    "rowid": "1131135",
    "final_x": "3707544.13688",
    "final_y": "553760.070743",
    "longitude": "-89.98500668723098",
    "latitude": "30.01583111096896",
    "geocoded_column": {
      "latitude": "30.01583111096896",
      "longitude": "-89.98500668723098"
    }
  },
  {
    "service_request": "2024-1131134",
    "request_type": "Trash/Recycling",
    "request_reason": "Storm Debris Collection",
    "date_created": "2024-09-13T16:03:39.000",
    "date_modified": "2024-09-13T16:03:39.000",
    "request_status": "Pending",
    "responsible_agency": "Department of Sanitation",
    "final_address": "4218 Royal St",
    "address_councildis": "C",
    "status": "Pending",
    "rowid": "1131134",
    "final_x": "3692162.40509",
    "final_y": "533582.963589",
    "longitude": "-90.03432857143237",
    "latitude": "29.960840069333617",
    "geocoded_column": {
      "latitude": "29.960840069333617",
      "longitude": "-90.03432857143237"
    }
  },
  {
    "service_request": "2024-1131133",
    "request_type": "Trash/Recycling",
    "request_reason": "Missed Trash Pick-Up",
    "date_created": "2024-09-13T16:01:42.000",
    "date_modified": "2024-09-13T16:04:36.000",
    "case_close_date": "2024-09-13T11:04:36.000",
    "request_status": "Closed",
    "responsible_agency": "Department of Sanitation",
    "final_address": "4712 Bright Dr",
    "address_councildis": "E",
    "status": "Invalid Request",
    "contractor": "Waste Pro",
    "contractor_action": "Invalid Request",
    "rowid": "1131133",
    "final_x": "3715827.82924",
    "final_y": "556773.905434",
    "longitude": "-89.95872001457307",
    "latitude": "30.023847342231054",
    "geocoded_column": {
      "latitude": "30.023847342231054",
      "longitude": "-89.95872001457307"
    }
  },
  {
    "service_request": "2024-1131132",
    "request_type": "Abandoned Vehicles",
    "request_reason": "Vehicle Blocking Your Driveway",
    "date_created": "2024-09-13T16:01:04.000",
    "date_modified": "2024-09-13T16:01:05.000",
    "request_status": "Pending",
    "responsible_agency": "Department of Public Works",
    "final_address": "1402 Bienville St",
    "address_councildis": "C",
    "status": "Pending",
    "rowid": "1131132",
    "final_x": "3679662.47093",
    "final_y": "532576.62362",
    "longitude": "-90.07383590202443",
    "latitude": "29.95845670434084",
    "geocoded_column": {
      "latitude": "29.95845670434084",
      "longitude": "-90.07383590202443"
    }
  },
  {
    "service_request": "2024-1131131",
    "request_type": "Parks & Parkways",
    "request_reason": "Request Tree Service (Right of Way/Public Property)",
    "date_created": "2024-09-13T16:01:00.000",
    "date_modified": "2024-09-13T16:01:01.000",
    "request_status": "Pending",
    "responsible_agency": "Department of Parks & Parkway",
    "final_address": "700 BLK Saint Philip St",
    "address_councildis": "C",
    "status": "Pending",
    "rowid": "1131131",
    "final_x": "3683077.93827",
    "final_y": "533449.257692",
    "longitude": "-90.06302022998345",
    "latitude": "29.96075247847895",
    "geocoded_column": {
      "latitude": "29.96075247847895",
      "longitude": "-90.06302022998345"
    }
  },
  {
    "service_request": "2024-1131130",
    "request_type": "Trash/Recycling",
    "request_reason": "Repair Trash Cart",
    "date_created": "2024-09-13T16:00:27.000",
    "date_modified": "2024-09-13T16:00:28.000",
    "request_status": "Pending",
    "responsible_agency": "Department of Sanitation",
    "final_address": "4743 Perelli Dr",
    "address_councildis": "E",
    "status": "Assigned to Contractor",
    "contractor": "Waste Pro",
    "rowid": "1131130",
    "final_x": "3711787.79147",
    "final_y": "556108.19721",
    "longitude": "-89.97151061137235",
    "latitude": "30.02214955233902",
    "geocoded_column": {
      "latitude": "30.02214955233902",
      "longitude": "-89.97151061137235"
    }
  },
  {
    "service_request": "2024-1131129",
    "request_type": "Trash/Recycling",
    "request_reason": "Storm Debris Collection",
    "date_created": "2024-09-13T15:58:43.000",
    "date_modified": "2024-09-13T15:58:44.000",
    "request_status": "Pending",
    "responsible_agency": "Department of Sanitation",
    "final_address": "1708 Abundance St",
    "address_councildis": "D",
    "status": "Pending",
    "rowid": "1131129",
    "final_x": "3680746.07029",
    "final_y": "543335.533838",
    "longitude": "-90.07003962350565",
    "latitude": "29.98800719603761",
    "geocoded_column": {
      "latitude": "29.98800719603761",
      "longitude": "-90.07003962350565"
    }
  },
  {
    "service_request": "2024-1131128",
    "request_type": "Trash/Recycling",
    "request_reason": "MIssed Recycling Pick-Up",
    "date_created": "2024-09-13T15:58:41.000",
    "date_modified": "2024-09-13T15:58:42.000",
    "request_status": "Pending",
    "responsible_agency": "Department of Sanitation",
    "final_address": "4420 Longfellow Dr",
    "address_councildis": "E",
    "status": "Assigned to Contractor",
    "contractor": "Waste Pro",
    "rowid": "1131128",
    "final_x": "3709719.63326",
    "final_y": "554190.373784",
    "longitude": "-89.9781170834316",
    "latitude": "30.01694370897143",
    "geocoded_column": {
      "latitude": "30.01694370897143",
      "longitude": "-89.9781170834316"
    }
  },
  {
    "service_request": "2024-1131127",
    "request_type": "Roads and Streets",
    "request_reason": "Sidewalk Damaged or Missing",
    "date_created": "2024-09-13T15:58:11.000",
    "date_modified": "2024-09-13T15:58:12.000",
    "request_status": "Pending",
    "responsible_agency": "Department of Public Works",
    "final_address": "5315 Marais St",
    "address_councildis": "E",
    "status": "Pending",
    "rowid": "1131127",
    "final_x": "3697075.07171",
    "final_y": "534416.537029",
    "longitude": "-90.01878519605549",
    "latitude": "29.96297804834745",
    "geocoded_column": {
      "latitude": "29.96297804834745",
      "longitude": "-90.01878519605549"
    }
  },
  {
    "service_request": "2024-1131126",
    "request_type": "Trash/Recycling",
    "request_reason": "Storm Debris Collection",
    "date_created": "2024-09-13T15:57:21.000",
    "date_modified": "2024-09-13T16:09:28.000",
    "request_status": "Pending",
    "responsible_agency": "Department of Sanitation",
    "final_address": "1019 Bellecastle St",
    "address_councildis": "B",
    "rowid": "1131126",
    "final_x": "3667756.11169",
    "final_y": "519158.815479",
    "longitude": "-90.11188480005455",
    "latitude": "29.921916541490138",
    "geocoded_column": {
      "latitude": "29.921916541490138",
      "longitude": "-90.11188480005455"
    }
  },
  {
    "service_request": "2024-1131125",
    "request_type": "Trash/Recycling",
    "request_reason": "Missed Trash Pick-Up",
    "date_created": "2024-09-13T15:56:53.000",
    "date_modified": "2024-09-13T16:00:17.000",
    "case_close_date": "2024-09-13T11:00:17.000",
    "request_status": "Closed",
    "responsible_agency": "Department of Sanitation",
    "final_address": "5610 Holley Ln",
    "address_councildis": "E",
    "status": "Invalid Request",
    "contractor": "Waste Pro",
    "contractor_action": "Invalid Request",
    "rowid": "1131125",
    "final_x": "3703325.96234",
    "final_y": "556567.089754",
    "longitude": "-89.99823078277197",
    "latitude": "30.023685140371803",
    "geocoded_column": {
      "latitude": "30.023685140371803",
      "longitude": "-89.99823078277197"
    }
  },
  {
    "service_request": "2024-1131124",
    "request_type": "Trash/Recycling",
    "request_reason": "Storm Debris Collection",
    "date_created": "2024-09-13T15:56:30.000",
    "date_modified": "2024-09-13T15:56:31.000",
    "request_status": "Pending",
    "responsible_agency": "Department of Sanitation",
    "final_address": "2637 Wisteria St",
    "address_councildis": "D",
    "status": "Pending",
    "rowid": "1131124",
    "final_x": "3687375.21692",
    "final_y": "548457.938578",
    "longitude": "-90.04891902937679",
    "latitude": "30.001889338166897",
    "geocoded_column": {
      "latitude": "30.001889338166897",
      "longitude": "-90.04891902937679"
    }
  },
  {
    "service_request": "2024-1131123",
    "request_type": "Trash/Recycling",
    "request_reason": "Repair Trash Cart",
    "date_created": "2024-09-13T15:55:50.000",
    "date_modified": "2024-09-13T15:55:51.000",
    "request_status": "Pending",
    "responsible_agency": "Department of Sanitation",
    "final_address": "1019 Bellecastle St",
    "address_councildis": "B",
    "status": "Assigned to Contractor",
    "contractor": "IV Waste",
    "rowid": "1131123",
    "final_x": "3667756.11169",
    "final_y": "519158.815479",
    "longitude": "-90.11188480005455",
    "latitude": "29.921916541490138",
    "geocoded_column": {
      "latitude": "29.921916541490138",
      "longitude": "-90.11188480005455"
    }
  },
  {
    "service_request": "2024-1131122",
    "request_type": "Trash/Recycling",
    "request_reason": "Repair Trash Cart",
    "date_created": "2024-09-13T15:53:11.000",
    "date_modified": "2024-09-13T15:53:12.000",
    "request_status": "Pending",
    "responsible_agency": "Department of Sanitation",
    "final_address": "1639 Music St",
    "address_councildis": "D",
    "status": "Assigned to Contractor",
    "contractor": "IV Waste",
    "rowid": "1131122",
    "final_x": "3686713.41897",
    "final_y": "538613.054153",
    "longitude": "-90.05135767712878",
    "latitude": "29.974839797415914",
    "geocoded_column": {
      "latitude": "29.974839797415914",
      "longitude": "-90.05135767712878"
    }
  },
  {
    "service_request": "2024-1131121",
    "request_type": "Trash/Recycling",
    "request_reason": "Repair Trash Cart",
    "date_created": "2024-09-13T15:52:17.000",
    "date_modified": "2024-09-13T15:52:18.000",
    "request_status": "Pending",
    "responsible_agency": "Department of Sanitation",
    "final_address": "3141 State Street Dr",
    "address_councildis": "A",
    "status": "Assigned to Contractor",
    "contractor": "IV Waste",
    "rowid": "1131121",
    "final_x": "3667542.60212",
    "final_y": "527798.648063",
    "longitude": "-90.11226813424194",
    "latitude": "29.945679577033133",
    "geocoded_column": {
      "latitude": "29.945679577033133",
      "longitude": "-90.11226813424194"
    }
  },
  {
    "service_request": "2024-1131120",
    "request_type": "Drainage",
    "request_reason": "Catch Basin Clogged",
    "date_created": "2024-09-13T15:51:32.000",
    "date_modified": "2024-09-13T15:51:32.000",
    "request_status": "Pending",
    "responsible_agency": "Department of Public Works",
    "final_address": "MARTIN DR & WALES ST",
    "address_councildis": "E",
    "status": "Pending",
    "rowid": "1131120",
    "final_x": "3698076.7",
    "final_y": "560516.38",
    "longitude": "-90.01467368875949",
    "latitude": "30.034711303552157",
    "geocoded_column": {
      "latitude": "30.034711303552157",
      "longitude": "-90.01467368875949"
    }
  },
  {
    "service_request": "2024-1131119",
    "request_type": "Trash/Recycling",
    "request_reason": "Repair Trash Cart",
    "date_created": "2024-09-13T15:51:30.000",
    "date_modified": "2024-09-13T15:52:45.000",
    "request_status": "Pending",
    "responsible_agency": "Department of Sanitation",
    "final_address": "916 Moss St",
    "address_councildis": "A",
    "status": "Assigned to Contractor",
    "contractor": "IV Waste",
    "rowid": "1131119",
    "final_x": "3674839.58248",
    "final_y": "539439.610954",
    "longitude": "-90.08882994335946",
    "latitude": "29.977472482689944",
    "geocoded_column": {
      "latitude": "29.977472482689944",
      "longitude": "-90.08882994335946"
    }
  },
  {
    "service_request": "2024-1131118",
    "request_type": "Trash/Recycling",
    "request_reason": "Replace Trash Cart",
    "date_created": "2024-09-13T15:51:28.000",
    "date_modified": "2024-09-13T15:55:47.000",
    "request_status": "Pending",
    "responsible_agency": "Department of Sanitation",
    "final_address": "1641 Music St",
    "address_councildis": "D",
    "status": "Assigned to Contractor",
    "contractor": "IV Waste",
    "rowid": "1131118",
    "final_x": "3686713.83561",
    "final_y": "538627.220809",
    "longitude": "-90.0513558607016",
    "latitude": "29.974878737929416",
    "geocoded_column": {
      "latitude": "29.974878737929416",
      "longitude": "-90.0513558607016"
    }
  },
  {
    "service_request": "2024-1131117",
    "request_type": "Trash/Recycling",
    "request_reason": "MIssed Recycling Pick-Up",
    "date_created": "2024-09-13T15:49:48.000",
    "date_modified": "2024-09-13T15:51:21.000",
    "case_close_date": "2024-09-13T10:51:21.000",
    "request_status": "Closed",
    "responsible_agency": "Department of Sanitation",
    "final_address": "1822 Hillary St",
    "address_councildis": "A",
    "status": "Invalid Request",
    "contractor": "IV Waste",
    "contractor_action": "Invalid Request",
    "rowid": "1131117",
    "final_x": "3664823.36935",
    "final_y": "528899.043776",
    "longitude": "-90.12081691944965",
    "latitude": "29.9487847090675",
    "geocoded_column": {
      "latitude": "29.9487847090675",
      "longitude": "-90.12081691944965"
    }
  },
  {
    "service_request": "2024-1131116",
    "request_type": "Trash/Recycling",
    "request_reason": "Illegal Dumping",
    "date_created": "2024-09-13T15:49:09.000",
    "date_modified": "2024-09-13T15:49:09.000",
    "request_status": "Pending",
    "responsible_agency": "Department of Sanitation",
    "final_address": "2123 Forstall St",
    "address_councildis": "E",
    "status": "Pending",
    "rowid": "1131116",
    "final_x": "3697432.74224",
    "final_y": "538103.127433",
    "longitude": "-90.01752203617131",
    "latitude": "29.973103566227216",
    "geocoded_column": {
      "latitude": "29.973103566227216",
      "longitude": "-90.01752203617131"
    }
  },
  {
    "service_request": "2024-1131115",
    "request_type": "Drainage",
    "request_reason": "Catch Basin Clogged",
    "date_created": "2024-09-13T15:47:40.000",
    "date_modified": "2024-09-13T15:47:41.000",
    "request_status": "Pending",
    "responsible_agency": "Department of Public Works",
    "final_address": "11 Curtis Dr",
    "address_councildis": "E",
    "status": "Pending",
    "rowid": "1131115",
    "final_x": "3697785.52861",
    "final_y": "560487.829214",
    "longitude": "-90.01559486585282",
    "latitude": "30.03464201032459",
    "geocoded_column": {
      "latitude": "30.03464201032459",
      "longitude": "-90.01559486585282"
    }
  },
  {
    "service_request": "2024-1131114",
    "request_type": "Trash/Recycling",
    "request_reason": "Request a Large Item Pick Up",
    "date_created": "2024-09-13T15:46:26.000",
    "date_modified": "2024-09-13T15:46:27.000",
    "request_status": "Pending",
    "responsible_agency": "Department of Sanitation",
    "final_address": "1634 Spain St, New Orleans, Louisiana, 70117",
    "address_councildis": "D",
    "status": "Assigned to Contractor",
    "contractor": "IV Waste",
    "rowid": "1131114",
    "final_x": "3685905.97558",
    "final_y": "538525.905865",
    "longitude": "-90.05391085491883",
    "latitude": "29.97462498510826",
    "geocoded_column": {
      "latitude": "29.97462498510826",
      "longitude": "-90.05391085491883"
    }
  },
  {
    "service_request": "2024-1131113",
    "request_type": "Trash/Recycling",
    "request_reason": "Order Recycling Cart",
    "date_created": "2024-09-13T15:44:22.000",
    "date_modified": "2024-09-13T15:44:22.000",
    "request_status": "Pending",
    "responsible_agency": "Department of Sanitation",
    "final_address": "484 Audubon St",
    "address_councildis": "A",
    "status": "Pending",
    "rowid": "1131113",
    "final_x": "3662560.43917",
    "final_y": "523658.046331",
    "longitude": "-90.12813604615633",
    "latitude": "29.934439284620375",
    "geocoded_column": {
      "latitude": "29.934439284620375",
      "longitude": "-90.12813604615633"
    }
  },
  {
    "service_request": "2024-1131111",
    "request_type": "Trash/Recycling",
    "request_reason": "Storm Debris Collection",
    "date_created": "2024-09-13T15:43:56.000",
    "date_modified": "2024-09-13T15:43:57.000",
    "request_status": "Pending",
    "responsible_agency": "Department of Sanitation",
    "final_address": "6313 Eads St",
    "address_councildis": "D",
    "status": "Pending",
    "rowid": "1131111",
    "final_x": "3686716.8253",
    "final_y": "556511.43049",
    "longitude": "-90.05071416690902",
    "latitude": "30.024053762289558",
    "geocoded_column": {
      "latitude": "30.024053762289558",
      "longitude": "-90.05071416690902"
    }
  },
  {
    "service_request": "2024-1131110",
    "request_type": "Trash/Recycling",
    "request_reason": "Illegal Dumping",
    "date_created": "2024-09-13T15:43:40.000",
    "date_modified": "2024-09-13T15:43:40.000",
    "request_status": "Pending",
    "responsible_agency": "Department of Sanitation",
    "final_address": "2123 Forstall St",
    "address_councildis": "E",
    "status": "Pending",
    "rowid": "1131110",
    "final_x": "3697432.74224",
    "final_y": "538103.127433",
    "longitude": "-90.01752203617131",
    "latitude": "29.973103566227216",
    "geocoded_column": {
      "latitude": "29.973103566227216",
      "longitude": "-90.01752203617131"
    }
  },
  {
    "service_request": "2024-1131109",
    "request_type": "Trash/Recycling",
    "request_reason": "Storm Debris Collection",
    "date_created": "2024-09-13T15:43:33.000",
    "date_modified": "2024-09-13T15:43:34.000",
    "request_status": "Pending",
    "responsible_agency": "Department of Sanitation",
    "final_address": "5819 Paris Ave",
    "address_councildis": "D",
    "status": "Pending",
    "rowid": "1131109",
    "final_x": "3679124.9668",
    "final_y": "553974.921048",
    "longitude": "-90.07479103539758",
    "latitude": "30.017310765807444",
    "geocoded_column": {
      "latitude": "30.017310765807444",
      "longitude": "-90.07479103539758"
    }
  },
  {
    "service_request": "2024-1131108",
    "request_type": "Trash/Recycling",
    "request_reason": "Order Trash Cart",
    "date_created": "2024-09-13T15:42:38.000",
    "date_modified": "2024-09-13T15:42:39.000",
    "request_status": "Pending",
    "responsible_agency": "Department of Sanitation",
    "final_address": "484 Audubon St",
    "address_councildis": "A",
    "status": "Assigned to Contractor",
    "contractor": "IV Waste",
    "rowid": "1131108",
    "final_x": "3662560.43917",
    "final_y": "523658.046331",
    "longitude": "-90.12813604615633",
    "latitude": "29.934439284620375",
    "geocoded_column": {
      "latitude": "29.934439284620375",
      "longitude": "-90.12813604615633"
    }
  },
  {
    "service_request": "2024-1131107",
    "request_type": "Drainage",
    "request_reason": "Catch Basin Clogged",
    "date_created": "2024-09-13T15:41:36.000",
    "date_modified": "2024-09-13T15:41:36.000",
    "request_status": "Pending",
    "responsible_agency": "Department of Public Works",
    "final_address": "7311 Voyageur Dr",
    "address_councildis": "E",
    "status": "Pending",
    "rowid": "1131107",
    "final_x": "3726367.72947",
    "final_y": "569284.367142",
    "longitude": "-89.9249306141525",
    "latitude": "30.05789404519078",
    "geocoded_column": {
      "latitude": "30.05789404519078",
      "longitude": "-89.9249306141525"
    }
  },
  {
    "service_request": "2024-1131106",
    "request_type": "Trash/Recycling",
    "request_reason": "Order Recycling Cart",
    "date_created": "2024-09-13T15:41:03.000",
    "date_modified": "2024-09-13T15:41:03.000",
    "request_status": "Pending",
    "responsible_agency": "Department of Sanitation",
    "final_address": "7200 Prytania St",
    "address_councildis": "A",
    "status": "Pending",
    "rowid": "1131106",
    "final_x": "3661568.73882",
    "final_y": "522789.832955",
    "longitude": "-90.131295588107",
    "latitude": "29.932080614755677",
    "geocoded_column": {
      "latitude": "29.932080614755677",
      "longitude": "-90.131295588107"
    }
  },
  {
    "service_request": "2024-1131105",
    "request_type": "Drainage",
    "request_reason": "Catch Basin Clogged",
    "date_created": "2024-09-13T15:39:04.000",
    "date_modified": "2024-09-13T15:39:04.000",
    "request_status": "Pending",
    "responsible_agency": "Department of Public Works",
    "final_address": "13700 Explorers Ave",
    "address_councildis": "E",
    "status": "Pending",
    "rowid": "1131105",
    "final_x": "3726136.77766",
    "final_y": "569288.613734",
    "longitude": "-89.92566044995962",
    "latitude": "30.05791352489024",
    "geocoded_column": {
      "latitude": "30.05791352489024",
      "longitude": "-89.92566044995962"
    }
  },
  {
    "service_request": "2024-1131104",
    "request_type": "Drainage",
    "request_reason": "Catch Basin Clogged",
    "date_created": "2024-09-13T15:38:47.000",
    "date_modified": "2024-09-13T15:38:47.000",
    "request_status": "Pending",
    "responsible_agency": "Department of Public Works",
    "final_address": "13761 Explorers Ave",
    "address_councildis": "E",
    "status": "Pending",
    "rowid": "1131104",
    "final_x": "3725961.55494",
    "final_y": "569672.449126",
    "longitude": "-89.92619940112404",
    "latitude": "30.058974827806747",
    "geocoded_column": {
      "latitude": "30.058974827806747",
      "longitude": "-89.92619940112404"
    }
  },
  {
    "service_request": "2024-1131103",
    "request_type": "Drainage",
    "request_reason": "Catch Basin Clogged",
    "date_created": "2024-09-13T15:37:57.000",
    "date_modified": "2024-09-13T15:37:57.000",
    "request_status": "Pending",
    "responsible_agency": "Department of Public Works",
    "final_address": "7400 Adventure Ave",
    "address_councildis": "E",
    "status": "Pending",
    "rowid": "1131103",
    "final_x": "3726016.75372",
    "final_y": "570013.408102",
    "longitude": "-89.92601168817511",
    "latitude": "30.059910456844264",
    "geocoded_column": {
      "latitude": "30.059910456844264",
      "longitude": "-89.92601168817511"
    }
  },
  {
    "service_request": "2024-1131102",
    "request_type": "Roads and Streets",
    "request_reason": "Pothole",
    "date_created": "2024-09-13T15:37:05.000",
    "date_modified": "2024-09-13T15:37:06.000",
    "request_status": "Pending",
    "responsible_agency": "Department of Public Works",
    "final_address": "CURRAN BLVD & MEYN ST",
    "address_councildis": "E",
    "status": "Pending",
    "rowid": "1131102",
    "final_x": "3703688.5",
    "final_y": "562342.28",
    "longitude": "-89.99687240370186",
    "latitude": "30.039553042384075",
    "geocoded_column": {
      "latitude": "30.039553042384075",
      "longitude": "-89.99687240370186"
    }
  },
  {
    "service_request": "2024-1131101",
    "request_type": "Drainage",
    "request_reason": "Catch Basin Clogged",
    "date_created": "2024-09-13T15:36:48.000",
    "date_modified": "2024-09-13T15:36:49.000",
    "request_status": "Pending",
    "responsible_agency": "Department of Public Works",
    "final_address": "13906 Intrepid St",
    "address_councildis": "E",
    "status": "Pending",
    "rowid": "1131101",
    "final_x": "3726095.6176",
    "final_y": "570279.323303",
    "longitude": "-89.92575208195213",
    "latitude": "30.060638947555663",
    "geocoded_column": {
      "latitude": "30.060638947555663",
      "longitude": "-89.92575208195213"
    }
  },
  {
    "service_request": "2024-1131100",
    "request_type": "Roads and Streets",
    "request_reason": "Pothole",
    "date_created": "2024-09-13T15:35:14.000",
    "date_modified": "2024-09-13T15:35:15.000",
    "request_status": "Pending",
    "responsible_agency": "Department of Public Works",
    "final_address": "8620 Gervais St",
    "address_councildis": "E",
    "status": "Pending",
    "rowid": "1131100",
    "final_x": "3704029.3722",
    "final_y": "562731.296736",
    "longitude": "-89.99578080201496",
    "latitude": "30.04061174883874",
    "geocoded_column": {
      "latitude": "30.04061174883874",
      "longitude": "-89.99578080201496"
    }
  },
  {
    "service_request": "2024-1131099",
    "request_type": "Trash/Recycling",
    "request_reason": "Order Trash Cart",
    "date_created": "2024-09-13T15:33:57.000",
    "date_modified": "2024-09-13T15:33:58.000",
    "request_status": "Pending",
    "responsible_agency": "Department of Sanitation",
    "final_address": "7200 Prytania St",
    "address_councildis": "A",
    "status": "Assigned to Contractor",
    "contractor": "IV Waste",
    "rowid": "1131099",
    "final_x": "3661568.73882",
    "final_y": "522789.832955",
    "longitude": "-90.131295588107",
    "latitude": "29.932080614755677",
    "geocoded_column": {
      "latitude": "29.932080614755677",
      "longitude": "-90.131295588107"
    }
  },
  {
    "service_request": "2024-1131098",
    "request_type": "Hurricane Francine Tree-Related Issues or Emergencies\t",
    "request_reason": "Hurricane Francine Tree-Related Issues or Emergencies",
    "date_created": "2024-09-13T15:32:01.000",
    "date_modified": "2024-09-13T15:32:02.000",
    "request_status": "Pending",
    "responsible_agency": "Department of Parks & Parkway",
    "final_address": "1427 Louisiana Ave",
    "address_councildis": "B",
    "status": "Pending",
    "rowid": "1131098",
    "final_x": "3674592.92488",
    "final_y": "520840.467129",
    "longitude": "-90.09024624976593",
    "latitude": "29.926338377387005",
    "geocoded_column": {
      "latitude": "29.926338377387005",
      "longitude": "-90.09024624976593"
    }
  },
  {
    "service_request": "2024-1131097",
    "request_type": "Trash/Recycling",
    "request_reason": "Request a Large Item Pick Up",
    "date_created": "2024-09-13T15:30:44.000",
    "date_modified": "2024-09-13T15:30:45.000",
    "request_status": "Pending",
    "responsible_agency": "Department of Sanitation",
    "final_address": "8518 Panola St",
    "address_councildis": "A",
    "status": "Assigned to Contractor",
    "contractor": "IV Waste",
    "rowid": "1131097",
    "final_x": "3662910.64263",
    "final_y": "531741.640387",
    "longitude": "-90.12676173453796",
    "latitude": "29.9566564475071",
    "geocoded_column": {
      "latitude": "29.9566564475071",
      "longitude": "-90.12676173453796"
    }
  },
  {
    "service_request": "2024-1131096",
    "request_type": "Property Maintenance",
    "request_reason": "Property Maintenance",
    "date_created": "2024-09-13T15:30:15.000",
    "date_modified": "2024-09-13T15:30:16.000",
    "request_status": "Pending",
    "responsible_agency": "Department of Code Enforcement",
    "final_address": "5001 Mithra St",
    "address_councildis": "D",
    "status": "Pending",
    "rowid": "1131096",
    "final_x": "3692049.31472",
    "final_y": "553849.831063",
    "longitude": "-90.03395994668809",
    "latitude": "30.0165701565946",
    "geocoded_column": {
      "latitude": "30.0165701565946",
      "longitude": "-90.03395994668809"
    }
  },
  {
    "service_request": "2024-1131095",
    "request_type": "Trash/Recycling",
    "request_reason": "Request a Large Item Pick Up",
    "date_created": "2024-09-13T15:29:26.000",
    "date_modified": "2024-09-13T15:30:52.000",
    "request_status": "Pending",
    "responsible_agency": "Department of Sanitation",
    "final_address": "4702 Camelia St",
    "address_councildis": "E",
    "status": "Assigned to Contractor",
    "contractor": "Waste Pro",
    "rowid": "1131095",
    "final_x": "3701488.64497",
    "final_y": "553965.531672",
    "longitude": "-90.00413165443346",
    "latitude": "30.01659058737048",
    "geocoded_column": {
      "latitude": "30.01659058737048",
      "longitude": "-90.00413165443346"
    }
  },
  {
    "service_request": "2024-1131093",
    "request_type": "Trash/Recycling",
    "request_reason": "Missed Trash Pick-Up",
    "date_created": "2024-09-13T15:25:48.000",
    "date_modified": "2024-09-13T15:39:18.000",
    "case_close_date": "2024-09-13T10:39:18.000",
    "request_status": "Closed",
    "responsible_agency": "Department of Sanitation",
    "final_address": "68 Versailles Blvd",
    "address_councildis": "B",
    "status": "Duplicate Request",
    "contractor": "IV Waste",
    "contractor_action": "Invalid Request",
    "rowid": "1131093",
    "final_x": "3667778.03821",
    "final_y": "530506.371778",
    "longitude": "-90.11143361576293",
    "latitude": "29.953118035132338",
    "geocoded_column": {
      "latitude": "29.953118035132338",
      "longitude": "-90.11143361576293"
    }
  },
  {
    "service_request": "2024-1131092",
    "request_type": "Trash/Recycling",
    "request_reason": "Missed Trash Pick-Up",
    "date_created": "2024-09-13T15:24:58.000",
    "date_modified": "2024-09-13T15:38:57.000",
    "case_close_date": "2024-09-13T10:38:57.000",
    "request_status": "Closed",
    "responsible_agency": "Department of Sanitation",
    "final_address": "68 Versailles Blvd",
    "address_councildis": "B",
    "status": "Invalid Request",
    "contractor": "IV Waste",
    "contractor_action": "Invalid Request",
    "rowid": "1131092",
    "final_x": "3667778.03821",
    "final_y": "530506.371778",
    "longitude": "-90.11143361576293",
    "latitude": "29.953118035132338",
    "geocoded_column": {
      "latitude": "29.953118035132338",
      "longitude": "-90.11143361576293"
    }
  },
  {
    "service_request": "2024-1131091",
    "request_type": "Trash/Recycling",
    "request_reason": "MIssed Recycling Pick-Up",
    "date_created": "2024-09-13T15:23:41.000",
    "date_modified": "2024-09-13T15:39:47.000",
    "case_close_date": "2024-09-13T10:39:47.000",
    "request_status": "Closed",
    "responsible_agency": "Department of Sanitation",
    "final_address": "68 Versailles Blvd",
    "address_councildis": "B",
    "status": "Invalid Request",
    "contractor": "IV Waste",
    "contractor_action": "Invalid Request",
    "rowid": "1131091",
    "final_x": "3667778.03821",
    "final_y": "530506.371778",
    "longitude": "-90.11143361576293",
    "latitude": "29.953118035132338",
    "geocoded_column": {
      "latitude": "29.953118035132338",
      "longitude": "-90.11143361576293"
    }
  },
  {
    "service_request": "2024-1131090",
    "request_type": "Trash/Recycling",
    "request_reason": "Repair Recycling Cart",
    "date_created": "2024-09-13T15:21:32.000",
    "date_modified": "2024-09-13T15:21:33.000",
    "request_status": "Pending",
    "responsible_agency": "Department of Sanitation",
    "final_address": "4424 Perrault Walk",
    "address_councildis": "E",
    "status": "Pending",
    "rowid": "1131090",
    "final_x": "3709972.77457",
    "final_y": "554234.507928",
    "longitude": "-89.97731561935905",
    "latitude": "30.01705682596527",
    "geocoded_column": {
      "latitude": "30.01705682596527",
      "longitude": "-89.97731561935905"
    }
  },
  {
    "service_request": "2024-1131089",
    "request_type": "Drainage",
    "request_reason": "Catch Basin Clogged",
    "date_created": "2024-09-13T15:21:16.000",
    "date_modified": "2024-09-13T15:21:17.000",
    "request_status": "Pending",
    "responsible_agency": "Department of Public Works",
    "final_address": "2120 Harmony St",
    "address_councildis": "B",
    "status": "Pending",
    "rowid": "1131089",
    "final_x": "3673931.7115",
    "final_y": "523597.298491",
    "longitude": "-90.09223925713033",
    "latitude": "29.93393847984271",
    "geocoded_column": {
      "latitude": "29.93393847984271",
      "longitude": "-90.09223925713033"
    }
  },
  {
    "service_request": "2024-1131088",
    "request_type": "Trash/Recycling",
    "request_reason": "Repair Recycling Cart",
    "date_created": "2024-09-13T15:15:04.000",
    "date_modified": "2024-09-13T15:15:05.000",
    "request_status": "Pending",
    "responsible_agency": "Department of Sanitation",
    "final_address": "7101 Northgate Dr",
    "address_councildis": "E",
    "status": "Pending",
    "rowid": "1131088",
    "final_x": "3713808.2828",
    "final_y": "565082.865122",
    "longitude": "-89.96478774148396",
    "latitude": "30.046760115365334",
    "geocoded_column": {
      "latitude": "30.046760115365334",
      "longitude": "-89.96478774148396"
    }
  },
  {
    "service_request": "2024-1131087",
    "request_type": "Trash/Recycling",
    "request_reason": "Repair Trash Cart",
    "date_created": "2024-09-13T15:14:28.000",
    "date_modified": "2024-09-13T15:14:29.000",
    "request_status": "Pending",
    "responsible_agency": "Department of Sanitation",
    "final_address": "7101 Northgate Dr",
    "address_councildis": "E",
    "status": "Assigned to Contractor",
    "contractor": "Waste Pro",
    "rowid": "1131087",
    "final_x": "3713808.2828",
    "final_y": "565082.865122",
    "longitude": "-89.96478774148396",
    "latitude": "30.046760115365334",
    "geocoded_column": {
      "latitude": "30.046760115365334",
      "longitude": "-89.96478774148396"
    }
  },
  {
    "service_request": "2024-1131086",
    "request_type": "Drainage",
    "request_reason": "Catch Basin Clogged",
    "date_created": "2024-09-13T15:14:26.000",
    "date_modified": "2024-09-13T15:14:27.000",
    "request_status": "Pending",
    "responsible_agency": "Department of Public Works",
    "final_address": "6980 Argonne Blvd",
    "address_councildis": "A",
    "status": "Pending",
    "rowid": "1131086",
    "final_x": "3670691.05979",
    "final_y": "553794.359575",
    "longitude": "-90.10144498454888",
    "latitude": "30.0170663006104",
    "geocoded_column": {
      "latitude": "30.0170663006104",
      "longitude": "-90.10144498454888"
    }
  },
  {
    "service_request": "2024-1131085",
    "request_type": "Trash/Recycling",
    "request_reason": "Missed Trash Pick-Up",
    "date_created": "2024-09-13T15:12:42.000",
    "date_modified": "2024-09-13T15:12:43.000",
    "request_status": "Pending",
    "responsible_agency": "Department of Sanitation",
    "final_address": "6200 Stratford Pl",
    "address_councildis": "C",
    "status": "Assigned to Contractor",
    "contractor": "Richards Disposal",
    "rowid": "1131085",
    "final_x": "3706926.2682",
    "final_y": "516215.02322",
    "longitude": "-89.98835127369813",
    "latitude": "29.912615903222868",
    "geocoded_column": {
      "latitude": "29.912615903222868",
      "longitude": "-89.98835127369813"
    }
  },
  {
    "service_request": "2024-1131084",
    "request_type": "Drainage",
    "request_reason": "Catch Basin Clogged",
    "date_created": "2024-09-13T15:11:26.000",
    "date_modified": "2024-09-13T15:11:27.000",
    "request_status": "Pending",
    "responsible_agency": "Department of Public Works",
    "final_address": "3722 Inwood Ave",
    "address_councildis": "C",
    "status": "Pending",
    "rowid": "1131084",
    "final_x": "3704573.85412",
    "final_y": "514803.013235",
    "longitude": "-89.99582812288834",
    "latitude": "29.908809075331014",
    "geocoded_column": {
      "latitude": "29.908809075331014",
      "longitude": "-89.99582812288834"
    }
  },
  {
    "service_request": "2024-1131083",
    "request_type": "Trash/Recycling",
    "request_reason": "Missed Trash Pick-Up",
    "date_created": "2024-09-13T15:09:49.000",
    "date_modified": "2024-09-13T15:13:59.000",
    "case_close_date": "2024-09-13T10:13:59.000",
    "request_status": "Closed",
    "responsible_agency": "Department of Sanitation",
    "final_address": "1718 N Robertson St",
    "address_councildis": "C",
    "status": "Invalid Request",
    "contractor": "IV Waste",
    "contractor_action": "Invalid Request",
    "rowid": "1131083",
    "final_x": "3683196.38293",
    "final_y": "537543.145736",
    "longitude": "-90.06250282642286",
    "latitude": "29.97200564817391",
    "geocoded_column": {
      "latitude": "29.97200564817391",
      "longitude": "-90.06250282642286"
    }
  },
  {
    "service_request": "2024-1131082",
    "request_type": "Utility Poles",
    "request_reason": "Utility Pole Leaning",
    "date_created": "2024-09-13T15:09:30.000",
    "date_modified": "2024-09-13T15:09:34.000",
    "request_status": "Pending",
    "responsible_agency": "Utility Company Collective",
    "final_address": "3434 S Liberty St",
    "address_councildis": "B",
    "status": "Pending",
    "rowid": "1131082",
    "final_x": "3672924.64904",
    "final_y": "523678.480251",
    "longitude": "-90.09541574814378",
    "latitude": "29.934191657828656",
    "geocoded_column": {
      "latitude": "29.934191657828656",
      "longitude": "-90.09541574814378"
    }
  },
  {
    "service_request": "2024-1131081",
    "request_type": "Trash/Recycling",
    "request_reason": "Request a Large Item Pick Up",
    "date_created": "2024-09-13T15:09:16.000",
    "date_modified": "2024-09-13T15:09:17.000",
    "request_status": "Pending",
    "responsible_agency": "Department of Sanitation",
    "final_address": "5831 Brighton Pl",
    "address_councildis": "C",
    "status": "Assigned to Contractor",
    "contractor": "Richards Disposal",
    "rowid": "1131081",
    "final_x": "3705194.07966",
    "final_y": "520029.286392",
    "longitude": "-89.99367775578419",
    "latitude": "29.923159602078485",
    "geocoded_column": {
      "latitude": "29.923159602078485",
      "longitude": "-89.99367775578419"
    }
  },
  {
    "service_request": "2024-1131080",
    "request_type": "Hurricane Francine Tree-Related Issues or Emergencies\t",
    "request_reason": "Hurricane Francine Tree-Related Issues or Emergencies",
    "date_created": "2024-09-13T15:08:59.000",
    "date_modified": "2024-09-13T15:09:00.000",
    "request_status": "Pending",
    "responsible_agency": "Department of Parks & Parkway",
    "final_address": "5831 Brighton Pl",
    "address_councildis": "C",
    "status": "Pending",
    "rowid": "1131080",
    "final_x": "3705194.07966",
    "final_y": "520029.286392",
    "longitude": "-89.99367775578419",
    "latitude": "29.923159602078485",
    "geocoded_column": {
      "latitude": "29.923159602078485",
      "longitude": "-89.99367775578419"
    }
  },
  {
    "service_request": "2024-1131079",
    "request_type": "Trash/Recycling",
    "request_reason": "Request a Large Item Pick Up",
    "date_created": "2024-09-13T15:08:18.000",
    "date_modified": "2024-09-13T15:08:19.000",
    "request_status": "Pending",
    "responsible_agency": "Department of Sanitation",
    "final_address": "2720 DAbadie St",
    "address_councildis": "D",
    "status": "Assigned to Contractor",
    "contractor": "IV Waste",
    "rowid": "1131079",
    "final_x": "3679104.93659",
    "final_y": "541037.941835",
    "longitude": "-90.07530310076316",
    "latitude": "29.981739268127694",
    "geocoded_column": {
      "latitude": "29.981739268127694",
      "longitude": "-90.07530310076316"
    }
  },
  {
    "service_request": "2024-1131078",
    "request_type": "Streetlights",
    "request_reason": "Streetlight Outage/Malfunction",
    "date_created": "2024-09-13T15:05:18.000",
    "date_modified": "2024-09-13T15:05:19.000",
    "request_status": "Pending",
    "responsible_agency": "Department of Public Works",
    "final_address": "7530 Shubrick Ave",
    "address_councildis": "E",
    "status": "Pending",
    "contractor": "Legacy Professional Services",
    "rowid": "1131078",
    "final_x": "3706858.53579",
    "final_y": "563425.12688",
    "longitude": "-89.98681400619347",
    "latitude": "30.0424283961327",
    "geocoded_column": {
      "latitude": "30.0424283961327",
      "longitude": "-89.98681400619347"
    }
  },