[
  {
    "service_request": "2022-911426",
    "request_type": "Property Maintenance",
    "request_reason": "Property Maintenance",
    "date_created": "2022-08-18T23:55:57.000",
    "date_modified": "2022-08-18T23:55:57.000",
    "request_status": "Pending",
    "responsible_agency": "Department of Code Enforcement",
    "final_address": "10703 Pressburg St",
    "address_councildis": "E",
    "status": "Pending",
    "rowid": "911426",
    "final_x": "3714897.60767",
    "final_y": "557393.959067",
    "longitude": "-89.96163584502749",
    "latitude": "30.02558289518457",
    "geocoded_column": {
      "latitude": "30.02558289518457",
      "longitude": "-89.96163584502749"
    }
  },
  {
    "service_request": "2022-911425",
    "request_type": "Trash/Recycling",
    "request_reason": "MIssed Recycling Pick-Up",
    "date_created": "2022-08-18T23:36:35.000",
    "date_modified": "2022-08-18T23:36:36.000",
    "request_status": "Pending",
    "responsible_agency": "Department of Sanitation",
    "final_address": "5534 S Liberty St",
    "address_councildis": "A",
    "status": "Assigned to Contractor",
    "contractor": "Richards Disposal",
    "rowid": "911425",
    "final_x": "3667159.26644",
    "final_y": "523372.620027",
    "longitude": "-90.11362720855008",
    "latitude": "29.933520648995206",
    "geocoded_column": {
      "latitude": "29.933520648995206",
      "longitude": "-90.11362720855008"
    }
  },
  {
    "service_request": "2022-911424",
    "request_type": "Parks & Parkways",
    "request_reason": "Request Grass Cutting Service (City Owned Property)",
    "date_created": "2022-08-18T23:14:48.000",
    "date_modified": "2022-08-18T23:14:48.000",
    "request_status": "Pending",
    "responsible_agency": "Department of Parks & Parkway",
    "final_address": "DWYER RD & RHODES DR",
    "address_councildis": "E",
    "status": "Pending",
    "rowid": "911424",
    "final_x": "3702380.2",
    "final_y": "555891.28",
    "longitude": "-90.00124400522166",
    "latitude": "30.02185718990599",
    "geocoded_column": {
      "latitude": "30.02185718990599",
      "longitude": "-90.00124400522166"
    }
  },
  {
    "service_request": "2022-911423",
    "request_type": "Traffic Signals/Signs/Striping/Streetlights",
    "request_reason": "Street Light Outage/Malfunction",
    "date_created": "2022-08-18T23:14:00.000",
    "date_modified": "2022-08-18T23:14:00.000",
    "request_status": "Pending",
    "responsible_agency": "Department of Public Works",
    "final_address": "2860 Woodland Dr",
    "address_councildis": "C",
    "status": "Pending",
    "contractor": "Legacy Professional Services",
    "rowid": "911423",
    "final_x": "3705638.42385",
    "final_y": "520200.107512",
    "longitude": "-89.99226883205745",
    "latitude": "29.92361500861629",
    "geocoded_column": {
      "latitude": "29.92361500861629",
      "longitude": "-89.99226883205745"
    }
  },
  {
    "service_request": "2022-911422",
    "request_type": "Trash/Recycling",
    "request_reason": "Order Recycling Cart",
    "date_created": "2022-08-18T22:52:54.000",
    "date_modified": "2022-08-18T22:52:54.000",
    "request_status": "Pending",
    "responsible_agency": "Department of Sanitation",
    "final_address": "2860 Woodland Dr",
    "address_councildis": "C",
    "status": "Pending",
    "rowid": "911422",
    "final_x": "3705638.42385",
    "final_y": "520200.107512",
    "longitude": "-89.99226883205745",
    "latitude": "29.92361500861629",
    "geocoded_column": {
      "latitude": "29.92361500861629",
      "longitude": "-89.99226883205745"
    }
  },
  {
    "service_request": "2022-911421",
    "request_type": "Trash/Recycling",
    "request_reason": "Illegal Dumping",
    "date_created": "2022-08-18T22:51:08.000",
    "date_modified": "2022-08-18T22:51:08.000",
    "request_status": "Pending",
    "responsible_agency": "Department of Sanitation",
    "final_address": "2741 Robert St",
    "address_councildis": "B",
    "status": "Pending",
    "rowid": "911421",
    "final_x": "3668927.58266",
    "final_y": "525585.717629",
    "longitude": "-90.10796999971103",
    "latitude": "29.939554079838206",
    "geocoded_column": {
      "latitude": "29.939554079838206",
      "longitude": "-90.10796999971103"
    }
  },
  {
    "service_request": "2022-911420",
    "request_type": "Abandoned Vehicles",
    "request_reason": "Vehicle Blocking Your Driveway",
    "date_created": "2022-08-18T22:39:40.000",
    "date_modified": "2022-08-18T22:39:40.000",
    "request_status": "Pending",
    "responsible_agency": "Department of Public Works",
    "final_address": "1910 Pauline St",
    "address_councildis": "D",
    "status": "Pending",
    "rowid": "911420",
    "final_x": "3691941.08387",
    "final_y": "538577.483145",
    "longitude": "-90.03484873121293",
    "latitude": "29.974580133792106",
    "geocoded_column": {
      "latitude": "29.974580133792106",
      "longitude": "-90.03484873121293"
    }
  },
  {
    "service_request": "2022-911419",
    "request_type": "Traffic Signals/Signs/Striping/Streetlights",
    "request_reason": "Street Light Outage/Malfunction",
    "date_created": "2022-08-18T22:35:26.000",
    "date_modified": "2022-08-18T22:35:27.000",
    "request_status": "Pending",
    "responsible_agency": "Department of Public Works",
    "final_address": "1400 Esplanade Ave",
    "address_councildis": "C",
    "status": "Pending",
    "contractor": "Legacy Professional Services",
    "rowid": "911419",
    "final_x": "3681749.01077",
    "final_y": "536113.979271",
    "longitude": "-90.06712373602709",
    "latitude": "29.968119992982643",
    "geocoded_column": {
      "latitude": "29.968119992982643",
      "longitude": "-90.06712373602709"
    }
  },
  {
    "service_request": "2022-911418",
    "request_type": "Trash/Recycling",
    "request_reason": "Request a Large Item Pick Up",
    "date_created": "2022-08-18T22:08:54.000",
    "date_modified": "2022-08-18T22:08:55.000",
    "request_status": "Pending",
    "responsible_agency": "Department of Sanitation",
    "final_address": "5361 Magazine St",
    "address_councildis": "B",
    "status": "Assigned to Contractor",
    "contractor": "Richards Disposal",
    "rowid": "911418",
    "final_x": "3666965.1986",
    "final_y": "518827.693111",
    "longitude": "-90.1143925067963",
    "latitude": "29.921029218032334",
    "geocoded_column": {
      "latitude": "29.921029218032334",
      "longitude": "-90.1143925067963"
    }
  },
  {
    "service_request": "2022-911417",
    "request_type": "Property Maintenance",
    "request_reason": "Property Maintenance",
    "date_created": "2022-08-18T22:07:31.000",
    "date_modified": "2022-08-18T22:07:31.000",
    "request_status": "Pending",
    "responsible_agency": "Department of Code Enforcement",
    "final_address": "4942 Rhodes Dr",
    "address_councildis": "E",
    "status": "Pending",
    "rowid": "911417",
    "final_x": "3702350.48708",
    "final_y": "555552.158297",
    "longitude": "-90.00135034573437",
    "latitude": "30.020925685234026",
    "geocoded_column": {
      "latitude": "30.020925685234026",
      "longitude": "-90.00135034573437"
    }
  },
  {
    "service_request": "2022-911416",
    "request_type": "Property Maintenance",
    "request_reason": "Property Maintenance",
    "date_created": "2022-08-18T22:05:09.000",
    "date_modified": "2022-08-18T22:05:09.000",
    "request_status": "Pending",
    "responsible_agency": "Department of Code Enforcement",
    "final_address": "4750 Wilson Ave",
    "address_councildis": "E",
    "status": "Pending",
    "rowid": "911416",
    "final_x": "3702907.5107",
    "final_y": "555026.744281",
    "longitude": "-89.99960964845769",
    "latitude": "30.01946318251929",
    "geocoded_column": {
      "latitude": "30.01946318251929",
      "longitude": "-89.99960964845769"
    }
  },
  {
    "service_request": "2022-911415",
    "request_type": "Property Maintenance",
    "request_reason": "Property Maintenance",
    "date_created": "2022-08-18T22:04:00.000",
    "date_modified": "2022-08-18T22:04:00.000",
    "request_status": "Pending",
    "responsible_agency": "Department of Code Enforcement",
    "final_address": "4559 Rosemont Pl",
    "address_councildis": "E",
    "status": "Pending",
    "rowid": "911415",
    "final_x": "3702892.29745",
    "final_y": "553998.871512",
    "longitude": "-89.99969551699495",
    "latitude": "30.016637413075316",
    "geocoded_column": {
      "latitude": "30.016637413075316",
      "longitude": "-89.99969551699495"
    }
  },
  {
    "service_request": "2022-911414",
    "request_type": "Property Maintenance",
    "request_reason": "Property Maintenance",
    "date_created": "2022-08-18T22:02:55.000",
    "date_modified": "2022-08-18T22:02:55.000",
    "request_status": "Pending",
    "responsible_agency": "Department of Code Enforcement",
    "final_address": "4520 Wilson Ave",
    "address_councildis": "E",
    "status": "Pending",
    "rowid": "911414",
    "final_x": "3703033.50532",
    "final_y": "553720.472727",
    "longitude": "-89.9992596045554",
    "latitude": "30.015867403083128",
    "geocoded_column": {
      "latitude": "30.015867403083128",
      "longitude": "-89.9992596045554"
    }
  },
  {
    "service_request": "2022-911413",
    "request_type": "Trash/Recycling",
    "request_reason": "Illegal Dumping",
    "date_created": "2022-08-18T22:00:13.000",
    "date_modified": "2022-08-18T22:00:13.000",
    "request_status": "Pending",
    "responsible_agency": "Department of Sanitation",
    "final_address": "4737 Banks St",
    "address_councildis": "A",
    "status": "Pending",
    "rowid": "911413",
    "final_x": "3668166.06273",
    "final_y": "539135.339082",
    "longitude": "-90.10991748733983",
    "latitude": "29.97683344885867",
    "geocoded_column": {
      "latitude": "29.97683344885867",
      "longitude": "-90.10991748733983"
    }
  },
  {
    "service_request": "2022-911412",
    "request_type": "Mosquito, Termite & Rodent Control",
    "request_reason": "Mosquito Complaint",
    "date_created": "2022-08-18T21:52:48.000",
    "date_modified": "2022-08-18T21:52:48.000",
    "request_status": "Pending",
    "responsible_agency": "Mosquito, Termite & Rodent Control Board",
    "final_address": "422 Country Club Dr",
    "address_councildis": "A",
    "status": "Pending",
    "rowid": "911412",
    "final_x": "3664255.87252",
    "final_y": "544237.185038",
    "longitude": "-90.12209682630302",
    "latitude": "29.990976026474808",
    "geocoded_column": {
      "latitude": "29.990976026474808",
      "longitude": "-90.12209682630302"
    }
  },
  {
    "service_request": "2022-911411",
    "request_type": "Trash/Recycling",
    "request_reason": "Replace Trash Cart",
    "date_created": "2022-08-18T21:49:45.000",
    "date_modified": "2022-08-18T21:49:49.000",
    "request_status": "Pending",
    "responsible_agency": "Department of Sanitation",
    "final_address": "7836 Nelson St",
    "address_councildis": "A",
    "status": "Assigned to Contractor",
    "contractor": "Richards Disposal",
    "rowid": "911411",
    "final_x": "3665705.8786",
    "final_y": "531260.180546",
    "longitude": "-90.1179513734152",
    "latitude": "29.95525136067576",
    "geocoded_column": {
      "latitude": "29.95525136067576",
      "longitude": "-90.1179513734152"
    }
  },
  {
    "service_request": "2022-911410",
    "request_type": "Property Maintenance",
    "request_reason": "Property Maintenance",
    "date_created": "2022-08-18T21:48:30.000",
    "date_modified": "2022-08-18T21:48:30.000",
    "request_status": "Pending",
    "responsible_agency": "Department of Code Enforcement",
    "final_address": "2520 Danneel St",
    "address_councildis": "B",
    "status": "Pending",
    "rowid": "911410",
    "final_x": "3675763.18587",
    "final_y": "524114.345084",
    "longitude": "-90.08643960106882",
    "latitude": "29.93530551618305",
    "geocoded_column": {
      "latitude": "29.93530551618305",
      "longitude": "-90.08643960106882"
    }
  },
  {
    "service_request": "2022-911409",
    "request_type": "Traffic Signals/Signs/Striping/Streetlights",
    "request_reason": "Street Light Outage/Malfunction",
    "date_created": "2022-08-18T21:33:19.000",
    "date_modified": "2022-08-18T21:33:20.000",
    "request_status": "Pending",
    "responsible_agency": "Department of Public Works",
    "final_address": "4025 Octavia St",
    "address_councildis": "B",
    "status": "Pending",
    "contractor": "Legacy Professional Services",
    "rowid": "911409",
    "final_x": "3668993.14964",
    "final_y": "530205.345025",
    "longitude": "-90.10760697893576",
    "latitude": "29.952254624946555",
    "geocoded_column": {
      "latitude": "29.952254624946555",
      "longitude": "-90.10760697893576"
    }
  },
  {
    "service_request": "2022-911408",
    "request_type": "Property Maintenance",
    "request_reason": "Property Maintenance",
    "date_created": "2022-08-18T21:29:37.000",
    "date_modified": "2022-08-18T21:29:37.000",
    "request_status": "Pending",
    "responsible_agency": "Department of Code Enforcement",
    "final_address": "4411 Wilson Ave",
    "address_councildis": "E",
    "status": "Pending",
    "rowid": "911408",
    "final_x": "3703268.9411",
    "final_y": "552895.865687",
    "longitude": "-89.9985460887566",
    "latitude": "30.0135925095423",
    "geocoded_column": {
      "latitude": "30.0135925095423",
      "longitude": "-89.9985460887566"
    }
  },
  {
    "service_request": "2022-911407",
    "request_type": "Property Maintenance",
    "request_reason": "Property Maintenance",
    "date_created": "2022-08-18T21:28:43.000",
    "date_modified": "2022-08-18T21:28:43.000",
    "request_status": "Pending",
    "responsible_agency": "Department of Code Enforcement",
    "final_address": "4437 Wilson Ave",
    "address_councildis": "E",
    "status": "Pending",
    "rowid": "911407",
    "final_x": "3703246.02442",
    "final_y": "553045.865687",
    "longitude": "-89.99861297257154",
    "latitude": "30.014005686317823",
    "geocoded_column": {
      "latitude": "30.014005686317823",
      "longitude": "-89.99861297257154"
    }
  },
  {
    "service_request": "2022-911406",
    "request_type": "Property Maintenance",
    "request_reason": "Property Maintenance",
    "date_created": "2022-08-18T21:27:51.000",
    "date_modified": "2022-08-18T21:27:51.000",
    "request_status": "Pending",
    "responsible_agency": "Department of Code Enforcement",
    "final_address": "4441 Wilson Ave",
    "address_councildis": "E",
    "status": "Pending",
    "rowid": "911406",
    "final_x": "3703241.85777",
    "final_y": "553094.476759",
    "longitude": "-89.99862434795693",
    "latitude": "30.01413948166396",
    "geocoded_column": {
      "latitude": "30.01413948166396",
      "longitude": "-89.99862434795693"
    }
  },
  {
    "service_request": "2022-911405",
    "request_type": "Property Maintenance",
    "request_reason": "Property Maintenance",
    "date_created": "2022-08-18T21:26:49.000",
    "date_modified": "2022-08-18T21:26:49.000",
    "request_status": "Pending",
    "responsible_agency": "Department of Code Enforcement",
    "final_address": "4479 Wilson Ave",
    "address_councildis": "E",
    "status": "Pending",
    "rowid": "911405",
    "final_x": "3703261.13118",
    "final_y": "553349.097175",
    "longitude": "-89.99855408293892",
    "latitude": "30.01483897326033",
    "geocoded_column": {
      "latitude": "30.01483897326033",
      "longitude": "-89.99855408293892"
    }
  },
  {
    "service_request": "2022-911404",
    "request_type": "Trash/Recycling",
    "request_reason": "Request a Large Item Pick Up",
    "date_created": "2022-08-18T21:26:40.000",
    "date_modified": "2022-08-18T21:26:40.000",
    "request_status": "Pending",
    "responsible_agency": "Department of Sanitation",
    "final_address": "3817 Palmyra St",
    "address_councildis": "A",
    "status": "Assigned to Contractor",
    "contractor": "Richards Disposal",
    "rowid": "911404",
    "final_x": "3671489.92289",
    "final_y": "537096.625288",
    "longitude": "-90.09948899924301",
    "latitude": "29.971129674039933",
    "geocoded_column": {
      "latitude": "29.971129674039933",
      "longitude": "-90.09948899924301"
    }
  },
  {
    "service_request": "2022-911403",
    "request_type": "Property Maintenance",
    "request_reason": "Property Maintenance",
    "date_created": "2022-08-18T21:24:37.000",
    "date_modified": "2022-08-18T21:24:37.000",
    "request_status": "Pending",
    "responsible_agency": "Department of Code Enforcement",
    "final_address": "4625 Wilson Ave",
    "address_councildis": "E",
    "status": "Pending",
    "rowid": "911403",
    "final_x": "3703167.16631",
    "final_y": "554331.190808",
    "longitude": "-89.99881482572636",
    "latitude": "30.017542364444385",
    "geocoded_column": {
      "latitude": "30.017542364444385",
      "longitude": "-89.99881482572636"
    }
  },
  {
    "service_request": "2022-911402",
    "request_type": "Property Maintenance",
    "request_reason": "Property Maintenance",
    "date_created": "2022-08-18T21:23:37.000",
    "date_modified": "2022-08-18T21:23:37.000",
    "request_status": "Pending",
    "responsible_agency": "Department of Code Enforcement",
    "final_address": "4633 Wilson Ave",
    "address_councildis": "E",
    "status": "Pending",
    "rowid": "911402",
    "final_x": "3703166.52919",
    "final_y": "554406.156632",
    "longitude": "-89.99881408011449",
    "latitude": "30.017748512138922",
    "geocoded_column": {
      "latitude": "30.017748512138922",
      "longitude": "-89.99881408011449"
    }
  },
  {
    "service_request": "2022-911401",
    "request_type": "Property Maintenance",
    "request_reason": "Property Maintenance",
    "date_created": "2022-08-18T21:22:37.000",
    "date_modified": "2022-08-18T21:22:37.000",
    "request_status": "Pending",
    "responsible_agency": "Department of Code Enforcement",
    "final_address": "4639 Wilson Ave",
    "address_councildis": "E",
    "status": "Pending",
    "rowid": "911401",
    "final_x": "3703168.83684",
    "final_y": "554438.467544",
    "longitude": "-89.99880559988378",
    "latitude": "30.017837280863958",
    "geocoded_column": {
      "latitude": "30.017837280863958",
      "longitude": "-89.99880559988378"
    }
  },
  {
    "service_request": "2022-911400",
    "request_type": "Property Maintenance",
    "request_reason": "Property Maintenance",
    "date_created": "2022-08-18T21:21:28.000",
    "date_modified": "2022-08-18T21:21:28.000",
    "request_status": "Pending",
    "responsible_agency": "Department of Code Enforcement",
    "final_address": "4707 Wilson Ave",
    "address_councildis": "E",
    "status": "Pending",
    "rowid": "911400",
    "final_x": "3703125.0065",
    "final_y": "554699.7814",
    "longitude": "-89.99893447062479",
    "latitude": "30.018557197344457",
    "geocoded_column": {
      "latitude": "30.018557197344457",
      "longitude": "-89.99893447062479"
    }
  },
  {
    "service_request": "2022-911399",
    "request_type": "Property Maintenance",
    "request_reason": "Property Maintenance",
    "date_created": "2022-08-18T21:20:11.000",
    "date_modified": "2022-08-18T21:20:11.000",
    "request_status": "Pending",
    "responsible_agency": "Department of Code Enforcement",
    "final_address": "4711 Wilson Ave",
    "address_councildis": "E",
    "status": "Pending",
    "rowid": "911399",
    "final_x": "3703120.19889",
    "final_y": "554748.963928",
    "longitude": "-89.99894785112201",
    "latitude": "30.018692584376183",
    "geocoded_column": {
      "latitude": "30.018692584376183",
      "longitude": "-89.99894785112201"
    }
  },
  {
    "service_request": "2022-911398",
    "request_type": "Roads/Drainage",
    "request_reason": "Catch Basin - Clogged",
    "date_created": "2022-08-18T21:20:11.000",
    "date_modified": "2022-08-18T21:20:11.000",
    "request_status": "Pending",
    "responsible_agency": "Department of Public Works",
    "final_address": "399 Broadway St",
    "address_councildis": "A",
    "status": "Pending",
    "rowid": "911398",
    "final_x": "3662071.74682",
    "final_y": "523249.358203",
    "longitude": "-90.12969239595746",
    "latitude": "29.93332964555626",
    "geocoded_column": {
      "latitude": "29.93332964555626",
      "longitude": "-90.12969239595746"
    }
  },
  {
    "service_request": "2022-911397",
    "request_type": "Property Maintenance",
    "request_reason": "Property Maintenance",
    "date_created": "2022-08-18T21:17:17.000",
    "date_modified": "2022-08-18T21:17:17.000",
    "request_status": "Pending",
    "responsible_agency": "Department of Code Enforcement",
    "final_address": "8369 Dwyer Rd",
    "address_councildis": "E",
    "status": "Pending",
    "rowid": "911397",
    "final_x": "3706006.05598",
    "final_y": "556791.413914",
    "longitude": "-89.98975398532167",
    "latitude": "30.024215807726787",
    "geocoded_column": {
      "latitude": "30.024215807726787",
      "longitude": "-89.98975398532167"
    }
  },
  {
    "service_request": "2022-911396",
    "request_type": "Roads/Drainage",
    "request_reason": "Pothole",
    "date_created": "2022-08-18T21:17:02.000",
    "date_modified": "2022-08-18T21:17:02.000",
    "request_status": "Pending",
    "responsible_agency": "Department of Public Works",
    "final_address": "2523 Amelia St",
    "address_councildis": "B",
    "status": "Pending",
    "rowid": "911396",
    "final_x": "3672345.46139",
    "final_y": "524485.134652",
    "longitude": "-90.09721675542689",
    "latitude": "29.93642688893062",
    "geocoded_column": {
      "latitude": "29.93642688893062",
      "longitude": "-90.09721675542689"
    }
  },
  {
    "service_request": "2022-911395",
    "request_type": "Property Maintenance",
    "request_reason": "Property Maintenance",
    "date_created": "2022-08-18T21:15:43.000",
    "date_modified": "2022-08-18T21:15:43.000",
    "request_status": "Pending",
    "responsible_agency": "Department of Code Enforcement",
    "final_address": "5101 Sandhurst Dr",
    "address_councildis": "E",
    "status": "Pending",
    "rowid": "911395",
    "final_x": "3705272.05028",
    "final_y": "556679.877082",
    "longitude": "-89.99207741461058",
    "latitude": "30.023932769594037",
    "geocoded_column": {
      "latitude": "30.023932769594037",
      "longitude": "-89.99207741461058"
    }
  },
  {
    "service_request": "2022-911394",
    "request_type": "Trash/Recycling",
    "request_reason": "MIssed Recycling Pick-Up",
    "date_created": "2022-08-18T21:14:58.000",
    "date_modified": "2022-08-18T21:14:59.000",
    "request_status": "Pending",
    "responsible_agency": "Department of Sanitation",
    "final_address": "6010 Freret St",
    "address_councildis": "A",
    "status": "Assigned to Contractor",
    "contractor": "Richards Disposal",
    "rowid": "911394",
    "final_x": "3666255.89319",
    "final_y": "524406.470524",
    "longitude": "-90.1164444570858",
    "latitude": "29.936389818373097",
    "geocoded_column": {
      "latitude": "29.936389818373097",
      "longitude": "-90.1164444570858"
    }
  },
  {
    "service_request": "2022-911393",
    "request_type": "Trash/Recycling",
    "request_reason": "Request a Large Item Pick Up",
    "date_created": "2022-08-18T20:41:31.000",
    "date_modified": "2022-08-18T20:41:32.000",
    "request_status": "Pending",
    "responsible_agency": "Department of Sanitation",
    "final_address": "3766 Preston Pl",
    "address_councildis": "C",
    "status": "Assigned to Contractor",
    "contractor": "Richards Disposal",
    "rowid": "911393",
    "final_x": "3708294.67755",
    "final_y": "517092.210165",
    "longitude": "-89.98399962158388",
    "latitude": "29.914983625950814",
    "geocoded_column": {
      "latitude": "29.914983625950814",
      "longitude": "-89.98399962158388"
    }
  },
  {
    "service_request": "2022-911392",
    "request_type": "Traffic Signals/Signs/Striping/Streetlights",
    "request_reason": "Street Light Outage/Malfunction",
    "date_created": "2022-08-18T20:30:04.000",
    "date_modified": "2022-08-18T20:30:05.000",
    "request_status": "Pending",
    "responsible_agency": "Department of Public Works",
    "final_address": "3625 N Claiborne Ave",
    "address_councildis": "D",
    "status": "Pending",
    "contractor": "Legacy Professional Services",
    "rowid": "911392",
    "final_x": "3691382.76214",
    "final_y": "537441.12084",
    "longitude": "-90.03665265434125",
    "latitude": "29.97147292528399",
    "geocoded_column": {
      "latitude": "29.97147292528399",
      "longitude": "-90.03665265434125"
    }
  },
  {
    "service_request": "2022-911391",
    "request_type": "Trash/Recycling",
    "request_reason": "MIssed Recycling Pick-Up",
    "date_created": "2022-08-18T20:25:23.000",
    "date_modified": "2022-08-18T20:25:24.000",
    "request_status": "Pending",
    "responsible_agency": "Department of Sanitation",
    "final_address": "DESOTO ST & N LOPEZ ST",
    "address_councildis": "A",
    "status": "Assigned to Contractor",
    "contractor": "Richards Disposal",
    "rowid": "911391",
    "final_x": "3676414.6",
    "final_y": "539829.98",
    "longitude": "-90.08384206110324",
    "latitude": "29.978498732840315",
    "geocoded_column": {
      "latitude": "29.978498732840315",
      "longitude": "-90.08384206110324"
    }
  },
  {
    "service_request": "2022-911389",
    "request_type": "Traffic Signals/Signs/Striping/Streetlights",
    "request_reason": "Street Light Outage/Malfunction",
    "date_created": "2022-08-18T20:10:28.000",
    "date_modified": "2022-08-18T20:10:29.000",
    "request_status": "Pending",
    "responsible_agency": "Department of Public Works",
    "final_address": "WALLACE DR & PELOPIDAS ST",
    "address_councildis": "D",
    "status": "Pending",
    "contractor": "Legacy Professional Services",
    "rowid": "911389",
    "final_x": "3682429.2",
    "final_y": "547708.88",
    "longitude": "-90.06457022054438",
    "latitude": "29.999981212995202",
    "geocoded_column": {
      "latitude": "29.999981212995202",
      "longitude": "-90.06457022054438"
    }
  },
  {
    "service_request": "2022-911387",
    "request_type": "Trash/Recycling",
    "request_reason": "MIssed Recycling Pick-Up",
    "date_created": "2022-08-18T19:36:42.000",
    "date_modified": "2022-08-18T19:36:43.000",
    "request_status": "Pending",
    "responsible_agency": "Department of Sanitation",
    "final_address": "234 S Norman C Francis Pkwy, New Orleans, Louisiana, 70119",
    "status": "Assigned to Contractor",
    "rowid": "911387",
    "longitude": "0.0",
    "latitude": "0.0",
    "geocoded_column": {
      "latitude": "0.0",
      "longitude": "0.0"
    }
  },
  {
    "service_request": "2022-911386",
    "request_type": "Trash/Recycling",
    "request_reason": "Illegal Dumping",
    "date_created": "2022-08-18T19:35:55.000",
    "date_modified": "2022-08-18T19:35:55.000",
    "request_status": "Pending",
    "responsible_agency": "Department of Sanitation",
    "final_address": "2835 St Ann St",
    "address_councildis": "A",
    "status": "Pending",
    "rowid": "911386",
    "final_x": "3676267.81461",
    "final_y": "537763.910024",
    "longitude": "-90.08437679021974",
    "latitude": "29.97282214867889",
    "geocoded_column": {
      "latitude": "29.97282214867889",
      "longitude": "-90.08437679021974"
    }
  },
  {
    "service_request": "2022-911385",
    "request_type": "Property Maintenance",
    "request_reason": "Property Maintenance",
    "date_created": "2022-08-18T19:25:34.000",
    "date_modified": "2022-08-18T19:25:34.000",
    "request_status": "Pending",
    "responsible_agency": "Department of Code Enforcement",
    "final_address": "3212 Baudin St",
    "address_councildis": "B",
    "status": "Pending",
    "rowid": "911385",
    "final_x": "3672760.61966",
    "final_y": "534990.563526",
    "longitude": "-90.0955478093648",
    "latitude": "29.965301028991394",
    "geocoded_column": {
      "latitude": "29.965301028991394",
      "longitude": "-90.0955478093648"
    }
  },
  {
    "service_request": "2022-911384",
    "request_type": "Roads/Drainage",
    "request_reason": "Catch Basin - Clogged",
    "date_created": "2022-08-18T19:19:16.000",
    "date_modified": "2022-08-18T19:19:16.000",
    "request_status": "Pending",
    "responsible_agency": "Department of Public Works",
    "final_address": "901 Harrison Ave",
    "address_councildis": "A",
    "status": "Pending",
    "rowid": "911384",
    "final_x": "3670072.94868",
    "final_y": "549287.689171",
    "longitude": "-90.10355079095936",
    "latitude": "30.004692801781992",
    "geocoded_column": {
      "latitude": "30.004692801781992",
      "longitude": "-90.10355079095936"
    }
  },
  {
    "service_request": "2022-911383",
    "request_type": "Traffic Signals/Signs/Striping/Streetlights",
    "request_reason": "Street Light Outage/Malfunction",
    "date_created": "2022-08-18T19:18:02.000",
    "date_modified": "2022-08-18T19:18:09.000",
    "request_status": "Pending",
    "responsible_agency": "Department of Public Works",
    "final_address": "8541 Huntington Park Dr",
    "address_councildis": "E",
    "status": "Pending",
    "contractor": "Legacy Professional Services",
    "rowid": "911383",
    "final_x": "3705266.68945",
    "final_y": "560242.518429",
    "longitude": "-89.99196257164061",
    "latitude": "30.033728816549615",
    "geocoded_column": {
      "latitude": "30.033728816549615",
      "longitude": "-89.99196257164061"
    }
  },
  {
    "service_request": "2022-911382",
    "request_type": "Traffic Signals/Signs/Striping/Streetlights",
    "request_reason": "Street Light Outage/Malfunction",
    "date_created": "2022-08-18T18:46:43.000",
    "date_modified": "2022-08-18T18:46:44.000",
    "request_status": "Pending",
    "responsible_agency": "Department of Public Works",
    "final_address": "2720 Danbury Dr",
    "address_councildis": "C",
    "status": "Pending",
    "contractor": "Legacy Professional Services",
    "rowid": "911382",
    "final_x": "3703714.75806",
    "final_y": "520785.156793",
    "longitude": "-89.99831957290226",
    "latitude": "29.925285457513393",
    "geocoded_column": {
      "latitude": "29.925285457513393",
      "longitude": "-89.99831957290226"
    }
  },
  {
    "service_request": "2022-911381",
    "request_type": "Roads/Drainage",
    "request_reason": "Catch Basin - Clogged",
    "date_created": "2022-08-18T18:46:03.000",
    "date_modified": "2022-08-18T18:47:05.000",
    "request_status": "Pending",
    "responsible_agency": "Department of Public Works",
    "final_address": "4919 Laurel St",
    "address_councildis": "B",
    "status": "Pending",
    "rowid": "911381",
    "final_x": "3668799.68398",
    "final_y": "517878.27039",
    "longitude": "-90.1086338760351",
    "latitude": "29.918364817084896",
    "geocoded_column": {
      "latitude": "29.918364817084896",
      "longitude": "-90.1086338760351"
    }
  },
  {
    "service_request": "2022-911380",
    "request_type": "Trash/Recycling",
    "request_reason": "MIssed Recycling Pick-Up",
    "date_created": "2022-08-18T18:28:40.000",
    "date_modified": "2022-08-18T18:28:41.000",
    "request_status": "Pending",
    "responsible_agency": "Department of Sanitation",
    "final_address": "6220 Freret St",
    "address_councildis": "A",
    "status": "Assigned to Contractor",
    "contractor": "Richards Disposal",
    "rowid": "911380",
    "final_x": "3665733.71892",
    "final_y": "524645.390204",
    "longitude": "-90.11808498670464",
    "latitude": "29.93706200929093",
    "geocoded_column": {
      "latitude": "29.93706200929093",
      "longitude": "-90.11808498670464"
    }
  },
  {
    "service_request": "2022-911379",
    "request_type": "Roads/Drainage",
    "request_reason": "Pothole",
    "date_created": "2022-08-18T18:28:18.000",
    "date_modified": "2022-08-18T18:28:18.000",
    "request_status": "Pending",
    "responsible_agency": "Department of Public Works",
    "final_address": "5614 Camp St",
    "address_councildis": "A",
    "status": "Pending",
    "rowid": "911379",
    "final_x": "3666049.89588",
    "final_y": "519212.656439",
    "longitude": "-90.11726882034654",
    "latitude": "29.92211448811807",
    "geocoded_column": {
      "latitude": "29.92211448811807",
      "longitude": "-90.11726882034654"
    }
  },
  {
    "service_request": "2022-911378",
    "request_type": "Trash/Recycling",
    "request_reason": "Request a Large Item Pick Up",
    "date_created": "2022-08-18T18:24:50.000",
    "date_modified": "2022-08-18T18:24:51.000",
    "request_status": "Pending",
    "responsible_agency": "Department of Sanitation",
    "final_address": "2017 Broadway St",
    "address_councildis": "A",
    "status": "Assigned to Contractor",
    "contractor": "Richards Disposal",
    "rowid": "911378",
    "final_x": "3665875.79495",
    "final_y": "528939.295232",
    "longitude": "-90.11749260011227",
    "latitude": "29.948864723456214",
    "geocoded_column": {
      "latitude": "29.948864723456214",
      "longitude": "-90.11749260011227"
    }
  },
  {
    "service_request": "2022-911377",
    "request_type": "Trash/Recycling",
    "request_reason": "MIssed Recycling Pick-Up",
    "date_created": "2022-08-18T18:24:45.000",
    "date_modified": "2022-08-18T18:24:46.000",
    "request_status": "Pending",
    "responsible_agency": "Department of Sanitation",
    "final_address": "1525 State St",
    "address_councildis": "A",
    "status": "Assigned to Contractor",
    "contractor": "Richards Disposal",
    "rowid": "911377",
    "final_x": "3665660.08154",
    "final_y": "521961.670586",
    "longitude": "-90.11840730007484",
    "latitude": "29.92968478052464",
    "geocoded_column": {
      "latitude": "29.92968478052464",
      "longitude": "-90.11840730007484"
    }
  },
  {
    "service_request": "2022-911376",
    "request_type": "Roads/Drainage",
    "request_reason": "Pothole",
    "date_created": "2022-08-18T18:23:57.000",
    "date_modified": "2022-08-18T18:23:57.000",
    "request_status": "Pending",
    "responsible_agency": "Department of Public Works",
    "final_address": "5614 Camp St",
    "address_councildis": "A",
    "status": "Pending",
    "rowid": "911376",
    "final_x": "3666049.89588",
    "final_y": "519212.656439",
    "longitude": "-90.11726882034654",
    "latitude": "29.92211448811807",
    "geocoded_column": {
      "latitude": "29.92211448811807",
      "longitude": "-90.11726882034654"
    }
  },
  {
    "service_request": "2022-911375",
    "request_type": "Traffic Signals/Signs/Striping/Streetlights",
    "request_reason": "Street Light Outage/Malfunction",
    "date_created": "2022-08-18T18:18:07.000",
    "date_modified": "2022-08-18T18:18:08.000",
    "request_status": "Pending",
    "responsible_agency": "Department of Public Works",
    "final_address": "2048 Camp St",
    "address_councildis": "B",
    "status": "Pending",
    "contractor": "Legacy Professional Services",
    "rowid": "911375",
    "final_x": "3678983.578",
    "final_y": "522609.467898",
    "longitude": "-90.07632493677988",
    "latitude": "29.93107084607271",
    "geocoded_column": {
      "latitude": "29.93107084607271",
      "longitude": "-90.07632493677988"
    }
  },
  {
    "service_request": "2022-911374",
    "request_type": "Abandoned Vehicles",
    "request_reason": "Abandoned/Junk Vehicles",
    "date_created": "2022-08-18T18:13:40.000",
    "date_modified": "2022-08-18T18:13:40.000",
    "request_status": "Pending",
    "responsible_agency": "Department of Public Works",
    "final_address": "215 N Tonti St",
    "address_councildis": "B",
    "status": "Pending",
    "rowid": "911374",
    "final_x": "3676697.55323",
    "final_y": "534807.376966",
    "longitude": "-90.08312147170945",
    "latitude": "29.96467980199145",
    "geocoded_column": {
      "latitude": "29.96467980199145",
      "longitude": "-90.08312147170945"
    }
  },
  {
    "service_request": "2022-911373",
    "request_type": "Trash/Recycling",
    "request_reason": "MIssed Recycling Pick-Up",
    "date_created": "2022-08-18T17:54:56.000",
    "date_modified": "2022-08-18T17:54:57.000",
    "request_status": "Pending",
    "responsible_agency": "Department of Sanitation",
    "final_address": "920 Melpomene St",
    "address_councildis": "B",
    "status": "Assigned to Contractor",
    "contractor": "Richards Disposal",
    "rowid": "911373",
    "final_x": "3681047.05915",
    "final_y": "524699.109052",
    "longitude": "-90.0697380579231",
    "latitude": "29.936754263399134",
    "geocoded_column": {
      "latitude": "29.936754263399134",
      "longitude": "-90.0697380579231"
    }
  },
  {
    "service_request": "2022-911372",
    "request_type": "Trash/Recycling",
    "request_reason": "MIssed Recycling Pick-Up",
    "date_created": "2022-08-18T17:54:51.000",
    "date_modified": "2022-08-18T17:54:52.000",
    "request_status": "Pending",
    "responsible_agency": "Department of Sanitation",
    "final_address": "631 Nashville Ave, New Orleans, Louisiana, 70115",
    "address_councildis": "A",
    "status": "Assigned to Contractor",
    "contractor": "Richards Disposal",
    "rowid": "911372",
    "final_x": "3665518.45037",
    "final_y": "518566.821303",
    "longitude": "-90.11896798511184",
    "latitude": "29.920354141789698",
    "geocoded_column": {
      "latitude": "29.920354141789698",
      "longitude": "-90.11896798511184"
    }
  },
  {
    "service_request": "2022-911371",
    "request_type": "Trash/Recycling",
    "request_reason": "Illegal Dumping",
    "date_created": "2022-08-18T17:52:16.000",
    "date_modified": "2022-08-18T17:52:17.000",
    "request_status": "Pending",
    "responsible_agency": "Department of Code Enforcement",
    "final_address": "2714 Octavia St",
    "address_councildis": "A",
    "status": "Pending",
    "rowid": "911371",
    "final_x": "3667861.91418",
    "final_y": "525502.139901",
    "longitude": "-90.11133728499603",
    "latitude": "29.93935556097471",
    "geocoded_column": {
      "latitude": "29.93935556097471",
      "longitude": "-90.11133728499603"
    }
  },
  {
    "service_request": "2022-911369",
    "request_type": "Roads/Drainage",
    "request_reason": "Alley Way",
    "date_created": "2022-08-18T17:48:47.000",
    "date_modified": "2022-08-18T17:48:47.000",
    "request_status": "Pending",
    "responsible_agency": "Department of Public Works",
    "final_address": "6830 Catina St",
    "address_councildis": "A",
    "status": "Pending",
    "rowid": "911369",
    "final_x": "3666992.88641",
    "final_y": "553126.032919",
    "longitude": "-90.11315222251977",
    "latitude": "30.01533744178337",
    "geocoded_column": {
      "latitude": "30.01533744178337",
      "longitude": "-90.11315222251977"
    }
  },
  {
    "service_request": "2022-911368",
    "request_type": "Trash/Recycling",
    "request_reason": "Replace Recycling Cart",
    "date_created": "2022-08-18T17:45:24.000",
    "date_modified": "2022-08-18T17:45:24.000",
    "request_status": "Pending",
    "responsible_agency": "Department of Sanitation",
    "final_address": "4611 Baronne St",
    "address_councildis": "B",
    "status": "Pending",
    "rowid": "911368",
    "final_x": "3669922.26164",
    "final_y": "521586.325625",
    "longitude": "-90.10496501509711",
    "latitude": "29.928527751624316",
    "geocoded_column": {
      "latitude": "29.928527751624316",
      "longitude": "-90.10496501509711"
    }
  },
  {
    "service_request": "2022-911367",
    "request_type": "Traffic Signals/Signs/Striping/Streetlights",
    "request_reason": "Street Light Outage/Malfunction",
    "date_created": "2022-08-18T17:41:34.000",
    "date_modified": "2022-08-18T17:41:35.000",
    "request_status": "Pending",
    "responsible_agency": "Department of Public Works",
    "final_address": "6247 Vicksburg St",
    "address_councildis": "A",
    "status": "Pending",
    "contractor": "Legacy Professional Services",
    "rowid": "911367",
    "final_x": "3669084.92494",
    "final_y": "548917.687891",
    "longitude": "-90.10668467579981",
    "latitude": "30.003704547575154",
    "geocoded_column": {
      "latitude": "30.003704547575154",
      "longitude": "-90.10668467579981"
    }
  },
  {
    "service_request": "2022-911366",
    "request_type": "Trash/Recycling",
    "request_reason": "MIssed Recycling Pick-Up",
    "date_created": "2022-08-18T17:36:31.000",
    "date_modified": "2022-08-18T17:36:31.000",
    "request_status": "Pending",
    "responsible_agency": "Department of Sanitation",
    "final_address": "915 Soniat St",
    "address_councildis": "B",
    "status": "Assigned to Contractor",
    "contractor": "Richards Disposal",
    "rowid": "911366",
    "final_x": "3668396.42689",
    "final_y": "518747.580919",
    "longitude": "-90.10987744904212",
    "latitude": "29.92076699237284",
    "geocoded_column": {
      "latitude": "29.92076699237284",
      "longitude": "-90.10987744904212"
    }
  },
  {
    "service_request": "2022-911365",
    "request_type": "Roads/Drainage",
    "request_reason": "Catch Basin - Clogged",
    "date_created": "2022-08-18T17:33:52.000",
    "date_modified": "2022-08-18T17:33:52.000",
    "request_status": "Pending",
    "responsible_agency": "Department of Public Works",
    "final_address": "600 Harrison Ave",
    "address_councildis": "A",
    "status": "Pending",
    "rowid": "911365",
    "final_x": "3668300.29761",
    "final_y": "549213.811219",
    "longitude": "-90.10915345724831",
    "latitude": "30.00454185636185",
    "geocoded_column": {
      "latitude": "30.00454185636185",
      "longitude": "-90.10915345724831"
    }
  },
  {
    "service_request": "2022-911364",
    "request_type": "Trash/Recycling",
    "request_reason": "MIssed Recycling Pick-Up",
    "date_created": "2022-08-18T17:15:17.000",
    "date_modified": "2022-08-18T17:15:17.000",
    "request_status": "Pending",
    "responsible_agency": "Department of Sanitation",
    "final_address": "2230 State St",
    "address_councildis": "A",
    "status": "Assigned to Contractor",
    "contractor": "Richards Disposal",
    "rowid": "911364",
    "final_x": "3666486.97837",
    "final_y": "524982.232381",
    "longitude": "-90.11569559422773",
    "latitude": "29.937966229206932",
    "geocoded_column": {
      "latitude": "29.937966229206932",
      "longitude": "-90.11569559422773"
    }
  },
  {
    "service_request": "2022-911363",
    "request_type": "Trash/Recycling",
    "request_reason": "Request a Large Item Pick Up",
    "date_created": "2022-08-18T17:14:59.000",
    "date_modified": "2022-08-18T17:15:00.000",
    "request_status": "Pending",
    "responsible_agency": "Department of Sanitation",
    "final_address": "4827 Evangeline Dr",
    "address_councildis": "E",
    "status": "Assigned to Contractor",
    "contractor": "Metro Disposal",
    "rowid": "911363",
    "final_x": "3709121.46885",
    "final_y": "556294.380378",
    "longitude": "-89.9799284973336",
    "latitude": "30.02274834684033",
    "geocoded_column": {
      "latitude": "30.02274834684033",
      "longitude": "-89.9799284973336"
    }
  },
  {
    "service_request": "2022-911362",
    "request_type": "Traffic Signals/Signs/Striping/Streetlights",
    "request_reason": "Street Light Outage/Malfunction",
    "date_created": "2022-08-18T17:05:59.000",
    "date_modified": "2022-08-18T17:06:00.000",
    "request_status": "Pending",
    "responsible_agency": "Department of Public Works",
    "final_address": "252 Sharon Dr",
    "address_councildis": "A",
    "status": "Pending",
    "contractor": "Legacy Professional Services",
    "rowid": "911362",
    "final_x": "3665235.53479",
    "final_y": "546855.926353",
    "longitude": "-90.11891462188113",
    "latitude": "29.998148160124654",
    "geocoded_column": {
      "latitude": "29.998148160124654",
      "longitude": "-90.11891462188113"
    }
  },
  {
    "service_request": "2022-911361",
    "request_type": "Property Maintenance",
    "request_reason": "Property Maintenance",
    "date_created": "2022-08-18T17:01:57.000",
    "date_modified": "2022-08-18T17:01:57.000",
    "request_status": "Pending",
    "responsible_agency": "Department of Code Enforcement",
    "final_address": "1848 Industry St",
    "address_councildis": "D",
    "status": "Pending",
    "rowid": "911361",
    "final_x": "3681961.06549",
    "final_y": "542695.955981",
    "longitude": "-90.06622419932167",
    "latitude": "29.98621169353973",
    "geocoded_column": {
      "latitude": "29.98621169353973",
      "longitude": "-90.06622419932167"
    }
  },
  {
    "service_request": "2022-911360",
    "request_type": "Trash/Recycling",
    "request_reason": "Missed Trash Pick-Up",
    "date_created": "2022-08-18T16:55:16.000",
    "date_modified": "2022-08-18T16:55:16.000",
    "request_status": "Pending",
    "responsible_agency": "Department of Sanitation",
    "final_address": "2000 BLK Barracks St",
    "address_councildis": "D",
    "status": "Assigned to Contractor",
    "contractor": "Richards Disposal",
    "rowid": "911360",
    "final_x": "3680107.87203",
    "final_y": "537114.026609",
    "longitude": "-90.0722717577609",
    "latitude": "29.97091954379811",
    "geocoded_column": {
      "latitude": "29.97091954379811",
      "longitude": "-90.0722717577609"
    }
  },
  {
    "service_request": "2022-911359",
    "request_type": "Trash/Recycling",
    "request_reason": "Illegal Dumping",
    "date_created": "2022-08-18T16:51:56.000",
    "date_modified": "2022-08-18T16:51:57.000",
    "request_status": "Pending",
    "responsible_agency": "Department of Sanitation",
    "final_address": "SUGAR BOWL DR & W STADIUM DR",
    "address_councildis": "B",
    "status": "Pending",
    "rowid": "911359",
    "final_x": "3676917.2",
    "final_y": "530563.98",
    "longitude": "-90.082574115562",
    "latitude": "29.953005296996793",
    "geocoded_column": {
      "latitude": "29.953005296996793",
      "longitude": "-90.082574115562"
    }
  },
  {
    "service_request": "2022-911358",
    "request_type": "Roads/Drainage",
    "request_reason": "Pothole",
    "date_created": "2022-08-18T16:48:41.000",
    "date_modified": "2022-08-18T16:48:42.000",
    "request_status": "Pending",
    "responsible_agency": "Department of Public Works",
    "final_address": "5712 S Claiborne Ave",
    "address_councildis": "A",
    "status": "Pending",
    "rowid": "911358",
    "final_x": "3667316.37121",
    "final_y": "526228.279486",
    "longitude": "-90.11303522589489",
    "latitude": "29.94136819756626",
    "geocoded_column": {
      "latitude": "29.94136819756626",
      "longitude": "-90.11303522589489"
    }
  },
  {
    "service_request": "2022-911357",
    "request_type": "Roads/Drainage",
    "request_reason": "Catch Basin - Clogged",
    "date_created": "2022-08-18T16:45:34.000",
    "date_modified": "2022-08-18T16:45:34.000",
    "request_status": "Pending",
    "responsible_agency": "Department of Public Works",
    "final_address": "2210 Orleans Ave",
    "address_councildis": "D",
    "status": "Pending",
    "rowid": "911357",
    "final_x": "3678255.75426",
    "final_y": "535823.555591",
    "longitude": "-90.0781656276981",
    "latitude": "29.96742710736512",
    "geocoded_column": {
      "latitude": "29.96742710736512",
      "longitude": "-90.0781656276981"
    }
  },
  {
    "service_request": "2022-911356",
    "request_type": "Trash/Recycling",
    "request_reason": "Missed Trash Pick-Up",
    "date_created": "2022-08-18T16:41:18.000",
    "date_modified": "2022-08-18T16:41:19.000",
    "request_status": "Pending",
    "responsible_agency": "Department of Sanitation",
    "final_address": "2726 St Charles Ave",
    "address_councildis": "B",
    "status": "Assigned to Contractor",
    "contractor": "Richards Disposal",
    "rowid": "911356",
    "final_x": "3676103.90203",
    "final_y": "522524.173178",
    "longitude": "-90.08541863258968",
    "latitude": "29.930922863004852",
    "geocoded_column": {
      "latitude": "29.930922863004852",
      "longitude": "-90.08541863258968"
    }
  },
  {
    "service_request": "2022-911355",
    "request_type": "Traffic Signals/Signs/Striping/Streetlights",
    "request_reason": "Street Light Outage/Malfunction",
    "date_created": "2022-08-18T16:39:42.000",
    "date_modified": "2022-08-18T16:39:43.000",
    "request_status": "Pending",
    "responsible_agency": "Department of Public Works",
    "final_address": "7827 Bass St",
    "address_councildis": "E",
    "status": "Pending",
    "contractor": "Legacy Professional Services",
    "rowid": "911355",
    "final_x": "3719937.91788",
    "final_y": "573896.336682",
    "longitude": "-89.9450776144253",
    "latitude": "30.07079076414743",
    "geocoded_column": {
      "latitude": "30.07079076414743",
      "longitude": "-89.9450776144253"
    }
  },
  {
    "service_request": "2022-911354",
    "request_type": "Roads/Drainage",
    "request_reason": "Pothole",
    "date_created": "2022-08-18T16:39:32.000",
    "date_modified": "2022-08-18T16:39:33.000",
    "request_status": "Pending",
    "responsible_agency": "Department of Public Works",
    "final_address": "2013 Elysian Fields Ave",
    "address_councildis": "D",
    "status": "Pending",
    "rowid": "911354",
    "final_x": "3684854.31637",
    "final_y": "539764.454474",
    "longitude": "-90.05718868226391",
    "latitude": "29.9780628064072",
    "geocoded_column": {
      "latitude": "29.9780628064072",
      "longitude": "-90.05718868226391"
    }
  },
  {
    "service_request": "2022-911353",
    "request_type": "Traffic Signals/Signs/Striping/Streetlights",
    "request_reason": "Street Light Outage/Malfunction",
    "date_created": "2022-08-18T16:37:58.000",
    "date_modified": "2022-08-18T16:37:59.000",
    "request_status": "Pending",
    "responsible_agency": "Department of Public Works",
    "final_address": "2013 Elysian Fields Ave",
    "address_councildis": "D",
    "status": "Pending",
    "contractor": "Legacy Professional Services",
    "rowid": "911353",
    "final_x": "3684854.31637",
    "final_y": "539764.454474",
    "longitude": "-90.05718868226391",
    "latitude": "29.9780628064072",
    "geocoded_column": {
      "latitude": "29.9780628064072",
      "longitude": "-90.05718868226391"
    }
  },
  {
    "service_request": "2022-911352",
    "request_type": "Parks & Parkways",
    "request_reason": "Request Grass Cutting Service (City Owned Property)",
    "date_created": "2022-08-18T16:36:34.000",
    "date_modified": "2022-08-18T16:36:34.000",
    "request_status": "Pending",
    "responsible_agency": "Department of Parks & Parkway",
    "final_address": "7802 Bass St",
    "address_councildis": "E",
    "status": "Pending",
    "rowid": "911352",
    "final_x": "3719978.95743",
    "final_y": "573670.895402",
    "longitude": "-89.94495651344154",
    "latitude": "30.070169528665673",
    "geocoded_column": {
      "latitude": "30.070169528665673",
      "longitude": "-89.94495651344154"
    }
  },
  {
    "service_request": "2022-911351",
    "request_type": "Trash/Recycling",
    "request_reason": "Replace Recycling Cart",
    "date_created": "2022-08-18T16:33:02.000",
    "date_modified": "2022-08-18T16:33:02.000",
    "request_status": "Pending",
    "responsible_agency": "Department of Sanitation",
    "final_address": "8216 Plum St",
    "address_councildis": "A",
    "status": "Pending",
    "rowid": "911351",
    "final_x": "3661782.90912",
    "final_y": "528954.487552",
    "longitude": "-90.13041516411438",
    "latitude": "29.949025278873584",
    "geocoded_column": {
      "latitude": "29.949025278873584",
      "longitude": "-90.13041516411438"
    }
  },
  {
    "service_request": "2022-911350",
    "request_type": "Trash/Recycling",
    "request_reason": "Request a Large Item Pick Up",
    "date_created": "2022-08-18T16:28:37.000",
    "date_modified": "2022-08-18T16:28:37.000",
    "request_status": "Pending",
    "responsible_agency": "Department of Sanitation",
    "final_address": "7625 Hickory St",
    "address_councildis": "A",
    "status": "Assigned to Contractor",
    "contractor": "Richards Disposal",
    "rowid": "911350",
    "final_x": "3664556.16141",
    "final_y": "528906.345024",
    "longitude": "-90.12166036906066",
    "latitude": "29.948812557311605",
    "geocoded_column": {
      "latitude": "29.948812557311605",
      "longitude": "-90.12166036906066"
    }
  },
  {
    "service_request": "2022-911349",
    "request_type": "Trash/Recycling",
    "request_reason": "MIssed Recycling Pick-Up",
    "date_created": "2022-08-18T16:27:58.000",
    "date_modified": "2022-08-18T16:27:59.000",
    "request_status": "Pending",
    "responsible_agency": "Department of Sanitation",
    "final_address": "1515 Nashville Ave, New Orleans, Louisiana, 70115",
    "address_councildis": "A",
    "status": "Assigned to Contractor",
    "contractor": "Richards Disposal",
    "rowid": "911349",
    "final_x": "3666211.33281",
    "final_y": "521788.609786",
    "longitude": "-90.11667289131509",
    "latitude": "29.92919283513176",
    "geocoded_column": {
      "latitude": "29.92919283513176",
      "longitude": "-90.11667289131509"
    }
  },
  {
    "service_request": "2022-911348",
    "request_type": "Traffic Signals/Signs/Striping/Streetlights",
    "request_reason": "Traffic Signal Malfunctioning/Damaged",
    "date_created": "2022-08-18T16:25:47.000",
    "date_modified": "2022-08-18T16:25:48.000",
    "request_status": "Pending",
    "responsible_agency": "Department of Public Works",
    "final_address": "CARONDELET ST & CALLIOPE ST",
    "address_councildis": "B",
    "status": "Pending",
    "rowid": "911348",
    "final_x": "3679545.5",
    "final_y": "526957.58",
    "longitude": "-90.07440021195022",
    "latitude": "29.943009755195227",
    "geocoded_column": {
      "latitude": "29.943009755195227",
      "longitude": "-90.07440021195022"
    }
  },
  {
    "service_request": "2022-911347",
    "request_type": "Roads/Drainage",
    "request_reason": "Alley Way",
    "date_created": "2022-08-18T16:20:57.000",
    "date_modified": "2022-08-18T16:20:57.000",
    "request_status": "Pending",
    "responsible_agency": "Department of Public Works",
    "final_address": "515 Filmore Ave",
    "address_councildis": "A",
    "status": "Pending",
    "rowid": "911347",
    "final_x": "3668310.9874",
    "final_y": "552156.517526",
    "longitude": "-90.1090203534347",
    "latitude": "30.01263295546139",
    "geocoded_column": {
      "latitude": "30.01263295546139",
      "longitude": "-90.1090203534347"
    }
  },
  {
    "service_request": "2022-911346",
    "request_type": "Trash/Recycling",
    "request_reason": "MIssed Recycling Pick-Up",
    "date_created": "2022-08-18T16:20:09.000",
    "date_modified": "2022-08-18T16:20:10.000",
    "request_status": "Pending",
    "responsible_agency": "Department of Sanitation",
    "final_address": "1529 Nashville Ave, New Orleans, Louisiana, 70115",
    "address_councildis": "A",
    "status": "Assigned to Contractor",
    "contractor": "Richards Disposal",
    "rowid": "911346",
    "final_x": "3666228.28692",
    "final_y": "521867.901114",
    "longitude": "-90.11661671233426",
    "latitude": "29.92941036615711",
    "geocoded_column": {
      "latitude": "29.92941036615711",
      "longitude": "-90.11661671233426"
    }
  },
  {
    "service_request": "2022-911345",
    "request_type": "Trash/Recycling",
    "request_reason": "Order Trash Cart",
    "date_created": "2022-08-18T16:17:32.000",
    "date_modified": "2022-08-18T16:17:33.000",
    "request_status": "Pending",
    "responsible_agency": "Department of Sanitation",
    "final_address": "1519 Desire St",
    "address_councildis": "D",
    "status": "Assigned to Contractor",
    "contractor": "Metro Disposal",
    "rowid": "911345",
    "final_x": "3690625.30089",
    "final_y": "537344.724232",
    "longitude": "-90.03904825754735",
    "latitude": "29.971231416228914",
    "geocoded_column": {
      "latitude": "29.971231416228914",
      "longitude": "-90.03904825754735"
    }
  },
  {
    "service_request": "2022-911343",
    "request_type": "Traffic Signals/Signs/Striping/Streetlights",
    "request_reason": "Street Light Outage/Malfunction",
    "date_created": "2022-08-18T16:11:20.000",
    "date_modified": "2022-08-18T16:11:20.000",
    "request_status": "Pending",
    "responsible_agency": "Department of Public Works",
    "final_address": "5932 Warwick Ct",
    "address_councildis": "C",
    "status": "Pending",
    "contractor": "Legacy Professional Services",
    "rowid": "911343",
    "final_x": "3705723.45156",
    "final_y": "515945.5893",
    "longitude": "-89.99215762663042",
    "latitude": "29.911913819395647",
    "geocoded_column": {
      "latitude": "29.911913819395647",
      "longitude": "-89.99215762663042"
    }
  },
  {
    "service_request": "2022-911342",
    "request_type": "Traffic Signals/Signs/Striping/Streetlights",
    "request_reason": "Street Light Outage/Malfunction",
    "date_created": "2022-08-18T16:10:51.000",
    "date_modified": "2022-08-18T16:10:52.000",
    "request_status": "Pending",
    "responsible_agency": "Department of Public Works",
    "final_address": "6021 Warwick Ct",
    "address_councildis": "C",
    "status": "Pending",
    "contractor": "Legacy Professional Services",
    "rowid": "911342",
    "final_x": "3706072.21355",
    "final_y": "515819.490036",
    "longitude": "-89.99106151412492",
    "latitude": "29.911555860614115",
    "geocoded_column": {
      "latitude": "29.911555860614115",
      "longitude": "-89.99106151412492"
    }
  },
  {
    "service_request": "2022-911341",
    "request_type": "Roads/Drainage",
    "request_reason": "Pothole",
    "date_created": "2022-08-18T16:08:09.000",
    "date_modified": "2022-08-18T16:08:09.000",
    "case_close_date": "2019-09-10T19:00:00.000",
    "request_status": "Pending",
    "responsible_agency": "Department of Public Works",
    "final_address": "10400 Old Gentilly Rd",
    "address_councildis": "E",
    "status": "Pending",
    "rowid": "911341",
    "final_x": "3714663.55013",
    "final_y": "553701.824471",
    "longitude": "-89.96251499793892",
    "latitude": "30.01543868456762",
    "geocoded_column": {
      "latitude": "30.01543868456762",
      "longitude": "-89.96251499793892"
    }
  },
  {
    "service_request": "2022-911340",
    "request_type": "Trash/Recycling",
    "request_reason": "Order Recycling Cart",
    "date_created": "2022-08-18T16:06:19.000",
    "date_modified": "2022-08-18T16:06:19.000",
    "request_status": "Pending",
    "responsible_agency": "Department of Sanitation",
    "final_address": "729 Sixth St",
    "address_councildis": "B",
    "status": "Pending",
    "rowid": "911340",
    "final_x": "3677369.85147",
    "final_y": "519488.901303",
    "longitude": "-90.08152688255886",
    "latitude": "29.922538880625613",
    "geocoded_column": {
      "latitude": "29.922538880625613",
      "longitude": "-90.08152688255886"
    }
  },
  {
    "service_request": "2022-911339",
    "request_type": "Trash/Recycling",
    "request_reason": "Missed Trash Pick-Up",
    "date_created": "2022-08-18T16:04:47.000",
    "date_modified": "2022-08-18T16:04:47.000",
    "request_status": "Pending",
    "responsible_agency": "Department of Sanitation",
    "final_address": "330 Brooks St",
    "address_councildis": "A",
    "status": "Assigned to Contractor",
    "contractor": "Metro Disposal",
    "rowid": "911339",
    "final_x": "3667234.93914",
    "final_y": "546789.063505",
    "longitude": "-90.112600751114",
    "latitude": "29.997905891854188",
    "geocoded_column": {
      "latitude": "29.997905891854188",
      "longitude": "-90.112600751114"
    }
  },
  {
    "service_request": "2022-911338",
    "request_type": "Trash/Recycling",
    "request_reason": "Request a Large Item Pick Up",
    "date_created": "2022-08-18T15:58:29.000",
    "date_modified": "2022-08-18T15:58:30.000",
    "request_status": "Pending",
    "responsible_agency": "Department of Sanitation",
    "final_address": "2706 Aubry St",
    "address_councildis": "D",
    "status": "Assigned to Contractor",
    "contractor": "Metro Disposal",
    "rowid": "911338",
    "final_x": "3679371.77653",
    "final_y": "541281.07726",
    "longitude": "-90.07445185777287",
    "latitude": "29.982399747732515",
    "geocoded_column": {
      "latitude": "29.982399747732515",
      "longitude": "-90.07445185777287"
    }
  },
  {
    "service_request": "2022-911337",
    "request_type": "Trash/Recycling",
    "request_reason": "Illegal Dumping",
    "date_created": "2022-08-18T15:54:16.000",
    "date_modified": "2022-08-18T15:54:16.000",
    "request_status": "Pending",
    "responsible_agency": "Department of Sanitation",
    "final_address": "6317 Franklin Ave",
    "address_councildis": "D",
    "status": "Pending",
    "rowid": "911337",
    "final_x": "3686397.23119",
    "final_y": "556528.259418",
    "longitude": "-90.05172342679352",
    "latitude": "30.02410986836298",
    "geocoded_column": {
      "latitude": "30.02410986836298",
      "longitude": "-90.05172342679352"
    }
  },
  {
    "service_request": "2022-911335",
    "request_type": "Trash/Recycling",
    "request_reason": "MIssed Recycling Pick-Up",
    "date_created": "2022-08-18T15:44:29.000",
    "date_modified": "2022-08-18T15:44:30.000",
    "request_status": "Pending",
    "responsible_agency": "Department of Sanitation",
    "final_address": "507 Nashville Ave",
    "address_councildis": "A",
    "status": "Assigned to Contractor",
    "contractor": "Richards Disposal",
    "rowid": "911335",
    "final_x": "3665373.41575",
    "final_y": "518068.629174",
    "longitude": "-90.11944245241348",
    "latitude": "29.918988494894045",
    "geocoded_column": {
      "latitude": "29.918988494894045",
      "longitude": "-90.11944245241348"
    }
  },
  {
    "service_request": "2022-911334",
    "request_type": "Trash/Recycling",
    "request_reason": "Replace Trash Cart",
    "date_created": "2022-08-18T15:39:39.000",
    "date_modified": "2022-08-18T15:39:40.000",
    "request_status": "Pending",
    "responsible_agency": "Department of Sanitation",
    "final_address": "3221 Oliver White Ave",
    "address_councildis": "D",
    "status": "Assigned to Contractor",
    "contractor": "Metro Disposal",
    "rowid": "911334",
    "final_x": "3692328.61328",
    "final_y": "544158.360142",
    "longitude": "-90.03342486700932",
    "latitude": "29.989913462044438",
    "geocoded_column": {
      "latitude": "29.989913462044438",
      "longitude": "-90.03342486700932"
    }
  },
  {
    "service_request": "2022-911333",
    "request_type": "Trash/Recycling",
    "request_reason": "Repair Trash Cart",
    "date_created": "2022-08-18T15:39:03.000",
    "date_modified": "2022-08-18T15:39:04.000",
    "request_status": "Pending",
    "responsible_agency": "Department of Sanitation",
    "final_address": "800 Woodland Dr",
    "address_councildis": "C",
    "status": "Assigned to Contractor",
    "contractor": "Richards Disposal",
    "rowid": "911333",
    "final_x": "3705628.92868",
    "final_y": "519057.639735",
    "longitude": "-89.99234101003579",
    "latitude": "29.920473924821827",
    "geocoded_column": {
      "latitude": "29.920473924821827",
      "longitude": "-89.99234101003579"
    }
  },
  {
    "service_request": "2022-911332",
    "request_type": "Trash/Recycling",
    "request_reason": "Order Trash Cart",
    "date_created": "2022-08-18T15:37:55.000",
    "date_modified": "2022-08-18T15:37:55.000",
    "request_status": "Pending",
    "responsible_agency": "Department of Sanitation",
    "final_address": "5135 Cannes St",
    "address_councildis": "E",
    "status": "Assigned to Contractor",
    "contractor": "Metro Disposal",
    "rowid": "911332",
    "final_x": "3726813.36505",
    "final_y": "562928.51984",
    "longitude": "-89.92376917213336",
    "latitude": "30.040403058488955",
    "geocoded_column": {
      "latitude": "30.040403058488955",
      "longitude": "-89.92376917213336"
    }
  },
  {
    "service_request": "2022-911331",
    "request_type": "Trash/Recycling",
    "request_reason": "Repair Trash Cart",
    "date_created": "2022-08-18T15:36:50.000",
    "date_modified": "2022-08-18T15:36:51.000",
    "request_status": "Pending",
    "responsible_agency": "Department of Sanitation",
    "final_address": "SARDONYX ST & TOPAZ ST",
    "address_councildis": "D",
    "status": "Assigned to Contractor",
    "contractor": "Metro Disposal",
    "rowid": "911331",
    "final_x": "3669674.3",
    "final_y": "556449.38",
    "longitude": "-90.10456757817003",
    "latitude": "30.024396678791863",
    "geocoded_column": {
      "latitude": "30.024396678791863",
      "longitude": "-90.10456757817003"
    }
  },
  {
    "service_request": "2022-911330",
    "request_type": "Trash/Recycling",
    "request_reason": "Repair Trash Cart",
    "date_created": "2022-08-18T15:36:50.000",
    "date_modified": "2022-08-18T15:36:51.000",
    "request_status": "Pending",
    "responsible_agency": "Department of Sanitation",
    "final_address": "SARDONYX ST & TOPAZ ST",
    "address_councildis": "D",
    "status": "Assigned to Contractor",
    "contractor": "Metro Disposal",
    "rowid": "911330",
    "final_x": "3669674.3",
    "final_y": "556449.38",
    "longitude": "-90.10456757817003",
    "latitude": "30.024396678791863",
    "geocoded_column": {
      "latitude": "30.024396678791863",
      "longitude": "-90.10456757817003"
    }
  },
  {
    "service_request": "2022-911329",
    "request_type": "Trash/Recycling",
    "request_reason": "Replace Trash Cart",
    "date_created": "2022-08-18T15:36:15.000",
    "date_modified": "2022-08-18T18:38:15.000",
    "request_status": "Pending",
    "responsible_agency": "Department of Sanitation",
    "final_address": "New Orleans,LA",
    "status": "Assigned to Contractor",
    "rowid": "911329",
    "longitude": "0.0",
    "latitude": "0.0",
    "geocoded_column": {
      "latitude": "0.0",
      "longitude": "0.0"
    }
  },
  {
    "service_request": "2022-911328",
    "request_type": "Traffic Signals/Signs/Striping/Streetlights",
    "request_reason": "Street Light Outage/Malfunction",
    "date_created": "2022-08-18T15:33:54.000",
    "date_modified": "2022-08-18T15:33:57.000",
    "request_status": "Pending",
    "responsible_agency": "Department of Public Works",
    "final_address": "SARDONYX ST & TOPAZ ST",
    "address_councildis": "D",
    "status": "Pending",
    "contractor": "Legacy Professional Services",
    "rowid": "911328",
    "final_x": "3669674.3",
    "final_y": "556449.38",
    "longitude": "-90.10456757817003",
    "latitude": "30.024396678791863",
    "geocoded_column": {
      "latitude": "30.024396678791863",
      "longitude": "-90.10456757817003"
    }
  },
  {
    "service_request": "2022-911327",
    "request_type": "Property Maintenance",
    "request_reason": "Property Maintenance",
    "date_created": "2022-08-18T15:31:17.000",
    "date_modified": "2022-08-18T15:31:17.000",
    "request_status": "Pending",
    "responsible_agency": "Department of Code Enforcement",
    "final_address": "1937 Allen St",
    "address_councildis": "D",
    "status": "Pending",
    "rowid": "911327",
    "final_x": "3682552.33116",
    "final_y": "539370.938506",
    "longitude": "-90.06447292232423",
    "latitude": "29.977051068522695",
    "geocoded_column": {
      "latitude": "29.977051068522695",
      "longitude": "-90.06447292232423"
    }
  },
  {
    "service_request": "2022-911326",
    "request_type": "Traffic Signals/Signs/Striping/Streetlights",
    "request_reason": "Street Light Outage/Malfunction",
    "date_created": "2022-08-18T15:30:34.000",
    "date_modified": "2022-08-18T15:30:34.000",
    "request_status": "Pending",
    "responsible_agency": "Department of Public Works",
    "final_address": "301 Magazine St",
    "address_councildis": "B",
    "status": "Pending",
    "contractor": "Legacy Professional Services",
    "rowid": "911326",
    "final_x": "3681597.76367",
    "final_y": "529690.582721",
    "longitude": "-90.06782541861126",
    "latitude": "29.95046243529233",
    "geocoded_column": {
      "latitude": "29.95046243529233",
      "longitude": "-90.06782541861126"
    }
  },
  {
    "service_request": "2022-911325",
    "request_type": "Trash/Recycling",
    "request_reason": "Missed Trash Pick-Up",
    "date_created": "2022-08-18T15:29:55.000",
    "date_modified": "2022-08-18T15:29:56.000",
    "request_status": "Pending",
    "responsible_agency": "Department of Sanitation",
    "final_address": "1007 Piety St",
    "address_councildis": "C",
    "status": "Assigned to Contractor",
    "contractor": "Metro Disposal",
    "rowid": "911325",
    "final_x": "3689768.26569",
    "final_y": "535409.905286",
    "longitude": "-90.04182375639927",
    "latitude": "29.965937934171095",
    "geocoded_column": {
      "latitude": "29.965937934171095",
      "longitude": "-90.04182375639927"
    }
  },
  {
    "service_request": "2022-911324",
    "request_type": "Traffic Signals/Signs/Striping/Streetlights",
    "request_reason": "Street Light Outage/Malfunction",
    "date_created": "2022-08-18T15:28:35.000",
    "date_modified": "2022-08-18T15:28:35.000",
    "request_status": "Pending",
    "responsible_agency": "Department of Public Works",
    "final_address": "401 Magazine St",
    "address_councildis": "B",
    "status": "Pending",
    "contractor": "Legacy Professional Services",
    "rowid": "911324",
    "final_x": "3681520.44264",
    "final_y": "529373.893697",
    "longitude": "-90.06808059956207",
    "latitude": "29.94959399508666",
    "geocoded_column": {
      "latitude": "29.94959399508666",
      "longitude": "-90.06808059956207"
    }
  },
  {
    "service_request": "2022-911323",
    "request_type": "Trash/Recycling",
    "request_reason": "MIssed Recycling Pick-Up",
    "date_created": "2022-08-18T15:25:50.000",
    "date_modified": "2022-08-18T15:25:50.000",
    "request_status": "Pending",
    "responsible_agency": "Department of Sanitation",
    "final_address": "1030 State St",
    "address_councildis": "A",
    "status": "Assigned to Contractor",
    "contractor": "Richards Disposal",
    "rowid": "911323",
    "final_x": "3664919.10285",
    "final_y": "520110.93868",
    "longitude": "-90.12080827345302",
    "latitude": "29.924617432877557",
    "geocoded_column": {
      "latitude": "29.924617432877557",
      "longitude": "-90.12080827345302"
    }
  },
  {
    "service_request": "2022-911322",
    "request_type": "Trash/Recycling",
    "request_reason": "Missed Trash Pick-Up",
    "date_created": "2022-08-18T15:23:03.000",
    "date_modified": "2022-08-18T15:23:04.000",
    "request_status": "Pending",
    "responsible_agency": "Department of Sanitation",
    "final_address": "2206 Ursulines Ave",
    "address_councildis": "D",
    "status": "Assigned to Contractor",
    "contractor": "Richards Disposal",
    "rowid": "911322",
    "final_x": "3679167.87272",
    "final_y": "536880.164936",
    "longitude": "-90.07524850507848",
    "latitude": "29.970304916736975",
    "geocoded_column": {
      "latitude": "29.970304916736975",
      "longitude": "-90.07524850507848"
    }
  },
  {
    "service_request": "2022-911321",
    "request_type": "Traffic Signals/Signs/Striping/Streetlights",
    "request_reason": "Street Light Outage/Malfunction",
    "date_created": "2022-08-18T15:22:17.000",
    "date_modified": "2022-08-18T15:22:18.000",
    "request_status": "Pending",
    "responsible_agency": "Department of Public Works",
    "final_address": "508 Natchez St",
    "address_councildis": "B",
    "status": "Pending",
    "contractor": "Legacy Professional Services",
    "rowid": "911321",
    "final_x": "3681486.2998",
    "final_y": "529400.876929",
    "longitude": "-90.06818746321454",
    "latitude": "29.949669226492283",
    "geocoded_column": {
      "latitude": "29.949669226492283",
      "longitude": "-90.06818746321454"
    }
  },
  {
    "service_request": "2022-911320",
    "request_type": "Abandoned Vehicles",
    "request_reason": "Abandoned/Junk Vehicles",
    "date_created": "2022-08-18T15:21:40.000",
    "date_modified": "2022-08-18T15:21:40.000",
    "request_status": "Pending",
    "responsible_agency": "Department of Public Works",
    "final_address": "4130 Constance St",
    "address_councildis": "B",
    "status": "Pending",
    "rowid": "911320",
    "final_x": "3671933.85204",
    "final_y": "518469.691318",
    "longitude": "-90.09872084691982",
    "latitude": "29.91989855406527",
    "geocoded_column": {
      "latitude": "29.91989855406527",
      "longitude": "-90.09872084691982"
    }
  },
  {
    "service_request": "2022-911318",
    "request_type": "Traffic Signals/Signs/Striping/Streetlights",
    "request_reason": "Street Light Outage/Malfunction",
    "date_created": "2022-08-18T15:20:03.000",
    "date_modified": "2022-08-18T15:20:04.000",
    "request_status": "Pending",
    "responsible_agency": "Department of Public Works",
    "final_address": "530 Natchez St",
    "address_councildis": "B",
    "status": "Pending",
    "contractor": "Legacy Professional Services",
    "rowid": "911318",
    "final_x": "3681314.0454",
    "final_y": "529450.096385",
    "longitude": "-90.06872963332046",
    "latitude": "29.949809791874127",
    "geocoded_column": {
      "latitude": "29.949809791874127",
      "longitude": "-90.06872963332046"
    }
  },
  {
    "service_request": "2022-911317",
    "request_type": "Traffic Signals/Signs/Striping/Streetlights",
    "request_reason": "Street Light Outage/Malfunction",
    "date_created": "2022-08-18T15:16:05.000",
    "date_modified": "2022-08-18T15:16:06.000",
    "request_status": "Pending",
    "responsible_agency": "Department of Public Works",
    "final_address": "344 Camp St",
    "address_councildis": "B",
    "status": "Pending",
    "contractor": "Legacy Professional Services",
    "rowid": "911317",
    "final_x": "3681226.95074",
    "final_y": "529538.247873",
    "longitude": "-90.06900155988403",
    "latitude": "29.95005482152158",
    "geocoded_column": {
      "latitude": "29.95005482152158",
      "longitude": "-90.06900155988403"
    }
  },
  {
    "service_request": "2022-911316",
    "request_type": "Traffic Signals/Signs/Striping/Streetlights",
    "request_reason": "Street Light Outage/Malfunction",
    "date_created": "2022-08-18T15:12:47.000",
    "date_modified": "2022-08-18T15:12:48.000",
    "request_status": "Pending",
    "responsible_agency": "Department of Public Works",
    "final_address": "530 Natchez St",
    "address_councildis": "B",
    "status": "Pending",
    "contractor": "Legacy Professional Services",
    "rowid": "911316",
    "final_x": "3681314.0454",
    "final_y": "529450.096385",
    "longitude": "-90.06872963332046",
    "latitude": "29.949809791874127",
    "geocoded_column": {
      "latitude": "29.949809791874127",
      "longitude": "-90.06872963332046"
    }
  },
  {
    "service_request": "2022-911315",
    "request_type": "Trash/Recycling",
    "request_reason": "Request a Large Item Pick Up",
    "date_created": "2022-08-18T15:12:17.000",
    "date_modified": "2022-08-18T15:12:17.000",
    "request_status": "Pending",
    "responsible_agency": "Department of Sanitation",
    "final_address": "619 N St Patrick St",
    "address_councildis": "A",
    "status": "Assigned to Contractor",
    "contractor": "Richards Disposal",
    "rowid": "911315",
    "final_x": "3670244.57441",
    "final_y": "541443.41966",
    "longitude": "-90.10327462039612",
    "latitude": "29.983118702106598",
    "geocoded_column": {
      "latitude": "29.983118702106598",
      "longitude": "-90.10327462039612"
    }
  },
  {
    "service_request": "2022-911314",
    "request_type": "Traffic Signals/Signs/Striping/Streetlights",
    "request_reason": "Street Light Outage/Malfunction",
    "date_created": "2022-08-18T15:08:30.000",
    "date_modified": "2022-08-18T15:08:31.000",
    "request_status": "Pending",
    "responsible_agency": "Department of Public Works",
    "final_address": "325 Picayune Pl",
    "address_councildis": "B",
    "status": "Pending",
    "contractor": "Legacy Professional Services",
    "rowid": "911314",
    "final_x": "3681348.1997",
    "final_y": "529619.704001",
    "longitude": "-90.06861588167004",
    "latitude": "29.950275119170307",
    "geocoded_column": {
      "latitude": "29.950275119170307",
      "longitude": "-90.06861588167004"
    }
  },
  {
    "service_request": "2022-911313",
    "request_type": "Roads/Drainage",
    "request_reason": "Accessibility Ramps, Curbs and Sidewalk Repair",
    "date_created": "2022-08-18T15:05:25.000",
    "date_modified": "2022-08-18T15:05:25.000",
    "request_status": "Pending",
    "responsible_agency": "Department of Public Works",
    "final_address": "412 S Gayoso St",
    "address_councildis": "B",
    "status": "Pending",
    "rowid": "911313",
    "final_x": "3673544.893",
    "final_y": "534761.676742",
    "longitude": "-90.0930789327239",
    "latitude": "29.964648348698027",
    "geocoded_column": {
      "latitude": "29.964648348698027",
      "longitude": "-90.0930789327239"
    }
  },
  {
    "service_request": "2022-911312",
    "request_type": "Traffic Signals/Signs/Striping/Streetlights",
    "request_reason": "Street Light Outage/Malfunction",
    "date_created": "2022-08-18T15:03:55.000",
    "date_modified": "2022-08-18T15:03:56.000",
    "request_status": "Pending",
    "responsible_agency": "Department of Public Works",
    "final_address": "301 Camp St",
    "address_councildis": "B",
    "status": "Pending",
    "contractor": "Legacy Professional Services",
    "rowid": "911312",
    "final_x": "3681218.45218",
    "final_y": "529834.138049",
    "longitude": "-90.0690180851752",
    "latitude": "29.950868677656235",
    "geocoded_column": {
      "latitude": "29.950868677656235",
      "longitude": "-90.0690180851752"
    }
  },
  {
    "service_request": "2022-911311",
    "request_type": "Trash/Recycling",
    "request_reason": "MIssed Recycling Pick-Up",
    "date_created": "2022-08-18T15:03:27.000",
    "date_modified": "2022-08-18T15:03:27.000",
    "request_status": "Pending",
    "responsible_agency": "Department of Sanitation",
    "final_address": "7 Everett Pl",
    "address_councildis": "A",
    "status": "Assigned to Contractor",
    "contractor": "Richards Disposal",
    "rowid": "911311",
    "final_x": "3666449.69236",
    "final_y": "523220.685435",
    "longitude": "-90.1158723995157",
    "latitude": "29.933123626913464",
    "geocoded_column": {
      "latitude": "29.933123626913464",
      "longitude": "-90.1158723995157"
    }
  },
  {
    "service_request": "2022-911310",
    "request_type": "Trash/Recycling",
    "request_reason": "MIssed Recycling Pick-Up",
    "date_created": "2022-08-18T15:02:25.000",
    "date_modified": "2022-08-18T15:02:25.000",
    "request_status": "Pending",
    "responsible_agency": "Department of Sanitation",
    "final_address": "537 Verret St",
    "address_councildis": "C",
    "status": "Assigned to Contractor",
    "contractor": "Richards Disposal",
    "rowid": "911310",
    "final_x": "3686983.72239",
    "final_y": "529582.922177",
    "longitude": "-90.05082320331647",
    "latitude": "29.95000174427931",
    "geocoded_column": {
      "latitude": "29.95000174427931",
      "longitude": "-90.05082320331647"
    }
  },
  {
    "service_request": "2022-911309",
    "request_type": "Trash/Recycling",
    "request_reason": "Missed Trash Pick-Up",
    "date_created": "2022-08-18T15:02:13.000",
    "date_modified": "2022-08-18T15:02:14.000",
    "request_status": "Pending",
    "responsible_agency": "Department of Sanitation",
    "final_address": "3015 Carondelet St",
    "address_councildis": "B",
    "status": "Assigned to Contractor",
    "contractor": "Richards Disposal",
    "rowid": "911309",
    "final_x": "3674871.98971",
    "final_y": "522343.308602",
    "longitude": "-90.08931381443753",
    "latitude": "29.93046237769801",
    "geocoded_column": {
      "latitude": "29.93046237769801",
      "longitude": "-90.08931381443753"
    }
  },
  {
    "service_request": "2022-911308",
    "request_type": "Roads/Drainage",
    "request_reason": "Street Flooding / Drainage",
    "date_created": "2022-08-18T15:01:32.000",
    "date_modified": "2022-08-18T15:01:33.000",
    "request_status": "Pending",
    "responsible_agency": "Department of Public Works",
    "final_address": "6040 Wales St",
    "address_councildis": "E",
    "status": "Pending",
    "rowid": "911308",
    "final_x": "3695284.00758",
    "final_y": "559451.573917",
    "longitude": "-90.0235374315557",
    "latitude": "30.031871569216527",
    "geocoded_column": {
      "latitude": "30.031871569216527",
      "longitude": "-90.0235374315557"
    }
  },
  {
    "service_request": "2022-911307",
    "request_type": "Traffic Signals/Signs/Striping/Streetlights",
    "request_reason": "Traffic Signal Malfunctioning/Damaged",
    "date_created": "2022-08-18T15:00:49.000",
    "date_modified": "2022-08-18T15:00:49.000",
    "request_status": "Pending",
    "responsible_agency": "Department of Public Works",
    "final_address": "318 Camp St",
    "address_councildis": "B",
    "status": "Pending",
    "rowid": "911307",
    "final_x": "3681269.36744",
    "final_y": "529716.116609",
    "longitude": "-90.06886143300638",
    "latitude": "29.95054261362641",
    "geocoded_column": {
      "latitude": "29.95054261362641",
      "longitude": "-90.06886143300638"
    }
  },
  {
    "service_request": "2022-911306",
    "request_type": "Trash/Recycling",
    "request_reason": "MIssed Recycling Pick-Up",
    "date_created": "2022-08-18T15:00:07.000",
    "date_modified": "2022-08-18T15:00:08.000",
    "request_status": "Pending",
    "responsible_agency": "Department of Sanitation",
    "final_address": "2029 Palmer Ave",
    "address_councildis": "A",
    "status": "Assigned to Contractor",
    "contractor": "Richards Disposal",
    "rowid": "911306",
    "final_x": "3665969.06215",
    "final_y": "524494.769212",
    "longitude": "-90.11734703814584",
    "latitude": "29.936640984411206",
    "geocoded_column": {
      "latitude": "29.936640984411206",
      "longitude": "-90.11734703814584"
    }
  },
  {
    "service_request": "2022-911305",
    "request_type": "Roads/Drainage",
    "request_reason": "Pothole",
    "date_created": "2022-08-18T14:54:59.000",
    "date_modified": "2022-08-18T14:54:59.000",
    "request_status": "Pending",
    "responsible_agency": "Department of Public Works",
    "final_address": "6401 Fontainebleau Dr",
    "address_councildis": "B",
    "status": "Pending",
    "rowid": "911305",
    "final_x": "3667610.44135",
    "final_y": "530249.586241",
    "longitude": "-90.11197145809918",
    "latitude": "29.95241687196393",
    "geocoded_column": {
      "latitude": "29.95241687196393",
      "longitude": "-90.11197145809918"
    }
  },
  {
    "service_request": "2022-911304",
    "request_type": "Roads/Drainage",
    "request_reason": "Pothole",
    "date_created": "2022-08-18T14:54:07.000",
    "date_modified": "2022-08-18T14:54:07.000",
    "request_status": "Pending",
    "responsible_agency": "Department of Public Works",
    "final_address": "6201 Fontainebleau Dr",
    "address_councildis": "B",
    "status": "Pending",
    "rowid": "911304",
    "final_x": "3668092.35271",
    "final_y": "530066.060161",
    "longitude": "-90.11045598198213",
    "latitude": "29.951898102098877",
    "geocoded_column": {
      "latitude": "29.951898102098877",
      "longitude": "-90.11045598198213"
    }
  },
  {
    "service_request": "2022-911303",
    "request_type": "Abandoned Vehicles",
    "request_reason": "Abandoned/Junk Vehicles",
    "date_created": "2022-08-18T14:53:10.000",
    "date_modified": "2022-08-18T14:53:10.000",
    "request_status": "Pending",
    "responsible_agency": "Department of Public Works",
    "final_address": "621 Washington Ave",
    "address_councildis": "B",
    "status": "Pending",
    "rowid": "911303",
    "final_x": "3677999.30094",
    "final_y": "519480.620343",
    "longitude": "-90.07954024926185",
    "latitude": "29.922497187238832",
    "geocoded_column": {
      "latitude": "29.922497187238832",
      "longitude": "-90.07954024926185"
    }
  },
  {
    "service_request": "2022-911302",
    "request_type": "Property Maintenance",
    "request_reason": "Property Maintenance",
    "date_created": "2022-08-18T14:51:37.000",
    "date_modified": "2022-08-18T14:52:11.000",
    "request_status": "Pending",
    "responsible_agency": "Department of Code Enforcement",
    "final_address": "3601 Bender Blvd",
    "address_councildis": "C",
    "status": "Pending",
    "rowid": "911302",
    "final_x": "3697256.62922",
    "final_y": "518432.922294",
    "longitude": "-90.01879091800048",
    "latitude": "29.91902292760069",
    "geocoded_column": {
      "latitude": "29.91902292760069",
      "longitude": "-90.01879091800048"
    }
  },
  {
    "service_request": "2022-911301",
    "request_type": "Traffic Signals/Signs/Striping/Streetlights",
    "request_reason": "Street Light Outage/Malfunction",
    "date_created": "2022-08-18T14:50:34.000",
    "date_modified": "2022-08-18T14:50:34.000",
    "request_status": "Pending",
    "responsible_agency": "Department of Public Works",
    "final_address": "336 Camp St",
    "address_councildis": "B",
    "status": "Pending",
    "contractor": "Legacy Professional Services",
    "rowid": "911301",
    "final_x": "3681245.67778",
    "final_y": "529610.236353",
    "longitude": "-90.06893992170875",
    "latitude": "29.950252197400477",
    "geocoded_column": {
      "latitude": "29.950252197400477",
      "longitude": "-90.06893992170875"
    }
  },
  {
    "service_request": "2022-911300",
    "request_type": "Traffic Signals/Signs/Striping/Streetlights",
    "request_reason": "Street Light Outage/Malfunction",
    "date_created": "2022-08-18T14:49:03.000",
    "date_modified": "2022-08-18T14:49:04.000",
    "request_status": "Pending",
    "responsible_agency": "Department of Public Works",
    "final_address": "5080 Pontchartrain Blvd",
    "address_councildis": "A",
    "status": "Pending",
    "contractor": "Legacy Professional Services",
    "rowid": "911300",
    "final_x": "3666841.38119",
    "final_y": "540528.132811",
    "longitude": "-90.1140544564024",
    "latitude": "29.980701987063558",
    "geocoded_column": {
      "latitude": "29.980701987063558",
      "longitude": "-90.1140544564024"
    }
  },
  {
    "service_request": "2022-911299",
    "request_type": "Traffic Signals/Signs/Striping/Streetlights",
    "request_reason": "Street Light Outage/Malfunction",
    "date_created": "2022-08-18T14:44:59.000",
    "date_modified": "2022-08-18T14:44:59.000",
    "request_status": "Pending",
    "responsible_agency": "Department of Public Works",
    "final_address": "400 Camp St",
    "address_councildis": "B",
    "status": "Pending",
    "contractor": "Legacy Professional Services",
    "rowid": "911299",
    "final_x": "3681203.89391",
    "final_y": "529463.092609",
    "longitude": "-90.06907697927583",
    "latitude": "29.949848869377718",
    "geocoded_column": {
      "latitude": "29.949848869377718",
      "longitude": "-90.06907697927583"
    }
  },
  {
    "service_request": "2022-911297",
    "request_type": "Property Maintenance",
    "request_reason": "Property Maintenance",
    "date_created": "2022-08-18T14:34:39.000",
    "date_modified": "2022-08-18T14:34:40.000",
    "request_status": "Pending",
    "responsible_agency": "Department of Code Enforcement",
    "final_address": "4075 St Ferdinand St",
    "address_councildis": "D",
    "status": "Pending",
    "rowid": "911297",
    "final_x": "3689892.95088",
    "final_y": "548441.934674",
    "longitude": "-90.04096583084812",
    "latitude": "30.001767492070073",
    "geocoded_column": {
      "latitude": "30.001767492070073",
      "longitude": "-90.04096583084812"
    }
  },
  {
    "service_request": "2022-911296",
    "request_type": "Property Maintenance",
    "request_reason": "Property Maintenance",
    "date_created": "2022-08-18T14:26:08.000",
    "date_modified": "2022-08-18T14:26:08.000",
    "request_status": "Pending",
    "responsible_agency": "Department of Code Enforcement",
    "final_address": "1725 Paul Morphy St",
    "address_councildis": "D",
    "status": "Pending",
    "rowid": "911296",
    "final_x": "3679355.5172",
    "final_y": "541184.911756",
    "longitude": "-90.07450654960651",
    "latitude": "29.982135817218385",
    "geocoded_column": {
      "latitude": "29.982135817218385",
      "longitude": "-90.07450654960651"
    }
  },
  {
    "service_request": "2022-911295",
    "request_type": "Trash/Recycling",
    "request_reason": "Illegal Dumping",
    "date_created": "2022-08-18T14:25:44.000",
    "date_modified": "2022-08-18T14:25:44.000",
    "request_status": "Pending",
    "responsible_agency": "Department of Sanitation",
    "final_address": "2700 Octavia St",
    "address_councildis": "A",
    "status": "Pending",
    "rowid": "911295",
    "final_x": "3667848.0994",
    "final_y": "525408.310397",
    "longitude": "-90.11138405927521",
    "latitude": "29.939097965127182",
    "geocoded_column": {
      "latitude": "29.939097965127182",
      "longitude": "-90.11138405927521"
    }
  },
  {
    "service_request": "2022-911294",
    "request_type": "Trash/Recycling",
    "request_reason": "Request a Large Item Pick Up",
    "date_created": "2022-08-18T14:24:48.000",
    "date_modified": "2022-08-18T14:24:49.000",
    "request_status": "Pending",
    "responsible_agency": "Department of Sanitation",
    "final_address": "23 Yellowstone Dr",
    "address_councildis": "C",
    "status": "Assigned to Contractor",
    "contractor": "Richards Disposal",
    "rowid": "911294",
    "final_x": "3699958.93181",
    "final_y": "517752.837174",
    "longitude": "-90.01028597844946",
    "latitude": "29.917067404677226",
    "geocoded_column": {
      "latitude": "29.917067404677226",
      "longitude": "-90.01028597844946"
    }
  },
  {
    "service_request": "2022-911293",
    "request_type": "Trash/Recycling",
    "request_reason": "Missed Trash Pick-Up",
    "date_created": "2022-08-18T14:22:55.000",
    "date_modified": "2022-08-18T14:26:58.000",
    "request_status": "Pending",
    "responsible_agency": "Department of Sanitation",
    "final_address": "New Orleans,LA",
    "address_councildis": "A",
    "status": "Assigned to Contractor",
    "contractor": "Richards Disposal",
    "rowid": "911293",
    "final_x": "3664176.88231",
    "final_y": "527901.115327",
    "longitude": "-90.1228914499251",
    "latitude": "29.946059521819393",
    "geocoded_column": {
      "latitude": "29.946059521819393",
      "longitude": "-90.1228914499251"
    }
  },
  {
    "service_request": "2022-911292",
    "request_type": "Property Maintenance",
    "request_reason": "Property Maintenance",
    "date_created": "2022-08-18T14:22:02.000",
    "date_modified": "2022-08-18T14:22:42.000",
    "request_status": "Pending",
    "responsible_agency": "Department of Code Enforcement",
    "final_address": "1751 Paul Morphy St",
    "address_councildis": "D",
    "status": "Pending",
    "rowid": "911292",
    "final_x": "3679509.23938",
    "final_y": "541379.12654",
    "longitude": "-90.07401427900436",
    "latitude": "29.982665195771382",
    "geocoded_column": {
      "latitude": "29.982665195771382",
      "longitude": "-90.07401427900436"
    }
  },
  {
    "service_request": "2022-911291",
    "request_type": "Trash/Recycling",
    "request_reason": "Request a Large Item Pick Up",
    "date_created": "2022-08-18T14:21:40.000",
    "date_modified": "2022-08-18T14:21:40.000",
    "request_status": "Pending",
    "responsible_agency": "Department of Sanitation",
    "final_address": "3217 Deers St",
    "address_councildis": "D",
    "status": "Assigned to Contractor",
    "contractor": "Metro Disposal",
    "rowid": "911291",
    "final_x": "3688009.62831",
    "final_y": "544925.375055",
    "longitude": "-90.04704013692123",
    "latitude": "29.992156495584418",
    "geocoded_column": {
      "latitude": "29.992156495584418",
      "longitude": "-90.04704013692123"
    }
  },
  {
    "service_request": "2022-911290",
    "request_type": "Roads/Drainage",
    "request_reason": "Catch Basin - Clogged",
    "date_created": "2022-08-18T14:21:02.000",
    "date_modified": "2022-08-18T14:21:02.000",
    "request_status": "Pending",
    "responsible_agency": "Department of Public Works",
    "final_address": "5612 Orleans Ave",
    "address_councildis": "A",
    "status": "Pending",
    "rowid": "911290",
    "final_x": "3670569.23259",
    "final_y": "544488.920463",
    "longitude": "-90.10214582279797",
    "latitude": "29.991483198618774",
    "geocoded_column": {
      "latitude": "29.991483198618774",
      "longitude": "-90.10214582279797"
    }
  },
  {
    "service_request": "2022-911289",
    "request_type": "Trash/Recycling",
    "request_reason": "Missed Trash Pick-Up",
    "date_created": "2022-08-18T14:18:56.000",
    "date_modified": "2022-08-18T14:18:56.000",
    "request_status": "Pending",
    "responsible_agency": "Department of Sanitation",
    "final_address": "3610 Toulouse St",
    "address_councildis": "A",
    "status": "Assigned to Contractor",
    "contractor": "Richards Disposal",
    "rowid": "911289",
    "final_x": "3673587.23425",
    "final_y": "538656.986185",
    "longitude": "-90.09281204620233",
    "latitude": "29.97535787212825",
    "geocoded_column": {
      "latitude": "29.97535787212825",
      "longitude": "-90.09281204620233"
    }
  },
  {
    "service_request": "2022-911288",
    "request_type": "Roads/Drainage",
    "request_reason": "Damaged Sidewalk",
    "date_created": "2022-08-18T14:15:22.000",
    "date_modified": "2022-08-18T14:15:22.000",
    "request_status": "Pending",
    "responsible_agency": "Department of Public Works",
    "final_address": "5640 Samovar Dr",
    "address_councildis": "E",
    "status": "Pending",
    "rowid": "911288",
    "final_x": "3703490.64273",
    "final_y": "556764.130522",
    "longitude": "-89.99770317246568",
    "latitude": "30.02422164933618",
    "geocoded_column": {
      "latitude": "30.02422164933618",
      "longitude": "-89.99770317246568"
    }
  },
  {
    "service_request": "2022-911287",
    "request_type": "Trash/Recycling",
    "request_reason": "Repair Trash Cart",
    "date_created": "2022-08-18T14:15:02.000",
    "date_modified": "2022-08-18T14:15:03.000",
    "request_status": "Pending",
    "responsible_agency": "Department of Sanitation",
    "final_address": "2811 Ramsey Dr",
    "address_councildis": "C",
    "status": "Assigned to Contractor",
    "contractor": "Richards Disposal",
    "rowid": "911287",
    "final_x": "3702981.4291",
    "final_y": "520365.73996",
    "longitude": "-90.00064984229887",
    "latitude": "29.924155679140636",
    "geocoded_column": {
      "latitude": "29.924155679140636",
      "longitude": "-90.00064984229887"
    }
  },
  {
    "service_request": "2022-911286",
    "request_type": "Trash/Recycling",
    "request_reason": "Return Recycling Cart",
    "date_created": "2022-08-18T14:14:39.000",
    "date_modified": "2022-08-18T14:14:39.000",
    "request_status": "Pending",
    "responsible_agency": "Department of Sanitation",
    "final_address": "2811 Ramsey Dr",
    "address_councildis": "C",
    "status": "Pending",
    "rowid": "911286",
    "final_x": "3702981.4291",
    "final_y": "520365.73996",
    "longitude": "-90.00064984229887",
    "latitude": "29.924155679140636",
    "geocoded_column": {
      "latitude": "29.924155679140636",
      "longitude": "-90.00064984229887"
    }
  },
  {
    "service_request": "2022-911285",
    "request_type": "Property Maintenance",
    "request_reason": "Property Maintenance",
    "date_created": "2022-08-18T14:10:43.000",
    "date_modified": "2022-08-18T14:10:43.000",
    "request_status": "Pending",
    "responsible_agency": "Department of Code Enforcement",
    "final_address": "6300 Carlson Dr",
    "address_councildis": "D",
    "status": "Pending",
    "rowid": "911285",
    "final_x": "3679447.7565",
    "final_y": "556677.947098",
    "longitude": "-90.0736772621775",
    "latitude": "30.02473335029963",
    "geocoded_column": {
      "latitude": "30.02473335029963",
      "longitude": "-90.0736772621775"
    }
  },
  {
    "service_request": "2022-911284",
    "request_type": "Trash/Recycling",
    "request_reason": "MIssed Recycling Pick-Up",
    "date_created": "2022-08-18T14:08:41.000",
    "date_modified": "2022-08-18T14:08:41.000",
    "request_status": "Pending",
    "responsible_agency": "Department of Sanitation",
    "final_address": "1016 Arabella St",
    "address_councildis": "A",
    "status": "Assigned to Contractor",
    "contractor": "Richards Disposal",
    "rowid": "911284",
    "final_x": "3665966.01517",
    "final_y": "519735.61324",
    "longitude": "-90.11751608218364",
    "latitude": "29.923554902505092",
    "geocoded_column": {
      "latitude": "29.923554902505092",
      "longitude": "-90.11751608218364"
    }
  },
  {
    "service_request": "2022-911283",
    "request_type": "Trash/Recycling",
    "request_reason": "Replace Trash Cart",
    "date_created": "2022-08-18T14:04:35.000",
    "date_modified": "2022-08-18T14:04:36.000",
    "request_status": "Pending",
    "responsible_agency": "Department of Sanitation",
    "final_address": "2919 St Philip St",
    "address_councildis": "A",
    "status": "Assigned to Contractor",
    "contractor": "Richards Disposal",
    "rowid": "911283",
    "final_x": "3676564.64379",
    "final_y": "538605.785097",
    "longitude": "-90.0834103439234",
    "latitude": "29.97512811742523",
    "geocoded_column": {
      "latitude": "29.97512811742523",
      "longitude": "-90.0834103439234"
    }
  },
  {
    "service_request": "2022-911282",
    "request_type": "Trash/Recycling",
    "request_reason": "Order Trash Cart",
    "date_created": "2022-08-18T14:02:20.000",
    "date_modified": "2022-08-18T14:02:21.000",
    "request_status": "Pending",
    "responsible_agency": "Department of Sanitation",
    "final_address": "New Orleans,LA",
    "status": "Assigned to Contractor",
    "rowid": "911282",
    "longitude": "0.0",
    "latitude": "0.0",
    "geocoded_column": {
      "latitude": "0.0",
      "longitude": "0.0"
    }
  },