[
  {
    "service_request": "2024-1113492",
    "request_type": "Property Maintenance",
    "request_reason": "Property Maintenance",
    "date_created": "2024-07-17T23:44:35.000",
    "date_modified": "2024-07-17T23:44:35.000",
    "request_status": "Pending",
    "responsible_agency": "Department of Code Enforcement",
    "final_address": "4625 Knight Dr",
    "address_councildis": "E",
    "status": "Pending",
    "rowid": "1113492",
    "final_x": "3708283.92708",
    "final_y": "554796.887064",
    "longitude": "-89.98263068887483",
    "latitude": "30.018657997178696",
    "geocoded_column": {
      "latitude": "30.018657997178696",
      "longitude": "-89.98263068887483"
    }
  },
  {
    "service_request": "2024-1113491",
    "request_type": "Traffic Signals/Signs/Striping/Streetlights",
    "request_reason": "Street Light Outage/Malfunction",
    "date_created": "2024-07-17T23:36:20.000",
    "date_modified": "2024-07-17T23:36:21.000",
    "request_status": "Pending",
    "responsible_agency": "Department of Public Works",
    "final_address": "751 S Genois St",
    "address_councildis": "B",
    "status": "Assigned to Contractor",
    "contractor": "Legacy Professional Services",
    "rowid": "1113491",
    "final_x": "3670876.03803",
    "final_y": "534999.29383",
    "longitude": "-90.10149894272753",
    "latitude": "29.96538087757639",
    "geocoded_column": {
      "latitude": "29.96538087757639",
      "longitude": "-90.10149894272753"
    }
  },
  {
    "service_request": "2024-1113489",
    "request_type": "Property Maintenance",
    "request_reason": "Property Maintenance",
    "date_created": "2024-07-17T23:21:02.000",
    "date_modified": "2024-07-17T23:21:02.000",
    "request_status": "Pending",
    "responsible_agency": "Department of Code Enforcement",
    "final_address": "5000 Paris Ave",
    "address_councildis": "D",
    "status": "Pending",
    "rowid": "1113489",
    "final_x": "3679104.59483",
    "final_y": "550779.476693",
    "longitude": "-90.07496628081512",
    "latitude": "30.008525060952465",
    "geocoded_column": {
      "latitude": "30.008525060952465",
      "longitude": "-90.07496628081512"
    }
  },
  {
    "service_request": "2024-1113488",
    "request_type": "Property Maintenance",
    "request_reason": "Property Maintenance",
    "date_created": "2024-07-17T23:16:01.000",
    "date_modified": "2024-07-17T23:16:01.000",
    "request_status": "Pending",
    "responsible_agency": "Department of Code Enforcement",
    "final_address": "2722 Iberville St",
    "address_councildis": "B",
    "status": "Pending",
    "rowid": "1113488",
    "final_x": "3675403.88904",
    "final_y": "535562.239622",
    "longitude": "-90.08718085307382",
    "latitude": "29.966794167208885",
    "geocoded_column": {
      "latitude": "29.966794167208885",
      "longitude": "-90.08718085307382"
    }
  },
  {
    "service_request": "2024-1113486",
    "request_type": "Traffic Signals/Signs/Striping/Streetlights",
    "request_reason": "Street Light Outage/Malfunction",
    "date_created": "2024-07-17T23:07:02.000",
    "date_modified": "2024-07-17T23:07:03.000",
    "request_status": "Pending",
    "responsible_agency": "Department of Public Works",
    "final_address": "751 S Genois St",
    "address_councildis": "B",
    "status": "Assigned to Contractor",
    "contractor": "Legacy Professional Services",
    "rowid": "1113486",
    "final_x": "3670876.03803",
    "final_y": "534999.29383",
    "longitude": "-90.10149894272753",
    "latitude": "29.96538087757639",
    "geocoded_column": {
      "latitude": "29.96538087757639",
      "longitude": "-90.10149894272753"
    }
  },
  {
    "service_request": "2024-1113485",
    "request_type": "Roads/Drainage",
    "request_reason": "Catch Basin - Clogged",
    "date_created": "2024-07-17T22:53:47.000",
    "date_modified": "2024-07-17T22:53:47.000",
    "request_status": "Pending",
    "responsible_agency": "Department of Public Works",
    "final_address": "1049 Peniston St",
    "address_councildis": "B",
    "status": "Pending",
    "rowid": "1113485",
    "final_x": "3673269.79432",
    "final_y": "519758.08044",
    "longitude": "-90.09445994881848",
    "latitude": "29.92340156454438",
    "geocoded_column": {
      "latitude": "29.92340156454438",
      "longitude": "-90.09445994881848"
    }
  },
  {
    "service_request": "2024-1113484",
    "request_type": "Trash/Recycling",
    "request_reason": "Request a Large Item Pick Up",
    "date_created": "2024-07-17T21:51:55.000",
    "date_modified": "2024-07-17T21:51:56.000",
    "request_status": "Pending",
    "responsible_agency": "Department of Sanitation",
    "final_address": "Banks Street & South Genois Street",
    "address_councildis": "B",
    "status": "Assigned to Contractor",
    "contractor": "Richards Disposal",
    "rowid": "1113484",
    "final_x": "3671857.91271",
    "final_y": "536222.010375",
    "longitude": "-90.09835660552412",
    "latitude": "29.968713876808096",
    "geocoded_column": {
      "latitude": "29.968713876808096",
      "longitude": "-90.09835660552412"
    }
  },
  {
    "service_request": "2024-1113483",
    "request_type": "Property Maintenance",
    "request_reason": "Property Maintenance",
    "date_created": "2024-07-17T21:42:45.000",
    "date_modified": "2024-07-17T21:42:45.000",
    "request_status": "Pending",
    "responsible_agency": "Department of Code Enforcement",
    "final_address": "2334 Lapeyrouse St",
    "address_councildis": "D",
    "status": "Pending",
    "rowid": "1113483",
    "final_x": "3679964.24699",
    "final_y": "539434.76353",
    "longitude": "-90.07264470599935",
    "latitude": "29.97730511501757",
    "geocoded_column": {
      "latitude": "29.97730511501757",
      "longitude": "-90.07264470599935"
    }
  },
  {
    "service_request": "2024-1113482",
    "request_type": "Trash/Recycling",
    "request_reason": "Order Trash Cart",
    "date_created": "2024-07-17T21:30:13.000",
    "date_modified": "2024-07-17T21:30:14.000",
    "request_status": "Pending",
    "responsible_agency": "Department of Sanitation",
    "final_address": "85 Versailles Blvd",
    "address_councildis": "B",
    "status": "Assigned to Contractor",
    "contractor": "IV Waste",
    "rowid": "1113482",
    "final_x": "3668020.99252",
    "final_y": "530760.924674",
    "longitude": "-90.11065789260552",
    "latitude": "29.95381084619494",
    "geocoded_column": {
      "latitude": "29.95381084619494",
      "longitude": "-90.11065789260552"
    }
  },
  {
    "service_request": "2024-1113481",
    "request_type": "Traffic Signals/Signs/Striping/Streetlights",
    "request_reason": "Street Light Outage/Malfunction",
    "date_created": "2024-07-17T21:23:20.000",
    "date_modified": "2024-07-17T21:23:21.000",
    "request_status": "Pending",
    "responsible_agency": "Department of Public Works",
    "final_address": "2200 BLK Laurel St",
    "address_councildis": "B",
    "status": "Assigned to Contractor",
    "contractor": "Legacy Professional Services",
    "rowid": "1113481",
    "final_x": "3679140.21091",
    "final_y": "521371.322203",
    "longitude": "-90.07587336161367",
    "latitude": "29.92766162509428",
    "geocoded_column": {
      "latitude": "29.92766162509428",
      "longitude": "-90.07587336161367"
    }
  },
  {
    "service_request": "2024-1113480",
    "request_type": "Traffic Signals/Signs/Striping/Streetlights",
    "request_reason": "Street Light Outage/Malfunction",
    "date_created": "2024-07-17T21:19:07.000",
    "date_modified": "2024-07-17T21:19:08.000",
    "request_status": "Pending",
    "responsible_agency": "Department of Public Works",
    "final_address": "2237 Josephine St, New Orleans, Louisiana, 70113",
    "address_councildis": "B",
    "status": "Assigned to Contractor",
    "contractor": "Legacy Professional Services",
    "rowid": "1113480",
    "final_x": "3676360.71093",
    "final_y": "526016.498878",
    "longitude": "-90.08448776282695",
    "latitude": "29.94051792235077",
    "geocoded_column": {
      "latitude": "29.94051792235077",
      "longitude": "-90.08448776282695"
    }
  },
  {
    "service_request": "2024-1113479",
    "request_type": "Safety & Permits",
    "request_reason": "Construction permit",
    "date_created": "2024-07-17T20:33:51.000",
    "date_modified": "2024-07-17T20:33:51.000",
    "request_status": "Pending",
    "responsible_agency": "Safety and Permits",
    "final_address": "8325 Green St",
    "address_councildis": "A",
    "status": "Pending",
    "rowid": "1113479",
    "final_x": "3662474.52352",
    "final_y": "530337.398978",
    "longitude": "-90.12818550102949",
    "latitude": "29.952807857753168",
    "geocoded_column": {
      "latitude": "29.952807857753168",
      "longitude": "-90.12818550102949"
    }
  },
  {
    "service_request": "2024-1113478",
    "request_type": "Property Maintenance",
    "request_reason": "Property Maintenance",
    "date_created": "2024-07-17T20:33:18.000",
    "date_modified": "2024-07-17T20:33:18.000",
    "request_status": "Pending",
    "responsible_agency": "Department of Code Enforcement",
    "final_address": "1932 N Johnson St",
    "address_councildis": "D",
    "status": "Pending",
    "rowid": "1113478",
    "final_x": "3683177.50216",
    "final_y": "539455.516618",
    "longitude": "-90.06249547068461",
    "latitude": "29.977264578407954",
    "geocoded_column": {
      "latitude": "29.977264578407954",
      "longitude": "-90.06249547068461"
    }
  },
  {
    "service_request": "2024-1113477",
    "request_type": "Property Maintenance",
    "request_reason": "Property Maintenance",
    "date_created": "2024-07-17T20:29:58.000",
    "date_modified": "2024-07-17T20:29:58.000",
    "request_status": "Pending",
    "responsible_agency": "Department of Code Enforcement",
    "final_address": "1915 Fats Domino Ave",
    "address_councildis": "E",
    "status": "Pending",
    "rowid": "1113477",
    "final_x": "3698968.14928",
    "final_y": "536883.172104",
    "longitude": "-90.01271735304843",
    "latitude": "29.96970055830657",
    "geocoded_column": {
      "latitude": "29.96970055830657",
      "longitude": "-90.01271735304843"
    }
  },
  {
    "service_request": "2024-1113476",
    "request_type": "Property Maintenance",
    "request_reason": "Property Maintenance",
    "date_created": "2024-07-17T20:29:27.000",
    "date_modified": "2024-07-17T20:29:27.000",
    "request_status": "Pending",
    "responsible_agency": "Department of Code Enforcement",
    "final_address": "1932 N Johnson St",
    "address_councildis": "D",
    "status": "Pending",
    "rowid": "1113476",
    "final_x": "3683177.50216",
    "final_y": "539455.516618",
    "longitude": "-90.06249547068461",
    "latitude": "29.977264578407954",
    "geocoded_column": {
      "latitude": "29.977264578407954",
      "longitude": "-90.06249547068461"
    }
  },
  {
    "service_request": "2024-1113475",
    "request_type": "Trash/Recycling",
    "request_reason": "Return Trash Cart",
    "date_created": "2024-07-17T20:14:35.000",
    "date_modified": "2024-07-17T20:14:38.000",
    "request_status": "Pending",
    "responsible_agency": "Department of Sanitation",
    "final_address": "925 Eighth St",
    "address_councildis": "B",
    "status": "Assigned to Contractor",
    "contractor": "IV Waste",
    "rowid": "1113475",
    "final_x": "3676454.62433",
    "final_y": "519817.874424",
    "longitude": "-90.0844045700003",
    "latitude": "29.923470911840795",
    "geocoded_column": {
      "latitude": "29.923470911840795",
      "longitude": "-90.0844045700003"
    }
  },
  {
    "service_request": "2024-1113474",
    "request_type": "Roads/Drainage",
    "request_reason": "Pothole",
    "date_created": "2024-07-17T20:09:03.000",
    "date_modified": "2024-07-17T20:09:03.000",
    "request_status": "Pending",
    "responsible_agency": "Department of Public Works",
    "final_address": "621 Gallier St",
    "address_councildis": "C",
    "status": "Pending",
    "rowid": "1113474",
    "final_x": "3690079.94384",
    "final_y": "533959.795845",
    "longitude": "-90.04089114229664",
    "latitude": "29.96194097691277",
    "geocoded_column": {
      "latitude": "29.96194097691277",
      "longitude": "-90.04089114229664"
    }
  },
  {
    "service_request": "2024-1113473",
    "request_type": "Property Maintenance",
    "request_reason": "Property Maintenance",
    "date_created": "2024-07-17T20:07:02.000",
    "date_modified": "2024-07-17T20:07:02.000",
    "request_status": "Pending",
    "responsible_agency": "Department of Code Enforcement",
    "final_address": "CHARTRES ST & GALLIER ST",
    "address_councildis": "C",
    "status": "Pending",
    "rowid": "1113473",
    "final_x": "3690007.5",
    "final_y": "533792.18",
    "longitude": "-90.041125877035",
    "latitude": "29.961482338397126",
    "geocoded_column": {
      "latitude": "29.961482338397126",
      "longitude": "-90.041125877035"
    }
  },
  {
    "service_request": "2024-1113472",
    "request_type": "Trash/Recycling",
    "request_reason": "Replace Trash Cart",
    "date_created": "2024-07-17T19:59:33.000",
    "date_modified": "2024-07-17T19:59:34.000",
    "request_status": "Pending",
    "responsible_agency": "Department of Sanitation",
    "final_address": "508 Filmore Ave",
    "address_councildis": "A",
    "status": "Assigned to Contractor",
    "contractor": "IV Waste",
    "rowid": "1113472",
    "final_x": "3668262.96666",
    "final_y": "551998.912854",
    "longitude": "-90.10917739277946",
    "latitude": "30.01220100872681",
    "geocoded_column": {
      "latitude": "30.01220100872681",
      "longitude": "-90.10917739277946"
    }
  },
  {
    "service_request": "2024-1113471",
    "request_type": "Trash/Recycling",
    "request_reason": "Order Trash Cart",
    "date_created": "2024-07-17T19:46:15.000",
    "date_modified": "2024-07-17T19:46:15.000",
    "request_status": "Pending",
    "responsible_agency": "Department of Sanitation",
    "final_address": "1510 Tricou St",
    "address_councildis": "E",
    "status": "Assigned to Contractor",
    "contractor": "Waste Pro",
    "rowid": "1113471",
    "final_x": "3700707.88586",
    "final_y": "534564.641605",
    "longitude": "-90.00730788125063",
    "latitude": "29.9632701857034",
    "geocoded_column": {
      "latitude": "29.9632701857034",
      "longitude": "-90.00730788125063"
    }
  },
  {
    "service_request": "2024-1113470",
    "request_type": "Trash/Recycling",
    "request_reason": "Order Trash Cart",
    "date_created": "2024-07-17T19:44:23.000",
    "date_modified": "2024-07-17T19:44:23.000",
    "request_status": "Pending",
    "responsible_agency": "Department of Sanitation",
    "final_address": "1510 Tricou St",
    "address_councildis": "E",
    "status": "Assigned to Contractor",
    "contractor": "Waste Pro",
    "rowid": "1113470",
    "final_x": "3700707.88586",
    "final_y": "534564.641605",
    "longitude": "-90.00730788125063",
    "latitude": "29.9632701857034",
    "geocoded_column": {
      "latitude": "29.9632701857034",
      "longitude": "-90.00730788125063"
    }
  },
  {
    "service_request": "2024-1113469",
    "request_type": "Property Maintenance",
    "request_reason": "Property Maintenance",
    "date_created": "2024-07-17T19:38:54.000",
    "date_modified": "2024-07-17T19:38:54.000",
    "request_status": "Pending",
    "responsible_agency": "Department of Code Enforcement",
    "final_address": "5134 Paris Ave",
    "address_councildis": "D",
    "status": "Pending",
    "rowid": "1113469",
    "final_x": "3679142.41999",
    "final_y": "551128.688597",
    "longitude": "-90.07483466163104",
    "latitude": "30.009484126134296",
    "geocoded_column": {
      "latitude": "30.009484126134296",
      "longitude": "-90.07483466163104"
    }
  },
  {
    "service_request": "2024-1113468",
    "request_type": "Property Maintenance",
    "request_reason": "Property Maintenance",
    "date_created": "2024-07-17T19:35:57.000",
    "date_modified": "2024-07-17T19:35:57.000",
    "request_status": "Pending",
    "responsible_agency": "Department of Code Enforcement",
    "final_address": "1438 N Prieur St",
    "address_councildis": "D",
    "status": "Pending",
    "rowid": "1113468",
    "final_x": "3680669.24751",
    "final_y": "537488.344968",
    "longitude": "-90.07048583433115",
    "latitude": "29.971931790286245",
    "geocoded_column": {
      "latitude": "29.971931790286245",
      "longitude": "-90.07048583433115"
    }
  },
  {
    "service_request": "2024-1113467",
    "request_type": "Roads/Drainage",
    "request_reason": "Pothole",
    "date_created": "2024-07-17T19:33:41.000",
    "date_modified": "2024-07-17T19:33:41.000",
    "request_status": "Pending",
    "responsible_agency": "Department of Public Works",
    "final_address": "4113 DHemecourt St",
    "address_councildis": "A",
    "status": "Pending",
    "rowid": "1113467",
    "final_x": "3669705.81486",
    "final_y": "536953.853128",
    "longitude": "-90.10512830170478",
    "latitude": "29.970789802470545",
    "geocoded_column": {
      "latitude": "29.970789802470545",
      "longitude": "-90.10512830170478"
    }
  },
  {
    "service_request": "2024-1113466",
    "request_type": "Trash/Recycling",
    "request_reason": "Request a Large Item Pick Up",
    "date_created": "2024-07-17T18:59:13.000",
    "date_modified": "2024-07-17T18:59:14.000",
    "request_status": "Pending",
    "responsible_agency": "Department of Sanitation",
    "final_address": "7310 west renaissance ct new orleans la 70128",
    "status": "Assigned to Contractor",
    "rowid": "1113466",
    "longitude": "0.0",
    "latitude": "0.0",
    "geocoded_column": {
      "latitude": "0.0",
      "longitude": "0.0"
    }
  },
  {
    "service_request": "2024-1113465",
    "request_type": "Parks & Parkways",
    "request_reason": "Request Tree Service (Right of Way/Public Property)",
    "date_created": "2024-07-17T18:57:09.000",
    "date_modified": "2024-07-17T18:57:09.000",
    "request_status": "Pending",
    "responsible_agency": "Department of Parks & Parkway",
    "final_address": "2508 Mexico St",
    "address_councildis": "D",
    "status": "Pending",
    "rowid": "1113465",
    "final_x": "3685715.49039",
    "final_y": "556262.743322",
    "longitude": "-90.05388696363242",
    "latitude": "30.02340074640817",
    "geocoded_column": {
      "latitude": "30.02340074640817",
      "longitude": "-90.05388696363242"
    }
  },
  {
    "service_request": "2024-1113464",
    "request_type": "Trash/Recycling",
    "request_reason": "Request a Large Item Pick Up",
    "date_created": "2024-07-17T18:55:08.000",
    "date_modified": "2024-07-17T18:55:09.000",
    "request_status": "Pending",
    "responsible_agency": "Department of Sanitation",
    "final_address": "7310 W Renaissance Ct",
    "address_councildis": "E",
    "status": "Assigned to Contractor",
    "contractor": "Waste Pro",
    "rowid": "1113464",
    "final_x": "3716235.86533",
    "final_y": "567984.835173",
    "longitude": "-89.95700521724963",
    "latitude": "30.054659397946256",
    "geocoded_column": {
      "latitude": "30.054659397946256",
      "longitude": "-89.95700521724963"
    }
  },
  {
    "service_request": "2024-1113463",
    "request_type": "Traffic Signals/Signs/Striping/Streetlights",
    "request_reason": "Traffic Sign Missing/Damaged",
    "date_created": "2024-07-17T18:41:07.000",
    "date_modified": "2024-07-17T18:41:07.000",
    "request_status": "Pending",
    "responsible_agency": "Department of Public Works",
    "final_address": "VENUS ST & DREUX AVE",
    "address_councildis": "D",
    "status": "Pending",
    "rowid": "1113463",
    "final_x": "3686360.9",
    "final_y": "552201.08",
    "longitude": "-90.05199112608068",
    "latitude": "30.012212838346148",
    "geocoded_column": {
      "latitude": "30.012212838346148",
      "longitude": "-90.05199112608068"
    }
  },
  {
    "service_request": "2024-1113462",
    "request_type": "Parks & Parkways",
    "request_reason": "Request Tree Service (Right of Way/Public Property)",
    "date_created": "2024-07-17T18:37:13.000",
    "date_modified": "2024-07-17T18:37:13.000",
    "request_status": "Pending",
    "responsible_agency": "Department of Parks & Parkway",
    "final_address": "NAPOLEON AVE & CONSTANCE ST",
    "address_councildis": "B",
    "status": "Pending",
    "rowid": "1113462",
    "final_x": "3671136.6",
    "final_y": "518426.78",
    "longitude": "-90.10123884666558",
    "latitude": "29.919804157710498",
    "geocoded_column": {
      "latitude": "29.919804157710498",
      "longitude": "-90.10123884666558"
    }
  },
  {
    "service_request": "2024-1113461",
    "request_type": "Abandoned Vehicles",
    "request_reason": "Abandoned/Junk Vehicles",
    "date_created": "2024-07-17T18:31:09.000",
    "date_modified": "2024-07-17T18:31:09.000",
    "request_status": "Pending",
    "responsible_agency": "Department of Public Works",
    "final_address": "4400 BLK Walmsley Ave",
    "address_councildis": "B",
    "status": "Pending",
    "rowid": "1113461",
    "final_x": "3669472.22762",
    "final_y": "530151.690797",
    "longitude": "-90.10609608241907",
    "latitude": "29.952092993268497",
    "geocoded_column": {
      "latitude": "29.952092993268497",
      "longitude": "-90.10609608241907"
    }
  },
  {
    "service_request": "2024-1113460",
    "request_type": "Abandoned Vehicles",
    "request_reason": "Abandoned/Junk Vehicles",
    "date_created": "2024-07-17T18:29:35.000",
    "date_modified": "2024-07-17T18:29:35.000",
    "request_status": "Pending",
    "responsible_agency": "Department of Public Works",
    "final_address": "2318 General Pershing St",
    "address_councildis": "B",
    "status": "Pending",
    "rowid": "1113460",
    "final_x": "3670944.97697",
    "final_y": "523512.345403",
    "longitude": "-90.10167115859869",
    "latitude": "29.933793500831392",
    "geocoded_column": {
      "latitude": "29.933793500831392",
      "longitude": "-90.10167115859869"
    }
  },
  {
    "service_request": "2024-1113459",
    "request_type": "Abandoned Vehicles",
    "request_reason": "Abandoned/Junk Vehicles",
    "date_created": "2024-07-17T18:28:34.000",
    "date_modified": "2024-07-17T18:28:34.000",
    "request_status": "Pending",
    "responsible_agency": "Department of Public Works",
    "final_address": "4200 BLK Walmsley Ave",
    "address_councildis": "B",
    "status": "Pending",
    "rowid": "1113459",
    "final_x": "3669982.42378",
    "final_y": "529830.420442",
    "longitude": "-90.10449599615292",
    "latitude": "29.951194570095836",
    "geocoded_column": {
      "latitude": "29.951194570095836",
      "longitude": "-90.10449599615292"
    }
  },
  {
    "service_request": "2024-1113458",
    "request_type": "Traffic Signals/Signs/Striping/Streetlights",
    "request_reason": "Traffic Signal Malfunctioning/Damaged",
    "date_created": "2024-07-17T18:27:13.000",
    "date_modified": "2024-07-17T18:27:13.000",
    "request_status": "Pending",
    "responsible_agency": "Department of Public Works",
    "final_address": "ST CHARLES AVE & STATE ST",
    "address_councildis": "A",
    "status": "Pending",
    "rowid": "1113458",
    "final_x": "3665773.3",
    "final_y": "522506.08",
    "longitude": "-90.11803166007",
    "latitude": "29.93117843259463",
    "geocoded_column": {
      "latitude": "29.93117843259463",
      "longitude": "-90.11803166007"
    }
  },
  {
    "service_request": "2024-1113457",
    "request_type": "Trash/Recycling",
    "request_reason": "Request a Large Item Pick Up",
    "date_created": "2024-07-17T18:11:50.000",
    "date_modified": "2024-07-17T18:11:51.000",
    "request_status": "Pending",
    "responsible_agency": "Department of Sanitation",
    "final_address": "4911 Magazine St",
    "address_councildis": "B",
    "status": "Assigned to Contractor",
    "contractor": "IV Waste",
    "rowid": "1113457",
    "final_x": "3668897.39463",
    "final_y": "518625.623031",
    "longitude": "-90.10830023446627",
    "latitude": "29.920416929120428",
    "geocoded_column": {
      "latitude": "29.920416929120428",
      "longitude": "-90.10830023446627"
    }
  },
  {
    "service_request": "2024-1113456",
    "request_type": "Trash/Recycling",
    "request_reason": "Order Recycling Cart",
    "date_created": "2024-07-17T17:59:20.000",
    "date_modified": "2024-07-17T17:59:20.000",
    "request_status": "Pending",
    "responsible_agency": "Department of Sanitation",
    "final_address": "7605 Freret St",
    "address_councildis": "A",
    "status": "Pending",
    "rowid": "1113456",
    "final_x": "3662793.31635",
    "final_y": "526726.72179",
    "longitude": "-90.1272988887762",
    "latitude": "29.942870430808046",
    "geocoded_column": {
      "latitude": "29.942870430808046",
      "longitude": "-90.1272988887762"
    }
  },
  {
    "service_request": "2024-1113455",
    "request_type": "Abandoned Vehicles",
    "request_reason": "Abandoned/Junk Vehicles",
    "date_created": "2024-07-17T17:47:45.000",
    "date_modified": "2024-07-17T17:47:45.000",
    "request_status": "Pending",
    "responsible_agency": "Department of Public Works",
    "final_address": "723 N Salcedo St",
    "address_councildis": "A",
    "status": "Pending",
    "rowid": "1113455",
    "final_x": "3675522.91835",
    "final_y": "538038.875913",
    "longitude": "-90.08671986775683",
    "latitude": "29.97360051538253",
    "geocoded_column": {
      "latitude": "29.97360051538253",
      "longitude": "-90.08671986775683"
    }
  },
  {
    "service_request": "2024-1113454",
    "request_type": "Trash/Recycling",
    "request_reason": "Replace Trash Cart",
    "date_created": "2024-07-17T17:41:35.000",
    "date_modified": "2024-07-17T17:41:36.000",
    "request_status": "Pending",
    "responsible_agency": "Department of Sanitation",
    "final_address": "5706 Tchoupitoulas St",
    "address_councildis": "A",
    "status": "Assigned to Contractor",
    "contractor": "IV Waste",
    "rowid": "1113454",
    "final_x": "3665367.70138",
    "final_y": "517175.483893",
    "longitude": "-90.11949035496892",
    "latitude": "29.916532790491317",
    "geocoded_column": {
      "latitude": "29.916532790491317",
      "longitude": "-90.11949035496892"
    }
  },
  {
    "service_request": "2024-1113453",
    "request_type": "Trash/Recycling",
    "request_reason": "Repair Trash Cart",
    "date_created": "2024-07-17T17:40:26.000",
    "date_modified": "2024-07-17T17:40:27.000",
    "request_status": "Pending",
    "responsible_agency": "Department of Sanitation",
    "final_address": "5718 Tchoupitoulas St",
    "address_councildis": "A",
    "status": "Assigned to Contractor",
    "contractor": "IV Waste",
    "rowid": "1113453",
    "final_x": "3665280.28237",
    "final_y": "517194.385589",
    "longitude": "-90.1197656542545",
    "latitude": "29.91658731037719",
    "geocoded_column": {
      "latitude": "29.91658731037719",
      "longitude": "-90.1197656542545"
    }
  },
  {
    "service_request": "2024-1113452",
    "request_type": "Trash/Recycling",
    "request_reason": "Order Trash Cart",
    "date_created": "2024-07-17T17:36:52.000",
    "date_modified": "2024-07-17T17:36:53.000",
    "request_status": "Pending",
    "responsible_agency": "Department of Sanitation",
    "final_address": "2918 Mandeville St Apt A",
    "address_councildis": "D",
    "status": "Assigned to Contractor",
    "contractor": "IV Waste",
    "rowid": "1113452",
    "final_x": "3685151.73385",
    "final_y": "543555.125006",
    "longitude": "-90.05611588465436",
    "latitude": "29.988476700506528",
    "geocoded_column": {
      "latitude": "29.988476700506528",
      "longitude": "-90.05611588465436"
    }
  },
  {
    "service_request": "2024-1113451",
    "request_type": "Trash/Recycling",
    "request_reason": "Missed Trash Pick-Up",
    "date_created": "2024-07-17T17:36:37.000",
    "date_modified": "2024-07-17T17:36:38.000",
    "request_status": "Pending",
    "responsible_agency": "Department of Sanitation",
    "final_address": "7315 St Charles Ave",
    "address_councildis": "A",
    "status": "Assigned to Contractor",
    "contractor": "IV Waste",
    "rowid": "1113451",
    "final_x": "3662692.05255",
    "final_y": "525042.694333",
    "longitude": "-90.12767454906066",
    "latitude": "29.938242821275747",
    "geocoded_column": {
      "latitude": "29.938242821275747",
      "longitude": "-90.12767454906066"
    }
  },
  {
    "service_request": "2024-1113450",
    "request_type": "Trash/Recycling",
    "request_reason": "Missed Trash Pick-Up",
    "date_created": "2024-07-17T17:35:05.000",
    "date_modified": "2024-07-17T17:35:06.000",
    "request_status": "Pending",
    "responsible_agency": "Department of Sanitation",
    "final_address": "7315 St Charles Ave",
    "address_councildis": "A",
    "status": "Assigned to Contractor",
    "contractor": "IV Waste",
    "rowid": "1113450",
    "final_x": "3662692.05255",
    "final_y": "525042.694333",
    "longitude": "-90.12767454906066",
    "latitude": "29.938242821275747",
    "geocoded_column": {
      "latitude": "29.938242821275747",
      "longitude": "-90.12767454906066"
    }
  },
  {
    "service_request": "2024-1113449",
    "request_type": "Trash/Recycling",
    "request_reason": "Return Trash Cart",
    "date_created": "2024-07-17T17:11:50.000",
    "date_modified": "2024-07-17T17:11:51.000",
    "request_status": "Pending",
    "responsible_agency": "Department of Sanitation",
    "final_address": "3301 Constance St",
    "address_councildis": "B",
    "status": "Assigned to Contractor",
    "contractor": "IV Waste",
    "rowid": "1113449",
    "final_x": "3675476.67681",
    "final_y": "519458.159287",
    "longitude": "-90.08750393466846",
    "latitude": "29.922511084487695",
    "geocoded_column": {
      "latitude": "29.922511084487695",
      "longitude": "-90.08750393466846"
    }
  },
  {
    "service_request": "2024-1113448",
    "request_type": "Trash/Recycling",
    "request_reason": "Replace Trash Cart",
    "date_created": "2024-07-17T17:02:15.000",
    "date_modified": "2024-07-17T17:02:16.000",
    "request_status": "Pending",
    "responsible_agency": "Department of Sanitation",
    "final_address": "216 N Salcedo St",
    "address_councildis": "B",
    "status": "Assigned to Contractor",
    "contractor": "IV Waste",
    "rowid": "1113448",
    "final_x": "3674472.36616",
    "final_y": "536536.974983",
    "longitude": "-90.0900892053148",
    "latitude": "29.969502182990677",
    "geocoded_column": {
      "latitude": "29.969502182990677",
      "longitude": "-90.0900892053148"
    }
  },
  {
    "service_request": "2024-1113447",
    "request_type": "Trash/Recycling",
    "request_reason": "Request a Large Item Pick Up",
    "date_created": "2024-07-17T17:01:18.000",
    "date_modified": "2024-07-17T17:01:19.000",
    "request_status": "Pending",
    "responsible_agency": "Department of Sanitation",
    "final_address": "4000 BLK Saint Ferdinand St",
    "address_councildis": "D",
    "status": "Assigned to Contractor",
    "contractor": "IV Waste",
    "rowid": "1113447",
    "final_x": "3689844.929",
    "final_y": "548402.981394",
    "longitude": "-90.04111892427014",
    "latitude": "30.001661873953523",
    "geocoded_column": {
      "latitude": "30.001661873953523",
      "longitude": "-90.04111892427014"
    }
  },
  {
    "service_request": "2024-1113446",
    "request_type": "Parks & Parkways",
    "request_reason": "Tree Stump (removal, grind)",
    "date_created": "2024-07-17T16:59:56.000",
    "date_modified": "2024-07-17T16:59:57.000",
    "request_status": "Pending",
    "responsible_agency": "Department of Parks & Parkway",
    "final_address": "2623 Hudson Pl",
    "address_councildis": "C",
    "status": "Pending",
    "rowid": "1113446",
    "final_x": "3703343.58506",
    "final_y": "521326.709625",
    "longitude": "-89.99947133986437",
    "latitude": "29.926786425697088",
    "geocoded_column": {
      "latitude": "29.926786425697088",
      "longitude": "-89.99947133986437"
    }
  },
  {
    "service_request": "2024-1113445",
    "request_type": "Trash/Recycling",
    "request_reason": "Request a Large Item Pick Up",
    "date_created": "2024-07-17T16:57:46.000",
    "date_modified": "2024-07-17T16:57:47.000",
    "request_status": "Pending",
    "responsible_agency": "Department of Sanitation",
    "final_address": "7720 Mullet St",
    "address_councildis": "E",
    "status": "Assigned to Contractor",
    "contractor": "Waste Pro",
    "rowid": "1113445",
    "final_x": "3698899.78781",
    "final_y": "560532.32547",
    "longitude": "-90.01207204401723",
    "latitude": "30.034729076511436",
    "geocoded_column": {
      "latitude": "30.034729076511436",
      "longitude": "-90.01207204401723"
    }
  },
  {
    "service_request": "2024-1113444",
    "request_type": "Traffic Signals/Signs/Striping/Streetlights",
    "request_reason": "Street Light Knocked Down/Leaning",
    "date_created": "2024-07-17T16:55:02.000",
    "date_modified": "2024-07-17T16:55:03.000",
    "request_status": "Pending",
    "responsible_agency": "Department of Public Works",
    "final_address": "240 Decatur St",
    "address_councildis": "C",
    "status": "Pending",
    "contractor": "Legacy Professional Services",
    "rowid": "1113444",
    "final_x": "3682286.45756",
    "final_y": "530787.225666",
    "longitude": "-90.06561257362986",
    "latitude": "29.953456899877665",
    "geocoded_column": {
      "latitude": "29.953456899877665",
      "longitude": "-90.06561257362986"
    }
  },
  {
    "service_request": "2024-1113443",
    "request_type": "Health Related Request",
    "request_reason": "Smoke-Free Ordinance Complaint",
    "date_created": "2024-07-17T16:49:23.000",
    "date_modified": "2024-07-17T16:49:23.000",
    "request_status": "Pending",
    "responsible_agency": "Health Department",
    "final_address": "2331 St Claude Ave",
    "address_councildis": "C",
    "status": "Pending",
    "rowid": "1113443",
    "final_x": "3686036.70121",
    "final_y": "536497.525959",
    "longitude": "-90.05356954067017",
    "latitude": "29.969043634631955",
    "geocoded_column": {
      "latitude": "29.969043634631955",
      "longitude": "-90.05356954067017"
    }
  },
  {
    "service_request": "2024-1113442",
    "request_type": "Trash/Recycling",
    "request_reason": "Request a Large Item Pick Up",
    "date_created": "2024-07-17T16:49:22.000",
    "date_modified": "2024-07-17T16:49:41.000",
    "request_status": "Pending",
    "responsible_agency": "Department of Sanitation",
    "final_address": "2511 Milan St",
    "address_councildis": "B",
    "status": "Assigned to Contractor",
    "contractor": "IV Waste",
    "rowid": "1113442",
    "final_x": "3671319.81671",
    "final_y": "524222.505532",
    "longitude": "-90.10046368197781",
    "latitude": "29.93573512771114",
    "geocoded_column": {
      "latitude": "29.93573512771114",
      "longitude": "-90.10046368197781"
    }
  },
  {
    "service_request": "2024-1113440",
    "request_type": "Property Maintenance",
    "request_reason": "Property Maintenance",
    "date_created": "2024-07-17T16:41:55.000",
    "date_modified": "2024-07-17T16:41:55.000",
    "request_status": "Pending",
    "responsible_agency": "Department of Code Enforcement",
    "final_address": "7557 Avalon Way",
    "address_councildis": "E",
    "status": "Pending",
    "rowid": "1113440",
    "final_x": "3709214.0995",
    "final_y": "564330.452385",
    "longitude": "-89.97933576004013",
    "latitude": "30.04484135616043",
    "geocoded_column": {
      "latitude": "30.04484135616043",
      "longitude": "-89.97933576004013"
    }
  },
  {
    "service_request": "2024-1113439",
    "request_type": "Property Maintenance",
    "request_reason": "Property Maintenance",
    "date_created": "2024-07-17T16:35:14.000",
    "date_modified": "2024-07-17T16:35:14.000",
    "request_status": "Pending",
    "responsible_agency": "Department of Code Enforcement",
    "final_address": "3240 Calhoun St",
    "address_councildis": "A",
    "status": "Pending",
    "rowid": "1113439",
    "final_x": "3667332.30746",
    "final_y": "528772.547328",
    "longitude": "-90.11289935508918",
    "latitude": "29.948363644602544",
    "geocoded_column": {
      "latitude": "29.948363644602544",
      "longitude": "-90.11289935508918"
    }
  },
  {
    "service_request": "2024-1113438",
    "request_type": "Property Maintenance",
    "request_reason": "Property Maintenance",
    "date_created": "2024-07-17T16:33:34.000",
    "date_modified": "2024-07-17T16:33:34.000",
    "request_status": "Pending",
    "responsible_agency": "Department of Code Enforcement",
    "final_address": "3240 Calhoun St",
    "address_councildis": "A",
    "status": "Pending",
    "rowid": "1113438",
    "final_x": "3667332.30746",
    "final_y": "528772.547328",
    "longitude": "-90.11289935508918",
    "latitude": "29.948363644602544",
    "geocoded_column": {
      "latitude": "29.948363644602544",
      "longitude": "-90.11289935508918"
    }
  },
  {
    "service_request": "2024-1113437",
    "request_type": "Trash/Recycling",
    "request_reason": "Replace Trash Cart",
    "date_created": "2024-07-17T16:29:58.000",
    "date_modified": "2024-07-17T16:29:59.000",
    "request_status": "Pending",
    "responsible_agency": "Department of Sanitation",
    "final_address": "3170 State Street Dr",
    "address_councildis": "A",
    "status": "Assigned to Contractor",
    "contractor": "IV Waste",
    "rowid": "1113437",
    "final_x": "3667557.67981",
    "final_y": "528179.8816",
    "longitude": "-90.11220770117683",
    "latitude": "29.946727403890996",
    "geocoded_column": {
      "latitude": "29.946727403890996",
      "longitude": "-90.11220770117683"
    }
  },
  {
    "service_request": "2024-1113436",
    "request_type": "Roads/Drainage",
    "request_reason": "Catch Basin - Broken/Damage",
    "date_created": "2024-07-17T16:27:26.000",
    "date_modified": "2024-07-17T16:27:27.000",
    "request_status": "Pending",
    "responsible_agency": "Department of Public Works",
    "final_address": "2022 Fern St",
    "address_councildis": "A",
    "status": "Pending",
    "rowid": "1113436",
    "final_x": "3664532.46477",
    "final_y": "530093.136065",
    "longitude": "-90.1216955659472",
    "latitude": "29.952076538024816",
    "geocoded_column": {
      "latitude": "29.952076538024816",
      "longitude": "-90.1216955659472"
    }
  },
  {
    "service_request": "2024-1113435",
    "request_type": "Trash/Recycling",
    "request_reason": "Replace Recycling Cart",
    "date_created": "2024-07-17T16:26:01.000",
    "date_modified": "2024-07-17T16:26:01.000",
    "request_status": "Pending",
    "responsible_agency": "Department of Sanitation",
    "final_address": "3619 Laurel St",
    "address_councildis": "B",
    "status": "Pending",
    "rowid": "1113435",
    "final_x": "3674226.90555",
    "final_y": "518577.790903",
    "longitude": "-90.09147908254751",
    "latitude": "29.920127657802144",
    "geocoded_column": {
      "latitude": "29.920127657802144",
      "longitude": "-90.09147908254751"
    }
  },
  {
    "service_request": "2024-1113434",
    "request_type": "Trash/Recycling",
    "request_reason": "Replace Trash Cart",
    "date_created": "2024-07-17T16:23:09.000",
    "date_modified": "2024-07-17T16:23:10.000",
    "request_status": "Pending",
    "responsible_agency": "Department of Sanitation",
    "final_address": "3619 Laurel St",
    "address_councildis": "B",
    "status": "Assigned to Contractor",
    "contractor": "IV Waste",
    "rowid": "1113434",
    "final_x": "3674226.90555",
    "final_y": "518577.790903",
    "longitude": "-90.09147908254751",
    "latitude": "29.920127657802144",
    "geocoded_column": {
      "latitude": "29.920127657802144",
      "longitude": "-90.09147908254751"
    }
  },
  {
    "service_request": "2024-1113433",
    "request_type": "Trash/Recycling",
    "request_reason": "Return Trash Cart",
    "date_created": "2024-07-17T16:22:58.000",
    "date_modified": "2024-07-17T16:22:59.000",
    "request_status": "Pending",
    "responsible_agency": "Department of Sanitation",
    "final_address": "427 Esplanade Ave",
    "address_councildis": "C",
    "status": "Assigned to Contractor",
    "contractor": "IV Waste",
    "rowid": "1113433",
    "final_x": "3684898.94044",
    "final_y": "533831.883397",
    "longitude": "-90.05725641207049",
    "latitude": "29.96174893123758",
    "geocoded_column": {
      "latitude": "29.96174893123758",
      "longitude": "-90.05725641207049"
    }
  },
  {
    "service_request": "2024-1113431",
    "request_type": "Trash/Recycling",
    "request_reason": "Order Recycling Cart",
    "date_created": "2024-07-17T16:18:36.000",
    "date_modified": "2024-07-17T16:18:37.000",
    "request_status": "Pending",
    "responsible_agency": "Department of Sanitation",
    "final_address": "17 Cypress Point Ln",
    "address_councildis": "C",
    "status": "Pending",
    "rowid": "1113431",
    "final_x": "3716749.48632",
    "final_y": "514917.304371",
    "longitude": "-89.95739596281022",
    "latitude": "29.908726931656446",
    "geocoded_column": {
      "latitude": "29.908726931656446",
      "longitude": "-89.95739596281022"
    }
  },
  {
    "service_request": "2024-1113430",
    "request_type": "Trash/Recycling",
    "request_reason": "Order Trash Cart",
    "date_created": "2024-07-17T16:18:25.000",
    "date_modified": "2024-07-17T16:18:26.000",
    "request_status": "Pending",
    "responsible_agency": "Department of Sanitation",
    "final_address": "17 Cypress Point Ln",
    "address_councildis": "C",
    "status": "Assigned to Contractor",
    "contractor": "Richards Disposal",
    "rowid": "1113430",
    "final_x": "3716749.48632",
    "final_y": "514917.304371",
    "longitude": "-89.95739596281022",
    "latitude": "29.908726931656446",
    "geocoded_column": {
      "latitude": "29.908726931656446",
      "longitude": "-89.95739596281022"
    }
  },
  {
    "service_request": "2024-1113429",
    "request_type": "Traffic Signals/Signs/Striping/Streetlights",
    "request_reason": "Traffic Sign Missing/Damaged",
    "date_created": "2024-07-17T16:16:36.000",
    "date_modified": "2024-07-17T16:16:37.000",
    "request_status": "Pending",
    "responsible_agency": "Department of Public Works",
    "final_address": "A P TUREAUD AVE & N MIRO ST",
    "address_councildis": "D",
    "status": "Pending",
    "rowid": "1113429",
    "final_x": "3681639.3",
    "final_y": "540111.68",
    "longitude": "-90.06733071827766",
    "latitude": "29.979115618750455",
    "geocoded_column": {
      "latitude": "29.979115618750455",
      "longitude": "-90.06733071827766"
    }
  },
  {
    "service_request": "2024-1113428",
    "request_type": "Roads/Drainage",
    "request_reason": "Pothole",
    "date_created": "2024-07-17T16:13:07.000",
    "date_modified": "2024-07-17T16:13:07.000",
    "request_status": "Pending",
    "responsible_agency": "Department of Public Works",
    "final_address": "1400 BLK Valence St",
    "address_councildis": "B",
    "status": "Pending",
    "rowid": "1113428",
    "final_x": "3669784.65285",
    "final_y": "520336.257015",
    "longitude": "-90.1054417057675",
    "latitude": "29.925094517046503",
    "geocoded_column": {
      "latitude": "29.925094517046503",
      "longitude": "-90.1054417057675"
    }
  },
  {
    "service_request": "2024-1113427",
    "request_type": "Trash/Recycling",
    "request_reason": "Repair Trash Cart",
    "date_created": "2024-07-17T16:09:23.000",
    "date_modified": "2024-07-17T16:09:24.000",
    "request_status": "Pending",
    "responsible_agency": "Department of Sanitation",
    "final_address": "6841 Norwood Ct",
    "address_councildis": "E",
    "status": "Assigned to Contractor",
    "contractor": "Waste Pro",
    "rowid": "1113427",
    "final_x": "3701213.53233",
    "final_y": "557159.220379",
    "longitude": "-90.00488389934259",
    "latitude": "30.025380780634364",
    "geocoded_column": {
      "latitude": "30.025380780634364",
      "longitude": "-90.00488389934259"
    }
  },
  {
    "service_request": "2024-1113426",
    "request_type": "Abandoned Vehicles",
    "request_reason": "Abandoned/Junk Vehicles",
    "date_created": "2024-07-17T16:07:47.000",
    "date_modified": "2024-07-17T16:07:47.000",
    "request_status": "Pending",
    "responsible_agency": "Department of Public Works",
    "final_address": "4119 Downman Rd",
    "address_councildis": "D",
    "status": "Pending",
    "rowid": "1113426",
    "final_x": "3696208.5649",
    "final_y": "552549.23407",
    "longitude": "-90.02086562784216",
    "latitude": "30.012863659809796",
    "geocoded_column": {
      "latitude": "30.012863659809796",
      "longitude": "-90.02086562784216"
    }
  },
  {
    "service_request": "2024-1113425",
    "request_type": "Trash/Recycling",
    "request_reason": "Request a Large Item Pick Up",
    "date_created": "2024-07-17T16:02:06.000",
    "date_modified": "2024-07-17T16:02:07.000",
    "request_status": "Pending",
    "responsible_agency": "Department of Sanitation",
    "final_address": "5411 Royal St",
    "address_councildis": "E",
    "status": "Assigned to Contractor",
    "contractor": "Waste Pro",
    "rowid": "1113425",
    "final_x": "3696897.33898",
    "final_y": "532498.415428",
    "longitude": "-90.01941590777422",
    "latitude": "29.957709498503405",
    "geocoded_column": {
      "latitude": "29.957709498503405",
      "longitude": "-90.01941590777422"
    }
  },
  {
    "service_request": "2024-1113424",
    "request_type": "Trash/Recycling",
    "request_reason": "Request a Large Item Pick Up",
    "date_created": "2024-07-17T16:00:19.000",
    "date_modified": "2024-07-17T16:00:20.000",
    "request_status": "Pending",
    "responsible_agency": "Department of Sanitation",
    "final_address": "208 S Olympia St",
    "address_councildis": "A",
    "status": "Assigned to Contractor",
    "contractor": "IV Waste",
    "rowid": "1113424",
    "final_x": "3669116.89953",
    "final_y": "539172.137738",
    "longitude": "-90.10691319201929",
    "latitude": "29.97690668369225",
    "geocoded_column": {
      "latitude": "29.97690668369225",
      "longitude": "-90.10691319201929"
    }
  },
  {
    "service_request": "2024-1113421",
    "request_type": "Trash/Recycling",
    "request_reason": "Repair Trash Cart",
    "date_created": "2024-07-17T15:57:17.000",
    "date_modified": "2024-07-17T15:57:18.000",
    "request_status": "Pending",
    "responsible_agency": "Department of Sanitation",
    "final_address": "2329 Robert St",
    "address_councildis": "B",
    "status": "Assigned to Contractor",
    "contractor": "IV Waste",
    "rowid": "1113421",
    "final_x": "3668857.30644",
    "final_y": "524218.900348",
    "longitude": "-90.10823800900548",
    "latitude": "29.93579783868754",
    "geocoded_column": {
      "latitude": "29.93579783868754",
      "longitude": "-90.10823800900548"
    }
  },
  {
    "service_request": "2024-1113420",
    "request_type": "Roads/Drainage",
    "request_reason": "Damaged Sidewalk",
    "date_created": "2024-07-17T15:54:29.000",
    "date_modified": "2024-07-17T15:54:29.000",
    "request_status": "Pending",
    "responsible_agency": "Department of Public Works",
    "final_address": "5200 BLK Danneel St",
    "address_councildis": "B",
    "status": "Pending",
    "rowid": "1113420",
    "final_x": "3668060.05328",
    "final_y": "522163.577836",
    "longitude": "-90.11082418753892",
    "latitude": "29.93016977275902",
    "geocoded_column": {
      "latitude": "29.93016977275902",
      "longitude": "-90.11082418753892"
    }
  },
  {
    "service_request": "2024-1113419",
    "request_type": "Trash/Recycling",
    "request_reason": "Request a Large Item Pick Up",
    "date_created": "2024-07-17T15:48:33.000",
    "date_modified": "2024-07-17T15:48:34.000",
    "request_status": "Pending",
    "responsible_agency": "Department of Sanitation",
    "final_address": "4229 Annunciation St, New Orleans, Louisiana, 70115",
    "address_councildis": "B",
    "status": "Assigned to Contractor",
    "contractor": "IV Waste",
    "rowid": "1113419",
    "final_x": "3671661.25332",
    "final_y": "517838.748278",
    "longitude": "-90.09960275396935",
    "latitude": "29.918171734536934",
    "geocoded_column": {
      "latitude": "29.918171734536934",
      "longitude": "-90.09960275396935"
    }
  },
  {
    "service_request": "2024-1113418",
    "request_type": "Trash/Recycling",
    "request_reason": "Request a Large Item Pick Up",
    "date_created": "2024-07-17T15:48:02.000",
    "date_modified": "2024-07-17T15:48:03.000",
    "request_status": "Pending",
    "responsible_agency": "Department of Sanitation",
    "final_address": "417 12Th St",
    "address_councildis": "A",
    "status": "Assigned to Contractor",
    "contractor": "IV Waste",
    "rowid": "1113418",
    "final_x": "3664612.44269",
    "final_y": "547903.089682",
    "longitude": "-90.12084796832218",
    "latitude": "30.001045643675354",
    "geocoded_column": {
      "latitude": "30.001045643675354",
      "longitude": "-90.12084796832218"
    }
  },
  {
    "service_request": "2024-1113417",
    "request_type": "Trash/Recycling",
    "request_reason": "Request a Large Item Pick Up",
    "date_created": "2024-07-17T15:47:17.000",
    "date_modified": "2024-07-17T15:47:18.000",
    "request_status": "Pending",
    "responsible_agency": "Department of Sanitation",
    "final_address": "3100 Frenchmen St",
    "address_councildis": "D",
    "status": "Assigned to Contractor",
    "contractor": "IV Waste",
    "rowid": "1113417",
    "final_x": "3683914.06799",
    "final_y": "544050.63547",
    "longitude": "-90.06000788116744",
    "latitude": "29.98987705392291",
    "geocoded_column": {
      "latitude": "29.98987705392291",
      "longitude": "-90.06000788116744"
    }
  },
  {
    "service_request": "2024-1113416",
    "request_type": "Trash/Recycling",
    "request_reason": "Missed Trash Pick-Up",
    "date_created": "2024-07-17T15:46:20.000",
    "date_modified": "2024-07-17T17:16:56.000",
    "case_close_date": "2024-07-17T12:16:56.000",
    "request_status": "Closed",
    "responsible_agency": "Department of Sanitation",
    "final_address": "3122 Edith Weston Pl",
    "address_councildis": "D",
    "status": "Invalid Request",
    "contractor": "IV Waste",
    "contractor_action": "Invalid Request",
    "rowid": "1113416",
    "final_x": "3693047.38851",
    "final_y": "543630.26491",
    "longitude": "-90.0311734170738",
    "latitude": "29.988438950712194",
    "geocoded_column": {
      "latitude": "29.988438950712194",
      "longitude": "-90.0311734170738"
    }
  },
  {
    "service_request": "2024-1113415",
    "request_type": "Utility Poles",
    "request_reason": "Utility Pole Leaning",
    "date_created": "2024-07-17T15:42:47.000",
    "date_modified": "2024-07-17T15:42:52.000",
    "request_status": "Pending",
    "responsible_agency": "Utility Company Collective",
    "final_address": "2035 Feliciana St",
    "address_councildis": "D",
    "status": "Pending",
    "rowid": "1113415",
    "final_x": "3689718.27894",
    "final_y": "539709.122378",
    "longitude": "-90.04182858530018",
    "latitude": "29.977760815163215",
    "geocoded_column": {
      "latitude": "29.977760815163215",
      "longitude": "-90.04182858530018"
    }
  },
  {
    "service_request": "2024-1113414",
    "request_type": "Roads/Drainage",
    "request_reason": "Pothole",
    "date_created": "2024-07-17T15:42:14.000",
    "date_modified": "2024-07-17T15:42:14.000",
    "request_status": "Pending",
    "responsible_agency": "Department of Public Works",
    "final_address": "4610 Haydel St",
    "address_councildis": "E",
    "status": "Pending",
    "rowid": "1113414",
    "final_x": "3699029.91876",
    "final_y": "553721.244247",
    "longitude": "-90.01190903570475",
    "latitude": "30.01599708479943",
    "geocoded_column": {
      "latitude": "30.01599708479943",
      "longitude": "-90.01190903570475"
    }
  },
  {
    "service_request": "2024-1113413",
    "request_type": "Trash/Recycling",
    "request_reason": "Repair Recycling Cart",
    "date_created": "2024-07-17T15:41:39.000",
    "date_modified": "2024-07-17T15:41:40.000",
    "request_status": "Pending",
    "responsible_agency": "Department of Sanitation",
    "final_address": "2244 Mexico St",
    "address_councildis": "D",
    "status": "Pending",
    "rowid": "1113413",
    "final_x": "3683905.66505",
    "final_y": "556144.898586",
    "longitude": "-90.05960976262232",
    "latitude": "30.02313215872466",
    "geocoded_column": {
      "latitude": "30.02313215872466",
      "longitude": "-90.05960976262232"
    }
  },
  {
    "service_request": "2024-1113412",
    "request_type": "Trash/Recycling",
    "request_reason": "Request a Large Item Pick Up",
    "date_created": "2024-07-17T15:41:25.000",
    "date_modified": "2024-07-17T15:41:25.000",
    "request_status": "Pending",
    "responsible_agency": "Department of Sanitation",
    "final_address": "7512 Endeavors Ct",
    "address_councildis": "E",
    "status": "Assigned to Contractor",
    "contractor": "Waste Pro",
    "rowid": "1113412",
    "final_x": "3726124.25267",
    "final_y": "570783.254823",
    "longitude": "-89.92564199951043",
    "latitude": "30.06202357840505",
    "geocoded_column": {
      "latitude": "30.06202357840505",
      "longitude": "-89.92564199951043"
    }
  },
  {
    "service_request": "2024-1113411",
    "request_type": "Traffic Signals/Signs/Striping/Streetlights",
    "request_reason": "Additional signage",
    "date_created": "2024-07-17T15:35:57.000",
    "date_modified": "2024-07-17T15:35:57.000",
    "request_status": "Pending",
    "responsible_agency": "Department of Public Works",
    "final_address": "HOWARD AVE & BARONNE ST",
    "address_councildis": "B",
    "status": "Pending",
    "rowid": "1113411",
    "final_x": "3679408.7",
    "final_y": "527574.18",
    "longitude": "-90.07481074100747",
    "latitude": "29.944709332002393",
    "geocoded_column": {
      "latitude": "29.944709332002393",
      "longitude": "-90.07481074100747"
    }
  },
  {
    "service_request": "2024-1113410",
    "request_type": "Trash/Recycling",
    "request_reason": "Missed Trash Pick-Up",
    "date_created": "2024-07-17T15:35:36.000",
    "date_modified": "2024-07-17T16:23:32.000",
    "case_close_date": "2024-07-17T11:23:32.000",
    "request_status": "Closed",
    "responsible_agency": "Department of Sanitation",
    "final_address": "6034 St Charles Ave",
    "address_councildis": "A",
    "status": "Invalid Request",
    "contractor": "IV Waste",
    "contractor_action": "Invalid Request",
    "rowid": "1113410",
    "final_x": "3665407.96992",
    "final_y": "522600.059258",
    "longitude": "-90.11918182093287",
    "latitude": "29.931447495065896",
    "geocoded_column": {
      "latitude": "29.931447495065896",
      "longitude": "-90.11918182093287"
    }
  },
  {
    "service_request": "2024-1113409",
    "request_type": "Roads/Drainage",
    "request_reason": "Pothole",
    "date_created": "2024-07-17T15:35:27.000",
    "date_modified": "2024-07-17T15:36:11.000",
    "case_close_date": "2024-07-17T10:36:11.000",
    "request_status": "Closed",
    "responsible_agency": "Department of Public Works",
    "final_address": "200 Berkley Dr",
    "address_councildis": "C",
    "status": "Resolved",
    "rowid": "1113409",
    "final_x": "3706090.37847",
    "final_y": "518225.167286",
    "longitude": "-89.99091522640394",
    "latitude": "29.918170057026632",
    "geocoded_column": {
      "latitude": "29.918170057026632",
      "longitude": "-89.99091522640394"
    }
  },
  {
    "service_request": "2024-1113408",
    "request_type": "Trash/Recycling",
    "request_reason": "Request a Large Item Pick Up",
    "date_created": "2024-07-17T15:33:53.000",
    "date_modified": "2024-07-17T15:33:54.000",
    "request_status": "Pending",
    "responsible_agency": "Department of Sanitation",
    "final_address": "8020 Placid St",
    "address_councildis": "E",
    "status": "Assigned to Contractor",
    "contractor": "Waste Pro",
    "rowid": "1113408",
    "final_x": "3713751.4949",
    "final_y": "569647.123942",
    "longitude": "-89.96479492883086",
    "latitude": "30.0593118269669",
    "geocoded_column": {
      "latitude": "30.0593118269669",
      "longitude": "-89.96479492883086"
    }
  },
  {
    "service_request": "2024-1113407",
    "request_type": "Roads/Drainage",
    "request_reason": "Pothole",
    "date_created": "2024-07-17T15:33:19.000",
    "date_modified": "2024-07-17T15:33:19.000",
    "request_status": "Pending",
    "responsible_agency": "Department of Public Works",
    "final_address": "1312 Milan St",
    "address_councildis": "B",
    "status": "Pending",
    "rowid": "1113407",
    "final_x": "3671625.82823",
    "final_y": "520286.919608",
    "longitude": "-90.09963137110304",
    "latitude": "29.92490447494246",
    "geocoded_column": {
      "latitude": "29.92490447494246",
      "longitude": "-90.09963137110304"
    }
  },
  {
    "service_request": "2024-1113406",
    "request_type": "Trash/Recycling",
    "request_reason": "Request a Large Item Pick Up",
    "date_created": "2024-07-17T15:33:14.000",
    "date_modified": "2024-07-17T15:33:15.000",
    "request_status": "Pending",
    "responsible_agency": "Department of Sanitation",
    "final_address": "11404 Maxine Dr",
    "address_councildis": "E",
    "status": "Assigned to Contractor",
    "contractor": "Waste Pro",
    "rowid": "1113406",
    "final_x": "3718438.97977",
    "final_y": "560486.819934",
    "longitude": "-89.95032779019664",
    "latitude": "30.03396997516749",
    "geocoded_column": {
      "latitude": "30.03396997516749",
      "longitude": "-89.95032779019664"
    }
  },
  {
    "service_request": "2024-1113405",
    "request_type": "Roads/Drainage",
    "request_reason": "Pothole",
    "date_created": "2024-07-17T15:32:46.000",
    "date_modified": "2024-07-17T15:32:46.000",
    "request_status": "Pending",
    "responsible_agency": "Department of Public Works",
    "final_address": "4216 Chestnut St",
    "address_councildis": "B",
    "status": "Pending",
    "rowid": "1113405",
    "final_x": "3671574.31393",
    "final_y": "519539.203703",
    "longitude": "-90.09981939416457",
    "latitude": "29.922850019854593",
    "geocoded_column": {
      "latitude": "29.922850019854593",
      "longitude": "-90.09981939416457"
    }
  },
  {
    "service_request": "2024-1113404",
    "request_type": "Trash/Recycling",
    "request_reason": "MIssed Recycling Pick-Up",
    "date_created": "2024-07-17T15:32:30.000",
    "date_modified": "2024-07-17T16:57:15.000",
    "case_close_date": "2024-07-17T11:57:15.000",
    "request_status": "Closed",
    "responsible_agency": "Department of Sanitation",
    "final_address": "6131 Canal Blvd",
    "address_councildis": "A",
    "status": "Invalid Request",
    "contractor": "IV Waste",
    "contractor_action": "Invalid Request",
    "rowid": "1113404",
    "final_x": "3668704.1346",
    "final_y": "548178.20981",
    "longitude": "-90.10791264332852",
    "latitude": "30.001682443162906",
    "geocoded_column": {
      "latitude": "30.001682443162906",
      "longitude": "-90.10791264332852"
    }
  },
  {
    "service_request": "2024-1113403",
    "request_type": "Roads/Drainage",
    "request_reason": "Pothole",
    "date_created": "2024-07-17T15:31:40.000",
    "date_modified": "2024-07-17T15:32:13.000",
    "case_close_date": "2024-07-17T10:32:13.000",
    "request_status": "Closed",
    "responsible_agency": "Department of Public Works",
    "final_address": "218 Norland Ave",
    "address_councildis": "C",
    "status": "Resolved",
    "rowid": "1113403",
    "final_x": "3706885.80612",
    "final_y": "520474.132536",
    "longitude": "-89.98832118653608",
    "latitude": "29.92432828021319",
    "geocoded_column": {
      "latitude": "29.92432828021319",
      "longitude": "-89.98832118653608"
    }
  },
  {
    "service_request": "2024-1113402",
    "request_type": "Roads/Drainage",
    "request_reason": "Pothole",
    "date_created": "2024-07-17T15:29:35.000",
    "date_modified": "2024-07-17T15:29:58.000",
    "case_close_date": "2024-07-17T10:29:58.000",
    "request_status": "Closed",
    "responsible_agency": "Department of Public Works",
    "final_address": "4900 S Miro St",
    "address_councildis": "B",
    "status": "Resolved",
    "rowid": "1113402",
    "final_x": "3669210.90702",
    "final_y": "527672.157759",
    "longitude": "-90.10700500475608",
    "latitude": "29.945282779950418",
    "geocoded_column": {
      "latitude": "29.945282779950418",
      "longitude": "-90.10700500475608"
    }
  },
  {
    "service_request": "2024-1113401",
    "request_type": "Traffic Signals/Signs/Striping/Streetlights",
    "request_reason": "Traffic Sign Missing/Damaged",
    "date_created": "2024-07-17T15:28:29.000",
    "date_modified": "2024-07-17T15:28:30.000",
    "request_status": "Pending",
    "responsible_agency": "Department of Public Works",
    "final_address": "FELICIANA ST & N GALVEZ ST",
    "address_councildis": "D",
    "status": "Pending",
    "rowid": "1113401",
    "final_x": "3689664.39",
    "final_y": "539789.41",
    "longitude": "-90.041995926851",
    "latitude": "29.977983247655295",
    "geocoded_column": {
      "latitude": "29.977983247655295",
      "longitude": "-90.041995926851"
    }
  },
  {
    "service_request": "2024-1113400",
    "request_type": "Trash/Recycling",
    "request_reason": "Request a Large Item Pick Up",
    "date_created": "2024-07-17T15:21:39.000",
    "date_modified": "2024-07-17T15:21:39.000",
    "request_status": "Pending",
    "responsible_agency": "Department of Sanitation",
    "final_address": "713 Greenwood Drive",
    "status": "Assigned to Contractor",
    "rowid": "1113400",
    "longitude": "0.0",
    "latitude": "0.0",
    "geocoded_column": {
      "latitude": "0.0",
      "longitude": "0.0"
    }
  },
  {
    "service_request": "2024-1113399",
    "request_type": "Trash/Recycling",
    "request_reason": "Request a Large Item Pick Up",
    "date_created": "2024-07-17T15:21:38.000",
    "date_modified": "2024-07-17T15:21:38.000",
    "request_status": "Pending",
    "responsible_agency": "Department of Sanitation",
    "final_address": "8 Curtis Dr",
    "address_councildis": "E",
    "status": "Assigned to Contractor",
    "contractor": "Waste Pro",
    "rowid": "1113399",
    "final_x": "3697689.92637",
    "final_y": "560638.780766",
    "longitude": "-90.01589149649521",
    "latitude": "30.035060091539236",
    "geocoded_column": {
      "latitude": "30.035060091539236",
      "longitude": "-90.01589149649521"
    }
  },
  {
    "service_request": "2024-1113398",
    "request_type": "Roads/Drainage",
    "request_reason": "Pothole",
    "date_created": "2024-07-17T15:21:03.000",
    "date_modified": "2024-07-17T15:21:58.000",
    "case_close_date": "2024-07-17T10:21:58.000",
    "request_status": "Closed",
    "responsible_agency": "Department of Public Works",
    "final_address": "3100 BLK Robert St",
    "address_councildis": "B",
    "status": "Resolved",
    "rowid": "1113398",
    "final_x": "3668916.82453",
    "final_y": "526988.390365",
    "longitude": "-90.10795660645648",
    "latitude": "29.943411292530115",
    "geocoded_column": {
      "latitude": "29.943411292530115",
      "longitude": "-90.10795660645648"
    }
  },
  {
    "service_request": "2024-1113397",
    "request_type": "Traffic Signals/Signs/Striping/Streetlights",
    "request_reason": "Street Light Outage/Malfunction",
    "date_created": "2024-07-17T15:20:46.000",
    "date_modified": "2024-07-17T15:20:47.000",
    "request_status": "Pending",
    "responsible_agency": "Department of Public Works",
    "final_address": "2729 Valence St",
    "address_councildis": "B",
    "status": "Assigned to Contractor",
    "contractor": "Legacy Professional Services",
    "rowid": "1113397",
    "final_x": "3669374.54951",
    "final_y": "524883.741948",
    "longitude": "-90.10658258789826",
    "latitude": "29.937610722623752",
    "geocoded_column": {
      "latitude": "29.937610722623752",
      "longitude": "-90.10658258789826"
    }
  },
  {
    "service_request": "2024-1113396",
    "request_type": "Trash/Recycling",
    "request_reason": "Missed Trash Pick-Up",
    "date_created": "2024-07-17T15:16:51.000",
    "date_modified": "2024-07-17T15:16:52.000",
    "request_status": "Pending",
    "responsible_agency": "Department of Sanitation",
    "final_address": "4900 Citrus Dr",
    "address_councildis": "E",
    "status": "Assigned to Contractor",
    "contractor": "Waste Pro",
    "rowid": "1113396",
    "final_x": "3710608.39665",
    "final_y": "556813.502106",
    "longitude": "-89.97521075313132",
    "latitude": "30.024127353000207",
    "geocoded_column": {
      "latitude": "30.024127353000207",
      "longitude": "-89.97521075313132"
    }
  },
  {
    "service_request": "2024-1113395",
    "request_type": "Roads/Drainage",
    "request_reason": "Catch Basin - Clogged",
    "date_created": "2024-07-17T15:16:47.000",
    "date_modified": "2024-07-17T15:17:44.000",
    "request_status": "Pending",
    "responsible_agency": "Department of Public Works",
    "final_address": "4410 Walmsley Ave",
    "address_councildis": "B",
    "status": "Pending",
    "rowid": "1113395",
    "final_x": "3669481.36257",
    "final_y": "530106.064577",
    "longitude": "-90.10606878147452",
    "latitude": "29.95196726709527",
    "geocoded_column": {
      "latitude": "29.95196726709527",
      "longitude": "-90.10606878147452"
    }
  },
  {
    "service_request": "2024-1113394",
    "request_type": "Roads/Drainage",
    "request_reason": "Pothole",
    "date_created": "2024-07-17T15:14:46.000",
    "date_modified": "2024-07-17T15:14:46.000",
    "request_status": "Pending",
    "responsible_agency": "Department of Public Works",
    "final_address": "4318 Wellington Ave",
    "address_councildis": "D",
    "status": "Pending",
    "rowid": "1113394",
    "final_x": "3677171.52744",
    "final_y": "548203.99957",
    "longitude": "-90.08116237880215",
    "latitude": "30.001501645025076",
    "geocoded_column": {
      "latitude": "30.001501645025076",
      "longitude": "-90.08116237880215"
    }
  },
  {
    "service_request": "2024-1113393",
    "request_type": "Roads/Drainage",
    "request_reason": "Pothole",
    "date_created": "2024-07-17T15:13:40.000",
    "date_modified": "2024-07-17T15:15:16.000",
    "case_close_date": "2024-07-17T10:15:16.000",
    "request_status": "Closed",
    "responsible_agency": "Department of Public Works",
    "final_address": "4924 S Galvez St",
    "address_councildis": "B",
    "status": "Resolved",
    "rowid": "1113393",
    "final_x": "3669058.46734",
    "final_y": "527328.267967",
    "longitude": "-90.10749792228911",
    "latitude": "29.944341679852773",
    "geocoded_column": {
      "latitude": "29.944341679852773",
      "longitude": "-90.10749792228911"
    }
  },
  {
    "service_request": "2024-1113392",
    "request_type": "Roads/Drainage",
    "request_reason": "Pothole",
    "date_created": "2024-07-17T15:09:45.000",
    "date_modified": "2024-07-17T15:11:24.000",
    "case_close_date": "2024-07-17T10:11:24.000",
    "request_status": "Closed",
    "responsible_agency": "Department of Public Works",
    "final_address": "3236 Upperline St",
    "address_councildis": "B",
    "status": "Resolved",
    "rowid": "1113392",
    "final_x": "3669220.16385",
    "final_y": "526986.24755",
    "longitude": "-90.10699895563809",
    "latitude": "29.94339647720517",
    "geocoded_column": {
      "latitude": "29.94339647720517",
      "longitude": "-90.10699895563809"
    }
  },
  {
    "service_request": "2024-1113391",
    "request_type": "Trash/Recycling",
    "request_reason": "Request a Large Item Pick Up",
    "date_created": "2024-07-17T15:07:53.000",
    "date_modified": "2024-07-17T15:07:54.000",
    "request_status": "Pending",
    "responsible_agency": "Department of Sanitation",
    "final_address": "3254 Gentilly Blvd",
    "address_councildis": "D",
    "status": "Assigned to Contractor",
    "contractor": "IV Waste",
    "rowid": "1113391",
    "final_x": "3684568.82684",
    "final_y": "547877.05717",
    "longitude": "-90.05780513337791",
    "latitude": "30.000378322744837",
    "geocoded_column": {
      "latitude": "30.000378322744837",
      "longitude": "-90.05780513337791"
    }
  },
  {
    "service_request": "2024-1113390",
    "request_type": "Trash/Recycling",
    "request_reason": "Request a Large Item Pick Up",
    "date_created": "2024-07-17T15:06:12.000",
    "date_modified": "2024-07-17T15:06:13.000",
    "request_status": "Pending",
    "responsible_agency": "Department of Sanitation",
    "final_address": "4911 Magnolia St",
    "address_councildis": "B",
    "status": "Assigned to Contractor",
    "contractor": "IV Waste",
    "rowid": "1113390",
    "final_x": "3669089.46644",
    "final_y": "524648.525436",
    "longitude": "-90.10749056344149",
    "latitude": "29.936972342251075",
    "geocoded_column": {
      "latitude": "29.936972342251075",
      "longitude": "-90.10749056344149"
    }
  },
  {
    "service_request": "2024-1113389",
    "request_type": "Abandoned Vehicles",
    "request_reason": "Abandoned/Junk Vehicles",
    "date_created": "2024-07-17T15:01:24.000",
    "date_modified": "2024-07-17T15:01:24.000",
    "request_status": "Pending",
    "responsible_agency": "Department of Public Works",
    "final_address": "2564 Agriculture St",
    "address_councildis": "D",
    "status": "Pending",
    "rowid": "1113389",
    "final_x": "3687198.04156",
    "final_y": "543482.398094",
    "longitude": "-90.04965483497723",
    "latitude": "29.988213851263133",
    "geocoded_column": {
      "latitude": "29.988213851263133",
      "longitude": "-90.04965483497723"
    }
  },
  {
    "service_request": "2024-1113387",
    "request_type": "Trash/Recycling",
    "request_reason": "Order Trash Cart",
    "date_created": "2024-07-17T15:01:01.000",
    "date_modified": "2024-07-17T15:01:02.000",
    "request_status": "Pending",
    "responsible_agency": "Department of Sanitation",
    "final_address": "2511 Vienna St",
    "address_councildis": "D",
    "status": "Assigned to Contractor",
    "contractor": "IV Waste",
    "rowid": "1113387",
    "final_x": "3685805.76572",
    "final_y": "555190.701081",
    "longitude": "-90.05363954446689",
    "latitude": "30.02045025494614",
    "geocoded_column": {
      "latitude": "30.02045025494614",
      "longitude": "-90.05363954446689"
    }
  },
  {
    "service_request": "2024-1113386",
    "request_type": "Abandoned Vehicles",
    "request_reason": "Abandoned/Junk Vehicles",
    "date_created": "2024-07-17T14:58:57.000",
    "date_modified": "2024-07-17T14:58:57.000",
    "request_status": "Pending",
    "responsible_agency": "Department of Public Works",
    "final_address": "1733 Robert St",
    "address_councildis": "B",
    "status": "Pending",
    "rowid": "1113386",
    "final_x": "3668849.26471",
    "final_y": "522094.295418",
    "longitude": "-90.10833510482976",
    "latitude": "29.929956091874406",
    "geocoded_column": {
      "latitude": "29.929956091874406",
      "longitude": "-90.10833510482976"
    }
  },
  {
    "service_request": "2024-1113385",
    "request_type": "Trash/Recycling",
    "request_reason": "Repair Trash Cart",
    "date_created": "2024-07-17T14:58:53.000",
    "date_modified": "2024-07-17T14:58:54.000",
    "request_status": "Pending",
    "responsible_agency": "Department of Sanitation",
    "final_address": "1544 Henry Clay Ave",
    "address_councildis": "A",
    "status": "Assigned to Contractor",
    "contractor": "IV Waste",
    "rowid": "1113385",
    "final_x": "3664855.42388",
    "final_y": "522535.330426",
    "longitude": "-90.12092831157405",
    "latitude": "29.931285598687804",
    "geocoded_column": {
      "latitude": "29.931285598687804",
      "longitude": "-90.12092831157405"
    }
  },
  {
    "service_request": "2024-1113384",
    "request_type": "Property Maintenance",
    "request_reason": "Property Maintenance",
    "date_created": "2024-07-17T14:58:31.000",
    "date_modified": "2024-07-17T14:58:31.000",
    "request_status": "Pending",
    "responsible_agency": "Department of Code Enforcement",
    "final_address": "5935 W Deer Park Blvd",
    "address_councildis": "E",
    "status": "Pending",
    "rowid": "1113384",
    "final_x": "3711916.37138",
    "final_y": "561398.905054",
    "longitude": "-89.97090556352832",
    "latitude": "30.036692700356895",
    "geocoded_column": {
      "latitude": "30.036692700356895",
      "longitude": "-89.97090556352832"
    }
  },
  {
    "service_request": "2024-1113383",
    "request_type": "Trash/Recycling",
    "request_reason": "Request a Large Item Pick Up",
    "date_created": "2024-07-17T14:58:26.000",
    "date_modified": "2024-07-17T14:59:03.000",
    "request_status": "Pending",
    "responsible_agency": "Department of Sanitation",
    "final_address": "6422 Kuebel Dr",
    "address_councildis": "E",
    "status": "Assigned to Contractor",
    "contractor": "Waste Pro",
    "rowid": "1113383",
    "final_x": "3696511.54538",
    "final_y": "560169.059357",
    "longitude": "-90.01963236683345",
    "latitude": "30.033805739200485",
    "geocoded_column": {
      "latitude": "30.033805739200485",
      "longitude": "-90.01963236683345"
    }
  },
  {
    "service_request": "2024-1113382",
    "request_type": "Abandoned Vehicles",
    "request_reason": "Vehicle Blocking Your Driveway",
    "date_created": "2024-07-17T14:54:58.000",
    "date_modified": "2024-07-17T14:54:58.000",
    "request_status": "Pending",
    "responsible_agency": "Department of Public Works",
    "final_address": "1733 Robert St",
    "address_councildis": "B",
    "status": "Pending",
    "rowid": "1113382",
    "final_x": "3668849.26471",
    "final_y": "522094.295418",
    "longitude": "-90.10833510482976",
    "latitude": "29.929956091874406",
    "geocoded_column": {
      "latitude": "29.929956091874406",
      "longitude": "-90.10833510482976"
    }
  },
  {
    "service_request": "2024-1113381",
    "request_type": "Trash/Recycling",
    "request_reason": "Return Recycling Cart",
    "date_created": "2024-07-17T14:53:33.000",
    "date_modified": "2024-07-17T14:53:34.000",
    "request_status": "Pending",
    "responsible_agency": "Department of Sanitation",
    "final_address": "4507 Croyden Ave",
    "address_councildis": "C",
    "status": "Pending",
    "rowid": "1113381",
    "final_x": "3702109.53245",
    "final_y": "524231.046396",
    "longitude": "-90.00326046229551",
    "latitude": "29.934811785003806",
    "geocoded_column": {
      "latitude": "29.934811785003806",
      "longitude": "-90.00326046229551"
    }
  },
  {
    "service_request": "2024-1113380",
    "request_type": "Roads/Drainage",
    "request_reason": "Catch Basin - Broken/Damage",
    "date_created": "2024-07-17T14:53:23.000",
    "date_modified": "2024-07-17T14:53:23.000",
    "request_status": "Pending",
    "responsible_agency": "Department of Public Works",
    "final_address": "4306 Hamilton St",
    "address_councildis": "A",
    "status": "Pending",
    "rowid": "1113380",
    "final_x": "3666776.87425",
    "final_y": "538961.431562",
    "longitude": "-90.1143108420309",
    "latitude": "29.976395972347373",
    "geocoded_column": {
      "latitude": "29.976395972347373",
      "longitude": "-90.1143108420309"
    }
  },
  {
    "service_request": "2024-1113379",
    "request_type": "Abandoned Vehicles",
    "request_reason": "Abandoned/Junk Vehicles",
    "date_created": "2024-07-17T14:53:11.000",
    "date_modified": "2024-07-17T14:53:11.000",
    "request_status": "Pending",
    "responsible_agency": "Department of Public Works",
    "final_address": "1733 Robert St",
    "address_councildis": "B",
    "status": "Pending",
    "rowid": "1113379",
    "final_x": "3668849.26471",
    "final_y": "522094.295418",
    "longitude": "-90.10833510482976",
    "latitude": "29.929956091874406",
    "geocoded_column": {
      "latitude": "29.929956091874406",
      "longitude": "-90.10833510482976"
    }
  },
  {
    "service_request": "2024-1113378",
    "request_type": "Abandoned Vehicles",
    "request_reason": "Abandoned/Junk Vehicles",
    "date_created": "2024-07-17T14:51:17.000",
    "date_modified": "2024-07-17T14:51:17.000",
    "request_status": "Pending",
    "responsible_agency": "Department of Public Works",
    "final_address": "1733 Robert St",
    "address_councildis": "B",
    "status": "Pending",
    "rowid": "1113378",
    "final_x": "3668849.26471",
    "final_y": "522094.295418",
    "longitude": "-90.10833510482976",
    "latitude": "29.929956091874406",
    "geocoded_column": {
      "latitude": "29.929956091874406",
      "longitude": "-90.10833510482976"
    }
  },
  {
    "service_request": "2024-1113377",
    "request_type": "Property Maintenance",
    "request_reason": "Property Maintenance",
    "date_created": "2024-07-17T14:50:38.000",
    "date_modified": "2024-07-17T14:50:39.000",
    "request_status": "Pending",
    "responsible_agency": "Department of Code Enforcement",
    "final_address": "2119 Peniston St",
    "address_councildis": "B",
    "status": "Pending",
    "rowid": "1113377",
    "final_x": "3672461.45863",
    "final_y": "523040.075515",
    "longitude": "-90.0968997751417",
    "latitude": "29.93245000275852",
    "geocoded_column": {
      "latitude": "29.93245000275852",
      "longitude": "-90.0968997751417"
    }
  },
  {
    "service_request": "2024-1113376",
    "request_type": "Trash/Recycling",
    "request_reason": "Request a Large Item Pick Up",
    "date_created": "2024-07-17T14:49:58.000",
    "date_modified": "2024-07-17T14:49:58.000",
    "request_status": "Pending",
    "responsible_agency": "Department of Sanitation",
    "final_address": "4721 Chrysler St",
    "address_councildis": "E",
    "status": "Assigned to Contractor",
    "contractor": "Waste Pro",
    "rowid": "1113376",
    "final_x": "3715391.83851",
    "final_y": "556787.289946",
    "longitude": "-89.96009713723255",
    "latitude": "30.023898518713757",
    "geocoded_column": {
      "latitude": "30.023898518713757",
      "longitude": "-89.96009713723255"
    }
  },
  {
    "service_request": "2024-1113375",
    "request_type": "Trash/Recycling",
    "request_reason": "Order Recycling Cart",
    "date_created": "2024-07-17T14:49:48.000",
    "date_modified": "2024-07-17T14:49:49.000",
    "request_status": "Pending",
    "responsible_agency": "Department of Sanitation",
    "final_address": "1123 Hillary St",
    "address_councildis": "A",
    "status": "Pending",
    "rowid": "1113375",
    "final_x": "3663225.17325",
    "final_y": "527024.220734",
    "longitude": "-90.125925508778",
    "latitude": "29.943675952328423",
    "geocoded_column": {
      "latitude": "29.943675952328423",
      "longitude": "-90.125925508778"
    }
  },
  {
    "service_request": "2024-1113374",
    "request_type": "Trash/Recycling",
    "request_reason": "Order Trash Cart",
    "date_created": "2024-07-17T14:49:39.000",
    "date_modified": "2024-07-17T14:49:40.000",
    "request_status": "Pending",
    "responsible_agency": "Department of Sanitation",
    "final_address": "1123 Hillary St",
    "address_councildis": "A",
    "status": "Assigned to Contractor",
    "contractor": "IV Waste",
    "rowid": "1113374",
    "final_x": "3663225.17325",
    "final_y": "527024.220734",
    "longitude": "-90.125925508778",
    "latitude": "29.943675952328423",
    "geocoded_column": {
      "latitude": "29.943675952328423",
      "longitude": "-90.125925508778"
    }
  },
  {
    "service_request": "2024-1113373",
    "request_type": "Property Maintenance",
    "request_reason": "Property Maintenance",
    "date_created": "2024-07-17T14:49:30.000",
    "date_modified": "2024-07-17T14:49:31.000",
    "request_status": "Pending",
    "responsible_agency": "Department of Code Enforcement",
    "final_address": "4945 Galahad Dr",
    "address_councildis": "E",
    "status": "Pending",
    "rowid": "1113373",
    "final_x": "3707152.51979",
    "final_y": "556804.09641",
    "longitude": "-89.98613093145534",
    "latitude": "30.024213666303847",
    "geocoded_column": {
      "latitude": "30.024213666303847",
      "longitude": "-89.98613093145534"
    }
  },
  {
    "service_request": "2024-1113372",
    "request_type": "Trash/Recycling",
    "request_reason": "Request a Large Item Pick Up",
    "date_created": "2024-07-17T14:49:28.000",
    "date_modified": "2024-07-17T14:49:29.000",
    "request_status": "Pending",
    "responsible_agency": "Department of Sanitation",
    "final_address": "4856 Tchoupitoulas St",
    "address_councildis": "B",
    "status": "Assigned to Contractor",
    "contractor": "IV Waste",
    "rowid": "1113372",
    "final_x": "3669223.33018",
    "final_y": "517212.147509",
    "longitude": "-90.1073191445732",
    "latitude": "29.916520731579396",
    "geocoded_column": {
      "latitude": "29.916520731579396",
      "longitude": "-90.1073191445732"
    }
  },
  {
    "service_request": "2024-1113371",
    "request_type": "Trash/Recycling",
    "request_reason": "Order Trash Cart",
    "date_created": "2024-07-17T14:49:12.000",
    "date_modified": "2024-07-17T14:49:13.000",
    "request_status": "Pending",
    "responsible_agency": "Department of Sanitation",
    "final_address": "1544 Henry Clay Ave",
    "address_councildis": "A",
    "status": "Assigned to Contractor",
    "contractor": "IV Waste",
    "rowid": "1113371",
    "final_x": "3664855.42388",
    "final_y": "522535.330426",
    "longitude": "-90.12092831157405",
    "latitude": "29.931285598687804",
    "geocoded_column": {
      "latitude": "29.931285598687804",
      "longitude": "-90.12092831157405"
    }
  },
  {
    "service_request": "2024-1113370",
    "request_type": "Trash/Recycling",
    "request_reason": "Request a Large Item Pick Up",
    "date_created": "2024-07-17T14:48:15.000",
    "date_modified": "2024-07-17T14:48:16.000",
    "request_status": "Pending",
    "responsible_agency": "Department of Sanitation",
    "final_address": "5744 Dauphine St",
    "address_councildis": "E",
    "status": "Assigned to Contractor",
    "contractor": "Waste Pro",
    "rowid": "1113370",
    "final_x": "3698510.09488",
    "final_y": "532386.289283",
    "longitude": "-90.01432739857351",
    "latitude": "29.957350242787413",
    "geocoded_column": {
      "latitude": "29.957350242787413",
      "longitude": "-90.01432739857351"
    }
  },
  {
    "service_request": "2024-1113369",
    "request_type": "Trash/Recycling",
    "request_reason": "Request a Large Item Pick Up",
    "date_created": "2024-07-17T14:45:54.000",
    "date_modified": "2024-07-17T14:45:54.000",
    "request_status": "Pending",
    "responsible_agency": "Department of Sanitation",
    "final_address": "7530 Fieldston Rd",
    "address_councildis": "E",
    "status": "Assigned to Contractor",
    "contractor": "Waste Pro",
    "rowid": "1113369",
    "final_x": "3700489.10832",
    "final_y": "560418.490014",
    "longitude": "-90.00705375159892",
    "latitude": "30.034365586851877",
    "geocoded_column": {
      "latitude": "30.034365586851877",
      "longitude": "-90.00705375159892"
    }
  },
  {
    "service_request": "2024-1113367",
    "request_type": "Traffic Signals/Signs/Striping/Streetlights",
    "request_reason": "Street Name Sign Damaged or Missing",
    "date_created": "2024-07-17T14:41:45.000",
    "date_modified": "2024-07-17T14:41:45.000",
    "request_status": "Pending",
    "responsible_agency": "Department of Public Works",
    "final_address": "CLIO ST & S LIBERTY ST",
    "address_councildis": "B",
    "status": "Pending",
    "rowid": "1113367",
    "final_x": "3677486.2",
    "final_y": "527772.68",
    "longitude": "-90.08087380040521",
    "latitude": "29.94531306197041",
    "geocoded_column": {
      "latitude": "29.94531306197041",
      "longitude": "-90.08087380040521"
    }
  },
  {
    "service_request": "2024-1113366",
    "request_type": "Property Maintenance",
    "request_reason": "Property Maintenance",
    "date_created": "2024-07-17T14:39:32.000",
    "date_modified": "2024-07-17T14:39:33.000",
    "request_status": "Pending",
    "responsible_agency": "Department of Code Enforcement",
    "final_address": "13135 Wales St",
    "address_councildis": "E",
    "status": "Pending",
    "rowid": "1113366",
    "final_x": "3716096.79992",
    "final_y": "570854.101735",
    "longitude": "-89.9573358600419",
    "latitude": "30.062553287193992",
    "geocoded_column": {
      "latitude": "30.062553287193992",
      "longitude": "-89.9573358600419"
    }
  },
  {
    "service_request": "2024-1113364",
    "request_type": "Abandoned Vehicles",
    "request_reason": "Abandoned/Junk Vehicles",
    "date_created": "2024-07-17T14:39:16.000",
    "date_modified": "2024-07-17T14:39:16.000",
    "request_status": "Pending",
    "responsible_agency": "Department of Public Works",
    "final_address": "4016 N Rampart St",
    "address_councildis": "C",
    "status": "Pending",
    "rowid": "1113364",
    "final_x": "3691822.12355",
    "final_y": "534798.95847",
    "longitude": "-90.0353596144258",
    "latitude": "29.964194231875553",
    "geocoded_column": {
      "latitude": "29.964194231875553",
      "longitude": "-90.0353596144258"
    }
  },
  {
    "service_request": "2024-1113362",
    "request_type": "Parks & Parkways",
    "request_reason": "Request Tree Service (Right of Way/Public Property)",
    "date_created": "2024-07-17T14:35:13.000",
    "date_modified": "2024-07-17T14:35:14.000",
    "request_status": "Pending",
    "responsible_agency": "Department of Parks & Parkway",
    "final_address": "300 BLK Florida Blvd",
    "address_councildis": "A",
    "status": "Pending",
    "rowid": "1113362",
    "final_x": "3666936.96891",
    "final_y": "545550.011706",
    "longitude": "-90.11358370345395",
    "latitude": "29.994507650182527",
    "geocoded_column": {
      "latitude": "29.994507650182527",
      "longitude": "-90.11358370345395"
    }
  },
  {
    "service_request": "2024-1113361",
    "request_type": "Roads/Drainage",
    "request_reason": "Catch Basin - Clogged",
    "date_created": "2024-07-17T14:32:44.000",
    "date_modified": "2024-07-17T14:32:44.000",
    "request_status": "Pending",
    "responsible_agency": "Department of Public Works",
    "final_address": "2749 Iberville St",
    "address_councildis": "B",
    "status": "Pending",
    "rowid": "1113361",
    "final_x": "3675280.34235",
    "final_y": "535757.927047",
    "longitude": "-90.08756429491902",
    "latitude": "29.96733593533915",
    "geocoded_column": {
      "latitude": "29.96733593533915",
      "longitude": "-90.08756429491902"
    }
  },
  {
    "service_request": "2024-1113360",
    "request_type": "Trash/Recycling",
    "request_reason": "Replace Trash Cart",
    "date_created": "2024-07-17T14:31:40.000",
    "date_modified": "2024-07-17T14:34:38.000",
    "request_status": "Pending",
    "responsible_agency": "Department of Sanitation",
    "final_address": "4701 Coliseum St",
    "address_councildis": "B",
    "status": "Assigned to Contractor",
    "contractor": "IV Waste",
    "rowid": "1113360",
    "final_x": "3669799.41537",
    "final_y": "519744.738488",
    "longitude": "-90.10541511498437",
    "latitude": "29.923467594136167",
    "geocoded_column": {
      "latitude": "29.923467594136167",
      "longitude": "-90.10541511498437"
    }
  },
  {
    "service_request": "2024-1113359",
    "request_type": "Trash/Recycling",
    "request_reason": "Illegal Dumping",
    "date_created": "2024-07-17T14:30:46.000",
    "date_modified": "2024-07-17T14:30:47.000",
    "request_status": "Pending",
    "responsible_agency": "Department of Sanitation",
    "final_address": "6325 N Tonti St",
    "address_councildis": "E",
    "status": "Pending",
    "rowid": "1113359",
    "final_x": "3702153.67933",
    "final_y": "537274.908104",
    "longitude": "-90.0026428690543",
    "latitude": "29.970676354532113",
    "geocoded_column": {
      "latitude": "29.970676354532113",
      "longitude": "-90.0026428690543"
    }
  },
  {
    "service_request": "2024-1113358",
    "request_type": "Roads/Drainage",
    "request_reason": "Street Flooding / Drainage",
    "date_created": "2024-07-17T14:29:30.000",
    "date_modified": "2024-07-17T14:56:19.000",
    "request_status": "Pending",
    "responsible_agency": "Department of Public Works",
    "final_address": "3201 Gentilly Blvd",
    "address_councildis": "D",
    "rowid": "1113358",
    "final_x": "3684247.07145",
    "final_y": "547837.04661",
    "longitude": "-90.05882298250869",
    "latitude": "30.000278152616673",
    "geocoded_column": {
      "latitude": "30.000278152616673",
      "longitude": "-90.05882298250869"
    }
  },
  {
    "service_request": "2024-1113357",
    "request_type": "Property Maintenance",
    "request_reason": "Property Maintenance",
    "date_created": "2024-07-17T14:29:23.000",
    "date_modified": "2024-07-17T14:29:23.000",
    "request_status": "Pending",
    "responsible_agency": "Department of Code Enforcement",
    "final_address": "613 S Lopez St",
    "address_councildis": "B",
    "status": "Pending",
    "rowid": "1113357",
    "final_x": "3672498.89979",
    "final_y": "534490.610053",
    "longitude": "-90.09639135290179",
    "latitude": "29.96393409577859",
    "geocoded_column": {
      "latitude": "29.96393409577859",
      "longitude": "-90.09639135290179"
    }
  },
  {
    "service_request": "2024-1113356",
    "request_type": "Trash/Recycling",
    "request_reason": "Request a Large Item Pick Up",
    "date_created": "2024-07-17T14:29:08.000",
    "date_modified": "2024-07-17T14:29:09.000",
    "request_status": "Pending",
    "responsible_agency": "Department of Sanitation",
    "final_address": "1909 Bordeaux St",
    "address_councildis": "B",
    "status": "Assigned to Contractor",
    "contractor": "IV Waste",
    "rowid": "1113356",
    "final_x": "3669296.73089",
    "final_y": "521923.098234",
    "longitude": "-90.10692830948848",
    "latitude": "29.92947219286915",
    "geocoded_column": {
      "latitude": "29.92947219286915",
      "longitude": "-90.10692830948848"
    }
  },
  {
    "service_request": "2024-1113355",
    "request_type": "Property Maintenance",
    "request_reason": "Property Maintenance",
    "date_created": "2024-07-17T14:26:24.000",
    "date_modified": "2024-07-17T14:26:25.000",
    "request_status": "Pending",
    "responsible_agency": "Department of Code Enforcement",
    "final_address": "1256 Caton St",
    "address_councildis": "D",
    "status": "Pending",
    "rowid": "1113355",
    "final_x": "3677093.93909",
    "final_y": "546751.728529",
    "longitude": "-90.08145761225468",
    "latitude": "29.997510743600294",
    "geocoded_column": {
      "latitude": "29.997510743600294",
      "longitude": "-90.08145761225468"
    }
  },
  {
    "service_request": "2024-1113354",
    "request_type": "Trash/Recycling",
    "request_reason": "Request a Large Item Pick Up",
    "date_created": "2024-07-17T14:25:51.000",
    "date_modified": "2024-07-17T14:25:52.000",
    "request_status": "Pending",
    "responsible_agency": "Department of Sanitation",
    "final_address": "88 Yellowstone Dr",
    "address_councildis": "C",
    "status": "Assigned to Contractor",
    "contractor": "Richards Disposal",
    "rowid": "1113354",
    "final_x": "3700587.61085",
    "final_y": "515824.055348",
    "longitude": "-90.00837201110244",
    "latitude": "29.911743936190057",
    "geocoded_column": {
      "latitude": "29.911743936190057",
      "longitude": "-90.00837201110244"
    }
  },
  {
    "service_request": "2024-1113353",
    "request_type": "Trash/Recycling",
    "request_reason": "Request a Large Item Pick Up",
    "date_created": "2024-07-17T14:22:07.000",
    "date_modified": "2024-07-17T14:22:08.000",
    "request_status": "Pending",
    "responsible_agency": "Department of Sanitation",
    "final_address": "4417 Shalimar Dr",
    "address_councildis": "D",
    "status": "Assigned to Contractor",
    "contractor": "Waste Pro",
    "rowid": "1113353",
    "final_x": "3697402.51754",
    "final_y": "552528.123158",
    "longitude": "-90.01709417428835",
    "latitude": "30.01276795534955",
    "geocoded_column": {
      "latitude": "30.01276795534955",
      "longitude": "-90.01709417428835"
    }
  },
  {
    "service_request": "2024-1113352",
    "request_type": "Trash/Recycling",
    "request_reason": "Illegal Dumping",
    "date_created": "2024-07-17T14:20:09.000",
    "date_modified": "2024-07-17T14:20:10.000",
    "request_status": "Pending",
    "responsible_agency": "Department of Sanitation",
    "final_address": "1800 BLK N Claiborne Ave",
    "address_councildis": "D",
    "status": "Pending",
    "rowid": "1113352",
    "final_x": "3683548.18077",
    "final_y": "538036.216038",
    "longitude": "-90.06137450728811",
    "latitude": "29.97335068707077",
    "geocoded_column": {
      "latitude": "29.97335068707077",
      "longitude": "-90.06137450728811"
    }
  },
  {
    "service_request": "2024-1113351",
    "request_type": "Trash/Recycling",
    "request_reason": "Request a Large Item Pick Up",
    "date_created": "2024-07-17T14:14:31.000",
    "date_modified": "2024-07-17T14:14:32.000",
    "request_status": "Pending",
    "responsible_agency": "Department of Sanitation",
    "final_address": "6909 Olive St",
    "address_councildis": "B",
    "status": "Assigned to Contractor",
    "contractor": "IV Waste",
    "rowid": "1113351",
    "final_x": "3668980.13454",
    "final_y": "532671.854916",
    "longitude": "-90.10756476108274",
    "latitude": "29.959037098905178",
    "geocoded_column": {
      "latitude": "29.959037098905178",
      "longitude": "-90.10756476108274"
    }
  },
  {
    "service_request": "2024-1113350",
    "request_type": "Parks & Parkways",
    "request_reason": "Request Tree Service (Right of Way/Public Property)",
    "date_created": "2024-07-17T14:14:25.000",
    "date_modified": "2024-07-17T14:14:25.000",
    "request_status": "Pending",
    "responsible_agency": "Department of Parks & Parkway",
    "final_address": "6168 General Diaz St",
    "address_councildis": "A",
    "status": "Pending",
    "rowid": "1113350",
    "final_x": "3669559.23911",
    "final_y": "548434.613458",
    "longitude": "-90.10520259140175",
    "latitude": "30.002362290937096",
    "geocoded_column": {
      "latitude": "30.002362290937096",
      "longitude": "-90.10520259140175"
    }
  },
  {
    "service_request": "2024-1113349",
    "request_type": "Trash/Recycling",
    "request_reason": "Request a Large Item Pick Up",
    "date_created": "2024-07-17T14:08:09.000",
    "date_modified": "2024-07-17T14:08:10.000",
    "request_status": "Pending",
    "responsible_agency": "Department of Sanitation",
    "final_address": "4936 Desire Dr",
    "address_councildis": "D",
    "status": "Assigned to Contractor",
    "contractor": "IV Waste",
    "rowid": "1113349",
    "final_x": "3691524.20297",
    "final_y": "552151.586006",
    "longitude": "-90.03567983592377",
    "latitude": "30.01191697653781",
    "geocoded_column": {
      "latitude": "30.01191697653781",
      "longitude": "-90.03567983592377"
    }
  },
  {
    "service_request": "2024-1113348",
    "request_type": "Property Maintenance",
    "request_reason": "Property Maintenance",
    "date_created": "2024-07-17T14:07:26.000",
    "date_modified": "2024-07-17T14:07:26.000",
    "request_status": "Pending",
    "responsible_agency": "Department of Code Enforcement",
    "final_address": "ROYAL ST & ALVAR ST",
    "address_councildis": "C",
    "status": "Pending",
    "rowid": "1113348",
    "final_x": "3691121.4",
    "final_y": "533882.98",
    "longitude": "-90.03760514143191",
    "latitude": "29.961697418806573",
    "geocoded_column": {
      "latitude": "29.961697418806573",
      "longitude": "-90.03760514143191"
    }
  },
  {
    "service_request": "2024-1113347",
    "request_type": "Property Maintenance",
    "request_reason": "Property Maintenance",
    "date_created": "2024-07-17T14:06:39.000",
    "date_modified": "2024-07-17T14:06:39.000",
    "request_status": "Pending",
    "responsible_agency": "Department of Code Enforcement",
    "final_address": "2641 Chelsea Dr",
    "address_councildis": "C",
    "status": "Pending",
    "rowid": "1113347",
    "final_x": "3704163.19018",
    "final_y": "521316.985593",
    "longitude": "-89.99688444450369",
    "latitude": "29.926733428132295",
    "geocoded_column": {
      "latitude": "29.926733428132295",
      "longitude": "-89.99688444450369"
    }
  },
  {
    "service_request": "2024-1113346",
    "request_type": "Property Maintenance",
    "request_reason": "Property Maintenance",
    "date_created": "2024-07-17T14:05:52.000",
    "date_modified": "2024-07-17T14:05:53.000",
    "request_status": "Pending",
    "responsible_agency": "Department of Code Enforcement",
    "final_address": "13200 Dwyer Blvd",
    "address_councildis": "E",
    "status": "Pending",
    "rowid": "1113346",
    "final_x": "3724377.48985",
    "final_y": "561303.82659",
    "longitude": "-89.93153004245288",
    "latitude": "30.036017988145748",
    "geocoded_column": {
      "latitude": "30.036017988145748",
      "longitude": "-89.93153004245288"
    }
  },
  {
    "service_request": "2024-1113345",
    "request_type": "Parks & Parkways",
    "request_reason": "Request Tree Service (Right of Way/Public Property)",
    "date_created": "2024-07-17T14:05:09.000",
    "date_modified": "2024-07-17T14:05:10.000",
    "request_status": "Pending",
    "responsible_agency": "Department of Parks & Parkway",
    "final_address": "6220 Oxford St",
    "address_councildis": "C",
    "status": "Pending",
    "rowid": "1113345",
    "final_x": "3707135.83633",
    "final_y": "519800.81452",
    "longitude": "-89.98755689744237",
    "latitude": "29.92246881849731",
    "geocoded_column": {
      "latitude": "29.92246881849731",
      "longitude": "-89.98755689744237"
    }
  },
  {
    "service_request": "2024-1113344",
    "request_type": "Abandoned Vehicles",
    "request_reason": "Abandoned/Junk Vehicles",
    "date_created": "2024-07-17T14:03:52.000",
    "date_modified": "2024-07-17T14:05:32.000",
    "request_status": "Pending",
    "responsible_agency": "Department of Public Works",
    "final_address": "2641 Chelsea Dr",
    "address_councildis": "C",
    "status": "Pending",
    "rowid": "1113344",
    "final_x": "3704163.19018",
    "final_y": "521316.985593",
    "longitude": "-89.99688444450369",
    "latitude": "29.926733428132295",
    "geocoded_column": {
      "latitude": "29.926733428132295",
      "longitude": "-89.99688444450369"
    }
  },