[
  {
    "service_request": "2022-877523",
    "request_type": "Trash/Recycling",
    "request_reason": "Order Trash Cart",
    "date_created": "2022-04-25T22:51:15.000",
    "date_modified": "2022-04-25T22:51:17.000",
    "request_status": "Pending",
    "responsible_agency": "Department of Sanitation",
    "final_address": "3915 N Rocheblave St",
    "address_councildis": "D",
    "status": "Assigned to Contractor",
    "contractor": "Metro Disposal",
    "rowid": "877523",
    "final_x": "3692852.12067",
    "final_y": "540287.793867",
    "longitude": "-90.03191011694295",
    "latitude": "29.97925445860382",
    "geocoded_column": {
      "latitude": "29.97925445860382",
      "longitude": "-90.03191011694295"
    }
  },
  {
    "service_request": "2022-877522",
    "request_type": "Trash/Recycling",
    "request_reason": "Request a Large Item Pick Up",
    "date_created": "2022-04-25T22:10:16.000",
    "date_modified": "2022-04-25T22:10:18.000",
    "request_status": "Pending",
    "responsible_agency": "Department of Sanitation",
    "final_address": "4114 Stephen Girard Ave",
    "address_councildis": "D",
    "status": "Assigned to Contractor",
    "contractor": "Metro Disposal",
    "rowid": "877522",
    "final_x": "3689644.22723",
    "final_y": "549630.75074",
    "longitude": "-90.0417092382855",
    "latitude": "30.005044013193324",
    "geocoded_column": {
      "latitude": "30.005044013193324",
      "longitude": "-90.0417092382855"
    }
  },
  {
    "service_request": "2022-877521",
    "request_type": "Roads/Drainage",
    "request_reason": "Pothole",
    "date_created": "2022-04-25T21:43:26.000",
    "date_modified": "2022-04-25T21:43:26.000",
    "request_status": "Pending",
    "responsible_agency": "Department of Public Works",
    "final_address": "8222 Willow St",
    "address_councildis": "A",
    "status": "Pending",
    "rowid": "877521",
    "final_x": "3662006.35744",
    "final_y": "529232.7664",
    "longitude": "-90.12970040728487",
    "latitude": "29.949784004382035",
    "geocoded_column": {
      "latitude": "29.949784004382035",
      "longitude": "-90.12970040728487"
    }
  },
  {
    "service_request": "2022-877520",
    "request_type": "Roads/Drainage",
    "request_reason": "Street Subsidence (Sinking)",
    "date_created": "2022-04-25T21:32:46.000",
    "date_modified": "2022-04-25T21:32:46.000",
    "request_status": "Pending",
    "responsible_agency": "Department of Public Works",
    "final_address": "1030 Elysian Fields Ave",
    "address_councildis": "C",
    "status": "Pending",
    "rowid": "877520",
    "final_x": "3684922.52277",
    "final_y": "536204.889543",
    "longitude": "-90.05709847985933",
    "latitude": "29.968273155767726",
    "geocoded_column": {
      "latitude": "29.968273155767726",
      "longitude": "-90.05709847985933"
    }
  },
  {
    "service_request": "2022-877519",
    "request_type": "Trash/Recycling",
    "request_reason": "Order Recycling Cart",
    "date_created": "2022-04-25T21:27:17.000",
    "date_modified": "2022-04-25T21:27:17.000",
    "request_status": "Pending",
    "responsible_agency": "Department of Sanitation",
    "final_address": "4634 Metropolitan Dr",
    "address_councildis": "D",
    "status": "Pending",
    "rowid": "877519",
    "final_x": "3690593.36208",
    "final_y": "550773.887829",
    "longitude": "-90.03866992937742",
    "latitude": "30.008157767805688",
    "geocoded_column": {
      "latitude": "30.008157767805688",
      "longitude": "-90.03866992937742"
    }
  },
  {
    "service_request": "2022-877518",
    "request_type": "Traffic Signals/Signs/Striping/Streetlights",
    "request_reason": "Street Light Outage/Malfunction",
    "date_created": "2022-04-25T21:05:18.000",
    "date_modified": "2022-04-25T21:07:43.000",
    "request_status": "Pending",
    "responsible_agency": "Department of Public Works",
    "final_address": "7996 Pompano St",
    "address_councildis": "E",
    "status": "Pending",
    "contractor": "Royal Engineering",
    "rowid": "877518",
    "final_x": "3700086.77194",
    "final_y": "561663.254175",
    "longitude": "-90.00827969310566",
    "latitude": "30.037801003212305",
    "geocoded_column": {
      "latitude": "30.037801003212305",
      "longitude": "-90.00827969310566"
    }
  },
  {
    "service_request": "2022-877516",
    "request_type": "Traffic Signals/Signs/Striping/Streetlights",
    "request_reason": "Street Light Outage/Malfunction",
    "date_created": "2022-04-25T20:36:16.000",
    "date_modified": "2022-04-25T20:36:17.000",
    "request_status": "Pending",
    "responsible_agency": "Department of Public Works",
    "final_address": "1200 Lyons St",
    "address_councildis": "B",
    "status": "Pending",
    "contractor": "Royal Engineering",
    "rowid": "877516",
    "final_x": "3669100.80737",
    "final_y": "519693.387192",
    "longitude": "-90.10762210034963",
    "latitude": "29.923346961325585",
    "geocoded_column": {
      "latitude": "29.923346961325585",
      "longitude": "-90.10762210034963"
    }
  },
  {
    "service_request": "2022-877515",
    "request_type": "Trash/Recycling",
    "request_reason": "Replace Trash Cart",
    "date_created": "2022-04-25T20:14:39.000",
    "date_modified": "2022-04-25T20:14:43.000",
    "request_status": "Pending",
    "responsible_agency": "Department of Sanitation",
    "final_address": "1408 Constance St",
    "address_councildis": "B",
    "status": "Assigned to Contractor",
    "contractor": "Richards Disposal",
    "rowid": "877515",
    "final_x": "3680737.80437",
    "final_y": "524344.349564",
    "longitude": "-90.07072673059328",
    "latitude": "29.935788166055826",
    "geocoded_column": {
      "latitude": "29.935788166055826",
      "longitude": "-90.07072673059328"
    }
  },
  {
    "service_request": "2022-877514",
    "request_type": "Abandoned Vehicles",
    "request_reason": "Vehicle Blocking Your Driveway",
    "date_created": "2022-04-25T19:19:35.000",
    "date_modified": "2022-04-25T19:19:35.000",
    "request_status": "Pending",
    "responsible_agency": "Department of Public Works",
    "final_address": "3722 Baudin St",
    "address_councildis": "B",
    "status": "Pending",
    "rowid": "877514",
    "final_x": "3671202.86932",
    "final_y": "536195.132679",
    "longitude": "-90.10042618894157",
    "latitude": "29.96865936850606",
    "geocoded_column": {
      "latitude": "29.96865936850606",
      "longitude": "-90.10042618894157"
    }
  },
  {
    "service_request": "2022-877513",
    "request_type": "Abandoned Vehicles",
    "request_reason": "Vehicle Blocking Your Driveway",
    "date_created": "2022-04-25T19:15:47.000",
    "date_modified": "2022-04-25T19:15:47.000",
    "request_status": "Pending",
    "responsible_agency": "Department of Public Works",
    "final_address": "3722 Baudin St",
    "address_councildis": "B",
    "status": "Pending",
    "rowid": "877513",
    "final_x": "3671202.86932",
    "final_y": "536195.132679",
    "longitude": "-90.10042618894157",
    "latitude": "29.96865936850606",
    "geocoded_column": {
      "latitude": "29.96865936850606",
      "longitude": "-90.10042618894157"
    }
  },
  {
    "service_request": "2022-877512",
    "request_type": "Trash/Recycling",
    "request_reason": "Request a Large Item Pick Up",
    "date_created": "2022-04-25T19:11:40.000",
    "date_modified": "2022-04-25T19:11:42.000",
    "request_status": "Pending",
    "responsible_agency": "Department of Sanitation",
    "final_address": "7321 Dalewood Rd",
    "address_councildis": "E",
    "status": "Assigned to Contractor",
    "contractor": "Metro Disposal",
    "rowid": "877512",
    "final_x": "3700334.4314",
    "final_y": "559575.555357",
    "longitude": "-90.00757336921183",
    "latitude": "30.03205276510085",
    "geocoded_column": {
      "latitude": "30.03205276510085",
      "longitude": "-90.00757336921183"
    }
  },
  {
    "service_request": "2022-877511",
    "request_type": "Traffic Signals/Signs/Striping/Streetlights",
    "request_reason": "Street Light Outage/Malfunction",
    "date_created": "2022-04-25T18:57:34.000",
    "date_modified": "2022-04-25T18:57:35.000",
    "request_status": "Pending",
    "responsible_agency": "Department of Public Works",
    "final_address": "2127 Prytania St",
    "address_councildis": "B",
    "status": "Pending",
    "contractor": "Royal Engineering",
    "rowid": "877511",
    "final_x": "3678027.66338",
    "final_y": "523409.185339",
    "longitude": "-90.07931500393829",
    "latitude": "29.933298607130887",
    "geocoded_column": {
      "latitude": "29.933298607130887",
      "longitude": "-90.07931500393829"
    }
  },
  {
    "service_request": "2022-877510",
    "request_type": "Trash/Recycling",
    "request_reason": "Replace Trash Cart",
    "date_created": "2022-04-25T18:36:05.000",
    "date_modified": "2022-04-25T18:36:05.000",
    "request_status": "Pending",
    "responsible_agency": "Department of Sanitation",
    "final_address": "4207 Monroe St",
    "address_councildis": "A",
    "status": "Assigned to Contractor",
    "contractor": "Richards Disposal",
    "rowid": "877510",
    "final_x": "3667679.88141",
    "final_y": "537709.045192",
    "longitude": "-90.11150104088563",
    "latitude": "29.972925883323438",
    "geocoded_column": {
      "latitude": "29.972925883323438",
      "longitude": "-90.11150104088563"
    }
  },
  {
    "service_request": "2022-877509",
    "request_type": "Roads/Drainage",
    "request_reason": "Man hole cover issue",
    "date_created": "2022-04-25T18:32:50.000",
    "date_modified": "2022-04-25T18:32:50.000",
    "request_status": "Pending",
    "responsible_agency": "Department of Public Works",
    "final_address": "3427 Timber Ridge Ct",
    "address_councildis": "C",
    "status": "Pending",
    "rowid": "877509",
    "final_x": "3704293.90346",
    "final_y": "511571.15416",
    "longitude": "-89.99683066120143",
    "latitude": "29.899931544671418",
    "geocoded_column": {
      "latitude": "29.899931544671418",
      "longitude": "-89.99683066120143"
    }
  },
  {
    "service_request": "2022-877508",
    "request_type": "Abandoned Vehicles",
    "request_reason": "Abandoned/Junk Vehicles",
    "date_created": "2022-04-25T18:26:02.000",
    "date_modified": "2022-04-25T18:26:02.000",
    "request_status": "Pending",
    "responsible_agency": "Department of Public Works",
    "final_address": "301 Basin St Ste 1",
    "address_councildis": "C",
    "status": "Pending",
    "rowid": "877508",
    "final_x": "3680254.21909",
    "final_y": "532474.75066",
    "longitude": "-90.07197086077072",
    "latitude": "29.95815868996704",
    "geocoded_column": {
      "latitude": "29.95815868996704",
      "longitude": "-90.07197086077072"
    }
  },
  {
    "service_request": "2022-877507",
    "request_type": "Trash/Recycling",
    "request_reason": "Repair Trash Cart",
    "date_created": "2022-04-25T18:23:06.000",
    "date_modified": "2022-04-25T18:23:07.000",
    "request_status": "Pending",
    "responsible_agency": "Department of Sanitation",
    "final_address": "2546 Dumaine St",
    "address_councildis": "D",
    "status": "Assigned to Contractor",
    "contractor": "Richards Disposal",
    "rowid": "877507",
    "final_x": "3677637.75342",
    "final_y": "537106.053896",
    "longitude": "-90.08007298761224",
    "latitude": "29.97097213989023",
    "geocoded_column": {
      "latitude": "29.97097213989023",
      "longitude": "-90.08007298761224"
    }
  },
  {
    "service_request": "2022-877506",
    "request_type": "Roads/Drainage",
    "request_reason": "Debris in Roadway",
    "date_created": "2022-04-25T18:16:08.000",
    "date_modified": "2022-04-25T18:16:09.000",
    "request_status": "Pending",
    "responsible_agency": "Department of Public Works",
    "final_address": "200 BLK S Gayoso St",
    "address_councildis": "B",
    "status": "Pending",
    "rowid": "877506",
    "final_x": "3673975.76454",
    "final_y": "535384.810908",
    "longitude": "-90.09169694532392",
    "latitude": "29.966348927094725",
    "geocoded_column": {
      "latitude": "29.966348927094725",
      "longitude": "-90.09169694532392"
    }
  },
  {
    "service_request": "2022-877504",
    "request_type": "Roads/Drainage",
    "request_reason": "Leaking Hydrant",
    "date_created": "2022-04-25T17:59:52.000",
    "date_modified": "2022-04-25T17:59:52.000",
    "request_status": "Pending",
    "responsible_agency": "Department of Public Works",
    "final_address": "2324 Broadway St, New Orleans, Louisiana, 70125",
    "address_councildis": "A",
    "status": "Pending",
    "rowid": "877504",
    "final_x": "3666499.99905",
    "final_y": "530081.753153",
    "longitude": "-90.11548337255182",
    "latitude": "29.951987884792466",
    "geocoded_column": {
      "latitude": "29.951987884792466",
      "longitude": "-90.11548337255182"
    }
  },
  {
    "service_request": "2022-877503",
    "request_type": "Roads/Drainage",
    "request_reason": "Leaking Hydrant",
    "date_created": "2022-04-25T17:47:59.000",
    "date_modified": "2022-04-25T17:47:59.000",
    "request_status": "Pending",
    "responsible_agency": "Department of Public Works",
    "final_address": "92 Fontainebleau Dr",
    "address_councildis": "A",
    "status": "Pending",
    "rowid": "877503",
    "final_x": "3667083.64615",
    "final_y": "530541.81709",
    "longitude": "-90.11362502015767",
    "latitude": "29.953235840770787",
    "geocoded_column": {
      "latitude": "29.953235840770787",
      "longitude": "-90.11362502015767"
    }
  },
  {
    "service_request": "2022-877502",
    "request_type": "Traffic Signals/Signs/Striping/Streetlights",
    "request_reason": "Street Name Sign Damaged or Missing",
    "date_created": "2022-04-25T17:17:20.000",
    "date_modified": "2022-04-25T17:17:20.000",
    "request_status": "Pending",
    "responsible_agency": "Department of Public Works",
    "final_address": "212 Filmore Ave",
    "address_councildis": "A",
    "status": "Pending",
    "rowid": "877502",
    "final_x": "3667204.64897",
    "final_y": "552072.498646",
    "longitude": "-90.11251861383882",
    "latitude": "30.01243439027857",
    "geocoded_column": {
      "latitude": "30.01243439027857",
      "longitude": "-90.11251861383882"
    }
  },
  {
    "service_request": "2022-877501",
    "request_type": "Abandoned Vehicles",
    "request_reason": "Abandoned/Junk Vehicles",
    "date_created": "2022-04-25T17:14:25.000",
    "date_modified": "2022-04-25T17:14:25.000",
    "request_status": "Pending",
    "responsible_agency": "Department of Public Works",
    "final_address": "3300 BLK Cleveland Ave",
    "address_councildis": "B",
    "status": "Pending",
    "rowid": "877501",
    "final_x": "3673180.01056",
    "final_y": "536224.082523",
    "longitude": "-90.09418126524753",
    "latitude": "29.96868032713654",
    "geocoded_column": {
      "latitude": "29.96868032713654",
      "longitude": "-90.09418126524753"
    }
  },
  {
    "service_request": "2022-877500",
    "request_type": "Trash/Recycling",
    "request_reason": "Illegal Dumping",
    "date_created": "2022-04-25T17:11:46.000",
    "date_modified": "2022-04-25T17:11:46.000",
    "request_status": "Pending",
    "responsible_agency": "Department of Sanitation",
    "final_address": "CLEVELAND AVE & S NORMAN C FRANCIS PKWY",
    "address_councildis": "B",
    "status": "Pending",
    "rowid": "877500",
    "final_x": "3672881.2",
    "final_y": "536449.38",
    "longitude": "-90.09511723923079",
    "latitude": "29.969308701210917",
    "geocoded_column": {
      "latitude": "29.969308701210917",
      "longitude": "-90.09511723923079"
    }
  },
  {
    "service_request": "2022-877499",
    "request_type": "Traffic Signals/Signs/Striping/Streetlights",
    "request_reason": "Street Name Sign Damaged or Missing",
    "date_created": "2022-04-25T17:10:07.000",
    "date_modified": "2022-04-25T17:10:07.000",
    "request_status": "Pending",
    "responsible_agency": "Department of Public Works",
    "final_address": "301 Filmore Ave",
    "address_councildis": "A",
    "status": "Pending",
    "rowid": "877499",
    "final_x": "3667569.57607",
    "final_y": "552223.182422",
    "longitude": "-90.11136056654072",
    "latitude": "30.012838021995233",
    "geocoded_column": {
      "latitude": "30.012838021995233",
      "longitude": "-90.11136056654072"
    }
  },
  {
    "service_request": "2022-877498",
    "request_type": "Trash/Recycling",
    "request_reason": "Order Trash Cart",
    "date_created": "2022-04-25T17:05:41.000",
    "date_modified": "2022-04-25T17:05:41.000",
    "request_status": "Pending",
    "responsible_agency": "Department of Sanitation",
    "final_address": "2711 Cupid St",
    "address_councildis": "C",
    "status": "Assigned to Contractor",
    "contractor": "Richards Disposal",
    "rowid": "877498",
    "final_x": "3700271.34429",
    "final_y": "520845.131257",
    "longitude": "-90.00918708424761",
    "latitude": "29.925560231652884",
    "geocoded_column": {
      "latitude": "29.925560231652884",
      "longitude": "-90.00918708424761"
    }
  },
  {
    "service_request": "2022-877497",
    "request_type": "Roads/Drainage",
    "request_reason": "Leaking Hydrant",
    "date_created": "2022-04-25T17:02:15.000",
    "date_modified": "2022-04-25T17:02:16.000",
    "request_status": "Pending",
    "responsible_agency": "Department of Public Works",
    "final_address": "BROADWAY ST & S CLAIBORNE AVE",
    "address_councildis": "A",
    "status": "Pending",
    "rowid": "877497",
    "final_x": "3666389.3",
    "final_y": "529836.88",
    "longitude": "-90.11584112478184",
    "latitude": "29.951317797937595",
    "geocoded_column": {
      "latitude": "29.951317797937595",
      "longitude": "-90.11584112478184"
    }
  },
  {
    "service_request": "2022-877496",
    "request_type": "Traffic Signals/Signs/Striping/Streetlights",
    "request_reason": "Street Light Outage/Malfunction",
    "date_created": "2022-04-25T17:00:16.000",
    "date_modified": "2022-04-25T17:00:17.000",
    "request_status": "Pending",
    "responsible_agency": "Department of Public Works",
    "final_address": "3430 Annunciation St",
    "address_councildis": "B",
    "status": "Pending",
    "contractor": "Royal Engineering",
    "rowid": "877496",
    "final_x": "3675225.52974",
    "final_y": "518476.207606",
    "longitude": "-90.08833038432275",
    "latitude": "29.91981853873692",
    "geocoded_column": {
      "latitude": "29.91981853873692",
      "longitude": "-90.08833038432275"
    }
  },
  {
    "service_request": "2022-877495",
    "request_type": "Roads/Drainage",
    "request_reason": "Catch Basin - Broken/Damage",
    "date_created": "2022-04-25T16:54:42.000",
    "date_modified": "2022-04-25T16:54:42.000",
    "request_status": "Pending",
    "responsible_agency": "Department of Public Works",
    "final_address": "2400 BLK Perdido St",
    "address_councildis": "B",
    "status": "Pending",
    "rowid": "877495",
    "final_x": "3674760.7574",
    "final_y": "532397.193852",
    "longitude": "-90.08932037961738",
    "latitude": "29.958110571760493",
    "geocoded_column": {
      "latitude": "29.958110571760493",
      "longitude": "-90.08932037961738"
    }
  },
  {
    "service_request": "2022-877493",
    "request_type": "Trash/Recycling",
    "request_reason": "Order Trash Cart",
    "date_created": "2022-04-25T16:48:23.000",
    "date_modified": "2022-04-25T16:48:24.000",
    "request_status": "Pending",
    "responsible_agency": "Department of Sanitation",
    "final_address": "3720 Cadillac St",
    "address_councildis": "D",
    "status": "Assigned to Contractor",
    "contractor": "Metro Disposal",
    "rowid": "877493",
    "final_x": "3676973.76789",
    "final_y": "545853.595408",
    "longitude": "-90.08186821680907",
    "latitude": "29.99504480285131",
    "geocoded_column": {
      "latitude": "29.99504480285131",
      "longitude": "-90.08186821680907"
    }
  },
  {
    "service_request": "2022-877492",
    "request_type": "Roads/Drainage",
    "request_reason": "Damaged Sidewalk",
    "date_created": "2022-04-25T16:46:28.000",
    "date_modified": "2022-04-25T16:46:28.000",
    "request_status": "Pending",
    "responsible_agency": "Department of Public Works",
    "final_address": "3521 Hyman Ct",
    "address_councildis": "C",
    "status": "Pending",
    "rowid": "877492",
    "final_x": "3700864.94135",
    "final_y": "518044.295734",
    "longitude": "-90.00741560157614",
    "latitude": "29.917840020019778",
    "geocoded_column": {
      "latitude": "29.917840020019778",
      "longitude": "-90.00741560157614"
    }
  },
  {
    "service_request": "2022-877491",
    "request_type": "Traffic Signals/Signs/Striping/Streetlights",
    "request_reason": "Street Light Outage/Malfunction",
    "date_created": "2022-04-25T16:42:56.000",
    "date_modified": "2022-04-25T16:42:56.000",
    "request_status": "Pending",
    "responsible_agency": "Department of Public Works",
    "final_address": "300 Filmore Ave",
    "address_councildis": "A",
    "status": "Pending",
    "contractor": "Royal Engineering",
    "rowid": "877491",
    "final_x": "3667540.07809",
    "final_y": "552065.409622",
    "longitude": "-90.1114590799534",
    "latitude": "30.01240506709764",
    "geocoded_column": {
      "latitude": "30.01240506709764",
      "longitude": "-90.1114590799534"
    }
  },
  {
    "service_request": "2022-877489",
    "request_type": "Traffic Signals/Signs/Striping/Streetlights",
    "request_reason": "Traffic Signal Malfunctioning/Damaged",
    "date_created": "2022-04-25T16:38:27.000",
    "date_modified": "2022-04-25T16:38:27.000",
    "request_status": "Pending",
    "responsible_agency": "Department of Public Works",
    "final_address": "8015 Burthe St, New Orleans, Louisiana, 70118",
    "address_councildis": "A",
    "status": "Pending",
    "rowid": "877489",
    "final_x": "3661501.27994",
    "final_y": "527432.263743",
    "longitude": "-90.13135481273223",
    "latitude": "29.94484777639345",
    "geocoded_column": {
      "latitude": "29.94484777639345",
      "longitude": "-90.13135481273223"
    }
  },
  {
    "service_request": "2022-877488",
    "request_type": "Traffic Signals/Signs/Striping/Streetlights",
    "request_reason": "Street Light Knocked Down/Leaning",
    "date_created": "2022-04-25T16:37:52.000",
    "date_modified": "2022-04-25T16:37:53.000",
    "request_status": "Pending",
    "responsible_agency": "Department of Public Works",
    "final_address": "631 Toulouse St",
    "address_councildis": "C",
    "status": "Pending",
    "contractor": "Royal Engineering",
    "rowid": "877488",
    "final_x": "3682424.36783",
    "final_y": "532113.034691",
    "longitude": "-90.06513077806487",
    "latitude": "29.95709822808299",
    "geocoded_column": {
      "latitude": "29.95709822808299",
      "longitude": "-90.06513077806487"
    }
  },
  {
    "service_request": "2022-877487",
    "request_type": "Abandoned Vehicles",
    "request_reason": "Abandoned/Junk Vehicles",
    "date_created": "2022-04-25T16:36:12.000",
    "date_modified": "2022-04-25T16:36:12.000",
    "request_status": "Pending",
    "responsible_agency": "Department of Public Works",
    "final_address": "2222 Felicity St",
    "address_councildis": "B",
    "status": "Pending",
    "rowid": "877487",
    "final_x": "3676491.91637",
    "final_y": "526508.438462",
    "longitude": "-90.08405659174089",
    "latitude": "29.94186666141937",
    "geocoded_column": {
      "latitude": "29.94186666141937",
      "longitude": "-90.08405659174089"
    }
  },
  {
    "service_request": "2022-877486",
    "request_type": "Roads/Drainage",
    "request_reason": "Pothole",
    "date_created": "2022-04-25T16:35:11.000",
    "date_modified": "2022-04-25T16:35:11.000",
    "request_status": "Pending",
    "responsible_agency": "Department of Public Works",
    "final_address": "928 John Churchill Chase St",
    "address_councildis": "B",
    "status": "Pending",
    "rowid": "877486",
    "final_x": "3681340.43055",
    "final_y": "526135.096062",
    "longitude": "-90.06876183889936",
    "latitude": "29.94069385101347",
    "geocoded_column": {
      "latitude": "29.94069385101347",
      "longitude": "-90.06876183889936"
    }
  },
  {
    "service_request": "2022-877485",
    "request_type": "Property Maintenance",
    "request_reason": "Property Maintenance",
    "date_created": "2022-04-25T16:34:20.000",
    "date_modified": "2022-04-25T16:34:20.000",
    "request_status": "Pending",
    "responsible_agency": "Department of Code Enforcement",
    "final_address": "6262 Prytania St",
    "address_councildis": "A",
    "status": "Pending",
    "rowid": "877485",
    "final_x": "3664176.20084",
    "final_y": "521217.300857",
    "longitude": "-90.12311648901333",
    "latitude": "29.92768117676421",
    "geocoded_column": {
      "latitude": "29.92768117676421",
      "longitude": "-90.12311648901333"
    }
  },
  {
    "service_request": "2022-877484",
    "request_type": "Health Related Questions",
    "request_reason": "Noise Ordinance Complaint",
    "date_created": "2022-04-25T16:32:05.000",
    "date_modified": "2022-04-25T16:32:06.000",
    "request_status": "Pending",
    "responsible_agency": "Health Department",
    "final_address": "8111 Lomond Rd",
    "address_councildis": "E",
    "status": "Pending",
    "rowid": "877484",
    "final_x": "3702570.04663",
    "final_y": "561598.305119",
    "longitude": "-90.0004343782748",
    "latitude": "30.03754322492026",
    "geocoded_column": {
      "latitude": "30.03754322492026",
      "longitude": "-90.0004343782748"
    }
  },
  {
    "service_request": "2022-877483",
    "request_type": "Traffic Signals/Signs/Striping/Streetlights",
    "request_reason": "Street Light Outage/Malfunction",
    "date_created": "2022-04-25T16:29:19.000",
    "date_modified": "2022-04-25T16:29:21.000",
    "request_status": "Pending",
    "responsible_agency": "Department of Public Works",
    "final_address": "1135 Henry Clay Ave",
    "address_councildis": "A",
    "status": "Pending",
    "contractor": "Royal Engineering",
    "rowid": "877483",
    "final_x": "3664328.40576",
    "final_y": "520776.845369",
    "longitude": "-90.12265070344512",
    "latitude": "29.926465641530474",
    "geocoded_column": {
      "latitude": "29.926465641530474",
      "longitude": "-90.12265070344512"
    }
  },
  {
    "service_request": "2022-877482",
    "request_type": "Traffic Signals/Signs/Striping/Streetlights",
    "request_reason": "Street Light Outage/Malfunction",
    "date_created": "2022-04-25T16:23:38.000",
    "date_modified": "2022-04-25T16:23:39.000",
    "request_status": "Pending",
    "responsible_agency": "Department of Public Works",
    "final_address": "1820 Wagner St",
    "address_councildis": "C",
    "status": "Pending",
    "contractor": "Royal Engineering",
    "rowid": "877482",
    "final_x": "3690371.36649",
    "final_y": "524156.398844",
    "longitude": "-90.04032021595079",
    "latitude": "29.934975965315214",
    "geocoded_column": {
      "latitude": "29.934975965315214",
      "longitude": "-90.04032021595079"
    }
  },
  {
    "service_request": "2022-877481",
    "request_type": "Traffic Signals/Signs/Striping/Streetlights",
    "request_reason": "Street Light Outage/Malfunction",
    "date_created": "2022-04-25T16:22:44.000",
    "date_modified": "2022-04-25T16:22:45.000",
    "request_status": "Pending",
    "responsible_agency": "Department of Public Works",
    "final_address": "1800 Wagner St",
    "address_councildis": "C",
    "status": "Pending",
    "contractor": "Royal Engineering",
    "rowid": "877481",
    "final_x": "3690380.11817",
    "final_y": "524360.985852",
    "longitude": "-90.04028529851878",
    "latitude": "29.93553823867745",
    "geocoded_column": {
      "latitude": "29.93553823867745",
      "longitude": "-90.04028529851878"
    }
  },
  {
    "service_request": "2022-877480",
    "request_type": "Trash/Recycling",
    "request_reason": "Illegal Dumping",
    "date_created": "2022-04-25T16:22:21.000",
    "date_modified": "2022-04-25T16:22:21.000",
    "request_status": "Pending",
    "responsible_agency": "Department of Sanitation",
    "final_address": "1141 Philip St",
    "address_councildis": "B",
    "status": "Pending",
    "rowid": "877480",
    "final_x": "3678363.09083",
    "final_y": "522133.069562",
    "longitude": "-90.07830020534318",
    "latitude": "29.92977960854176",
    "geocoded_column": {
      "latitude": "29.92977960854176",
      "longitude": "-90.07830020534318"
    }
  },
  {
    "service_request": "2022-877479",
    "request_type": "Traffic Signals/Signs/Striping/Streetlights",
    "request_reason": "Road Surface Marking Maintenance-Bike Lane",
    "date_created": "2022-04-25T16:16:46.000",
    "date_modified": "2022-04-25T16:16:46.000",
    "request_status": "Pending",
    "responsible_agency": "Department of Public Works",
    "final_address": "137 Carondelet St",
    "address_councildis": "B",
    "status": "Pending",
    "rowid": "877479",
    "final_x": "3680657.90063",
    "final_y": "530627.315778",
    "longitude": "-90.07076042632751",
    "latitude": "29.953066644128384",
    "geocoded_column": {
      "latitude": "29.953066644128384",
      "longitude": "-90.07076042632751"
    }
  },
  {
    "service_request": "2022-877478",
    "request_type": "Trash/Recycling",
    "request_reason": "Request a Large Item Pick Up",
    "date_created": "2022-04-25T16:14:54.000",
    "date_modified": "2022-04-25T16:14:55.000",
    "request_status": "Pending",
    "responsible_agency": "Department of Sanitation",
    "final_address": "8000 Nelson St",
    "address_councildis": "A",
    "status": "Assigned to Contractor",
    "contractor": "Richards Disposal",
    "rowid": "877478",
    "final_x": "3665397.29492",
    "final_y": "531537.851395",
    "longitude": "-90.11891647859561",
    "latitude": "29.9560238613822",
    "geocoded_column": {
      "latitude": "29.9560238613822",
      "longitude": "-90.11891647859561"
    }
  },
  {
    "service_request": "2022-877477",
    "request_type": "Roads/Drainage",
    "request_reason": "Road Shoulder Repair",
    "date_created": "2022-04-25T16:10:07.000",
    "date_modified": "2022-04-25T16:10:07.000",
    "request_status": "Pending",
    "responsible_agency": "Department of Public Works",
    "final_address": "4405 Annunciation St",
    "address_councildis": "B",
    "status": "Pending",
    "rowid": "877477",
    "final_x": "3671039.32155",
    "final_y": "517779.281398",
    "longitude": "-90.10156787893925",
    "latitude": "29.918026617644397",
    "geocoded_column": {
      "latitude": "29.918026617644397",
      "longitude": "-90.10156787893925"
    }
  },
  {
    "service_request": "2022-877475",
    "request_type": "Trash/Recycling",
    "request_reason": "Replace Trash Cart",
    "date_created": "2022-04-25T16:05:26.000",
    "date_modified": "2022-04-25T16:05:27.000",
    "request_status": "Pending",
    "responsible_agency": "Department of Sanitation",
    "final_address": "8535 Nelson St",
    "address_councildis": "A",
    "status": "Assigned to Contractor",
    "contractor": "Richards Disposal",
    "rowid": "877475",
    "final_x": "3663963.12083",
    "final_y": "532953.06554",
    "longitude": "-90.12339794099707",
    "latitude": "29.959956956540914",
    "geocoded_column": {
      "latitude": "29.959956956540914",
      "longitude": "-90.12339794099707"
    }
  },
  {
    "service_request": "2022-877474",
    "request_type": "Trash/Recycling",
    "request_reason": "Request a Large Item Pick Up",
    "date_created": "2022-04-25T16:03:05.000",
    "date_modified": "2022-04-25T16:03:05.000",
    "request_status": "Pending",
    "responsible_agency": "Department of Sanitation",
    "final_address": "4019 Camp St",
    "address_councildis": "B",
    "status": "Assigned to Contractor",
    "contractor": "Richards Disposal",
    "rowid": "877474",
    "final_x": "3672317.34177",
    "final_y": "519328.154231",
    "longitude": "-90.09748112756186",
    "latitude": "29.922247686165274",
    "geocoded_column": {
      "latitude": "29.922247686165274",
      "longitude": "-90.09748112756186"
    }
  },
  {
    "service_request": "2022-877472",
    "request_type": "Trash/Recycling",
    "request_reason": "Order Recycling Cart",
    "date_created": "2022-04-25T15:59:01.000",
    "date_modified": "2022-04-25T15:59:01.000",
    "request_status": "Pending",
    "responsible_agency": "Department of Sanitation",
    "final_address": "1501 Mazant St",
    "address_councildis": "D",
    "status": "Pending",
    "rowid": "877472",
    "final_x": "3692523.44329",
    "final_y": "536741.477383",
    "longitude": "-90.03307530545969",
    "latitude": "29.96951361065496",
    "geocoded_column": {
      "latitude": "29.96951361065496",
      "longitude": "-90.03307530545969"
    }
  },
  {
    "service_request": "2022-877470",
    "request_type": "Roads/Drainage",
    "request_reason": "Debris in Roadway",
    "date_created": "2022-04-25T15:54:12.000",
    "date_modified": "2022-04-25T15:54:12.000",
    "request_status": "Pending",
    "responsible_agency": "Department of Public Works",
    "final_address": "2523 Rousseau St",
    "address_councildis": "B",
    "status": "Pending",
    "rowid": "877470",
    "final_x": "3678878.9773",
    "final_y": "519372.315959",
    "longitude": "-90.07676721507802",
    "latitude": "29.922172888955373",
    "geocoded_column": {
      "latitude": "29.922172888955373",
      "longitude": "-90.07676721507802"
    }
  },
  {
    "service_request": "2022-877469",
    "request_type": "Roads/Drainage",
    "request_reason": "Pothole",
    "date_created": "2022-04-25T15:53:57.000",
    "date_modified": "2022-04-25T15:53:57.000",
    "request_status": "Pending",
    "responsible_agency": "Department of Public Works",
    "final_address": "1239 Tchoupitoulas St",
    "address_councildis": "B",
    "status": "Pending",
    "rowid": "877469",
    "final_x": "3681946.49448",
    "final_y": "525211.652605",
    "longitude": "-90.06688061617892",
    "latitude": "29.938136283935638",
    "geocoded_column": {
      "latitude": "29.938136283935638",
      "longitude": "-90.06688061617892"
    }
  },
  {
    "service_request": "2022-877468",
    "request_type": "Trash/Recycling",
    "request_reason": "Order Trash Cart",
    "date_created": "2022-04-25T15:52:37.000",
    "date_modified": "2022-04-25T15:52:38.000",
    "request_status": "Pending",
    "responsible_agency": "Department of Sanitation",
    "final_address": "2022 Governor Nicholls St",
    "address_councildis": "D",
    "status": "Assigned to Contractor",
    "contractor": "Richards Disposal",
    "rowid": "877468",
    "final_x": "3679845.46159",
    "final_y": "536800.840456",
    "longitude": "-90.07311136151317",
    "latitude": "29.970066327797305",
    "geocoded_column": {
      "latitude": "29.970066327797305",
      "longitude": "-90.07311136151317"
    }
  },
  {
    "service_request": "2022-877467",
    "request_type": "Trash/Recycling",
    "request_reason": "Order Recycling Cart",
    "date_created": "2022-04-25T15:51:44.000",
    "date_modified": "2022-04-25T15:51:45.000",
    "request_status": "Pending",
    "responsible_agency": "Department of Sanitation",
    "final_address": "2022 Governor Nicholls St",
    "address_councildis": "D",
    "status": "Pending",
    "rowid": "877467",
    "final_x": "3679845.46159",
    "final_y": "536800.840456",
    "longitude": "-90.07311136151317",
    "latitude": "29.970066327797305",
    "geocoded_column": {
      "latitude": "29.970066327797305",
      "longitude": "-90.07311136151317"
    }
  },
  {
    "service_request": "2022-877466",
    "request_type": "Trash/Recycling",
    "request_reason": "Replace Trash Cart",
    "date_created": "2022-04-25T15:51:28.000",
    "date_modified": "2022-04-25T15:51:29.000",
    "request_status": "Pending",
    "responsible_agency": "Department of Sanitation",
    "final_address": "1867 N Dupre St",
    "address_councildis": "D",
    "status": "Assigned to Contractor",
    "contractor": "Metro Disposal",
    "rowid": "877466",
    "final_x": "3679702.12315",
    "final_y": "542267.692557",
    "longitude": "-90.07337419525483",
    "latitude": "29.985102612099887",
    "geocoded_column": {
      "latitude": "29.985102612099887",
      "longitude": "-90.07337419525483"
    }
  },
  {
    "service_request": "2022-877465",
    "request_type": "Parks & Parkways",
    "request_reason": "Request Tree Service (Right of Way/Public Property)",
    "date_created": "2022-04-25T15:50:51.000",
    "date_modified": "2022-04-25T15:50:52.000",
    "request_status": "Pending",
    "responsible_agency": "Department of Parks & Parkway",
    "final_address": "1300 BLK Henry Clay Ave",
    "address_councildis": "A",
    "status": "Pending",
    "rowid": "877465",
    "final_x": "3664474.61819",
    "final_y": "521313.932554",
    "longitude": "-90.122171228588",
    "latitude": "29.92793821361152",
    "geocoded_column": {
      "latitude": "29.92793821361152",
      "longitude": "-90.122171228588"
    }
  },
  {
    "service_request": "2022-877463",
    "request_type": "Property Maintenance",
    "request_reason": "Property Maintenance",
    "date_created": "2022-04-25T15:48:38.000",
    "date_modified": "2022-04-25T15:48:38.000",
    "request_status": "Pending",
    "responsible_agency": "Department of Code Enforcement",
    "final_address": "3325 N Miro St",
    "address_councildis": "D",
    "status": "Pending",
    "rowid": "877463",
    "final_x": "3691094.7398",
    "final_y": "539937.42401",
    "longitude": "-90.03747310893485",
    "latitude": "29.97834583230723",
    "geocoded_column": {
      "latitude": "29.97834583230723",
      "longitude": "-90.03747310893485"
    }
  },
  {
    "service_request": "2022-877461",
    "request_type": "Trash/Recycling",
    "request_reason": "Replace Trash Cart",
    "date_created": "2022-04-25T15:45:57.000",
    "date_modified": "2022-04-25T15:45:58.000",
    "request_status": "Pending",
    "responsible_agency": "Department of Sanitation",
    "final_address": "7100 General Diaz St",
    "address_councildis": "A",
    "status": "Assigned to Contractor",
    "contractor": "Metro Disposal",
    "rowid": "877461",
    "final_x": "3670068.35514",
    "final_y": "554267.537304",
    "longitude": "-90.10339643311849",
    "latitude": "30.018385764567693",
    "geocoded_column": {
      "latitude": "30.018385764567693",
      "longitude": "-90.10339643311849"
    }
  },
  {
    "service_request": "2022-877460",
    "request_type": "Trash/Recycling",
    "request_reason": "Repair Recycling Cart",
    "date_created": "2022-04-25T15:43:04.000",
    "date_modified": "2022-04-25T15:47:18.000",
    "request_status": "Pending",
    "responsible_agency": "Department of Sanitation",
    "final_address": "New Orleans,LA",
    "rowid": "877460",
    "longitude": "0.0",
    "latitude": "0.0",
    "geocoded_column": {
      "latitude": "0.0",
      "longitude": "0.0"
    }
  },
  {
    "service_request": "2022-877459",
    "request_type": "Trash/Recycling",
    "request_reason": "Request a Large Item Pick Up",
    "date_created": "2022-04-25T15:41:19.000",
    "date_modified": "2022-04-25T15:41:20.000",
    "request_status": "Pending",
    "responsible_agency": "Department of Sanitation",
    "final_address": "4212 Downman Rd",
    "address_councildis": "D",
    "status": "Assigned to Contractor",
    "contractor": "Metro Disposal",
    "rowid": "877459",
    "final_x": "3695999.68125",
    "final_y": "552697.49167",
    "longitude": "-90.02152022053197",
    "latitude": "30.013277889730894",
    "geocoded_column": {
      "latitude": "30.013277889730894",
      "longitude": "-90.02152022053197"
    }
  },
  {
    "service_request": "2022-877458",
    "request_type": "Trash/Recycling",
    "request_reason": "Request a Large Item Pick Up",
    "date_created": "2022-04-25T15:37:41.000",
    "date_modified": "2022-04-25T15:37:42.000",
    "request_status": "Pending",
    "responsible_agency": "Department of Sanitation",
    "final_address": "440 Belleville St",
    "address_councildis": "C",
    "status": "Assigned to Contractor",
    "contractor": "Richards Disposal",
    "rowid": "877458",
    "final_x": "3687901.58838",
    "final_y": "530013.871937",
    "longitude": "-90.04790981564601",
    "latitude": "29.95115842806222",
    "geocoded_column": {
      "latitude": "29.95115842806222",
      "longitude": "-90.04790981564601"
    }
  },
  {
    "service_request": "2022-877457",
    "request_type": "Trash/Recycling",
    "request_reason": "Order Recycling Cart",
    "date_created": "2022-04-25T15:35:34.000",
    "date_modified": "2022-04-25T15:35:35.000",
    "request_status": "Pending",
    "responsible_agency": "Department of Sanitation",
    "final_address": "2317 Franklin Ave",
    "address_councildis": "D",
    "status": "Pending",
    "rowid": "877457",
    "final_x": "3687629.3903",
    "final_y": "541094.125452",
    "longitude": "-90.04837694436398",
    "latitude": "29.9816336570886",
    "geocoded_column": {
      "latitude": "29.9816336570886",
      "longitude": "-90.04837694436398"
    }
  },
  {
    "service_request": "2022-877456",
    "request_type": "Abandoned Vehicles",
    "request_reason": "Abandoned/Junk Vehicles",
    "date_created": "2022-04-25T15:34:13.000",
    "date_modified": "2022-04-25T15:34:13.000",
    "request_status": "Pending",
    "responsible_agency": "Department of Public Works",
    "final_address": "1322 General Ogden St",
    "address_councildis": "A",
    "status": "Pending",
    "rowid": "877456",
    "final_x": "3660211.81728",
    "final_y": "530711.924994",
    "longitude": "-90.135317795814",
    "latitude": "29.953902927327817",
    "geocoded_column": {
      "latitude": "29.953902927327817",
      "longitude": "-90.135317795814"
    }
  },
  {
    "service_request": "2022-877455",
    "request_type": "Traffic Signals/Signs/Striping/Streetlights",
    "request_reason": "Street Light Outage/Malfunction",
    "date_created": "2022-04-25T15:27:56.000",
    "date_modified": "2022-04-25T15:27:57.000",
    "request_status": "Pending",
    "responsible_agency": "Department of Public Works",
    "final_address": "2241 New York St",
    "address_councildis": "D",
    "status": "Pending",
    "contractor": "Royal Engineering",
    "rowid": "877455",
    "final_x": "3683786.60117",
    "final_y": "556685.600474",
    "longitude": "-90.05996699147818",
    "latitude": "30.024622527963842",
    "geocoded_column": {
      "latitude": "30.024622527963842",
      "longitude": "-90.05996699147818"
    }
  },
  {
    "service_request": "2022-877454",
    "request_type": "Taxi Issues",
    "request_reason": "Taxi Lost & Found Item",
    "date_created": "2022-04-25T15:27:55.000",
    "date_modified": "2022-04-25T15:27:56.000",
    "request_status": "Pending",
    "responsible_agency": "Ground Transportation Bureau",
    "status": "Pending",
    "rowid": "877454",
    "longitude": "0.0",
    "latitude": "0.0",
    "geocoded_column": {
      "latitude": "0.0",
      "longitude": "0.0"
    }
  },
  {
    "service_request": "2022-877453",
    "request_type": "Trash/Recycling",
    "request_reason": "Missed Trash Pick-Up",
    "date_created": "2022-04-25T15:25:33.000",
    "date_modified": "2022-04-25T15:25:34.000",
    "request_status": "Pending",
    "responsible_agency": "Department of Sanitation",
    "final_address": "2800 BLK Mistletoe St",
    "address_councildis": "A",
    "status": "Assigned to Contractor",
    "contractor": "Richards Disposal",
    "rowid": "877453",
    "final_x": "3663079.76435",
    "final_y": "535364.741066",
    "longitude": "-90.12610716527223",
    "latitude": "29.96661389398621",
    "geocoded_column": {
      "latitude": "29.96661389398621",
      "longitude": "-90.12610716527223"
    }
  },
  {
    "service_request": "2022-877452",
    "request_type": "Trash/Recycling",
    "request_reason": "Request a Large Item Pick Up",
    "date_created": "2022-04-25T15:16:24.000",
    "date_modified": "2022-04-25T15:16:24.000",
    "request_status": "Pending",
    "responsible_agency": "Department of Sanitation",
    "final_address": "6418 General Diaz St",
    "address_councildis": "A",
    "status": "Assigned to Contractor",
    "contractor": "Metro Disposal",
    "rowid": "877452",
    "final_x": "3669697.58119",
    "final_y": "550113.387988",
    "longitude": "-90.10470868420808",
    "latitude": "30.006974256832397",
    "geocoded_column": {
      "latitude": "30.006974256832397",
      "longitude": "-90.10470868420808"
    }
  },
  {
    "service_request": "2022-877451",
    "request_type": "Roads/Drainage",
    "request_reason": "Accessibility Ramps, Curbs and Sidewalk Repair",
    "date_created": "2022-04-25T15:07:33.000",
    "date_modified": "2022-04-25T15:08:55.000",
    "case_close_date": "2022-04-25T10:08:55.000",
    "request_status": "Closed",
    "responsible_agency": "Department of Public Works",
    "final_address": "936 St Charles Ave",
    "address_councildis": "B",
    "status": "Duplicate Request",
    "rowid": "877451",
    "final_x": "3680311.02203",
    "final_y": "527218.761855",
    "longitude": "-90.07197419475932",
    "latitude": "29.943704769151296",
    "geocoded_column": {
      "latitude": "29.943704769151296",
      "longitude": "-90.07197419475932"
    }
  },
  {
    "service_request": "2022-877450",
    "request_type": "Property Maintenance",
    "request_reason": "Property Maintenance",
    "date_created": "2022-04-25T15:04:58.000",
    "date_modified": "2022-04-25T15:04:58.000",
    "request_status": "Pending",
    "responsible_agency": "Department of Code Enforcement",
    "final_address": "614 Tchoupitoulas St",
    "address_councildis": "B",
    "status": "Pending",
    "rowid": "877450",
    "final_x": "3681811.86344",
    "final_y": "528482.967808",
    "longitude": "-90.06719153673302",
    "latitude": "29.94713539741835",
    "geocoded_column": {
      "latitude": "29.94713539741835",
      "longitude": "-90.06719153673302"
    }
  },
  {
    "service_request": "2022-877449",
    "request_type": "Trash/Recycling",
    "request_reason": "Repair Trash Cart",
    "date_created": "2022-04-25T15:01:52.000",
    "date_modified": "2022-04-25T15:01:53.000",
    "request_status": "Pending",
    "responsible_agency": "Department of Sanitation",
    "final_address": "4949 Debore Cir",
    "address_councildis": "D",
    "status": "Assigned to Contractor",
    "contractor": "Metro Disposal",
    "rowid": "877449",
    "final_x": "3692425.23875",
    "final_y": "552541.39375",
    "longitude": "-90.03281911338102",
    "latitude": "30.01296071454015",
    "geocoded_column": {
      "latitude": "30.01296071454015",
      "longitude": "-90.03281911338102"
    }
  },
  {
    "service_request": "2022-877445",
    "request_type": "Abandoned Vehicles",
    "request_reason": "Abandoned/Junk Vehicles",
    "date_created": "2022-04-25T14:39:40.000",
    "date_modified": "2022-04-25T14:42:05.000",
    "request_status": "Pending",
    "responsible_agency": "Department of Public Works",
    "final_address": "4113 N Villere St",
    "address_councildis": "D",
    "status": "Pending",
    "rowid": "877445",
    "final_x": "3692555.22025",
    "final_y": "536346.490887",
    "longitude": "-90.03298910754238",
    "latitude": "29.9684265459535",
    "geocoded_column": {
      "latitude": "29.9684265459535",
      "longitude": "-90.03298910754238"
    }
  },
  {
    "service_request": "2022-877444",
    "request_type": "Abandoned Vehicles",
    "request_reason": "Vehicle Blocking Your Driveway",
    "date_created": "2022-04-25T14:29:52.000",
    "date_modified": "2022-04-25T14:29:52.000",
    "request_status": "Pending",
    "responsible_agency": "Department of Public Works",
    "final_address": "608 Tchoupitoulas St",
    "address_councildis": "B",
    "status": "Pending",
    "rowid": "877444",
    "final_x": "3681816.77039",
    "final_y": "528529.583552",
    "longitude": "-90.06717441727928",
    "latitude": "29.947263425951",
    "geocoded_column": {
      "latitude": "29.947263425951",
      "longitude": "-90.06717441727928"
    }
  },
  {
    "service_request": "2022-877443",
    "request_type": "Trash/Recycling",
    "request_reason": "Missed Trash Pick-Up",
    "date_created": "2022-04-25T14:29:37.000",
    "date_modified": "2022-04-25T14:29:38.000",
    "request_status": "Pending",
    "responsible_agency": "Department of Sanitation",
    "final_address": "3226 Dante St",
    "address_councildis": "A",
    "status": "Assigned to Contractor",
    "contractor": "Richards Disposal",
    "rowid": "877443",
    "final_x": "3666342.33159",
    "final_y": "534316.795973",
    "longitude": "-90.11583912894767",
    "latitude": "29.963637472271326",
    "geocoded_column": {
      "latitude": "29.963637472271326",
      "longitude": "-90.11583912894767"
    }
  },
  {
    "service_request": "2022-877442",
    "request_type": "Trash/Recycling",
    "request_reason": "Request a Large Item Pick Up",
    "date_created": "2022-04-25T14:28:56.000",
    "date_modified": "2022-04-25T14:28:57.000",
    "request_status": "Pending",
    "responsible_agency": "Department of Sanitation",
    "final_address": "2529 Burgundy St Apt A",
    "address_councildis": "C",
    "status": "Assigned to Contractor",
    "contractor": "Metro Disposal",
    "rowid": "877442",
    "final_x": "3686800.4063",
    "final_y": "535803.551047",
    "longitude": "-90.05118223653677",
    "latitude": "29.96711196971916",
    "geocoded_column": {
      "latitude": "29.96711196971916",
      "longitude": "-90.05118223653677"
    }
  },
  {
    "service_request": "2022-877441",
    "request_type": "Trash/Recycling",
    "request_reason": "MIssed Recycling Pick-Up",
    "date_created": "2022-04-25T14:21:40.000",
    "date_modified": "2022-04-25T14:21:42.000",
    "request_status": "Pending",
    "responsible_agency": "Department of Sanitation",
    "final_address": "1119 N Galvez St",
    "address_councildis": "D",
    "status": "Assigned to Contractor",
    "contractor": "Richards Disposal",
    "rowid": "877441",
    "final_x": "3679297.98357",
    "final_y": "537100.93204",
    "longitude": "-90.07482994332037",
    "latitude": "29.970908021822417",
    "geocoded_column": {
      "latitude": "29.970908021822417",
      "longitude": "-90.07482994332037"
    }
  },
  {
    "service_request": "2022-877440",
    "request_type": "Trash/Recycling",
    "request_reason": "Request a Large Item Pick Up",
    "date_created": "2022-04-25T14:17:26.000",
    "date_modified": "2022-04-25T16:03:19.000",
    "request_status": "Pending",
    "responsible_agency": "Department of Sanitation",
    "final_address": "2814 Milan St, New Orleans, Louisiana, 70115",
    "address_councildis": "B",
    "status": "Assigned to Contractor",
    "contractor": "Richards Disposal",
    "rowid": "877440",
    "final_x": "3671113.47892",
    "final_y": "525286.454781",
    "longitude": "-90.10107897281598",
    "latitude": "29.938666746737002",
    "geocoded_column": {
      "latitude": "29.938666746737002",
      "longitude": "-90.10107897281598"
    }
  },
  {
    "service_request": "2022-877437",
    "request_type": "Parks & Parkways",
    "request_reason": "Request Tree Service (Right of Way/Public Property)",
    "date_created": "2022-04-25T14:13:31.000",
    "date_modified": "2022-04-25T14:13:32.000",
    "request_status": "Pending",
    "responsible_agency": "Department of Parks & Parkway",
    "final_address": "6905 Lake Willow Dr",
    "address_councildis": "E",
    "status": "Pending",
    "rowid": "877437",
    "final_x": "3703105.84932",
    "final_y": "558826.114204",
    "longitude": "-89.99884315802922",
    "latitude": "30.029903633175525",
    "geocoded_column": {
      "latitude": "30.029903633175525",
      "longitude": "-89.99884315802922"
    }
  },
  {
    "service_request": "2022-877436",
    "request_type": "Abandoned Vehicles",
    "request_reason": "Abandoned/Junk Vehicles",
    "date_created": "2022-04-25T14:13:06.000",
    "date_modified": "2022-04-25T14:13:06.000",
    "request_status": "Pending",
    "responsible_agency": "Department of Public Works",
    "final_address": "2335 N Derbigny St",
    "address_councildis": "D",
    "status": "Pending",
    "rowid": "877436",
    "final_x": "3685887.84278",
    "final_y": "538630.365321",
    "longitude": "-90.05396443909586",
    "latitude": "29.97491276872054",
    "geocoded_column": {
      "latitude": "29.97491276872054",
      "longitude": "-90.05396443909586"
    }
  },
  {
    "service_request": "2022-877435",
    "request_type": "Trash/Recycling",
    "request_reason": "Replace Trash Cart",
    "date_created": "2022-04-25T14:10:01.000",
    "date_modified": "2022-04-25T14:10:02.000",
    "request_status": "Pending",
    "responsible_agency": "Department of Sanitation",
    "final_address": "2521 St Ann St",
    "address_councildis": "D",
    "status": "Assigned to Contractor",
    "contractor": "Richards Disposal",
    "rowid": "877435",
    "final_x": "3677618.36878",
    "final_y": "536751.835272",
    "longitude": "-90.08014644154235",
    "latitude": "29.96999874267174",
    "geocoded_column": {
      "latitude": "29.96999874267174",
      "longitude": "-90.08014644154235"
    }
  },
  {
    "service_request": "2022-877434",
    "request_type": "Trash/Recycling",
    "request_reason": "Replace Trash Cart",
    "date_created": "2022-04-25T14:07:40.000",
    "date_modified": "2022-04-25T14:07:41.000",
    "request_status": "Pending",
    "responsible_agency": "Department of Sanitation",
    "final_address": "3427 Cecil St, New Orleans, Louisiana, 70118",
    "address_councildis": "A",
    "status": "Assigned to Contractor",
    "contractor": "Richards Disposal",
    "rowid": "877434",
    "final_x": "3663454.62656",
    "final_y": "537948.853193",
    "longitude": "-90.1248372795161",
    "latitude": "29.973708484538232",
    "geocoded_column": {
      "latitude": "29.973708484538232",
      "longitude": "-90.1248372795161"
    }
  },
  {
    "service_request": "2022-877433",
    "request_type": "Abandoned Vehicles",
    "request_reason": "Abandoned/Junk Vehicles",
    "date_created": "2022-04-25T14:01:30.000",
    "date_modified": "2022-04-25T14:06:28.000",
    "request_status": "Pending",
    "responsible_agency": "Department of Public Works",
    "status": "Inspected",
    "rowid": "877433",
    "longitude": "0.0",
    "latitude": "0.0",
    "geocoded_column": {
      "latitude": "0.0",
      "longitude": "0.0"
    }
  },
  {
    "service_request": "2022-877432",
    "request_type": "Trash/Recycling",
    "request_reason": "Request a Large Item Pick Up",
    "date_created": "2022-04-25T14:00:53.000",
    "date_modified": "2022-04-25T14:00:54.000",
    "request_status": "Pending",
    "responsible_agency": "Department of Sanitation",
    "final_address": "527 Passera Ct",
    "address_councildis": "A",
    "status": "Assigned to Contractor",
    "contractor": "Richards Disposal",
    "rowid": "877432",
    "final_x": "3670595.87867",
    "final_y": "540897.508683",
    "longitude": "-90.10218354448236",
    "latitude": "29.981607258592007",
    "geocoded_column": {
      "latitude": "29.981607258592007",
      "longitude": "-90.10218354448236"
    }
  },
  {
    "service_request": "2022-877431",
    "request_type": "Trash/Recycling",
    "request_reason": "Order Trash Cart",
    "date_created": "2022-04-25T14:00:40.000",
    "date_modified": "2022-04-25T14:00:55.000",
    "request_status": "Pending",
    "responsible_agency": "Department of Sanitation",
    "final_address": "6919 Bellaire Dr",
    "address_councildis": "A",
    "status": "Assigned to Contractor",
    "contractor": "Metro Disposal",
    "rowid": "877431",
    "final_x": "3664693.80256",
    "final_y": "553802.786135",
    "longitude": "-90.1203936542087",
    "latitude": "30.01726539375561",
    "geocoded_column": {
      "latitude": "30.01726539375561",
      "longitude": "-90.1203936542087"
    }
  },
  {
    "service_request": "2022-877430",
    "request_type": "Safety & Permits",
    "request_reason": "Licenses & Permits",
    "date_created": "2022-04-25T13:56:21.000",
    "date_modified": "2022-04-25T13:56:21.000",
    "request_status": "Pending",
    "responsible_agency": "Safety and Permits",
    "final_address": "901 Poydras St",
    "address_councildis": "B",
    "status": "Pending",
    "rowid": "877430",
    "final_x": "3679896.88411",
    "final_y": "529657.320385",
    "longitude": "-90.07319706680316",
    "latitude": "29.950422518247198",
    "geocoded_column": {
      "latitude": "29.950422518247198",
      "longitude": "-90.07319706680316"
    }
  },
  {
    "service_request": "2022-877429",
    "request_type": "Trash/Recycling",
    "request_reason": "Missed Trash Pick-Up",
    "date_created": "2022-04-25T13:55:55.000",
    "date_modified": "2022-04-25T13:55:56.000",
    "request_status": "Pending",
    "responsible_agency": "Department of Sanitation",
    "final_address": "633 S Dupre St",
    "address_councildis": "B",
    "status": "Assigned to Contractor",
    "contractor": "Richards Disposal",
    "rowid": "877429",
    "final_x": "3673230.92424",
    "final_y": "533989.234693",
    "longitude": "-90.09409680717329",
    "latitude": "29.962533732794363",
    "geocoded_column": {
      "latitude": "29.962533732794363",
      "longitude": "-90.09409680717329"
    }
  },
  {
    "service_request": "2022-877428",
    "request_type": "Mosquito, Termite & Rodent Control",
    "request_reason": "Mosquito Complaint",
    "date_created": "2022-04-25T13:54:45.000",
    "date_modified": "2022-04-25T13:54:45.000",
    "request_status": "Pending",
    "responsible_agency": "Mosquito, Termite & Rodent Control Board",
    "final_address": "820 N White St",
    "address_councildis": "A",
    "status": "Pending",
    "rowid": "877428",
    "final_x": "3676633.12302",
    "final_y": "537701.913032",
    "longitude": "-90.08322521275696",
    "latitude": "29.972640724412738",
    "geocoded_column": {
      "latitude": "29.972640724412738",
      "longitude": "-90.08322521275696"
    }
  },
  {
    "service_request": "2022-877427",
    "request_type": "Trash/Recycling",
    "request_reason": "Missed Trash Pick-Up",
    "date_created": "2022-04-25T13:54:35.000",
    "date_modified": "2022-04-25T13:54:35.000",
    "request_status": "Pending",
    "responsible_agency": "Department of Sanitation",
    "final_address": "633 S Dupre St",
    "address_councildis": "B",
    "status": "Assigned to Contractor",
    "contractor": "Richards Disposal",
    "rowid": "877427",
    "final_x": "3673230.92424",
    "final_y": "533989.234693",
    "longitude": "-90.09409680717329",
    "latitude": "29.962533732794363",
    "geocoded_column": {
      "latitude": "29.962533732794363",
      "longitude": "-90.09409680717329"
    }
  },
  {
    "service_request": "2022-877426",
    "request_type": "Trash/Recycling",
    "request_reason": "MIssed Recycling Pick-Up",
    "date_created": "2022-04-25T13:54:11.000",
    "date_modified": "2022-04-25T13:54:12.000",
    "request_status": "Pending",
    "responsible_agency": "Department of Sanitation",
    "final_address": "633 S Dupre St",
    "address_councildis": "B",
    "status": "Assigned to Contractor",
    "contractor": "Richards Disposal",
    "rowid": "877426",
    "final_x": "3673230.92424",
    "final_y": "533989.234693",
    "longitude": "-90.09409680717329",
    "latitude": "29.962533732794363",
    "geocoded_column": {
      "latitude": "29.962533732794363",
      "longitude": "-90.09409680717329"
    }
  },
  {
    "service_request": "2022-877425",
    "request_type": "Property Maintenance",
    "request_reason": "Property Maintenance",
    "date_created": "2022-04-25T13:52:23.000",
    "date_modified": "2022-04-25T13:52:23.000",
    "request_status": "Pending",
    "responsible_agency": "Department of Code Enforcement",
    "final_address": "820 N White St",
    "address_councildis": "A",
    "status": "Pending",
    "rowid": "877425",
    "final_x": "3676633.12302",
    "final_y": "537701.913032",
    "longitude": "-90.08322521275696",
    "latitude": "29.972640724412738",
    "geocoded_column": {
      "latitude": "29.972640724412738",
      "longitude": "-90.08322521275696"
    }
  },
  {
    "service_request": "2022-877424",
    "request_type": "Parks & Parkways",
    "request_reason": "Request Tree Service (Right of Way/Public Property)",
    "date_created": "2022-04-25T13:51:26.000",
    "date_modified": "2022-04-25T13:51:27.000",
    "request_status": "Pending",
    "responsible_agency": "Department of Parks & Parkway",
    "final_address": "5719 Painters St",
    "address_councildis": "D",
    "status": "Pending",
    "rowid": "877424",
    "final_x": "3686180.99516",
    "final_y": "554229.031576",
    "longitude": "-90.0524879017767",
    "latitude": "30.01779449074635",
    "geocoded_column": {
      "latitude": "30.01779449074635",
      "longitude": "-90.0524879017767"
    }
  },
  {
    "service_request": "2022-877423",
    "request_type": "Trash/Recycling",
    "request_reason": "Request a Large Item Pick Up",
    "date_created": "2022-04-25T13:50:18.000",
    "date_modified": "2022-04-25T13:50:20.000",
    "request_status": "Pending",
    "responsible_agency": "Department of Sanitation",
    "final_address": "4919 Frenchmen St",
    "address_councildis": "D",
    "status": "Assigned to Contractor",
    "contractor": "Metro Disposal",
    "rowid": "877423",
    "final_x": "3683472.32098",
    "final_y": "550888.613845",
    "longitude": "-90.0611634316448",
    "latitude": "30.008692534622284",
    "geocoded_column": {
      "latitude": "30.008692534622284",
      "longitude": "-90.0611634316448"
    }
  },
  {
    "service_request": "2022-877422",
    "request_type": "Trash/Recycling",
    "request_reason": "Request a Large Item Pick Up",
    "date_created": "2022-04-25T13:49:26.000",
    "date_modified": "2022-04-25T16:01:17.000",
    "request_status": "Pending",
    "responsible_agency": "Department of Sanitation",
    "final_address": "New Orleans,LA",
    "address_councildis": "A",
    "status": "Assigned to Contractor",
    "contractor": "Metro Disposal",
    "rowid": "877422",
    "final_x": "3667479.80961",
    "final_y": "553192.122839",
    "longitude": "-90.11161154006415",
    "latitude": "30.015504899528953",
    "geocoded_column": {
      "latitude": "30.015504899528953",
      "longitude": "-90.11161154006415"
    }
  },
  {
    "service_request": "2022-877421",
    "request_type": "Parks & Parkways",
    "request_reason": "Request Tree Service (Right of Way/Public Property)",
    "date_created": "2022-04-25T13:47:11.000",
    "date_modified": "2022-04-25T13:47:11.000",
    "request_status": "Pending",
    "responsible_agency": "Department of Parks & Parkway",
    "final_address": "3916 Camp St, New Orleans, Louisiana, 70115",
    "status": "Pending",
    "rowid": "877421",
    "longitude": "0.0",
    "latitude": "0.0",
    "geocoded_column": {
      "latitude": "0.0",
      "longitude": "0.0"
    }
  },
  {
    "service_request": "2022-877420",
    "request_type": "Property Maintenance",
    "request_reason": "Property Maintenance",
    "date_created": "2022-04-25T13:46:20.000",
    "date_modified": "2022-04-25T13:46:20.000",
    "request_status": "Pending",
    "responsible_agency": "Department of Code Enforcement",
    "final_address": "2117 Second St",
    "address_councildis": "B",
    "status": "Pending",
    "rowid": "877420",
    "final_x": "3675649.65057",
    "final_y": "524685.746492",
    "longitude": "-90.08677840780966",
    "latitude": "29.93688007991669",
    "geocoded_column": {
      "latitude": "29.93688007991669",
      "longitude": "-90.08677840780966"
    }
  },
  {
    "service_request": "2022-877419",
    "request_type": "Traffic Signals/Signs/Striping/Streetlights",
    "request_reason": "Road Surface Marking Maintenance-Parking Lane",
    "date_created": "2022-04-25T13:46:03.000",
    "date_modified": "2022-04-25T13:46:03.000",
    "request_status": "Pending",
    "responsible_agency": "Department of Public Works",
    "final_address": "2930 Frenchmen St",
    "address_councildis": "D",
    "status": "Pending",
    "rowid": "877419",
    "final_x": "3683943.9821",
    "final_y": "543533.65275",
    "longitude": "-90.05993153878799",
    "latitude": "29.988454620640184",
    "geocoded_column": {
      "latitude": "29.988454620640184",
      "longitude": "-90.05993153878799"
    }
  },
  {
    "service_request": "2022-877418",
    "request_type": "Trash/Recycling",
    "request_reason": "Missed Trash Pick-Up",
    "date_created": "2022-04-25T13:45:17.000",
    "date_modified": "2022-04-25T13:45:18.000",
    "request_status": "Pending",
    "responsible_agency": "Department of Sanitation",
    "final_address": "10701 Willow Dr, New Orleans, Louisiana, 70131",
    "address_councildis": "C",
    "status": "Assigned to Contractor",
    "contractor": "Richards Disposal",
    "rowid": "877418",
    "final_x": "3723955.76524",
    "final_y": "515894.867764",
    "longitude": "-89.9346144503606",
    "latitude": "29.91117497360127",
    "geocoded_column": {
      "latitude": "29.91117497360127",
      "longitude": "-89.9346144503606"
    }
  },
  {
    "service_request": "2022-877417",
    "request_type": "Abandoned Vehicles",
    "request_reason": "Abandoned/Junk Vehicles",
    "date_created": "2022-04-25T13:41:43.000",
    "date_modified": "2022-04-25T13:41:43.000",
    "request_status": "Pending",
    "responsible_agency": "Department of Public Works",
    "final_address": "4649 Dart St",
    "address_councildis": "B",
    "status": "Pending",
    "rowid": "877417",
    "final_x": "3668967.4338",
    "final_y": "531789.485571",
    "longitude": "-90.10763467194391",
    "latitude": "29.956611247663982",
    "geocoded_column": {
      "latitude": "29.956611247663982",
      "longitude": "-90.10763467194391"
    }
  },
  {
    "service_request": "2022-877416",
    "request_type": "Roads/Drainage",
    "request_reason": "Pothole",
    "date_created": "2022-04-25T13:40:57.000",
    "date_modified": "2022-04-25T13:40:58.000",
    "request_status": "Pending",
    "responsible_agency": "Department of Public Works",
    "final_address": "1549 Foy St",
    "address_councildis": "D",
    "status": "Pending",
    "rowid": "877416",
    "final_x": "3679260.6493",
    "final_y": "546646.450641",
    "longitude": "-90.07461669340475",
    "latitude": "29.99715599866547",
    "geocoded_column": {
      "latitude": "29.99715599866547",
      "longitude": "-90.07461669340475"
    }
  },
  {
    "service_request": "2022-877414",
    "request_type": "Trash/Recycling",
    "request_reason": "Missed Trash Pick-Up",
    "date_created": "2022-04-25T13:36:12.000",
    "date_modified": "2022-04-25T13:36:13.000",
    "request_status": "Pending",
    "responsible_agency": "Department of Sanitation",
    "final_address": "3528 Hamilton St",
    "address_councildis": "A",
    "status": "Assigned to Contractor",
    "contractor": "Richards Disposal",
    "rowid": "877414",
    "final_x": "3665011.62765",
    "final_y": "537017.824456",
    "longitude": "-90.11995104972398",
    "latitude": "29.971103219648956",
    "geocoded_column": {
      "latitude": "29.971103219648956",
      "longitude": "-90.11995104972398"
    }
  },
  {
    "service_request": "2022-877411",
    "request_type": "Traffic Signals/Signs/Striping/Streetlights",
    "request_reason": "Traffic Signal Malfunctioning/Damaged",
    "date_created": "2022-04-25T13:34:08.000",
    "date_modified": "2022-04-25T13:34:09.000",
    "request_status": "Pending",
    "responsible_agency": "Department of Public Works",
    "final_address": "MAGAZINE ST & STATE ST",
    "address_councildis": "A",
    "status": "Pending",
    "rowid": "877411",
    "final_x": "3664706.0",
    "final_y": "519209.48",
    "longitude": "-90.12151106493229",
    "latitude": "29.922144903014868",
    "geocoded_column": {
      "latitude": "29.922144903014868",
      "longitude": "-90.12151106493229"
    }
  },
  {
    "service_request": "2022-877410",
    "request_type": "Trash/Recycling",
    "request_reason": "Request a Large Item Pick Up",
    "date_created": "2022-04-25T13:29:38.000",
    "date_modified": "2022-04-25T13:29:39.000",
    "request_status": "Pending",
    "responsible_agency": "Department of Sanitation",
    "final_address": "6968 Whitmore Pl",
    "address_councildis": "E",
    "status": "Assigned to Contractor",
    "contractor": "Metro Disposal",
    "rowid": "877410",
    "final_x": "3719178.46975",
    "final_y": "568903.926181",
    "longitude": "-89.94766927785734",
    "latitude": "30.057089003221638",
    "geocoded_column": {
      "latitude": "30.057089003221638",
      "longitude": "-89.94766927785734"
    }
  },
  {
    "service_request": "2022-877409",
    "request_type": "Trash/Recycling",
    "request_reason": "Order Trash Cart",
    "date_created": "2022-04-25T13:27:18.000",
    "date_modified": "2022-04-25T13:27:18.000",
    "request_status": "Pending",
    "responsible_agency": "Department of Sanitation",
    "final_address": "6968 Whitmore Pl",
    "address_councildis": "E",
    "status": "Assigned to Contractor",
    "contractor": "Metro Disposal",
    "rowid": "877409",
    "final_x": "3719178.46975",
    "final_y": "568903.926181",
    "longitude": "-89.94766927785734",
    "latitude": "30.057089003221638",
    "geocoded_column": {
      "latitude": "30.057089003221638",
      "longitude": "-89.94766927785734"
    }
  },
  {
    "service_request": "2022-877408",
    "request_type": "Property Maintenance",
    "request_reason": "Property Maintenance",
    "date_created": "2022-04-25T13:23:28.000",
    "date_modified": "2022-04-25T13:23:28.000",
    "request_status": "Pending",
    "responsible_agency": "Department of Code Enforcement",
    "final_address": "425 Fern St",
    "address_councildis": "A",
    "status": "Pending",
    "rowid": "877408",
    "final_x": "3660815.22816",
    "final_y": "525910.636605",
    "longitude": "-90.13357120115339",
    "latitude": "29.940683555307377",
    "geocoded_column": {
      "latitude": "29.940683555307377",
      "longitude": "-90.13357120115339"
    }
  },
  {
    "service_request": "2022-877407",
    "request_type": "Abandoned Vehicles",
    "request_reason": "Abandoned/Junk Vehicles",
    "date_created": "2022-04-25T13:18:09.000",
    "date_modified": "2022-04-25T13:18:10.000",
    "request_status": "Pending",
    "responsible_agency": "Department of Public Works",
    "final_address": "707 Louisa St",
    "address_councildis": "C",
    "status": "Pending",
    "rowid": "877407",
    "final_x": "3689234.37814",
    "final_y": "534425.553285",
    "longitude": "-90.04354474295343",
    "latitude": "29.963247845374028",
    "geocoded_column": {
      "latitude": "29.963247845374028",
      "longitude": "-90.04354474295343"
    }
  },
  {
    "service_request": "2022-877406",
    "request_type": "Trash/Recycling",
    "request_reason": "Illegal Dumping",
    "date_created": "2022-04-25T13:15:41.000",
    "date_modified": "2022-04-25T13:15:41.000",
    "request_status": "Pending",
    "responsible_agency": "Department of Sanitation",
    "final_address": "1725 Annette St",
    "address_councildis": "D",
    "status": "Pending",
    "rowid": "877406",
    "final_x": "3683036.08591",
    "final_y": "538583.828937",
    "longitude": "-90.06297263174922",
    "latitude": "29.974872052892493",
    "geocoded_column": {
      "latitude": "29.974872052892493",
      "longitude": "-90.06297263174922"
    }
  },
  {
    "service_request": "2022-877405",
    "request_type": "Trash/Recycling",
    "request_reason": "Request a Large Item Pick Up",
    "date_created": "2022-04-25T13:14:29.000",
    "date_modified": "2022-04-25T13:14:31.000",
    "request_status": "Pending",
    "responsible_agency": "Department of Sanitation",
    "final_address": "431 Hendee St",
    "address_councildis": "C",
    "status": "Assigned to Contractor",
    "contractor": "Richards Disposal",
    "rowid": "877405",
    "final_x": "3690849.44502",
    "final_y": "529947.133633",
    "longitude": "-90.03860436476147",
    "latitude": "29.950883661447605",
    "geocoded_column": {
      "latitude": "29.950883661447605",
      "longitude": "-90.03860436476147"
    }
  },
  {
    "service_request": "2022-877404",
    "request_type": "Abandoned Vehicles",
    "request_reason": "Abandoned/Junk Vehicles",
    "date_created": "2022-04-25T13:10:24.000",
    "date_modified": "2022-04-25T13:10:24.000",
    "request_status": "Pending",
    "responsible_agency": "Department of Public Works",
    "final_address": "300 Basin St, New Orleans, Louisiana, 70112",
    "status": "Pending",
    "rowid": "877404",
    "longitude": "0.0",
    "latitude": "0.0",
    "geocoded_column": {
      "latitude": "0.0",
      "longitude": "0.0"
    }
  },
  {
    "service_request": "2022-877403",
    "request_type": "Property Maintenance",
    "request_reason": "Property Maintenance",
    "date_created": "2022-04-25T13:09:09.000",
    "date_modified": "2022-04-25T13:09:09.000",
    "request_status": "Pending",
    "responsible_agency": "Department of Code Enforcement",
    "final_address": "2835 Bruxelles St",
    "address_councildis": "D",
    "status": "Pending",
    "rowid": "877403",
    "final_x": "3680339.29205",
    "final_y": "542888.414733",
    "longitude": "-90.07134005550556",
    "latitude": "29.986790100544226",
    "geocoded_column": {
      "latitude": "29.986790100544226",
      "longitude": "-90.07134005550556"
    }
  },
  {
    "service_request": "2022-877402",
    "request_type": "Trash/Recycling",
    "request_reason": "Missed Trash Pick-Up",
    "date_created": "2022-04-25T13:08:46.000",
    "date_modified": "2022-04-25T13:08:46.000",
    "request_status": "Pending",
    "responsible_agency": "Department of Sanitation",
    "final_address": "704 N Claiborne Ave",
    "address_councildis": "C",
    "status": "Assigned to Contractor",
    "contractor": "Richards Disposal",
    "rowid": "877402",
    "final_x": "3679855.98338",
    "final_y": "534548.098565",
    "longitude": "-90.07315637551983",
    "latitude": "29.96387174020195",
    "geocoded_column": {
      "latitude": "29.96387174020195",
      "longitude": "-90.07315637551983"
    }
  },
  {
    "service_request": "2022-877401",
    "request_type": "Abandoned Vehicles",
    "request_reason": "Abandoned/Junk Vehicles",
    "date_created": "2022-04-25T13:08:15.000",
    "date_modified": "2022-04-25T13:08:15.000",
    "request_status": "Pending",
    "responsible_agency": "Department of Public Works",
    "final_address": "3125 Trafalgar St",
    "address_councildis": "A",
    "status": "Pending",
    "rowid": "877401",
    "final_x": "3678837.01256",
    "final_y": "543247.958926",
    "longitude": "-90.0760727407209",
    "latitude": "29.987824130619213",
    "geocoded_column": {
      "latitude": "29.987824130619213",
      "longitude": "-90.0760727407209"
    }
  },
  {
    "service_request": "2022-877400",
    "request_type": "Abandoned Vehicles",
    "request_reason": "Abandoned/Junk Vehicles",
    "date_created": "2022-04-25T13:08:14.000",
    "date_modified": "2022-04-25T13:08:14.000",
    "request_status": "Pending",
    "responsible_agency": "Department of Public Works",
    "final_address": "1201 Bienville St, New Orleans, Louisiana, 70112",
    "address_councildis": "C",
    "status": "Pending",
    "rowid": "877400",
    "final_x": "3680214.96136",
    "final_y": "532455.287812",
    "longitude": "-90.07209550229297",
    "latitude": "29.958106361958762",
    "geocoded_column": {
      "latitude": "29.958106361958762",
      "longitude": "-90.07209550229297"
    }
  },
  {
    "service_request": "2022-877399",
    "request_type": "Trash/Recycling",
    "request_reason": "Order Trash Cart",
    "date_created": "2022-04-25T13:04:40.000",
    "date_modified": "2022-04-25T13:04:41.000",
    "request_status": "Pending",
    "responsible_agency": "Department of Sanitation",
    "final_address": "3420 Constance St",
    "address_councildis": "B",
    "status": "Assigned to Contractor",
    "contractor": "Richards Disposal",
    "rowid": "877399",
    "final_x": "3675017.57505",
    "final_y": "519160.301943",
    "longitude": "-90.08896334617958",
    "latitude": "29.921705789930915",
    "geocoded_column": {
      "latitude": "29.921705789930915",
      "longitude": "-90.08896334617958"
    }
  },
  {
    "service_request": "2022-877398",
    "request_type": "Trash/Recycling",
    "request_reason": "Request a Large Item Pick Up",
    "date_created": "2022-04-25T13:01:10.000",
    "date_modified": "2022-04-25T13:01:11.000",
    "request_status": "Pending",
    "responsible_agency": "Department of Sanitation",
    "final_address": "3333 St Ann St",
    "address_councildis": "A",
    "status": "Assigned to Contractor",
    "contractor": "Richards Disposal",
    "rowid": "877398",
    "final_x": "3674692.52955",
    "final_y": "538951.404938",
    "longitude": "-90.08931112685887",
    "latitude": "29.976134473801185",
    "geocoded_column": {
      "latitude": "29.976134473801185",
      "longitude": "-90.08931112685887"
    }
  },
  {
    "service_request": "2022-877397",
    "request_type": "Abandoned Vehicles",
    "request_reason": "Abandoned/Junk Vehicles",
    "date_created": "2022-04-25T13:00:05.000",
    "date_modified": "2022-04-25T13:00:05.000",
    "request_status": "Pending",
    "responsible_agency": "Department of Public Works",
    "final_address": "200 Broadway St",
    "address_councildis": "A",
    "status": "Pending",
    "rowid": "877397",
    "final_x": "3661133.6896",
    "final_y": "522411.540538",
    "longitude": "-90.13268151557148",
    "latitude": "29.931052971193296",
    "geocoded_column": {
      "latitude": "29.931052971193296",
      "longitude": "-90.13268151557148"
    }
  },
  {
    "service_request": "2022-877396",
    "request_type": "Trash/Recycling",
    "request_reason": "Repair Recycling Cart",
    "date_created": "2022-04-25T12:54:15.000",
    "date_modified": "2022-04-25T12:54:16.000",
    "request_status": "Pending",
    "responsible_agency": "Department of Sanitation",
    "final_address": "7310 General Haig St",
    "address_councildis": "D",
    "status": "Pending",
    "rowid": "877396",
    "final_x": "3671187.27143",
    "final_y": "555252.048153",
    "longitude": "-90.09982757509613",
    "latitude": "30.021059746392183",
    "geocoded_column": {
      "latitude": "30.021059746392183",
      "longitude": "-90.09982757509613"
    }
  },
  {
    "service_request": "2022-877395",
    "request_type": "Trash/Recycling",
    "request_reason": "Repair Trash Cart",
    "date_created": "2022-04-25T12:53:17.000",
    "date_modified": "2022-04-25T12:53:17.000",
    "request_status": "Pending",
    "responsible_agency": "Department of Sanitation",
    "final_address": "7310 General Haig St",
    "address_councildis": "D",
    "status": "Assigned to Contractor",
    "contractor": "Metro Disposal",
    "rowid": "877395",
    "final_x": "3671187.27143",
    "final_y": "555252.048153",
    "longitude": "-90.09982757509613",
    "latitude": "30.021059746392183",
    "geocoded_column": {
      "latitude": "30.021059746392183",
      "longitude": "-90.09982757509613"
    }
  },
  {
    "service_request": "2022-877394",
    "request_type": "Trash/Recycling",
    "request_reason": "Repair Trash Cart",
    "date_created": "2022-04-25T12:52:39.000",
    "date_modified": "2022-04-25T12:52:40.000",
    "request_status": "Pending",
    "responsible_agency": "Department of Sanitation",
    "final_address": "422 State St",
    "address_councildis": "A",
    "status": "Assigned to Contractor",
    "contractor": "Richards Disposal",
    "rowid": "877394",
    "final_x": "3664261.60199",
    "final_y": "518046.46175",
    "longitude": "-90.12295263077425",
    "latitude": "29.918959881492093",
    "geocoded_column": {
      "latitude": "29.918959881492093",
      "longitude": "-90.12295263077425"
    }
  },
  {
    "service_request": "2022-877393",
    "request_type": "Abandoned Vehicles",
    "request_reason": "Vehicle Blocking Your Driveway",
    "date_created": "2022-04-25T12:52:03.000",
    "date_modified": "2022-04-25T12:52:03.000",
    "request_status": "Pending",
    "responsible_agency": "Department of Public Works",
    "final_address": "201 S Villere St",
    "address_councildis": "B",
    "status": "Pending",
    "rowid": "877393",
    "final_x": "3678630.72072",
    "final_y": "532030.345475",
    "longitude": "-90.07711280661715",
    "latitude": "29.9569857671572",
    "geocoded_column": {
      "latitude": "29.9569857671572",
      "longitude": "-90.07711280661715"
    }
  },
  {
    "service_request": "2022-877392",
    "request_type": "Abandoned Vehicles",
    "request_reason": "Abandoned/Junk Vehicles",
    "date_created": "2022-04-25T12:51:27.000",
    "date_modified": "2022-04-25T12:51:28.000",
    "request_status": "Pending",
    "responsible_agency": "Department of Public Works",
    "final_address": "1418 N Villere St",
    "address_councildis": "C",
    "status": "Pending",
    "rowid": "877392",
    "final_x": "3681956.9702",
    "final_y": "536284.161223",
    "longitude": "-90.06646105040768",
    "latitude": "29.968581614232924",
    "geocoded_column": {
      "latitude": "29.968581614232924",
      "longitude": "-90.06646105040768"
    }
  },
  {
    "service_request": "2022-877391",
    "request_type": "Trash/Recycling",
    "request_reason": "Request a Large Item Pick Up",
    "date_created": "2022-04-25T12:48:58.000",
    "date_modified": "2022-04-25T12:48:58.000",
    "request_status": "Pending",
    "responsible_agency": "Department of Sanitation",
    "final_address": "7119 Marshal Foch St",
    "address_councildis": "A",
    "status": "Assigned to Contractor",
    "contractor": "Metro Disposal",
    "rowid": "877391",
    "final_x": "3670575.86311",
    "final_y": "554342.653656",
    "longitude": "-90.10179034009886",
    "latitude": "30.018577319230136",
    "geocoded_column": {
      "latitude": "30.018577319230136",
      "longitude": "-90.10179034009886"
    }
  },
  {
    "service_request": "2022-877390",
    "request_type": "Trash/Recycling",
    "request_reason": "Order Recycling Cart",
    "date_created": "2022-04-25T12:48:27.000",
    "date_modified": "2022-04-25T12:48:27.000",
    "request_status": "Pending",
    "responsible_agency": "Department of Sanitation",
    "final_address": "625 Delaronde St",
    "address_councildis": "C",
    "status": "Pending",
    "rowid": "877390",
    "final_x": "3687423.28553",
    "final_y": "531170.328386",
    "longitude": "-90.04937913791635",
    "latitude": "29.954353031746777",
    "geocoded_column": {
      "latitude": "29.954353031746777",
      "longitude": "-90.04937913791635"
    }
  },
  {
    "service_request": "2022-877389",
    "request_type": "Abandoned Vehicles",
    "request_reason": "Abandoned/Junk Vehicles",
    "date_created": "2022-04-25T12:46:03.000",
    "date_modified": "2022-04-25T12:46:03.000",
    "request_status": "Pending",
    "responsible_agency": "Department of Public Works",
    "final_address": "3828 Dauphine St",
    "address_councildis": "C",
    "status": "Pending",
    "rowid": "877389",
    "final_x": "3691146.93296",
    "final_y": "534223.720453",
    "longitude": "-90.03751234442005",
    "latitude": "29.962633541920844",
    "geocoded_column": {
      "latitude": "29.962633541920844",
      "longitude": "-90.03751234442005"
    }
  },
  {
    "service_request": "2022-877388",
    "request_type": "Trash/Recycling",
    "request_reason": "Missed Trash Pick-Up",
    "date_created": "2022-04-25T12:44:27.000",
    "date_modified": "2022-04-25T12:44:28.000",
    "request_status": "Pending",
    "responsible_agency": "Department of Sanitation",
    "final_address": "516 S Dorgenois St",
    "address_councildis": "B",
    "status": "Assigned to Contractor",
    "contractor": "Richards Disposal",
    "rowid": "877388",
    "final_x": "3674768.2411",
    "final_y": "533303.738564",
    "longitude": "-90.08926566797673",
    "latitude": "29.960603042633846",
    "geocoded_column": {
      "latitude": "29.960603042633846",
      "longitude": "-90.08926566797673"
    }
  },
  {
    "service_request": "2022-877387",
    "request_type": "Trash/Recycling",
    "request_reason": "Request a Large Item Pick Up",
    "date_created": "2022-04-25T12:43:53.000",
    "date_modified": "2022-04-25T12:43:54.000",
    "request_status": "Pending",
    "responsible_agency": "Department of Sanitation",
    "final_address": "907 S Carrollton Ave",
    "address_councildis": "A",
    "status": "Assigned to Contractor",
    "contractor": "Richards Disposal",
    "rowid": "877387",
    "final_x": "3661433.98016",
    "final_y": "527546.282559",
    "longitude": "-90.13156352400713",
    "latitude": "29.945163232808884",
    "geocoded_column": {
      "latitude": "29.945163232808884",
      "longitude": "-90.13156352400713"
    }
  },
  {
    "service_request": "2022-877386",
    "request_type": "Trash/Recycling",
    "request_reason": "Illegal Dumping",
    "date_created": "2022-04-25T12:42:53.000",
    "date_modified": "2022-04-25T12:42:53.000",
    "request_status": "Pending",
    "responsible_agency": "Department of Sanitation",
    "final_address": "1317 N Roman St",
    "address_councildis": "D",
    "status": "Pending",
    "rowid": "877386",
    "final_x": "3680579.78466",
    "final_y": "536934.87476",
    "longitude": "-90.07078763199036",
    "latitude": "29.97041264865379",
    "geocoded_column": {
      "latitude": "29.97041264865379",
      "longitude": "-90.07078763199036"
    }
  },
  {
    "service_request": "2022-877385",
    "request_type": "Trash/Recycling",
    "request_reason": "Illegal Dumping",
    "date_created": "2022-04-25T12:42:08.000",
    "date_modified": "2022-04-25T12:42:08.000",
    "request_status": "Pending",
    "responsible_agency": "Department of Sanitation",
    "final_address": "2125 Peniston St",
    "address_councildis": "B",
    "status": "Pending",
    "rowid": "877385",
    "final_x": "3672486.50151",
    "final_y": "523103.378043",
    "longitude": "-90.09681856029567",
    "latitude": "29.93262332119722",
    "geocoded_column": {
      "latitude": "29.93262332119722",
      "longitude": "-90.09681856029567"
    }
  },
  {
    "service_request": "2022-877384",
    "request_type": "Trash/Recycling",
    "request_reason": "Request a Large Item Pick Up",
    "date_created": "2022-04-25T12:39:43.000",
    "date_modified": "2022-04-25T12:39:43.000",
    "request_status": "Pending",
    "responsible_agency": "Department of Sanitation",
    "final_address": "1938 Alvar St",
    "address_councildis": "D",
    "status": "Assigned to Contractor",
    "contractor": "Metro Disposal",
    "rowid": "877384",
    "final_x": "3692257.83913",
    "final_y": "538705.561225",
    "longitude": "-90.03384375745175",
    "latitude": "29.974922429215017",
    "geocoded_column": {
      "latitude": "29.974922429215017",
      "longitude": "-90.03384375745175"
    }
  },
  {
    "service_request": "2022-877383",
    "request_type": "Trash/Recycling",
    "request_reason": "Request a Large Item Pick Up",
    "date_created": "2022-04-25T12:38:43.000",
    "date_modified": "2022-04-25T12:38:44.000",
    "request_status": "Pending",
    "responsible_agency": "Department of Sanitation",
    "final_address": "918 Caffin Ave",
    "address_councildis": "E",
    "status": "Assigned to Contractor",
    "contractor": "Metro Disposal",
    "rowid": "877383",
    "final_x": "3697794.97168",
    "final_y": "533166.429572",
    "longitude": "-90.01655721970569",
    "latitude": "29.95951796801149",
    "geocoded_column": {
      "latitude": "29.95951796801149",
      "longitude": "-90.01655721970569"
    }
  },
  {
    "service_request": "2022-877382",
    "request_type": "Trash/Recycling",
    "request_reason": "Illegal Dumping",
    "date_created": "2022-04-25T12:38:18.000",
    "date_modified": "2022-04-25T12:38:18.000",
    "request_status": "Pending",
    "responsible_agency": "Department of Sanitation",
    "final_address": "1317 N Roman St",
    "address_councildis": "D",
    "status": "Pending",
    "rowid": "877382",
    "final_x": "3680579.78466",
    "final_y": "536934.87476",
    "longitude": "-90.07078763199036",
    "latitude": "29.97041264865379",
    "geocoded_column": {
      "latitude": "29.97041264865379",
      "longitude": "-90.07078763199036"
    }
  },
  {
    "service_request": "2022-877381",
    "request_type": "Abandoned Vehicles",
    "request_reason": "Abandoned/Junk Vehicles",
    "date_created": "2022-04-25T12:38:05.000",
    "date_modified": "2022-04-25T12:38:05.000",
    "request_status": "Pending",
    "responsible_agency": "Department of Public Works",
    "final_address": "5558 Rosemary Pl",
    "address_councildis": "A",
    "status": "Pending",
    "rowid": "877381",
    "final_x": "3667034.36346",
    "final_y": "544360.341839",
    "longitude": "-90.1133160581605",
    "latitude": "29.991233613924845",
    "geocoded_column": {
      "latitude": "29.991233613924845",
      "longitude": "-90.1133160581605"
    }
  },
  {
    "service_request": "2022-877380",
    "request_type": "Trash/Recycling",
    "request_reason": "Order Trash Cart",
    "date_created": "2022-04-25T12:35:38.000",
    "date_modified": "2022-04-25T12:35:39.000",
    "request_status": "Pending",
    "responsible_agency": "Department of Sanitation",
    "final_address": "3546 Meadow Park Ln",
    "address_councildis": "C",
    "status": "Assigned to Contractor",
    "contractor": "Richards Disposal",
    "rowid": "877380",
    "final_x": "3704077.92497",
    "final_y": "511326.726704",
    "longitude": "-89.99752125143124",
    "latitude": "29.89926637698954",
    "geocoded_column": {
      "latitude": "29.89926637698954",
      "longitude": "-89.99752125143124"
    }
  },
  {
    "service_request": "2022-877379",
    "request_type": "Traffic Signals/Signs/Striping/Streetlights",
    "request_reason": "Additional signage",
    "date_created": "2022-04-25T12:35:30.000",
    "date_modified": "2022-04-25T12:35:30.000",
    "request_status": "Pending",
    "responsible_agency": "Department of Public Works",
    "final_address": "8603 Palm St",
    "address_councildis": "A",
    "status": "Pending",
    "rowid": "877379",
    "final_x": "3666400.54708",
    "final_y": "535963.871495",
    "longitude": "-90.11560001324641",
    "latitude": "29.968164684285092",
    "geocoded_column": {
      "latitude": "29.968164684285092",
      "longitude": "-90.11560001324641"
    }
  },
  {
    "service_request": "2022-877377",
    "request_type": "Parks & Parkways",
    "request_reason": "Request Tree Service (Right of Way/Public Property)",
    "date_created": "2022-04-25T12:33:29.000",
    "date_modified": "2022-04-25T12:33:29.000",
    "request_status": "Pending",
    "responsible_agency": "Department of Parks & Parkway",
    "final_address": "138 Middle Park Pl",
    "address_councildis": "A",
    "status": "Pending",
    "rowid": "877377",
    "final_x": "3670157.93703",
    "final_y": "544182.81915",
    "longitude": "-90.10345539631139",
    "latitude": "29.990653670409596",
    "geocoded_column": {
      "latitude": "29.990653670409596",
      "longitude": "-90.10345539631139"
    }
  },
  {
    "service_request": "2022-877376",
    "request_type": "Abandoned Vehicles",
    "request_reason": "Abandoned/Junk Vehicles",
    "date_created": "2022-04-25T12:32:24.000",
    "date_modified": "2022-04-25T12:33:18.000",
    "request_status": "Pending",
    "responsible_agency": "Department of Public Works",
    "final_address": "3009 Toulouse St",
    "address_councildis": "A",
    "status": "Pending",
    "rowid": "877376",
    "final_x": "3675385.35355",
    "final_y": "537404.913864",
    "longitude": "-90.0871761019455",
    "latitude": "29.971861450266545",
    "geocoded_column": {
      "latitude": "29.971861450266545",
      "longitude": "-90.0871761019455"
    }
  },
  {
    "service_request": "2022-877375",
    "request_type": "Abandoned Vehicles",
    "request_reason": "Abandoned/Junk Vehicles",
    "date_created": "2022-04-25T12:30:38.000",
    "date_modified": "2022-04-25T12:30:38.000",
    "request_status": "Pending",
    "responsible_agency": "Department of Public Works",
    "final_address": "224 N Norman C Francis Prkwy",
    "address_councildis": "B",
    "status": "Pending",
    "rowid": "877375",
    "final_x": "3673696.45307",
    "final_y": "537123.714248",
    "longitude": "-90.09251954185339",
    "latitude": "29.97113864317803",
    "geocoded_column": {
      "latitude": "29.97113864317803",
      "longitude": "-90.09251954185339"
    }
  },
  {
    "service_request": "2022-877374",
    "request_type": "Trash/Recycling",
    "request_reason": "Missed Trash Pick-Up",
    "date_created": "2022-04-25T12:28:49.000",
    "date_modified": "2022-04-25T12:28:50.000",
    "request_status": "Pending",
    "responsible_agency": "Department of Sanitation",
    "final_address": "902 Stewart Ct",
    "address_councildis": "A",
    "status": "Assigned to Contractor",
    "contractor": "Richards Disposal",
    "rowid": "877374",
    "final_x": "3673066.12801",
    "final_y": "540708.791883",
    "longitude": "-90.09438777562833",
    "latitude": "29.981015140424745",
    "geocoded_column": {
      "latitude": "29.981015140424745",
      "longitude": "-90.09438777562833"
    }
  },
  {
    "service_request": "2022-877373",
    "request_type": "Roads/Drainage",
    "request_reason": "Street Subsidence (Sinking)",
    "date_created": "2022-04-25T12:26:07.000",
    "date_modified": "2022-04-25T12:26:07.000",
    "request_status": "Pending",
    "responsible_agency": "Department of Public Works",
    "final_address": "8234 Cohn St",
    "address_councildis": "A",
    "status": "Pending",
    "rowid": "877373",
    "final_x": "3663132.75469",
    "final_y": "530576.03085",
    "longitude": "-90.12609915143555",
    "latitude": "29.953444965905106",
    "geocoded_column": {
      "latitude": "29.953444965905106",
      "longitude": "-90.12609915143555"
    }
  },
  {
    "service_request": "2022-877372",
    "request_type": "Traffic Signals/Signs/Striping/Streetlights",
    "request_reason": "Street Light Outage/Malfunction",
    "date_created": "2022-04-25T12:24:21.000",
    "date_modified": "2022-04-25T12:24:21.000",
    "request_status": "Pending",
    "responsible_agency": "Department of Public Works",
    "final_address": "612 River Oaks Dr",
    "address_councildis": "C",
    "status": "Pending",
    "contractor": "Royal Engineering",
    "rowid": "877372",
    "final_x": "3701542.74756",
    "final_y": "520484.971192",
    "longitude": "-90.00518686028919",
    "latitude": "29.92452945505742",
    "geocoded_column": {
      "latitude": "29.92452945505742",
      "longitude": "-90.00518686028919"
    }
  },
  {
    "service_request": "2022-877371",
    "request_type": "Traffic Signals/Signs/Striping/Streetlights",
    "request_reason": "Street Light Outage/Malfunction",
    "date_created": "2022-04-25T12:23:33.000",
    "date_modified": "2022-04-25T12:23:34.000",
    "request_status": "Pending",
    "responsible_agency": "Department of Public Works",
    "final_address": "612 River Oaks Dr",
    "address_councildis": "C",
    "status": "Pending",
    "contractor": "Royal Engineering",
    "rowid": "877371",
    "final_x": "3701542.74756",
    "final_y": "520484.971192",
    "longitude": "-90.00518686028919",
    "latitude": "29.92452945505742",
    "geocoded_column": {
      "latitude": "29.92452945505742",
      "longitude": "-90.00518686028919"
    }
  },
  {
    "service_request": "2022-877370",
    "request_type": "Traffic Signals/Signs/Striping/Streetlights",
    "request_reason": "Street Light Outage/Malfunction",
    "date_created": "2022-04-25T12:23:11.000",
    "date_modified": "2022-04-25T12:23:12.000",
    "request_status": "Pending",
    "responsible_agency": "Department of Public Works",
    "final_address": "612 River Oaks Dr",
    "address_councildis": "C",
    "status": "Pending",
    "contractor": "Royal Engineering",
    "rowid": "877370",
    "final_x": "3701542.74756",
    "final_y": "520484.971192",
    "longitude": "-90.00518686028919",
    "latitude": "29.92452945505742",
    "geocoded_column": {
      "latitude": "29.92452945505742",
      "longitude": "-90.00518686028919"
    }
  },
  {
    "service_request": "2022-877369",
    "request_type": "Trash/Recycling",
    "request_reason": "Replace Trash Cart",
    "date_created": "2022-04-25T12:15:48.000",
    "date_modified": "2022-04-25T15:47:35.000",
    "request_status": "Pending",
    "responsible_agency": "Department of Sanitation",
    "final_address": "New Orleans,LA",
    "address_councildis": "B",
    "status": "Assigned to Contractor",
    "contractor": "Richards Disposal",
    "rowid": "877369",
    "final_x": "3675694.84731",
    "final_y": "521465.069305",
    "longitude": "-90.08674633764544",
    "latitude": "29.928022914411542",
    "geocoded_column": {
      "latitude": "29.928022914411542",
      "longitude": "-90.08674633764544"
    }
  },
  {
    "service_request": "2022-877368",
    "request_type": "Roads/Drainage",
    "request_reason": "Pothole",
    "date_created": "2022-04-25T12:14:57.000",
    "date_modified": "2022-04-25T12:14:57.000",
    "request_status": "Pending",
    "responsible_agency": "Department of Public Works",
    "final_address": "5607 Lafaye St",
    "address_councildis": "D",
    "status": "Pending",
    "rowid": "877368",
    "final_x": "3687301.62121",
    "final_y": "553774.559447",
    "longitude": "-90.04896326222558",
    "latitude": "30.016510368986868",
    "geocoded_column": {
      "latitude": "30.016510368986868",
      "longitude": "-90.04896326222558"
    }
  },
  {
    "service_request": "2022-877367",
    "request_type": "Abandoned Vehicles",
    "request_reason": "Abandoned/Junk Vehicles",
    "date_created": "2022-04-25T12:14:50.000",
    "date_modified": "2022-04-25T12:16:13.000",
    "request_status": "Pending",
    "responsible_agency": "Department of Public Works",
    "final_address": "GENTILLY BLVD & ST ANTHONY AVE & ST ANTHONY ST",
    "address_councildis": "D",
    "status": "Pending",
    "rowid": "877367",
    "final_x": "3682694.12",
    "final_y": "545845.16",
    "longitude": "-90.06379855788018",
    "latitude": "29.99484857966879",
    "geocoded_column": {
      "latitude": "29.99484857966879",
      "longitude": "-90.06379855788018"
    }
  },
  {
    "service_request": "2022-877366",
    "request_type": "Roads/Drainage",
    "request_reason": "Debris in Roadway",
    "date_created": "2022-04-25T12:11:11.000",
    "date_modified": "2022-04-25T12:11:12.000",
    "request_status": "Pending",
    "responsible_agency": "Department of Public Works",
    "final_address": "3000 BLK Touro St",
    "address_councildis": "D",
    "status": "Pending",
    "rowid": "877366",
    "final_x": "3683624.51821",
    "final_y": "543793.890546",
    "longitude": "-90.06093149460598",
    "latitude": "29.98917994059274",
    "geocoded_column": {
      "latitude": "29.98917994059274",
      "longitude": "-90.06093149460598"
    }
  },