[
  {
    "service_request": "2022-876114",
    "request_type": "Traffic Signals/Signs/Striping/Streetlights",
    "request_reason": "Traffic Sign Missing/Damaged",
    "date_created": "2022-04-20T00:25:51.000",
    "date_modified": "2022-04-20T00:25:51.000",
    "request_status": "Pending",
    "responsible_agency": "Department of Public Works",
    "final_address": "540 Frenchmen St",
    "address_councildis": "C",
    "status": "Pending",
    "rowid": "876114",
    "final_x": "3684701.85218",
    "final_y": "534424.737861",
    "longitude": "-90.05785794436058",
    "latitude": "29.9633851105095",
    "geocoded_column": {
      "latitude": "29.9633851105095",
      "longitude": "-90.05785794436058"
    }
  },
  {
    "service_request": "2022-876113",
    "request_type": "Trash/Recycling",
    "request_reason": "Replace Trash Cart",
    "date_created": "2022-04-20T00:20:23.000",
    "date_modified": "2022-04-20T00:20:24.000",
    "request_status": "Pending",
    "responsible_agency": "Department of Sanitation",
    "final_address": "600 Frenchmen St",
    "address_councildis": "C",
    "status": "Assigned to Contractor",
    "contractor": "Metro Disposal",
    "rowid": "876113",
    "final_x": "3684703.58383",
    "final_y": "534508.649285",
    "longitude": "-90.05784952637325",
    "latitude": "29.963615784985706",
    "geocoded_column": {
      "latitude": "29.963615784985706",
      "longitude": "-90.05784952637325"
    }
  },
  {
    "service_request": "2022-876112",
    "request_type": "Health Related Questions",
    "request_reason": "Noise Ordinance Complaint",
    "date_created": "2022-04-19T23:55:42.000",
    "date_modified": "2022-04-19T23:55:42.000",
    "request_status": "Pending",
    "responsible_agency": "Health Department",
    "final_address": "718 Bourbon St, New Orleans, Louisiana, 70116",
    "address_councildis": "C",
    "status": "Pending",
    "rowid": "876112",
    "final_x": "3682364.17781",
    "final_y": "532746.008004",
    "longitude": "-90.06529872053143",
    "latitude": "29.95884052062511",
    "geocoded_column": {
      "latitude": "29.95884052062511",
      "longitude": "-90.06529872053143"
    }
  },
  {
    "service_request": "2022-876111",
    "request_type": "Trash/Recycling",
    "request_reason": "Missed Trash Pick-Up",
    "date_created": "2022-04-19T23:17:29.000",
    "date_modified": "2022-04-19T23:17:31.000",
    "request_status": "Pending",
    "responsible_agency": "Department of Sanitation",
    "final_address": "2329 Soniat St",
    "address_councildis": "B",
    "status": "Assigned to Contractor",
    "contractor": "Richards Disposal",
    "rowid": "876111",
    "final_x": "3668566.01678",
    "final_y": "524160.52966",
    "longitude": "-90.10915958701713",
    "latitude": "29.935645898330737",
    "geocoded_column": {
      "latitude": "29.935645898330737",
      "longitude": "-90.10915958701713"
    }
  },
  {
    "service_request": "2022-876110",
    "request_type": "Health Related Questions",
    "request_reason": "Noise Ordinance Complaint",
    "date_created": "2022-04-19T23:14:05.000",
    "date_modified": "2022-04-19T23:14:05.000",
    "request_status": "Pending",
    "responsible_agency": "Health Department",
    "final_address": "718 Bourbon St, New Orleans, Louisiana, 70116",
    "address_councildis": "C",
    "status": "Pending",
    "rowid": "876110",
    "final_x": "3682364.17781",
    "final_y": "532746.008004",
    "longitude": "-90.06529872053143",
    "latitude": "29.95884052062511",
    "geocoded_column": {
      "latitude": "29.95884052062511",
      "longitude": "-90.06529872053143"
    }
  },
  {
    "service_request": "2022-876109",
    "request_type": "Health Related Questions",
    "request_reason": "Noise Ordinance Complaint",
    "date_created": "2022-04-19T23:06:30.000",
    "date_modified": "2022-04-19T23:06:30.000",
    "request_status": "Pending",
    "responsible_agency": "Health Department",
    "final_address": "718 Bourbon St, New Orleans, Louisiana, 70116",
    "address_councildis": "C",
    "status": "Pending",
    "rowid": "876109",
    "final_x": "3682364.17781",
    "final_y": "532746.008004",
    "longitude": "-90.06529872053143",
    "latitude": "29.95884052062511",
    "geocoded_column": {
      "latitude": "29.95884052062511",
      "longitude": "-90.06529872053143"
    }
  },
  {
    "service_request": "2022-876108",
    "request_type": "Property Maintenance",
    "request_reason": "Property Maintenance",
    "date_created": "2022-04-19T23:01:40.000",
    "date_modified": "2022-04-19T23:01:40.000",
    "request_status": "Pending",
    "responsible_agency": "Department of Code Enforcement",
    "final_address": "3500 S Robertson St",
    "address_councildis": "B",
    "status": "Pending",
    "rowid": "876108",
    "final_x": "3672357.16763",
    "final_y": "524611.36262",
    "longitude": "-90.09717549914569",
    "latitude": "29.9367736276423",
    "geocoded_column": {
      "latitude": "29.9367736276423",
      "longitude": "-90.09717549914569"
    }
  },
  {
    "service_request": "2022-876107",
    "request_type": "Property Maintenance",
    "request_reason": "Property Maintenance",
    "date_created": "2022-04-19T22:58:27.000",
    "date_modified": "2022-04-19T22:58:27.000",
    "request_status": "Pending",
    "responsible_agency": "Department of Code Enforcement",
    "final_address": "2513 Amelia St",
    "address_councildis": "B",
    "status": "Pending",
    "rowid": "876107",
    "final_x": "3672363.03271",
    "final_y": "524411.833404",
    "longitude": "-90.09716377858985",
    "latitude": "29.936224813041658",
    "geocoded_column": {
      "latitude": "29.936224813041658",
      "longitude": "-90.09716377858985"
    }
  },
  {
    "service_request": "2022-876106",
    "request_type": "Trash/Recycling",
    "request_reason": "Missed Trash Pick-Up",
    "date_created": "2022-04-19T22:45:01.000",
    "date_modified": "2022-04-19T22:45:02.000",
    "request_status": "Pending",
    "responsible_agency": "Department of Sanitation",
    "final_address": "2514 Amelia St",
    "address_councildis": "B",
    "status": "Assigned to Contractor",
    "contractor": "Richards Disposal",
    "rowid": "876106",
    "final_x": "3672303.55988",
    "final_y": "524398.937276",
    "longitude": "-90.09735197566623",
    "latitude": "29.93619111695968",
    "geocoded_column": {
      "latitude": "29.93619111695968",
      "longitude": "-90.09735197566623"
    }
  },
  {
    "service_request": "2022-876105",
    "request_type": "Health Related Questions",
    "request_reason": "Noise Ordinance Complaint",
    "date_created": "2022-04-19T22:10:01.000",
    "date_modified": "2022-04-19T22:10:01.000",
    "request_status": "Pending",
    "responsible_agency": "Health Department",
    "final_address": "718 Bourbon St, New Orleans, Louisiana, 70116",
    "address_councildis": "C",
    "status": "Pending",
    "rowid": "876105",
    "final_x": "3682364.17781",
    "final_y": "532746.008004",
    "longitude": "-90.06529872053143",
    "latitude": "29.95884052062511",
    "geocoded_column": {
      "latitude": "29.95884052062511",
      "longitude": "-90.06529872053143"
    }
  },
  {
    "service_request": "2022-876104",
    "request_type": "Trash/Recycling",
    "request_reason": "Request a Large Item Pick Up",
    "date_created": "2022-04-19T21:44:06.000",
    "date_modified": "2022-04-19T21:44:08.000",
    "request_status": "Pending",
    "responsible_agency": "Department of Sanitation",
    "final_address": "3634 Franklin Ave",
    "address_councildis": "D",
    "status": "Assigned to Contractor",
    "contractor": "Metro Disposal",
    "rowid": "876104",
    "final_x": "3687055.74946",
    "final_y": "546391.066064",
    "longitude": "-90.0500013888659",
    "latitude": "29.996216028107725",
    "geocoded_column": {
      "latitude": "29.996216028107725",
      "longitude": "-90.0500013888659"
    }
  },
  {
    "service_request": "2022-876103",
    "request_type": "Property Maintenance",
    "request_reason": "Property Maintenance",
    "date_created": "2022-04-19T21:27:39.000",
    "date_modified": "2022-04-19T21:27:39.000",
    "request_status": "Pending",
    "responsible_agency": "Department of Code Enforcement",
    "final_address": "7431 Chef Menteur Hwy",
    "address_councildis": "E",
    "status": "Pending",
    "rowid": "876103",
    "final_x": "3702942.23594",
    "final_y": "552507.806806",
    "longitude": "-89.99959257044375",
    "latitude": "30.012535955918903",
    "geocoded_column": {
      "latitude": "30.012535955918903",
      "longitude": "-89.99959257044375"
    }
  },
  {
    "service_request": "2022-876102",
    "request_type": "Traffic Signals/Signs/Striping/Streetlights",
    "request_reason": "Street Light Outage/Malfunction",
    "date_created": "2022-04-19T21:20:57.000",
    "date_modified": "2022-04-19T21:20:59.000",
    "request_status": "Pending",
    "responsible_agency": "Department of Public Works",
    "final_address": "3016 Annunciation St",
    "address_councildis": "B",
    "status": "Pending",
    "contractor": "Royal Engineering",
    "rowid": "876102",
    "final_x": "3676859.96475",
    "final_y": "519347.880695",
    "longitude": "-90.08314124766926",
    "latitude": "29.92216642645929",
    "geocoded_column": {
      "latitude": "29.92216642645929",
      "longitude": "-90.08314124766926"
    }
  },
  {
    "service_request": "2022-876101",
    "request_type": "Trash/Recycling",
    "request_reason": "Request a Large Item Pick Up",
    "date_created": "2022-04-19T20:57:22.000",
    "date_modified": "2022-04-19T20:57:23.000",
    "request_status": "Pending",
    "responsible_agency": "Department of Sanitation",
    "final_address": "3111 Annunciation St",
    "address_councildis": "B",
    "status": "Assigned to Contractor",
    "contractor": "Richards Disposal",
    "rowid": "876101",
    "final_x": "3676617.18062",
    "final_y": "519253.798327",
    "longitude": "-90.08391085543083",
    "latitude": "29.921915011811574",
    "geocoded_column": {
      "latitude": "29.921915011811574",
      "longitude": "-90.08391085543083"
    }
  },
  {
    "service_request": "2022-876100",
    "request_type": "Roads/Drainage",
    "request_reason": "Street Subsidence (Sinking)",
    "date_created": "2022-04-19T20:39:50.000",
    "date_modified": "2022-04-19T20:39:50.000",
    "request_status": "Pending",
    "responsible_agency": "Department of Public Works",
    "final_address": "2368 jay st",
    "address_councildis": "D",
    "status": "Pending",
    "rowid": "876100",
    "final_x": "3684638.55029",
    "final_y": "557270.475035",
    "longitude": "-90.05725440106869",
    "latitude": "30.026204656148728",
    "geocoded_column": {
      "latitude": "30.026204656148728",
      "longitude": "-90.05725440106869"
    }
  },
  {
    "service_request": "2022-876099",
    "request_type": "Abandoned Vehicles",
    "request_reason": "Abandoned/Junk Vehicles",
    "date_created": "2022-04-19T20:17:29.000",
    "date_modified": "2022-04-19T20:17:29.000",
    "request_status": "Pending",
    "responsible_agency": "Department of Public Works",
    "final_address": "238 20th St, New Orleans, Louisiana, 70124",
    "address_councildis": "A",
    "status": "Pending",
    "rowid": "876099",
    "final_x": "3665488.90848",
    "final_y": "548958.370195",
    "longitude": "-90.11804377210628",
    "latitude": "30.003921770605526",
    "geocoded_column": {
      "latitude": "30.003921770605526",
      "longitude": "-90.11804377210628"
    }
  },
  {
    "service_request": "2022-876098",
    "request_type": "Trash/Recycling",
    "request_reason": "Missed Trash Pick-Up",
    "date_created": "2022-04-19T20:13:24.000",
    "date_modified": "2022-04-19T20:13:25.000",
    "request_status": "Pending",
    "responsible_agency": "Department of Sanitation",
    "final_address": "1525 Dufossat St",
    "address_councildis": "B",
    "status": "Assigned to Contractor",
    "contractor": "Richards Disposal",
    "rowid": "876098",
    "final_x": "3668161.69364",
    "final_y": "520678.110521",
    "longitude": "-90.11055336688219",
    "latitude": "29.926082227758133",
    "geocoded_column": {
      "latitude": "29.926082227758133",
      "longitude": "-90.11055336688219"
    }
  },
  {
    "service_request": "2022-876097",
    "request_type": "Property Maintenance",
    "request_reason": "Property Maintenance",
    "date_created": "2022-04-19T19:50:51.000",
    "date_modified": "2022-04-19T19:50:51.000",
    "request_status": "Pending",
    "responsible_agency": "Department of Code Enforcement",
    "final_address": "1494 Athis St",
    "address_councildis": "D",
    "status": "Pending",
    "rowid": "876097",
    "final_x": "3678270.13813",
    "final_y": "553684.514647",
    "longitude": "-90.07750200674258",
    "latitude": "30.016538042042434",
    "geocoded_column": {
      "latitude": "30.016538042042434",
      "longitude": "-90.07750200674258"
    }
  },
  {
    "service_request": "2022-876096",
    "request_type": "Trash/Recycling",
    "request_reason": "Missed Trash Pick-Up",
    "date_created": "2022-04-19T19:50:18.000",
    "date_modified": "2022-04-19T19:50:19.000",
    "request_status": "Pending",
    "responsible_agency": "Department of Sanitation",
    "final_address": "1027 Lyons St",
    "address_councildis": "B",
    "status": "Assigned to Contractor",
    "contractor": "Richards Disposal",
    "rowid": "876096",
    "final_x": "3669266.73025",
    "final_y": "519209.667831",
    "longitude": "-90.10711468312647",
    "latitude": "29.922012004960877",
    "geocoded_column": {
      "latitude": "29.922012004960877",
      "longitude": "-90.10711468312647"
    }
  },
  {
    "service_request": "2022-876095",
    "request_type": "Trash/Recycling",
    "request_reason": "Missed Trash Pick-Up",
    "date_created": "2022-04-19T19:44:17.000",
    "date_modified": "2022-04-19T19:44:18.000",
    "request_status": "Pending",
    "responsible_agency": "Department of Sanitation",
    "final_address": "2107 Annunciation St",
    "address_councildis": "B",
    "status": "Assigned to Contractor",
    "contractor": "Richards Disposal",
    "rowid": "876095",
    "final_x": "3679758.14146",
    "final_y": "521431.067449",
    "longitude": "-90.073920630889",
    "latitude": "29.927807244285876",
    "geocoded_column": {
      "latitude": "29.927807244285876",
      "longitude": "-90.073920630889"
    }
  },
  {
    "service_request": "2022-876094",
    "request_type": "Trash/Recycling",
    "request_reason": "Missed Trash Pick-Up",
    "date_created": "2022-04-19T19:43:45.000",
    "date_modified": "2022-04-19T19:43:45.000",
    "request_status": "Pending",
    "responsible_agency": "Department of Sanitation",
    "final_address": "2107 Annunciation St",
    "address_councildis": "B",
    "status": "Assigned to Contractor",
    "contractor": "Richards Disposal",
    "rowid": "876094",
    "final_x": "3679758.14146",
    "final_y": "521431.067449",
    "longitude": "-90.073920630889",
    "latitude": "29.927807244285876",
    "geocoded_column": {
      "latitude": "29.927807244285876",
      "longitude": "-90.073920630889"
    }
  },
  {
    "service_request": "2022-876093",
    "request_type": "Trash/Recycling",
    "request_reason": "Missed Trash Pick-Up",
    "date_created": "2022-04-19T19:34:12.000",
    "date_modified": "2022-04-19T19:34:13.000",
    "request_status": "Pending",
    "responsible_agency": "Department of Sanitation",
    "final_address": "5206 Pitt St, New Orleans, Louisiana, 70115",
    "address_councildis": "B",
    "status": "Assigned to Contractor",
    "contractor": "Richards Disposal",
    "rowid": "876093",
    "final_x": "3668042.48276",
    "final_y": "520345.869624",
    "longitude": "-90.11094087082543",
    "latitude": "29.925172168070446",
    "geocoded_column": {
      "latitude": "29.925172168070446",
      "longitude": "-90.11094087082543"
    }
  },
  {
    "service_request": "2022-876092",
    "request_type": "Trash/Recycling",
    "request_reason": "Missed Trash Pick-Up",
    "date_created": "2022-04-19T19:22:58.000",
    "date_modified": "2022-04-19T19:22:59.000",
    "request_status": "Pending",
    "responsible_agency": "Department of Sanitation",
    "final_address": "1640 Robert St",
    "address_councildis": "B",
    "status": "Assigned to Contractor",
    "contractor": "Richards Disposal",
    "rowid": "876092",
    "final_x": "3668638.68238",
    "final_y": "521266.796665",
    "longitude": "-90.10902779157972",
    "latitude": "29.927686922586595",
    "geocoded_column": {
      "latitude": "29.927686922586595",
      "longitude": "-90.10902779157972"
    }
  },
  {
    "service_request": "2022-876091",
    "request_type": "Abandoned Vehicles",
    "request_reason": "Abandoned/Junk Vehicles",
    "date_created": "2022-04-19T19:18:48.000",
    "date_modified": "2022-04-19T19:18:48.000",
    "request_status": "Pending",
    "responsible_agency": "Department of Public Works",
    "final_address": "1000 Frenchmen St",
    "address_councildis": "C",
    "status": "Pending",
    "rowid": "876091",
    "final_x": "3684587.46069",
    "final_y": "535937.975495",
    "longitude": "-90.05816599963828",
    "latitude": "29.96754949185092",
    "geocoded_column": {
      "latitude": "29.96754949185092",
      "longitude": "-90.05816599963828"
    }
  },
  {
    "service_request": "2022-876090",
    "request_type": "Trash/Recycling",
    "request_reason": "Missed Trash Pick-Up",
    "date_created": "2022-04-19T19:07:13.000",
    "date_modified": "2022-04-19T19:07:13.000",
    "request_status": "Pending",
    "responsible_agency": "Department of Sanitation",
    "final_address": "2813 Soniat St",
    "address_councildis": "B",
    "status": "Assigned to Contractor",
    "contractor": "Richards Disposal",
    "rowid": "876090",
    "final_x": "3668612.45185",
    "final_y": "525772.875773",
    "longitude": "-90.10895859971995",
    "latitude": "29.94007796703019",
    "geocoded_column": {
      "latitude": "29.94007796703019",
      "longitude": "-90.10895859971995"
    }
  },
  {
    "service_request": "2022-876089",
    "request_type": "Parks & Parkways",
    "request_reason": "Request Tree Service (Right of Way/Public Property)",
    "date_created": "2022-04-19T19:02:10.000",
    "date_modified": "2022-04-19T19:02:10.000",
    "request_status": "Pending",
    "responsible_agency": "Department of Parks & Parkway",
    "final_address": "1219 Short St",
    "address_councildis": "A",
    "status": "Pending",
    "rowid": "876089",
    "final_x": "3662474.16551",
    "final_y": "528163.987583",
    "longitude": "-90.12825880589268",
    "latitude": "29.946831685262104",
    "geocoded_column": {
      "latitude": "29.946831685262104",
      "longitude": "-90.12825880589268"
    }
  },
  {
    "service_request": "2022-876087",
    "request_type": "Trash/Recycling",
    "request_reason": "Request a Large Item Pick Up",
    "date_created": "2022-04-19T18:53:10.000",
    "date_modified": "2022-04-19T18:53:11.000",
    "request_status": "Pending",
    "responsible_agency": "Department of Sanitation",
    "final_address": "2428 Wisteria St",
    "address_councildis": "D",
    "status": "Assigned to Contractor",
    "contractor": "Metro Disposal",
    "rowid": "876087",
    "final_x": "3685814.8886",
    "final_y": "548247.446674",
    "longitude": "-90.05385569114792",
    "latitude": "30.001358561233342",
    "geocoded_column": {
      "latitude": "30.001358561233342",
      "longitude": "-90.05385569114792"
    }
  },
  {
    "service_request": "2022-876086",
    "request_type": "Roads/Drainage",
    "request_reason": "Unpermitted work in ROW",
    "date_created": "2022-04-19T18:49:52.000",
    "date_modified": "2022-04-19T18:49:52.000",
    "request_status": "Pending",
    "responsible_agency": "Department of Public Works",
    "final_address": "2453 Killdeer St",
    "address_councildis": "D",
    "status": "Pending",
    "rowid": "876086",
    "final_x": "3685070.10665",
    "final_y": "557771.556763",
    "longitude": "-90.05587308538664",
    "latitude": "30.027569222693998",
    "geocoded_column": {
      "latitude": "30.027569222693998",
      "longitude": "-90.05587308538664"
    }
  },
  {
    "service_request": "2022-876085",
    "request_type": "Trash/Recycling",
    "request_reason": "Missed Trash Pick-Up",
    "date_created": "2022-04-19T18:43:30.000",
    "date_modified": "2022-04-19T18:43:31.000",
    "request_status": "Pending",
    "responsible_agency": "Department of Sanitation",
    "final_address": "700 Block of Jefferson Ave, New Orleans, Louisiana, 70115",
    "status": "Assigned to Contractor",
    "rowid": "876085",
    "longitude": "0.0",
    "latitude": "0.0",
    "geocoded_column": {
      "latitude": "0.0",
      "longitude": "0.0"
    }
  },
  {
    "service_request": "2022-876084",
    "request_type": "Trash/Recycling",
    "request_reason": "MIssed Recycling Pick-Up",
    "date_created": "2022-04-19T17:41:57.000",
    "date_modified": "2022-04-19T17:41:58.000",
    "request_status": "Pending",
    "responsible_agency": "Department of Sanitation",
    "final_address": "2716 Dryades St",
    "address_councildis": "B",
    "status": "Assigned to Contractor",
    "contractor": "Richards Disposal",
    "rowid": "876084",
    "final_x": "3675482.17102",
    "final_y": "523505.727931",
    "longitude": "-90.08734765962657",
    "latitude": "29.933640423000274",
    "geocoded_column": {
      "latitude": "29.933640423000274",
      "longitude": "-90.08734765962657"
    }
  },
  {
    "service_request": "2022-876083",
    "request_type": "Trash/Recycling",
    "request_reason": "Request a Large Item Pick Up",
    "date_created": "2022-04-19T17:41:36.000",
    "date_modified": "2022-04-19T17:41:36.000",
    "request_status": "Pending",
    "responsible_agency": "Department of Sanitation",
    "final_address": "3642 Clematis St",
    "address_councildis": "D",
    "status": "Assigned to Contractor",
    "contractor": "Metro Disposal",
    "rowid": "876083",
    "final_x": "3686105.83452",
    "final_y": "546349.84072",
    "longitude": "-90.05300355139711",
    "latitude": "29.99613189240629",
    "geocoded_column": {
      "latitude": "29.99613189240629",
      "longitude": "-90.05300355139711"
    }
  },
  {
    "service_request": "2022-876082",
    "request_type": "Traffic Signals/Signs/Striping/Streetlights",
    "request_reason": "Street Light Outage/Malfunction",
    "date_created": "2022-04-19T17:40:21.000",
    "date_modified": "2022-04-19T17:40:21.000",
    "request_status": "Pending",
    "responsible_agency": "Department of Public Works",
    "final_address": "601 Loyola Ave",
    "address_councildis": "B",
    "status": "Pending",
    "contractor": "Royal Engineering",
    "rowid": "876082",
    "final_x": "3678884.56987",
    "final_y": "529323.933185",
    "longitude": "-90.07640497564194",
    "latitude": "29.949536388012802",
    "geocoded_column": {
      "latitude": "29.949536388012802",
      "longitude": "-90.07640497564194"
    }
  },
  {
    "service_request": "2022-876081",
    "request_type": "Trash/Recycling",
    "request_reason": "Missed Trash Pick-Up",
    "date_created": "2022-04-19T17:39:27.000",
    "date_modified": "2022-04-19T17:39:28.000",
    "request_status": "Pending",
    "responsible_agency": "Department of Sanitation",
    "final_address": "2828 Upperline St",
    "address_councildis": "B",
    "status": "Assigned to Contractor",
    "contractor": "Richards Disposal",
    "rowid": "876081",
    "final_x": "3669160.05127",
    "final_y": "525203.114365",
    "longitude": "-90.10724898782733",
    "latitude": "29.938495206542953",
    "geocoded_column": {
      "latitude": "29.938495206542953",
      "longitude": "-90.10724898782733"
    }
  },
  {
    "service_request": "2022-876080",
    "request_type": "Trash/Recycling",
    "request_reason": "Request a Large Item Pick Up",
    "date_created": "2022-04-19T17:21:06.000",
    "date_modified": "2022-04-19T17:21:07.000",
    "request_status": "Pending",
    "responsible_agency": "Department of Sanitation",
    "final_address": "1415 Socrates St",
    "address_councildis": "C",
    "status": "Assigned to Contractor",
    "contractor": "Richards Disposal",
    "rowid": "876080",
    "final_x": "3689786.8918",
    "final_y": "526308.046398",
    "longitude": "-90.04208884413336",
    "latitude": "29.940910387977283",
    "geocoded_column": {
      "latitude": "29.940910387977283",
      "longitude": "-90.04208884413336"
    }
  },
  {
    "service_request": "2022-876079",
    "request_type": "Trash/Recycling",
    "request_reason": "Missed Trash Pick-Up",
    "date_created": "2022-04-19T17:17:36.000",
    "date_modified": "2022-04-19T17:17:37.000",
    "request_status": "Pending",
    "responsible_agency": "Department of Sanitation",
    "final_address": "500 BLK Valence St",
    "address_councildis": "B",
    "status": "Assigned to Contractor",
    "contractor": "Richards Disposal",
    "rowid": "876079",
    "final_x": "3670067.89441",
    "final_y": "517491.146564",
    "longitude": "-90.1046439056106",
    "latitude": "29.917263016250192",
    "geocoded_column": {
      "latitude": "29.917263016250192",
      "longitude": "-90.1046439056106"
    }
  },
  {
    "service_request": "2022-876078",
    "request_type": "Trash/Recycling",
    "request_reason": "Missed Trash Pick-Up",
    "date_created": "2022-04-19T17:10:16.000",
    "date_modified": "2022-04-19T17:10:17.000",
    "request_status": "Pending",
    "responsible_agency": "Department of Sanitation",
    "final_address": "1509 Valmont St",
    "address_councildis": "B",
    "status": "Assigned to Contractor",
    "contractor": "Richards Disposal",
    "rowid": "876078",
    "final_x": "3667781.74388",
    "final_y": "520516.710776",
    "longitude": "-90.11175819366206",
    "latitude": "29.9256495730252",
    "geocoded_column": {
      "latitude": "29.9256495730252",
      "longitude": "-90.11175819366206"
    }
  },
  {
    "service_request": "2022-876077",
    "request_type": "Trash/Recycling",
    "request_reason": "MIssed Recycling Pick-Up",
    "date_created": "2022-04-19T17:08:07.000",
    "date_modified": "2022-04-19T17:08:08.000",
    "request_status": "Pending",
    "responsible_agency": "Department of Sanitation",
    "final_address": "633 S Dupre St",
    "address_councildis": "B",
    "status": "Assigned to Contractor",
    "contractor": "Richards Disposal",
    "rowid": "876077",
    "final_x": "3673230.92424",
    "final_y": "533989.234693",
    "longitude": "-90.09409680717329",
    "latitude": "29.962533732794363",
    "geocoded_column": {
      "latitude": "29.962533732794363",
      "longitude": "-90.09409680717329"
    }
  },
  {
    "service_request": "2022-876076",
    "request_type": "Property Maintenance",
    "request_reason": "Property Maintenance",
    "date_created": "2022-04-19T17:04:28.000",
    "date_modified": "2022-04-19T17:04:28.000",
    "request_status": "Pending",
    "responsible_agency": "Department of Code Enforcement",
    "final_address": "5809 Marshal Foch St, New Orleans, Louisiana, 70124",
    "address_councildis": "A",
    "status": "Pending",
    "rowid": "876076",
    "final_x": "3669801.46055",
    "final_y": "545956.076752",
    "longitude": "-90.10452135170105",
    "latitude": "29.99554003396694",
    "geocoded_column": {
      "latitude": "29.99554003396694",
      "longitude": "-90.10452135170105"
    }
  },
  {
    "service_request": "2022-876075",
    "request_type": "Trash/Recycling",
    "request_reason": "Request a Large Item Pick Up",
    "date_created": "2022-04-19T17:03:08.000",
    "date_modified": "2022-04-19T17:03:09.000",
    "request_status": "Pending",
    "responsible_agency": "Department of Sanitation",
    "final_address": "5600 Macarthur Blvd",
    "address_councildis": "C",
    "status": "Assigned to Contractor",
    "contractor": "Richards Disposal",
    "rowid": "876075",
    "final_x": "3704201.42455",
    "final_y": "519610.672184",
    "longitude": "-89.99682657624919",
    "latitude": "29.922040432242518",
    "geocoded_column": {
      "latitude": "29.922040432242518",
      "longitude": "-89.99682657624919"
    }
  },
  {
    "service_request": "2022-876074",
    "request_type": "Abandoned Vehicles",
    "request_reason": "Abandoned/Junk Vehicles",
    "date_created": "2022-04-19T16:58:48.000",
    "date_modified": "2022-04-19T16:58:48.000",
    "request_status": "Pending",
    "responsible_agency": "Department of Public Works",
    "final_address": "4734 Franklin Ave",
    "address_councildis": "D",
    "status": "Pending",
    "rowid": "876074",
    "final_x": "3686746.50236",
    "final_y": "550577.00322",
    "longitude": "-90.0508302745672",
    "latitude": "30.007735358886414",
    "geocoded_column": {
      "latitude": "30.007735358886414",
      "longitude": "-90.0508302745672"
    }
  },
  {
    "service_request": "2022-876073",
    "request_type": "Roads/Drainage",
    "request_reason": "Damaged Sidewalk",
    "date_created": "2022-04-19T16:56:25.000",
    "date_modified": "2022-04-19T16:56:26.000",
    "request_status": "Pending",
    "responsible_agency": "Department of Public Works",
    "final_address": "6018 Craigie Rd",
    "address_councildis": "E",
    "status": "Pending",
    "rowid": "876073",
    "final_x": "3695395.31274",
    "final_y": "558568.044252",
    "longitude": "-90.02321762531602",
    "latitude": "30.029438701380414",
    "geocoded_column": {
      "latitude": "30.029438701380414",
      "longitude": "-90.02321762531602"
    }
  },
  {
    "service_request": "2022-876072",
    "request_type": "Trash/Recycling",
    "request_reason": "Missed Trash Pick-Up",
    "date_created": "2022-04-19T16:53:04.000",
    "date_modified": "2022-04-19T16:53:05.000",
    "request_status": "Pending",
    "responsible_agency": "Department of Sanitation",
    "final_address": "6851 Louisville St",
    "address_councildis": "A",
    "status": "Assigned to Contractor",
    "contractor": "Metro Disposal",
    "rowid": "876072",
    "final_x": "3668365.1458",
    "final_y": "553142.363223",
    "longitude": "-90.10881595619153",
    "latitude": "30.015342092739434",
    "geocoded_column": {
      "latitude": "30.015342092739434",
      "longitude": "-90.10881595619153"
    }
  },
  {
    "service_request": "2022-876071",
    "request_type": "Abandoned Vehicles",
    "request_reason": "Abandoned/Junk Vehicles",
    "date_created": "2022-04-19T16:52:45.000",
    "date_modified": "2022-04-19T16:54:58.000",
    "request_status": "Pending",
    "responsible_agency": "Department of Public Works",
    "final_address": "1300 BLK Pelican Ave",
    "address_councildis": "C",
    "status": "Pending",
    "rowid": "876071",
    "final_x": "3689722.64414",
    "final_y": "530689.918723",
    "longitude": "-90.042135791699",
    "latitude": "29.952961025437528",
    "geocoded_column": {
      "latitude": "29.952961025437528",
      "longitude": "-90.042135791699"
    }
  },
  {
    "service_request": "2022-876070",
    "request_type": "Trash/Recycling",
    "request_reason": "Request a Large Item Pick Up",
    "date_created": "2022-04-19T16:51:02.000",
    "date_modified": "2022-04-19T16:51:02.000",
    "request_status": "Pending",
    "responsible_agency": "Department of Sanitation",
    "final_address": "1506 Jena St",
    "address_councildis": "B",
    "status": "Assigned to Contractor",
    "contractor": "Richards Disposal",
    "rowid": "876070",
    "final_x": "3670392.77991",
    "final_y": "520606.86316",
    "longitude": "-90.10351287099624",
    "latitude": "29.925820664753314",
    "geocoded_column": {
      "latitude": "29.925820664753314",
      "longitude": "-90.10351287099624"
    }
  },
  {
    "service_request": "2022-876069",
    "request_type": "Abandoned Vehicles",
    "request_reason": "Abandoned/Junk Vehicles",
    "date_created": "2022-04-19T16:44:06.000",
    "date_modified": "2022-04-20T00:22:08.000",
    "request_status": "Pending",
    "responsible_agency": "Department of Public Works",
    "status": "Inspected",
    "rowid": "876069",
    "longitude": "0.0",
    "latitude": "0.0",
    "geocoded_column": {
      "latitude": "0.0",
      "longitude": "0.0"
    }
  },
  {
    "service_request": "2022-876068",
    "request_type": "Property Maintenance",
    "request_reason": "Property Maintenance",
    "date_created": "2022-04-19T16:34:33.000",
    "date_modified": "2022-04-19T16:34:33.000",
    "request_status": "Pending",
    "responsible_agency": "Department of Code Enforcement",
    "final_address": "3308 Third St",
    "address_councildis": "B",
    "status": "Pending",
    "rowid": "876068",
    "final_x": "3673016.36104",
    "final_y": "527991.165567",
    "longitude": "-90.09497907326349",
    "latitude": "29.94604741060152",
    "geocoded_column": {
      "latitude": "29.94604741060152",
      "longitude": "-90.09497907326349"
    }
  },
  {
    "service_request": "2022-876067",
    "request_type": "Property Maintenance",
    "request_reason": "Property Maintenance",
    "date_created": "2022-04-19T16:34:07.000",
    "date_modified": "2022-04-19T16:34:07.000",
    "request_status": "Pending",
    "responsible_agency": "Department of Code Enforcement",
    "final_address": "3312 Third St",
    "address_councildis": "B",
    "status": "Pending",
    "rowid": "876067",
    "final_x": "3672998.68065",
    "final_y": "528016.424703",
    "longitude": "-90.0950340345174",
    "latitude": "29.946117390320083",
    "geocoded_column": {
      "latitude": "29.946117390320083",
      "longitude": "-90.0950340345174"
    }
  },
  {
    "service_request": "2022-876066",
    "request_type": "Property Maintenance",
    "request_reason": "Property Maintenance",
    "date_created": "2022-04-19T16:33:19.000",
    "date_modified": "2022-04-19T16:33:20.000",
    "request_status": "Pending",
    "responsible_agency": "Department of Code Enforcement",
    "final_address": "3316 Third St",
    "address_councildis": "B",
    "status": "Pending",
    "rowid": "876066",
    "final_x": "3672980.63931",
    "final_y": "528042.339199",
    "longitude": "-90.09509011313371",
    "latitude": "29.946189182765018",
    "geocoded_column": {
      "latitude": "29.946189182765018",
      "longitude": "-90.09509011313371"
    }
  },
  {
    "service_request": "2022-876065",
    "request_type": "Trash/Recycling",
    "request_reason": "Illegal Dumping",
    "date_created": "2022-04-19T16:32:55.000",
    "date_modified": "2022-04-19T16:32:55.000",
    "request_status": "Pending",
    "responsible_agency": "Department of Code Enforcement",
    "final_address": "2108 Louisiana Ave",
    "address_councildis": "B",
    "status": "Pending",
    "rowid": "876065",
    "final_x": "3673390.28276",
    "final_y": "523252.600059",
    "longitude": "-90.09396029814945",
    "latitude": "29.93300678489339",
    "geocoded_column": {
      "latitude": "29.93300678489339",
      "longitude": "-90.09396029814945"
    }
  },
  {
    "service_request": "2022-876064",
    "request_type": "Trash/Recycling",
    "request_reason": "Request a Large Item Pick Up",
    "date_created": "2022-04-19T16:32:38.000",
    "date_modified": "2022-04-19T16:32:39.000",
    "request_status": "Pending",
    "responsible_agency": "Department of Sanitation",
    "final_address": "2115 Elysian Fields Ave",
    "address_councildis": "D",
    "status": "Assigned to Contractor",
    "contractor": "Metro Disposal",
    "rowid": "876064",
    "final_x": "3684817.96514",
    "final_y": "540141.160587",
    "longitude": "-90.0572902424733",
    "latitude": "29.97909972916438",
    "geocoded_column": {
      "latitude": "29.97909972916438",
      "longitude": "-90.0572902424733"
    }
  },
  {
    "service_request": "2022-876063",
    "request_type": "Abandoned Vehicles",
    "request_reason": "Abandoned/Junk Vehicles",
    "date_created": "2022-04-19T16:29:45.000",
    "date_modified": "2022-04-19T16:29:45.000",
    "request_status": "Pending",
    "responsible_agency": "Department of Public Works",
    "final_address": "309 Opal St Unit 1A",
    "address_councildis": "D",
    "status": "Pending",
    "rowid": "876063",
    "final_x": "3667520.05332",
    "final_y": "555538.674457",
    "longitude": "-90.11140532453679",
    "latitude": "30.021955907094448",
    "geocoded_column": {
      "latitude": "30.021955907094448",
      "longitude": "-90.11140532453679"
    }
  },
  {
    "service_request": "2022-876062",
    "request_type": "Trash/Recycling",
    "request_reason": "Missed Trash Pick-Up",
    "date_created": "2022-04-19T16:20:55.000",
    "date_modified": "2022-04-19T16:20:55.000",
    "request_status": "Pending",
    "responsible_agency": "Department of Sanitation",
    "final_address": "New Orleans, Louisiana",
    "status": "Assigned to Contractor",
    "rowid": "876062",
    "longitude": "0.0",
    "latitude": "0.0",
    "geocoded_column": {
      "latitude": "0.0",
      "longitude": "0.0"
    }
  },
  {
    "service_request": "2022-876061",
    "request_type": "Roads/Drainage",
    "request_reason": "Damaged Sidewalk",
    "date_created": "2022-04-19T16:20:52.000",
    "date_modified": "2022-04-19T16:20:53.000",
    "request_status": "Pending",
    "responsible_agency": "Department of Public Works",
    "final_address": "5134 Arts St",
    "address_councildis": "D",
    "status": "Pending",
    "rowid": "876061",
    "final_x": "3685725.6975",
    "final_y": "551901.752214",
    "longitude": "-90.0540085621892",
    "latitude": "30.011409312251264",
    "geocoded_column": {
      "latitude": "30.011409312251264",
      "longitude": "-90.0540085621892"
    }
  },
  {
    "service_request": "2022-876060",
    "request_type": "Trash/Recycling",
    "request_reason": "Missed Trash Pick-Up",
    "date_created": "2022-04-19T16:19:26.000",
    "date_modified": "2022-04-19T16:19:26.000",
    "request_status": "Pending",
    "responsible_agency": "Department of Sanitation",
    "final_address": "1100 BLK N Tonti St",
    "address_councildis": "D",
    "status": "Assigned to Contractor",
    "contractor": "Richards Disposal",
    "rowid": "876060",
    "final_x": "3678816.95696",
    "final_y": "537449.128301",
    "longitude": "-90.0763370236989",
    "latitude": "29.971879960388986",
    "geocoded_column": {
      "latitude": "29.971879960388986",
      "longitude": "-90.0763370236989"
    }
  },
  {
    "service_request": "2022-876059",
    "request_type": "Trash/Recycling",
    "request_reason": "Missed Trash Pick-Up",
    "date_created": "2022-04-19T16:19:04.000",
    "date_modified": "2022-04-19T16:19:05.000",
    "request_status": "Pending",
    "responsible_agency": "Department of Sanitation",
    "final_address": "1116 N Tonti St",
    "address_councildis": "D",
    "status": "Assigned to Contractor",
    "contractor": "Richards Disposal",
    "rowid": "876059",
    "final_x": "3678846.24891",
    "final_y": "537411.160328",
    "longitude": "-90.07624583057635",
    "latitude": "29.971774677901692",
    "geocoded_column": {
      "latitude": "29.971774677901692",
      "longitude": "-90.07624583057635"
    }
  },
  {
    "service_request": "2022-876058",
    "request_type": "Trash/Recycling",
    "request_reason": "Replace Trash Cart",
    "date_created": "2022-04-19T16:12:32.000",
    "date_modified": "2022-04-19T16:12:33.000",
    "request_status": "Pending",
    "responsible_agency": "Department of Sanitation",
    "final_address": "5048 Basinview Dr",
    "address_councildis": "E",
    "status": "Assigned to Contractor",
    "contractor": "Metro Disposal",
    "rowid": "876058",
    "final_x": "3698512.40752",
    "final_y": "555782.148377",
    "longitude": "-90.01346912671187",
    "latitude": "30.02168018882348",
    "geocoded_column": {
      "latitude": "30.02168018882348",
      "longitude": "-90.01346912671187"
    }
  },
  {
    "service_request": "2022-876057",
    "request_type": "Trash/Recycling",
    "request_reason": "Dead Animal Pick Up",
    "date_created": "2022-04-19T16:09:26.000",
    "date_modified": "2022-04-19T16:09:29.000",
    "request_status": "Pending",
    "responsible_agency": "Department of Sanitation",
    "final_address": "1900 Canal St",
    "address_councildis": "B",
    "status": "Assigned to Contractor",
    "contractor": "Richards Disposal",
    "rowid": "876057",
    "final_x": "3677668.49621",
    "final_y": "533227.823428",
    "longitude": "-90.08010985565011",
    "latitude": "29.960307399417353",
    "geocoded_column": {
      "latitude": "29.960307399417353",
      "longitude": "-90.08010985565011"
    }
  },
  {
    "service_request": "2022-876056",
    "request_type": "Trash/Recycling",
    "request_reason": "Request a Large Item Pick Up",
    "date_created": "2022-04-19T16:07:44.000",
    "date_modified": "2022-04-19T16:07:45.000",
    "request_status": "Pending",
    "responsible_agency": "Department of Sanitation",
    "final_address": "608 General Taylor St",
    "address_councildis": "B",
    "status": "Assigned to Contractor",
    "contractor": "Richards Disposal",
    "rowid": "876056",
    "final_x": "3673297.19547",
    "final_y": "518060.346934",
    "longitude": "-90.09443139711964",
    "latitude": "29.918732525348943",
    "geocoded_column": {
      "latitude": "29.918732525348943",
      "longitude": "-90.09443139711964"
    }
  },
  {
    "service_request": "2022-876055",
    "request_type": "Traffic Signals/Signs/Striping/Streetlights",
    "request_reason": "Street Light Outage/Malfunction",
    "date_created": "2022-04-19T16:06:34.000",
    "date_modified": "2022-04-19T16:06:34.000",
    "request_status": "Pending",
    "responsible_agency": "Department of Public Works",
    "final_address": "12001 Curran Rd",
    "address_councildis": "E",
    "status": "Pending",
    "contractor": "Royal Engineering",
    "rowid": "876055",
    "final_x": "3713503.28837",
    "final_y": "568404.618661",
    "longitude": "-89.96562636255173",
    "latitude": "30.055903596284143",
    "geocoded_column": {
      "latitude": "30.055903596284143",
      "longitude": "-89.96562636255173"
    }
  },
  {
    "service_request": "2022-876054",
    "request_type": "Property Maintenance",
    "request_reason": "Property Maintenance",
    "date_created": "2022-04-19T16:04:42.000",
    "date_modified": "2022-04-19T16:04:42.000",
    "request_status": "Pending",
    "responsible_agency": "Department of Code Enforcement",
    "final_address": "621 Broadway St Apt A",
    "address_councildis": "A",
    "status": "Pending",
    "rowid": "876054",
    "final_x": "3663154.01709",
    "final_y": "524830.9159",
    "longitude": "-90.12622312016731",
    "latitude": "29.93764712408867",
    "geocoded_column": {
      "latitude": "29.93764712408867",
      "longitude": "-90.12622312016731"
    }
  },
  {
    "service_request": "2022-876053",
    "request_type": "Traffic Signals/Signs/Striping/Streetlights",
    "request_reason": "Street Light Outage/Malfunction",
    "date_created": "2022-04-19T16:03:58.000",
    "date_modified": "2022-04-19T16:03:59.000",
    "request_status": "Pending",
    "responsible_agency": "Department of Public Works",
    "final_address": "28 N Oak Ridge Ct",
    "address_councildis": "E",
    "status": "Pending",
    "contractor": "Royal Engineering",
    "rowid": "876053",
    "final_x": "3713605.358",
    "final_y": "568095.524453",
    "longitude": "-89.96531540656694",
    "latitude": "30.055050363485933",
    "geocoded_column": {
      "latitude": "30.055050363485933",
      "longitude": "-89.96531540656694"
    }
  },
  {
    "service_request": "2022-876052",
    "request_type": "Trash/Recycling",
    "request_reason": "Request a Large Item Pick Up",
    "date_created": "2022-04-19T16:02:05.000",
    "date_modified": "2022-04-19T16:02:05.000",
    "request_status": "Pending",
    "responsible_agency": "Department of Sanitation",
    "final_address": "195 Pinewood Ct",
    "address_councildis": "C",
    "status": "Assigned to Contractor",
    "contractor": "Richards Disposal",
    "rowid": "876052",
    "final_x": "3696079.84266",
    "final_y": "523630.312251",
    "longitude": "-90.02231770581209",
    "latitude": "29.933351048891375",
    "geocoded_column": {
      "latitude": "29.933351048891375",
      "longitude": "-90.02231770581209"
    }
  },
  {
    "service_request": "2022-876050",
    "request_type": "Roads/Drainage",
    "request_reason": "Man hole cover issue",
    "date_created": "2022-04-19T15:45:20.000",
    "date_modified": "2022-04-19T15:49:08.000",
    "request_status": "Pending",
    "responsible_agency": "Department of Public Works",
    "final_address": "S GAYOSO ST & BAUDIN ST",
    "address_councildis": "B",
    "status": "Pending",
    "rowid": "876050",
    "final_x": "3673372.3",
    "final_y": "534588.28",
    "longitude": "-90.09362989451354",
    "latitude": "29.96417670151139",
    "geocoded_column": {
      "latitude": "29.96417670151139",
      "longitude": "-90.09362989451354"
    }
  },
  {
    "service_request": "2022-876049",
    "request_type": "Trash/Recycling",
    "request_reason": "Request a Large Item Pick Up",
    "date_created": "2022-04-19T15:36:31.000",
    "date_modified": "2022-04-19T15:36:32.000",
    "request_status": "Pending",
    "responsible_agency": "Department of Sanitation",
    "final_address": "4314 S Galvez St",
    "address_councildis": "B",
    "status": "Assigned to Contractor",
    "contractor": "Richards Disposal",
    "rowid": "876049",
    "final_x": "3670463.04551",
    "final_y": "527448.471039",
    "longitude": "-90.10305917945779",
    "latitude": "29.944630806864048",
    "geocoded_column": {
      "latitude": "29.944630806864048",
      "longitude": "-90.10305917945779"
    }
  },
  {
    "service_request": "2022-876048",
    "request_type": "Trash/Recycling",
    "request_reason": "Order Recycling Cart",
    "date_created": "2022-04-19T15:35:19.000",
    "date_modified": "2022-04-19T16:48:31.000",
    "request_status": "Pending",
    "responsible_agency": "Department of Sanitation",
    "final_address": "New Orleans,LA",
    "address_councildis": "A",
    "rowid": "876048",
    "final_x": "3666140.72807",
    "final_y": "524591.65958",
    "longitude": "-90.11680183168657",
    "latitude": "29.936902391639556",
    "geocoded_column": {
      "latitude": "29.936902391639556",
      "longitude": "-90.11680183168657"
    }
  },
  {
    "service_request": "2022-876047",
    "request_type": "Abandoned Vehicles",
    "request_reason": "Abandoned/Junk Vehicles",
    "date_created": "2022-04-19T15:29:30.000",
    "date_modified": "2022-04-19T15:29:30.000",
    "request_status": "Pending",
    "responsible_agency": "Department of Public Works",
    "final_address": "NAPOLEON AVE & DANNEEL ST",
    "address_councildis": "B",
    "status": "Pending",
    "rowid": "876047",
    "final_x": "3670751.1",
    "final_y": "522298.68",
    "longitude": "-90.10232438346941",
    "latitude": "29.930462039992946",
    "geocoded_column": {
      "latitude": "29.930462039992946",
      "longitude": "-90.10232438346941"
    }
  },
  {
    "service_request": "2022-876045",
    "request_type": "Traffic Signals/Signs/Striping/Streetlights",
    "request_reason": "Traffic Signal Malfunctioning/Damaged",
    "date_created": "2022-04-19T15:24:14.000",
    "date_modified": "2022-04-19T15:24:15.000",
    "request_status": "Pending",
    "responsible_agency": "Department of Public Works",
    "final_address": "JULIA ST & MAGAZINE ST",
    "address_councildis": "B",
    "status": "Pending",
    "rowid": "876045",
    "final_x": "3681185.3",
    "final_y": "527834.78",
    "longitude": "-90.06919241020636",
    "latitude": "29.94537212062184",
    "geocoded_column": {
      "latitude": "29.94537212062184",
      "longitude": "-90.06919241020636"
    }
  },
  {
    "service_request": "2022-876044",
    "request_type": "Mosquito, Termite & Rodent Control",
    "request_reason": "Non-Rodent Complaint (Mice, Possums, Snakes)",
    "date_created": "2022-04-19T15:22:52.000",
    "date_modified": "2022-04-19T15:22:52.000",
    "request_status": "Pending",
    "responsible_agency": "Mosquito, Termite & Rodent Control Board",
    "final_address": "4410 Wellington Ave",
    "address_councildis": "D",
    "status": "Pending",
    "rowid": "876044",
    "final_x": "3677142.21646",
    "final_y": "548566.144915",
    "longitude": "-90.08124247369837",
    "latitude": "30.002498297162568",
    "geocoded_column": {
      "latitude": "30.002498297162568",
      "longitude": "-90.08124247369837"
    }
  },
  {
    "service_request": "2022-876043",
    "request_type": "Abandoned Vehicles",
    "request_reason": "Abandoned/Junk Vehicles",
    "date_created": "2022-04-19T15:22:02.000",
    "date_modified": "2022-04-19T15:22:02.000",
    "request_status": "Pending",
    "responsible_agency": "Department of Public Works",
    "final_address": "3008 Republic St",
    "address_councildis": "D",
    "status": "Pending",
    "rowid": "876043",
    "final_x": "3680592.96987",
    "final_y": "543450.18747",
    "longitude": "-90.07051922560962",
    "latitude": "29.988327093598933",
    "geocoded_column": {
      "latitude": "29.988327093598933",
      "longitude": "-90.07051922560962"
    }
  },
  {
    "service_request": "2022-876042",
    "request_type": "Property Maintenance",
    "request_reason": "Property Maintenance",
    "date_created": "2022-04-19T15:21:43.000",
    "date_modified": "2022-04-19T15:27:40.000",
    "request_status": "Pending",
    "responsible_agency": "Department of Code Enforcement",
    "final_address": "4410 Wellington Ave",
    "address_councildis": "D",
    "status": "Pending",
    "rowid": "876042",
    "final_x": "3677142.21646",
    "final_y": "548566.144915",
    "longitude": "-90.08124247369837",
    "latitude": "30.002498297162568",
    "geocoded_column": {
      "latitude": "30.002498297162568",
      "longitude": "-90.08124247369837"
    }
  },
  {
    "service_request": "2022-876041",
    "request_type": "Trash/Recycling",
    "request_reason": "Request a Large Item Pick Up",
    "date_created": "2022-04-19T15:20:43.000",
    "date_modified": "2022-04-19T15:20:44.000",
    "request_status": "Pending",
    "responsible_agency": "Department of Sanitation",
    "final_address": "1116 N Derbigny St",
    "address_councildis": "D",
    "status": "Assigned to Contractor",
    "contractor": "Richards Disposal",
    "rowid": "876041",
    "final_x": "3680508.01096",
    "final_y": "536128.917191",
    "longitude": "-90.07104234108606",
    "latitude": "29.968198716628148",
    "geocoded_column": {
      "latitude": "29.968198716628148",
      "longitude": "-90.07104234108606"
    }
  },
  {
    "service_request": "2022-876040",
    "request_type": "Roads/Drainage",
    "request_reason": "Damaged Sidewalk",
    "date_created": "2022-04-19T15:18:24.000",
    "date_modified": "2022-04-19T15:18:24.000",
    "request_status": "Pending",
    "responsible_agency": "Department of Public Works",
    "final_address": "817 Common St",
    "address_councildis": "B",
    "status": "Pending",
    "rowid": "876040",
    "final_x": "3680475.86792",
    "final_y": "530608.104258",
    "longitude": "-90.0713358739745",
    "latitude": "29.953019332872906",
    "geocoded_column": {
      "latitude": "29.953019332872906",
      "longitude": "-90.0713358739745"
    }
  },
  {
    "service_request": "2022-876039",
    "request_type": "Abandoned Vehicles",
    "request_reason": "Abandoned/Junk Vehicles",
    "date_created": "2022-04-19T15:15:16.000",
    "date_modified": "2022-04-19T15:15:16.000",
    "request_status": "Pending",
    "responsible_agency": "Department of Public Works",
    "final_address": "328 S Bernadotte St",
    "address_councildis": "A",
    "status": "Pending",
    "rowid": "876039",
    "final_x": "3668265.03527",
    "final_y": "539209.672522",
    "longitude": "-90.10960239256676",
    "latitude": "29.977034934777535",
    "geocoded_column": {
      "latitude": "29.977034934777535",
      "longitude": "-90.10960239256676"
    }
  },
  {
    "service_request": "2022-876038",
    "request_type": "Trash/Recycling",
    "request_reason": "Request a Large Item Pick Up",
    "date_created": "2022-04-19T15:11:03.000",
    "date_modified": "2022-04-19T15:11:04.000",
    "request_status": "Pending",
    "responsible_agency": "Department of Sanitation",
    "final_address": "3522 Bruxelles St",
    "address_councildis": "D",
    "status": "Assigned to Contractor",
    "contractor": "Metro Disposal",
    "rowid": "876038",
    "final_x": "3680072.07477",
    "final_y": "545382.143056",
    "longitude": "-90.07209739570166",
    "latitude": "29.993655066017812",
    "geocoded_column": {
      "latitude": "29.993655066017812",
      "longitude": "-90.07209739570166"
    }
  },
  {
    "service_request": "2022-876037",
    "request_type": "Trash/Recycling",
    "request_reason": "Illegal Dumping",
    "date_created": "2022-04-19T15:10:49.000",
    "date_modified": "2022-04-19T15:10:49.000",
    "request_status": "Pending",
    "responsible_agency": "Department of Sanitation",
    "final_address": "806 Florida Blvd",
    "address_councildis": "A",
    "status": "Pending",
    "rowid": "876037",
    "final_x": "3669021.42196",
    "final_y": "545191.132815",
    "longitude": "-90.10701129005182",
    "latitude": "29.9934596799391",
    "geocoded_column": {
      "latitude": "29.9934596799391",
      "longitude": "-90.10701129005182"
    }
  },
  {
    "service_request": "2022-876036",
    "request_type": "Mosquito, Termite & Rodent Control",
    "request_reason": "Rodent Complaint (Rats)",
    "date_created": "2022-04-19T15:08:11.000",
    "date_modified": "2022-04-19T15:08:12.000",
    "request_status": "Pending",
    "responsible_agency": "Mosquito, Termite & Rodent Control Board",
    "final_address": "3801 Ulloa St",
    "address_councildis": "B",
    "status": "Pending",
    "rowid": "876036",
    "final_x": "3670644.13198",
    "final_y": "535773.555719",
    "longitude": "-90.10220502215769",
    "latitude": "29.967516692034177",
    "geocoded_column": {
      "latitude": "29.967516692034177",
      "longitude": "-90.10220502215769"
    }
  },
  {
    "service_request": "2022-876035",
    "request_type": "Trash/Recycling",
    "request_reason": "Illegal Dumping",
    "date_created": "2022-04-19T15:06:34.000",
    "date_modified": "2022-04-19T15:06:37.000",
    "request_status": "Pending",
    "responsible_agency": "Department of Sanitation",
    "final_address": "904 Florida Blvd",
    "address_councildis": "A",
    "status": "Pending",
    "rowid": "876035",
    "final_x": "3669719.82183",
    "final_y": "545143.570255",
    "longitude": "-90.10480676008345",
    "latitude": "29.993308328421705",
    "geocoded_column": {
      "latitude": "29.993308328421705",
      "longitude": "-90.10480676008345"
    }
  },
  {
    "service_request": "2022-876034",
    "request_type": "Traffic Signals/Signs/Striping/Streetlights",
    "request_reason": "Traffic Sign Missing/Damaged",
    "date_created": "2022-04-19T14:58:35.000",
    "date_modified": "2022-04-19T14:58:36.000",
    "request_status": "Pending",
    "responsible_agency": "Department of Public Works",
    "final_address": "STEMWAY DR & DREUX AVE",
    "address_councildis": "D",
    "status": "Pending",
    "rowid": "876034",
    "final_x": "3696940.2",
    "final_y": "553893.48",
    "longitude": "-90.0185053372016",
    "latitude": "30.01653676708293",
    "geocoded_column": {
      "latitude": "30.01653676708293",
      "longitude": "-90.0185053372016"
    }
  },
  {
    "service_request": "2022-876033",
    "request_type": "Trash/Recycling",
    "request_reason": "Order Recycling Cart",
    "date_created": "2022-04-19T14:58:29.000",
    "date_modified": "2022-04-19T14:58:29.000",
    "request_status": "Pending",
    "responsible_agency": "Department of Sanitation",
    "final_address": "New Orleans,LA",
    "status": "Pending",
    "rowid": "876033",
    "longitude": "0.0",
    "latitude": "0.0",
    "geocoded_column": {
      "latitude": "0.0",
      "longitude": "0.0"
    }
  },
  {
    "service_request": "2022-876031",
    "request_type": "Roads/Drainage",
    "request_reason": "Man hole cover issue",
    "date_created": "2022-04-19T14:55:43.000",
    "date_modified": "2022-04-19T14:55:43.000",
    "request_status": "Pending",
    "responsible_agency": "Department of Public Works",
    "final_address": "200 Academy Dr",
    "address_councildis": "A",
    "status": "Pending",
    "rowid": "876031",
    "final_x": "3665725.81165",
    "final_y": "544737.178447",
    "longitude": "-90.11743685918786",
    "latitude": "29.992308031205372",
    "geocoded_column": {
      "latitude": "29.992308031205372",
      "longitude": "-90.11743685918786"
    }
  },
  {
    "service_request": "2022-876030",
    "request_type": "Trash/Recycling",
    "request_reason": "Repair Trash Cart",
    "date_created": "2022-04-19T14:55:42.000",
    "date_modified": "2022-04-19T14:55:43.000",
    "request_status": "Pending",
    "responsible_agency": "Department of Sanitation",
    "final_address": "727 Constantinople St",
    "address_councildis": "B",
    "status": "Assigned to Contractor",
    "contractor": "Richards Disposal",
    "rowid": "876030",
    "final_x": "3672605.24526",
    "final_y": "518441.784566",
    "longitude": "-90.09660253139957",
    "latitude": "29.91980191092012",
    "geocoded_column": {
      "latitude": "29.91980191092012",
      "longitude": "-90.09660253139957"
    }
  },
  {
    "service_request": "2022-876029",
    "request_type": "Traffic Signals/Signs/Striping/Streetlights",
    "request_reason": "Street Light Knocked Down/Leaning",
    "date_created": "2022-04-19T14:54:08.000",
    "date_modified": "2022-04-19T14:54:09.000",
    "request_status": "Pending",
    "responsible_agency": "Department of Public Works",
    "final_address": "5081 Kim Dr",
    "address_councildis": "E",
    "status": "Pending",
    "contractor": "Royal Engineering",
    "rowid": "876029",
    "final_x": "3728309.11993",
    "final_y": "563528.403808",
    "longitude": "-89.91901876947765",
    "latitude": "30.042001811427845",
    "geocoded_column": {
      "latitude": "30.042001811427845",
      "longitude": "-89.91901876947765"
    }
  },
  {
    "service_request": "2022-876028",
    "request_type": "Trash/Recycling",
    "request_reason": "Illegal Dumping",
    "date_created": "2022-04-19T14:52:34.000",
    "date_modified": "2022-04-19T14:52:34.000",
    "request_status": "Pending",
    "responsible_agency": "Department of Sanitation",
    "final_address": "1671 Humanity St",
    "address_councildis": "D",
    "status": "Pending",
    "rowid": "876028",
    "final_x": "3680411.37493",
    "final_y": "544533.215439",
    "longitude": "-90.07105513987972",
    "latitude": "29.991310541190508",
    "geocoded_column": {
      "latitude": "29.991310541190508",
      "longitude": "-90.07105513987972"
    }
  },
  {
    "service_request": "2022-876027",
    "request_type": "Trash/Recycling",
    "request_reason": "MIssed Recycling Pick-Up",
    "date_created": "2022-04-19T14:51:49.000",
    "date_modified": "2022-04-19T14:51:50.000",
    "request_status": "Pending",
    "responsible_agency": "Department of Sanitation",
    "final_address": "1213 N Robertson St",
    "address_councildis": "D",
    "status": "Assigned to Contractor",
    "contractor": "Richards Disposal",
    "rowid": "876027",
    "final_x": "3681289.44981",
    "final_y": "536031.065031",
    "longitude": "-90.06857793693486",
    "latitude": "29.967905963108247",
    "geocoded_column": {
      "latitude": "29.967905963108247",
      "longitude": "-90.06857793693486"
    }
  },
  {
    "service_request": "2022-876026",
    "request_type": "Roads/Drainage",
    "request_reason": "Damaged Sidewalk",
    "date_created": "2022-04-19T14:51:44.000",
    "date_modified": "2022-04-19T14:51:44.000",
    "request_status": "Pending",
    "responsible_agency": "Department of Public Works",
    "final_address": "606 Iberville St",
    "address_councildis": "C",
    "status": "Pending",
    "rowid": "876026",
    "final_x": "3681645.2484",
    "final_y": "530823.993346",
    "longitude": "-90.06763595598981",
    "latitude": "29.95357748944335",
    "geocoded_column": {
      "latitude": "29.95357748944335",
      "longitude": "-90.06763595598981"
    }
  },
  {
    "service_request": "2022-876025",
    "request_type": "Trash/Recycling",
    "request_reason": "Request a Large Item Pick Up",
    "date_created": "2022-04-19T14:50:34.000",
    "date_modified": "2022-04-19T14:50:34.000",
    "request_status": "Pending",
    "responsible_agency": "Department of Sanitation",
    "final_address": "3814 Dryades St",
    "address_councildis": "B",
    "status": "Assigned to Contractor",
    "contractor": "Richards Disposal",
    "rowid": "876025",
    "final_x": "3672498.06318",
    "final_y": "522076.870906",
    "longitude": "-90.09681703143092",
    "latitude": "29.929800414629455",
    "geocoded_column": {
      "latitude": "29.929800414629455",
      "longitude": "-90.09681703143092"
    }
  },
  {
    "service_request": "2022-876024",
    "request_type": "Trash/Recycling",
    "request_reason": "Repair Trash Cart",
    "date_created": "2022-04-19T14:49:15.000",
    "date_modified": "2022-04-19T14:49:16.000",
    "request_status": "Pending",
    "responsible_agency": "Department of Sanitation",
    "final_address": "6054 Constance St",
    "address_councildis": "A",
    "status": "Assigned to Contractor",
    "contractor": "Richards Disposal",
    "rowid": "876024",
    "final_x": "3664153.16845",
    "final_y": "518948.910071",
    "longitude": "-90.1232648186724",
    "latitude": "29.921444481980704",
    "geocoded_column": {
      "latitude": "29.921444481980704",
      "longitude": "-90.1232648186724"
    }
  },
  {
    "service_request": "2022-876023",
    "request_type": "Trash/Recycling",
    "request_reason": "Order Trash Cart",
    "date_created": "2022-04-19T14:47:44.000",
    "date_modified": "2022-04-19T14:47:45.000",
    "request_status": "Pending",
    "responsible_agency": "Department of Sanitation",
    "final_address": "1322 General Ogden St",
    "address_councildis": "A",
    "status": "Assigned to Contractor",
    "contractor": "Richards Disposal",
    "rowid": "876023",
    "final_x": "3660211.81728",
    "final_y": "530711.924994",
    "longitude": "-90.135317795814",
    "latitude": "29.953902927327817",
    "geocoded_column": {
      "latitude": "29.953902927327817",
      "longitude": "-90.135317795814"
    }
  },
  {
    "service_request": "2022-876022",
    "request_type": "Abandoned Vehicles",
    "request_reason": "Abandoned/Junk Vehicles",
    "date_created": "2022-04-19T14:36:31.000",
    "date_modified": "2022-04-19T14:36:31.000",
    "request_status": "Pending",
    "responsible_agency": "Department of Public Works",
    "final_address": "1900 Touro St",
    "address_councildis": "D",
    "status": "Pending",
    "rowid": "876022",
    "final_x": "3683961.43004",
    "final_y": "539226.395594",
    "longitude": "-90.06002761361336",
    "latitude": "29.976610645673386",
    "geocoded_column": {
      "latitude": "29.976610645673386",
      "longitude": "-90.06002761361336"
    }
  },
  {
    "service_request": "2022-876021",
    "request_type": "Trash/Recycling",
    "request_reason": "Replace Trash Cart",
    "date_created": "2022-04-19T14:31:21.000",
    "date_modified": "2022-04-19T14:31:22.000",
    "request_status": "Pending",
    "responsible_agency": "Department of Sanitation",
    "final_address": "4012 Clermont Dr",
    "address_councildis": "D",
    "status": "Assigned to Contractor",
    "contractor": "Metro Disposal",
    "rowid": "876021",
    "final_x": "3684997.44316",
    "final_y": "547089.589073",
    "longitude": "-90.05647883174254",
    "latitude": "29.99819994238771",
    "geocoded_column": {
      "latitude": "29.99819994238771",
      "longitude": "-90.05647883174254"
    }
  },
  {
    "service_request": "2022-876020",
    "request_type": "Property Maintenance",
    "request_reason": "Property Maintenance",
    "date_created": "2022-04-19T14:25:24.000",
    "date_modified": "2022-04-19T14:27:24.000",
    "request_status": "Pending",
    "responsible_agency": "Department of Code Enforcement",
    "final_address": "EARHART BLVD & S CARROLLTON AVE",
    "address_councildis": "A",
    "status": "Pending",
    "rowid": "876020",
    "final_x": "3666621.1",
    "final_y": "533430.48",
    "longitude": "-90.114988563589",
    "latitude": "29.96119224794388",
    "geocoded_column": {
      "latitude": "29.96119224794388",
      "longitude": "-90.114988563589"
    }
  },
  {
    "service_request": "2022-876018",
    "request_type": "Trash/Recycling",
    "request_reason": "MIssed Recycling Pick-Up",
    "date_created": "2022-04-19T14:24:38.000",
    "date_modified": "2022-04-19T14:24:39.000",
    "request_status": "Pending",
    "responsible_agency": "Department of Sanitation",
    "final_address": "2 Neron Pl",
    "address_councildis": "A",
    "status": "Assigned to Contractor",
    "contractor": "Richards Disposal",
    "rowid": "876018",
    "final_x": "3664751.73684",
    "final_y": "531004.744706",
    "longitude": "-90.12097274905189",
    "latitude": "29.954576788651202",
    "geocoded_column": {
      "latitude": "29.954576788651202",
      "longitude": "-90.12097274905189"
    }
  },
  {
    "service_request": "2022-876017",
    "request_type": "Trash/Recycling",
    "request_reason": "Missed Trash Pick-Up",
    "date_created": "2022-04-19T14:24:22.000",
    "date_modified": "2022-04-19T14:24:23.000",
    "request_status": "Pending",
    "responsible_agency": "Department of Sanitation",
    "final_address": "2 Neron Pl",
    "address_councildis": "A",
    "status": "Assigned to Contractor",
    "contractor": "Richards Disposal",
    "rowid": "876017",
    "final_x": "3664751.73684",
    "final_y": "531004.744706",
    "longitude": "-90.12097274905189",
    "latitude": "29.954576788651202",
    "geocoded_column": {
      "latitude": "29.954576788651202",
      "longitude": "-90.12097274905189"
    }
  },
  {
    "service_request": "2022-876016",
    "request_type": "Trash/Recycling",
    "request_reason": "Request a Large Item Pick Up",
    "date_created": "2022-04-19T14:19:37.000",
    "date_modified": "2022-04-19T14:19:38.000",
    "request_status": "Pending",
    "responsible_agency": "Department of Sanitation",
    "final_address": "1133 Dale Ct",
    "address_councildis": "A",
    "status": "Assigned to Contractor",
    "contractor": "Metro Disposal",
    "rowid": "876016",
    "final_x": "3669856.5835",
    "final_y": "544998.564303",
    "longitude": "-90.10437966383108",
    "latitude": "29.99290557946611",
    "geocoded_column": {
      "latitude": "29.99290557946611",
      "longitude": "-90.10437966383108"
    }
  },
  {
    "service_request": "2022-876015",
    "request_type": "Property Maintenance",
    "request_reason": "Property Maintenance",
    "date_created": "2022-04-19T14:12:22.000",
    "date_modified": "2022-04-19T14:12:22.000",
    "request_status": "Pending",
    "responsible_agency": "Department of Code Enforcement",
    "final_address": "5018 Constance St",
    "address_councildis": "B",
    "status": "Pending",
    "rowid": "876015",
    "final_x": "3668479.48814",
    "final_y": "518157.039926",
    "longitude": "-90.10963516921593",
    "latitude": "29.919140751944695",
    "geocoded_column": {
      "latitude": "29.919140751944695",
      "longitude": "-90.10963516921593"
    }
  },
  {
    "service_request": "2022-876014",
    "request_type": "Trash/Recycling",
    "request_reason": "Missed Trash Pick-Up",
    "date_created": "2022-04-19T14:10:22.000",
    "date_modified": "2022-04-19T14:10:23.000",
    "request_status": "Pending",
    "responsible_agency": "Department of Sanitation",
    "final_address": "1727 Napoleon Ave, New Orleans, Louisiana, 70115",
    "address_councildis": "B",
    "status": "Assigned to Contractor",
    "contractor": "Richards Disposal",
    "rowid": "876014",
    "final_x": "3670923.02407",
    "final_y": "521490.554425",
    "longitude": "-90.10180906296975",
    "latitude": "29.92823487391336",
    "geocoded_column": {
      "latitude": "29.92823487391336",
      "longitude": "-90.10180906296975"
    }
  },
  {
    "service_request": "2022-876013",
    "request_type": "Trash/Recycling",
    "request_reason": "Order Trash Cart",
    "date_created": "2022-04-19T14:09:05.000",
    "date_modified": "2022-04-19T14:09:06.000",
    "request_status": "Pending",
    "responsible_agency": "Department of Sanitation",
    "final_address": "500 S Hennessey St",
    "address_councildis": "A",
    "status": "Assigned to Contractor",
    "contractor": "Richards Disposal",
    "rowid": "876013",
    "final_x": "3669328.40948",
    "final_y": "537625.285896",
    "longitude": "-90.10629749088581",
    "latitude": "29.972647135303404",
    "geocoded_column": {
      "latitude": "29.972647135303404",
      "longitude": "-90.10629749088581"
    }
  },
  {
    "service_request": "2022-876012",
    "request_type": "Traffic Signals/Signs/Striping/Streetlights",
    "request_reason": "Traffic Sign Missing/Damaged",
    "date_created": "2022-04-19T14:08:03.000",
    "date_modified": "2022-04-19T14:08:03.000",
    "request_status": "Pending",
    "responsible_agency": "Department of Public Works",
    "final_address": "N ROMAN ST & LESSEPS ST",
    "address_councildis": "D",
    "status": "Pending",
    "rowid": "876012",
    "final_x": "3693353.1",
    "final_y": "537707.88",
    "longitude": "-90.03042048829381",
    "latitude": "29.972144961576635",
    "geocoded_column": {
      "latitude": "29.972144961576635",
      "longitude": "-90.03042048829381"
    }
  },
  {
    "service_request": "2022-876011",
    "request_type": "Trash/Recycling",
    "request_reason": "Missed Trash Pick-Up",
    "date_created": "2022-04-19T14:05:59.000",
    "date_modified": "2022-04-19T14:06:00.000",
    "request_status": "Pending",
    "responsible_agency": "Department of Sanitation",
    "final_address": "9005 Olive St",
    "address_councildis": "A",
    "status": "Assigned to Contractor",
    "contractor": "Richards Disposal",
    "rowid": "876011",
    "final_x": "3664872.52519",
    "final_y": "536388.138631",
    "longitude": "-90.12041140634454",
    "latitude": "29.96937584174801",
    "geocoded_column": {
      "latitude": "29.96937584174801",
      "longitude": "-90.12041140634454"
    }
  },
  {
    "service_request": "2022-876010",
    "request_type": "Abandoned Vehicles",
    "request_reason": "Abandoned/Junk Vehicles",
    "date_created": "2022-04-19T14:03:31.000",
    "date_modified": "2022-04-19T14:03:31.000",
    "request_status": "Pending",
    "responsible_agency": "Department of Public Works",
    "final_address": "6831 General Diaz St",
    "address_councildis": "A",
    "status": "Pending",
    "rowid": "876010",
    "final_x": "3670110.88948",
    "final_y": "552856.262679",
    "longitude": "-90.1033099070773",
    "latitude": "30.014504004337223",
    "geocoded_column": {
      "latitude": "30.014504004337223",
      "longitude": "-90.1033099070773"
    }
  },
  {
    "service_request": "2022-876009",
    "request_type": "Trash/Recycling",
    "request_reason": "Order Recycling Cart",
    "date_created": "2022-04-19T13:59:26.000",
    "date_modified": "2022-04-19T13:59:26.000",
    "request_status": "Pending",
    "responsible_agency": "Department of Sanitation",
    "final_address": "154 Audubon Blvd",
    "address_councildis": "A",
    "status": "Pending",
    "rowid": "876009",
    "final_x": "3666001.94452",
    "final_y": "528194.56672",
    "longitude": "-90.11711924857853",
    "latitude": "29.946813279731007",
    "geocoded_column": {
      "latitude": "29.946813279731007",
      "longitude": "-90.11711924857853"
    }
  },
  {
    "service_request": "2022-876008",
    "request_type": "Trash/Recycling",
    "request_reason": "Missed Trash Pick-Up",
    "date_created": "2022-04-19T13:57:13.000",
    "date_modified": "2022-04-19T13:57:16.000",
    "request_status": "Pending",
    "responsible_agency": "Department of Sanitation",
    "final_address": "1205 Valence St",
    "address_councildis": "B",
    "status": "Assigned to Contractor",
    "contractor": "Richards Disposal",
    "rowid": "876008",
    "final_x": "3669899.03559",
    "final_y": "519801.370488",
    "longitude": "-90.10509873404295",
    "latitude": "29.923620378319395",
    "geocoded_column": {
      "latitude": "29.923620378319395",
      "longitude": "-90.10509873404295"
    }
  },
  {
    "service_request": "2022-876007",
    "request_type": "Trash/Recycling",
    "request_reason": "Replace Trash Cart",
    "date_created": "2022-04-19T13:56:19.000",
    "date_modified": "2022-04-19T13:56:19.000",
    "request_status": "Pending",
    "responsible_agency": "Department of Sanitation",
    "final_address": "1215 Lowerline St",
    "address_councildis": "A",
    "status": "Assigned to Contractor",
    "contractor": "Richards Disposal",
    "rowid": "876007",
    "final_x": "3663793.03527",
    "final_y": "526890.301822",
    "longitude": "-90.12413707112347",
    "latitude": "29.94329125264799",
    "geocoded_column": {
      "latitude": "29.94329125264799",
      "longitude": "-90.12413707112347"
    }
  },
  {
    "service_request": "2022-876006",
    "request_type": "Abandoned Vehicles",
    "request_reason": "Abandoned/Junk Vehicles",
    "date_created": "2022-04-19T13:52:00.000",
    "date_modified": "2022-04-19T13:55:40.000",
    "request_status": "Pending",
    "responsible_agency": "Department of Public Works",
    "final_address": "4323 Bienville Ave",
    "address_councildis": "A",
    "status": "Pending",
    "rowid": "876006",
    "final_x": "3670626.82759",
    "final_y": "539819.704074",
    "longitude": "-90.10212237153301",
    "latitude": "29.97864274776925",
    "geocoded_column": {
      "latitude": "29.97864274776925",
      "longitude": "-90.10212237153301"
    }
  },
  {
    "service_request": "2022-876005",
    "request_type": "Roads/Drainage",
    "request_reason": "Man hole cover issue",
    "date_created": "2022-04-19T13:48:34.000",
    "date_modified": "2022-04-19T13:50:18.000",
    "request_status": "Pending",
    "responsible_agency": "Department of Public Works",
    "final_address": "ACADEMY DR & MARCIA AVE",
    "address_councildis": "A",
    "status": "Pending",
    "rowid": "876005",
    "final_x": "3664889.4",
    "final_y": "545546.38",
    "longitude": "-90.12005186623442",
    "latitude": "29.99455743785832",
    "geocoded_column": {
      "latitude": "29.99455743785832",
      "longitude": "-90.12005186623442"
    }
  },
  {
    "service_request": "2022-876004",
    "request_type": "Property Maintenance",
    "request_reason": "Property Maintenance",
    "date_created": "2022-04-19T13:43:48.000",
    "date_modified": "2022-04-19T13:48:59.000",
    "case_close_date": "2022-04-19T08:48:59.000",
    "request_status": "Closed",
    "responsible_agency": "Department of Code Enforcement",
    "final_address": "3437 Audubon Ct",
    "address_councildis": "B",
    "status": "Referred to Code Enforcement",
    "rowid": "876004",
    "final_x": "3669006.86113",
    "final_y": "532958.4137",
    "longitude": "-90.10747068411523",
    "latitude": "29.95982425472875",
    "geocoded_column": {
      "latitude": "29.95982425472875",
      "longitude": "-90.10747068411523"
    }
  },
  {
    "service_request": "2022-876003",
    "request_type": "Abandoned Vehicles",
    "request_reason": "Vehicle Blocking Your Driveway",
    "date_created": "2022-04-19T13:40:45.000",
    "date_modified": "2022-04-19T13:40:45.000",
    "request_status": "Pending",
    "responsible_agency": "Department of Public Works",
    "final_address": "831 Desire St",
    "address_councildis": "C",
    "status": "Pending",
    "rowid": "876003",
    "final_x": "3689990.61225",
    "final_y": "534804.109318",
    "longitude": "-90.04114316915458",
    "latitude": "29.964265314403786",
    "geocoded_column": {
      "latitude": "29.964265314403786",
      "longitude": "-90.04114316915458"
    }
  },
  {
    "service_request": "2022-876002",
    "request_type": "Trash/Recycling",
    "request_reason": "Missed Trash Pick-Up",
    "date_created": "2022-04-19T13:37:15.000",
    "date_modified": "2022-04-19T13:37:18.000",
    "request_status": "Pending",
    "responsible_agency": "Department of Sanitation",
    "final_address": "1210 N Tonti St",
    "address_councildis": "D",
    "status": "Assigned to Contractor",
    "contractor": "Richards Disposal",
    "rowid": "876002",
    "final_x": "3679007.39483",
    "final_y": "537642.348296",
    "longitude": "-90.07572889330902",
    "latitude": "29.972405503271023",
    "geocoded_column": {
      "latitude": "29.972405503271023",
      "longitude": "-90.07572889330902"
    }
  },
  {
    "service_request": "2022-876001",
    "request_type": "Trash/Recycling",
    "request_reason": "Missed Trash Pick-Up",
    "date_created": "2022-04-19T13:36:01.000",
    "date_modified": "2022-04-19T17:25:21.000",
    "request_status": "Pending",
    "responsible_agency": "Department of Sanitation",
    "final_address": "New Orleans,LA",
    "address_councildis": "B",
    "status": "Assigned to Contractor",
    "contractor": "Richards Disposal",
    "rowid": "876001",
    "final_x": "3669391.6402",
    "final_y": "524736.29926",
    "longitude": "-90.10653361493469",
    "latitude": "29.9372047996219",
    "geocoded_column": {
      "latitude": "29.9372047996219",
      "longitude": "-90.10653361493469"
    }
  },
  {
    "service_request": "2022-876000",
    "request_type": "Abandoned Vehicles",
    "request_reason": "Vehicle Blocking Your Driveway",
    "date_created": "2022-04-19T13:35:34.000",
    "date_modified": "2022-04-19T13:35:34.000",
    "request_status": "Pending",
    "responsible_agency": "Department of Public Works",
    "final_address": "831 Desire St",
    "address_councildis": "C",
    "status": "Pending",
    "rowid": "876000",
    "final_x": "3689990.61225",
    "final_y": "534804.109318",
    "longitude": "-90.04114316915458",
    "latitude": "29.964265314403786",
    "geocoded_column": {
      "latitude": "29.964265314403786",
      "longitude": "-90.04114316915458"
    }
  },
  {
    "service_request": "2022-875999",
    "request_type": "Traffic Signals/Signs/Striping/Streetlights",
    "request_reason": "Street Light Outage/Malfunction",
    "date_created": "2022-04-19T13:30:09.000",
    "date_modified": "2022-04-19T13:30:10.000",
    "request_status": "Pending",
    "responsible_agency": "Department of Public Works",
    "final_address": "3348 Trafalgar St",
    "address_councildis": "A",
    "status": "Pending",
    "contractor": "Royal Engineering",
    "rowid": "875999",
    "final_x": "3677736.58779",
    "final_y": "543146.531085",
    "longitude": "-90.07955211899434",
    "latitude": "29.9875783936022",
    "geocoded_column": {
      "latitude": "29.9875783936022",
      "longitude": "-90.07955211899434"
    }
  },
  {
    "service_request": "2022-875998",
    "request_type": "Trash/Recycling",
    "request_reason": "Replace Trash Cart",
    "date_created": "2022-04-19T13:30:01.000",
    "date_modified": "2022-04-19T13:30:03.000",
    "request_status": "Pending",
    "responsible_agency": "Department of Sanitation",
    "final_address": "4034 N Robertson St",
    "address_councildis": "D",
    "status": "Assigned to Contractor",
    "contractor": "Metro Disposal",
    "rowid": "875998",
    "final_x": "3692430.36803",
    "final_y": "536687.913671",
    "longitude": "-90.03337116281884",
    "latitude": "29.969369233209203",
    "geocoded_column": {
      "latitude": "29.969369233209203",
      "longitude": "-90.03337116281884"
    }
  },
  {
    "service_request": "2022-875996",
    "request_type": "Parks & Parkways",
    "request_reason": "Request Tree Service (Right of Way/Public Property)",
    "date_created": "2022-04-19T13:25:22.000",
    "date_modified": "2022-04-19T13:25:23.000",
    "request_status": "Pending",
    "responsible_agency": "Department of Parks & Parkway",
    "final_address": "1257 Riviera Ave",
    "address_councildis": "D",
    "status": "Pending",
    "rowid": "875996",
    "final_x": "3677181.38101",
    "final_y": "550887.868501",
    "longitude": "-90.08103858734118",
    "latitude": "30.008881034197724",
    "geocoded_column": {
      "latitude": "30.008881034197724",
      "longitude": "-90.08103858734118"
    }
  },
  {
    "service_request": "2022-875995",
    "request_type": "Trash/Recycling",
    "request_reason": "Request a Large Item Pick Up",
    "date_created": "2022-04-19T13:22:51.000",
    "date_modified": "2022-04-19T13:22:51.000",
    "request_status": "Pending",
    "responsible_agency": "Department of Sanitation",
    "final_address": "1257 Riviera Ave",
    "address_councildis": "D",
    "status": "Assigned to Contractor",
    "contractor": "Metro Disposal",
    "rowid": "875995",
    "final_x": "3677181.38101",
    "final_y": "550887.868501",
    "longitude": "-90.08103858734118",
    "latitude": "30.008881034197724",
    "geocoded_column": {
      "latitude": "30.008881034197724",
      "longitude": "-90.08103858734118"
    }
  },
  {
    "service_request": "2022-875994",
    "request_type": "Trash/Recycling",
    "request_reason": "Request a Large Item Pick Up",
    "date_created": "2022-04-19T13:21:28.000",
    "date_modified": "2022-04-19T13:21:29.000",
    "request_status": "Pending",
    "responsible_agency": "Department of Sanitation",
    "final_address": "1257 Riviera Ave",
    "address_councildis": "D",
    "status": "Assigned to Contractor",
    "contractor": "Metro Disposal",
    "rowid": "875994",
    "final_x": "3677181.38101",
    "final_y": "550887.868501",
    "longitude": "-90.08103858734118",
    "latitude": "30.008881034197724",
    "geocoded_column": {
      "latitude": "30.008881034197724",
      "longitude": "-90.08103858734118"
    }
  },
  {
    "service_request": "2022-875993",
    "request_type": "Trash/Recycling",
    "request_reason": "Start Trash Service",
    "date_created": "2022-04-19T13:17:35.000",
    "date_modified": "2022-04-19T13:17:36.000",
    "request_status": "Pending",
    "responsible_agency": "Department of Sanitation",
    "final_address": "4946 Mandeville St",
    "address_councildis": "D",
    "status": "Assigned to Contractor",
    "contractor": "Metro Disposal",
    "rowid": "875993",
    "final_x": "3684589.55113",
    "final_y": "551125.214549",
    "longitude": "-90.05762542322191",
    "latitude": "30.009308946586497",
    "geocoded_column": {
      "latitude": "30.009308946586497",
      "longitude": "-90.05762542322191"
    }
  },
  {
    "service_request": "2022-875992",
    "request_type": "Trash/Recycling",
    "request_reason": "Order Trash Cart",
    "date_created": "2022-04-19T13:17:20.000",
    "date_modified": "2022-04-19T13:17:21.000",
    "request_status": "Pending",
    "responsible_agency": "Department of Sanitation",
    "final_address": "4946 Mandeville St",
    "address_councildis": "D",
    "status": "Assigned to Contractor",
    "contractor": "Metro Disposal",
    "rowid": "875992",
    "final_x": "3684589.55113",
    "final_y": "551125.214549",
    "longitude": "-90.05762542322191",
    "latitude": "30.009308946586497",
    "geocoded_column": {
      "latitude": "30.009308946586497",
      "longitude": "-90.05762542322191"
    }
  },
  {
    "service_request": "2022-875991",
    "request_type": "Abandoned Vehicles",
    "request_reason": "Abandoned/Junk Vehicles",
    "date_created": "2022-04-19T13:16:29.000",
    "date_modified": "2022-04-19T13:16:29.000",
    "request_status": "Pending",
    "responsible_agency": "Department of Public Works",
    "status": "Inspected",
    "rowid": "875991",
    "longitude": "0.0",
    "latitude": "0.0",
    "geocoded_column": {
      "latitude": "0.0",
      "longitude": "0.0"
    }
  },
  {
    "service_request": "2022-875990",
    "request_type": "Trash/Recycling",
    "request_reason": "Order Trash Cart",
    "date_created": "2022-04-19T13:15:25.000",
    "date_modified": "2022-04-19T13:15:27.000",
    "request_status": "Pending",
    "responsible_agency": "Department of Sanitation",
    "final_address": "604 Girod St",
    "address_councildis": "B",
    "status": "Assigned to Contractor",
    "contractor": "Empire Services",
    "rowid": "875990",
    "final_x": "3680844.49538",
    "final_y": "528438.28",
    "longitude": "-90.07024743466123",
    "latitude": "29.947041877524057",
    "geocoded_column": {
      "latitude": "29.947041877524057",
      "longitude": "-90.07024743466123"
    }
  },
  {
    "service_request": "2022-875989",
    "request_type": "Traffic Signals/Signs/Striping/Streetlights",
    "request_reason": "Street Light Outage/Malfunction",
    "date_created": "2022-04-19T13:10:20.000",
    "date_modified": "2022-04-19T13:10:21.000",
    "request_status": "Pending",
    "responsible_agency": "Department of Public Works",
    "final_address": "CHARTRES ST & PAULINE ST",
    "address_councildis": "C",
    "status": "Pending",
    "contractor": "Royal Engineering",
    "rowid": "875989",
    "final_x": "3690761.5",
    "final_y": "533605.98",
    "longitude": "-90.03875152529659",
    "latitude": "29.96094695113604",
    "geocoded_column": {
      "latitude": "29.96094695113604",
      "longitude": "-90.03875152529659"
    }
  },
  {
    "service_request": "2022-875988",
    "request_type": "Trash/Recycling",
    "request_reason": "Request a Large Item Pick Up",
    "date_created": "2022-04-19T13:09:32.000",
    "date_modified": "2022-04-19T13:09:33.000",
    "request_status": "Pending",
    "responsible_agency": "Department of Sanitation",
    "final_address": "2835 Orleans Ave",
    "address_councildis": "A",
    "status": "Assigned to Contractor",
    "contractor": "Richards Disposal",
    "rowid": "875988",
    "final_x": "3676119.818",
    "final_y": "537587.069192",
    "longitude": "-90.08485027706679",
    "latitude": "29.97234033152406",
    "geocoded_column": {
      "latitude": "29.97234033152406",
      "longitude": "-90.08485027706679"
    }
  },
  {
    "service_request": "2022-875987",
    "request_type": "Trash/Recycling",
    "request_reason": "Request a Large Item Pick Up",
    "date_created": "2022-04-19T13:08:19.000",
    "date_modified": "2022-04-19T13:08:20.000",
    "request_status": "Pending",
    "responsible_agency": "Department of Sanitation",
    "final_address": "3918 N Robertson St",
    "address_councildis": "D",
    "status": "Assigned to Contractor",
    "contractor": "Metro Disposal",
    "rowid": "875987",
    "final_x": "3692009.05929",
    "final_y": "536784.625736",
    "longitude": "-90.03469822232366",
    "latitude": "29.969648293192893",
    "geocoded_column": {
      "latitude": "29.969648293192893",
      "longitude": "-90.03469822232366"
    }
  },
  {
    "service_request": "2022-875986",
    "request_type": "Traffic Signals/Signs/Striping/Streetlights",
    "request_reason": "Street Light Outage/Malfunction",
    "date_created": "2022-04-19T13:06:36.000",
    "date_modified": "2022-04-19T13:06:37.000",
    "request_status": "Pending",
    "responsible_agency": "Department of Public Works",
    "final_address": "2116 Westbend Prkwy",
    "address_councildis": "C",
    "status": "Pending",
    "contractor": "Royal Engineering",
    "rowid": "875986",
    "final_x": "3696925.73335",
    "final_y": "523018.597179",
    "longitude": "-90.01966943466127",
    "latitude": "29.931642403521998",
    "geocoded_column": {
      "latitude": "29.931642403521998",
      "longitude": "-90.01966943466127"
    }
  },
  {
    "service_request": "2022-875985",
    "request_type": "Abandoned Vehicles",
    "request_reason": "Abandoned/Junk Vehicles",
    "date_created": "2022-04-19T13:06:01.000",
    "date_modified": "2022-04-19T13:06:01.000",
    "request_status": "Pending",
    "responsible_agency": "Department of Public Works",
    "final_address": "724 Pauline St, New Orleans, Louisiana, 70117",
    "address_councildis": "D",
    "status": "Pending",
    "rowid": "875985",
    "final_x": "3691774.32579",
    "final_y": "537904.475273",
    "longitude": "-90.03539946837994",
    "latitude": "29.972734796032547",
    "geocoded_column": {
      "latitude": "29.972734796032547",
      "longitude": "-90.03539946837994"
    }
  },
  {
    "service_request": "2022-875983",
    "request_type": "Property Maintenance",
    "request_reason": "Property Maintenance",
    "date_created": "2022-04-19T13:01:51.000",
    "date_modified": "2022-04-19T13:16:25.000",
    "case_close_date": "2022-04-19T08:16:25.000",
    "request_status": "Closed",
    "responsible_agency": "Department of Code Enforcement",
    "final_address": "3533 S Miro St",
    "address_councildis": "B",
    "status": "Referred to Code Enforcement",
    "rowid": "875983",
    "final_x": "3671077.97089",
    "final_y": "527984.141759",
    "longitude": "-90.10109948529414",
    "latitude": "29.94608555770661",
    "geocoded_column": {
      "latitude": "29.94608555770661",
      "longitude": "-90.10109948529414"
    }
  },
  {
    "service_request": "2022-875982",
    "request_type": "Abandoned Vehicles",
    "request_reason": "Abandoned/Junk Vehicles",
    "date_created": "2022-04-19T13:01:12.000",
    "date_modified": "2022-04-19T13:01:12.000",
    "request_status": "Pending",
    "responsible_agency": "Department of Public Works",
    "final_address": "4239 S Carrollton Ave",
    "address_councildis": "A",
    "status": "Pending",
    "rowid": "875982",
    "final_x": "3669669.12487",
    "final_y": "536874.45204",
    "longitude": "-90.10524686114596",
    "latitude": "29.970572557413394",
    "geocoded_column": {
      "latitude": "29.970572557413394",
      "longitude": "-90.10524686114596"
    }
  },
  {
    "service_request": "2022-875981",
    "request_type": "Roads/Drainage",
    "request_reason": "Catch Basin - Clogged",
    "date_created": "2022-04-19T12:55:34.000",
    "date_modified": "2022-04-19T12:55:35.000",
    "request_status": "Pending",
    "responsible_agency": "Department of Public Works",
    "final_address": "1234 Carondelet St",
    "address_councildis": "B",
    "status": "Pending",
    "rowid": "875981",
    "final_x": "3679205.77083",
    "final_y": "526340.091134",
    "longitude": "-90.0754942213458",
    "latitude": "29.941322124937894",
    "geocoded_column": {
      "latitude": "29.941322124937894",
      "longitude": "-90.0754942213458"
    }
  },
  {
    "service_request": "2022-875980",
    "request_type": "Abandoned Vehicles",
    "request_reason": "Abandoned/Junk Vehicles",
    "date_created": "2022-04-19T12:53:10.000",
    "date_modified": "2022-04-19T12:53:10.000",
    "request_status": "Pending",
    "responsible_agency": "Department of Public Works",
    "final_address": "1724 Pauline St",
    "address_councildis": "D",
    "status": "Pending",
    "rowid": "875980",
    "final_x": "3691774.32579",
    "final_y": "537904.475273",
    "longitude": "-90.03539946837994",
    "latitude": "29.972734796032547",
    "geocoded_column": {
      "latitude": "29.972734796032547",
      "longitude": "-90.03539946837994"
    }
  },
  {
    "service_request": "2022-875979",
    "request_type": "Abandoned Vehicles",
    "request_reason": "Abandoned/Junk Vehicles",
    "date_created": "2022-04-19T12:52:41.000",
    "date_modified": "2022-04-19T12:52:41.000",
    "request_status": "Pending",
    "responsible_agency": "Department of Public Works",
    "final_address": "3716 Banks St",
    "address_councildis": "B",
    "status": "Inspected",
    "rowid": "875979",
    "final_x": "3671452.0578",
    "final_y": "536470.331655",
    "longitude": "-90.09962987845485",
    "latitude": "29.96940869838671",
    "geocoded_column": {
      "latitude": "29.96940869838671",
      "longitude": "-90.09962987845485"
    }
  },
  {
    "service_request": "2022-875978",
    "request_type": "Trash/Recycling",
    "request_reason": "Request a Large Item Pick Up",
    "date_created": "2022-04-19T12:51:27.000",
    "date_modified": "2022-04-19T12:51:27.000",
    "request_status": "Pending",
    "responsible_agency": "Department of Sanitation",
    "final_address": "3170 State Street Dr",
    "address_councildis": "A",
    "status": "Assigned to Contractor",
    "contractor": "Richards Disposal",
    "rowid": "875978",
    "final_x": "3667557.67981",
    "final_y": "528179.8816",
    "longitude": "-90.11220770117683",
    "latitude": "29.946727403890996",
    "geocoded_column": {
      "latitude": "29.946727403890996",
      "longitude": "-90.11220770117683"
    }
  },
  {
    "service_request": "2022-875977",
    "request_type": "Abandoned Vehicles",
    "request_reason": "Abandoned/Junk Vehicles",
    "date_created": "2022-04-19T12:49:05.000",
    "date_modified": "2022-04-19T12:49:09.000",
    "request_status": "Pending",
    "responsible_agency": "Department of Public Works",
    "final_address": "1807 Baronne St",
    "address_councildis": "B",
    "status": "Pending",
    "rowid": "875977",
    "final_x": "3677797.3524",
    "final_y": "525141.087165",
    "longitude": "-90.0799822766055",
    "latitude": "29.938067696756594",
    "geocoded_column": {
      "latitude": "29.938067696756594",
      "longitude": "-90.0799822766055"
    }
  },
  {
    "service_request": "2022-875976",
    "request_type": "Abandoned Vehicles",
    "request_reason": "Abandoned/Junk Vehicles",
    "date_created": "2022-04-19T12:48:17.000",
    "date_modified": "2022-04-19T12:48:17.000",
    "request_status": "Pending",
    "responsible_agency": "Department of Public Works",
    "final_address": "3725 Dauphine St",
    "address_councildis": "C",
    "status": "Pending",
    "rowid": "875976",
    "final_x": "3690893.71536",
    "final_y": "534377.775173",
    "longitude": "-90.03830647051204",
    "latitude": "29.963065010031535",
    "geocoded_column": {
      "latitude": "29.963065010031535",
      "longitude": "-90.03830647051204"
    }
  },
  {
    "service_request": "2022-875975",
    "request_type": "Trash/Recycling",
    "request_reason": "Request a Large Item Pick Up",
    "date_created": "2022-04-19T12:45:49.000",
    "date_modified": "2022-04-19T12:45:50.000",
    "request_status": "Pending",
    "responsible_agency": "Department of Sanitation",
    "final_address": "6743 Milne Blvd",
    "address_councildis": "A",
    "status": "Assigned to Contractor",
    "contractor": "Metro Disposal",
    "rowid": "875975",
    "final_x": "3667631.09172",
    "final_y": "552494.271958",
    "longitude": "-90.11115707436115",
    "latitude": "30.013581619028358",
    "geocoded_column": {
      "latitude": "30.013581619028358",
      "longitude": "-90.11115707436115"
    }
  },
  {
    "service_request": "2022-875974",
    "request_type": "Abandoned Vehicles",
    "request_reason": "Abandoned/Junk Vehicles",
    "date_created": "2022-04-19T12:44:17.000",
    "date_modified": "2022-04-19T12:44:17.000",
    "request_status": "Pending",
    "responsible_agency": "Department of Public Works",
    "final_address": "3725 Dauphine St",
    "address_councildis": "C",
    "status": "Pending",
    "rowid": "875974",
    "final_x": "3690893.71536",
    "final_y": "534377.775173",
    "longitude": "-90.03830647051204",
    "latitude": "29.963065010031535",
    "geocoded_column": {
      "latitude": "29.963065010031535",
      "longitude": "-90.03830647051204"
    }
  },
  {
    "service_request": "2022-875972",
    "request_type": "Abandoned Vehicles",
    "request_reason": "Abandoned/Junk Vehicles",
    "date_created": "2022-04-19T12:42:50.000",
    "date_modified": "2022-04-19T12:42:51.000",
    "request_status": "Pending",
    "responsible_agency": "Department of Public Works",
    "final_address": "1133 Cambronne St",
    "address_councildis": "A",
    "status": "Pending",
    "rowid": "875972",
    "final_x": "3661142.46131",
    "final_y": "529019.329984",
    "longitude": "-90.13243520162554",
    "latitude": "29.949222046686877",
    "geocoded_column": {
      "latitude": "29.949222046686877",
      "longitude": "-90.13243520162554"
    }
  },
  {
    "service_request": "2022-875971",
    "request_type": "Trash/Recycling",
    "request_reason": "Missed Trash Pick-Up",
    "date_created": "2022-04-19T12:42:37.000",
    "date_modified": "2022-04-19T12:42:38.000",
    "request_status": "Pending",
    "responsible_agency": "Department of Sanitation",
    "final_address": "2617 General Pershing St",
    "address_councildis": "B",
    "status": "Assigned to Contractor",
    "contractor": "Richards Disposal",
    "rowid": "875971",
    "final_x": "3670930.37396",
    "final_y": "524586.042812",
    "longitude": "-90.10168082509617",
    "latitude": "29.936746253741347",
    "geocoded_column": {
      "latitude": "29.936746253741347",
      "longitude": "-90.10168082509617"
    }
  },
  {
    "service_request": "2022-875970",
    "request_type": "Trash/Recycling",
    "request_reason": "Illegal Dumping",
    "date_created": "2022-04-19T12:36:49.000",
    "date_modified": "2022-04-19T12:36:49.000",
    "request_status": "Pending",
    "responsible_agency": "Department of Sanitation",
    "final_address": "4900 Eastern St",
    "address_councildis": "D",
    "status": "Pending",
    "rowid": "875970",
    "final_x": "3687939.12943",
    "final_y": "551087.214101",
    "longitude": "-90.04704433066911",
    "latitude": "30.00910149406226",
    "geocoded_column": {
      "latitude": "30.00910149406226",
      "longitude": "-90.04704433066911"
    }
  },
  {
    "service_request": "2022-875969",
    "request_type": "Trash/Recycling",
    "request_reason": "Order Recycling Cart",
    "date_created": "2022-04-19T12:35:37.000",
    "date_modified": "2022-04-19T12:35:37.000",
    "request_status": "Pending",
    "responsible_agency": "Department of Sanitation",
    "final_address": "1860 Filmore Ave",
    "address_councildis": "D",
    "status": "Pending",
    "rowid": "875969",
    "final_x": "3681369.83682",
    "final_y": "551930.424214",
    "longitude": "-90.06776950275017",
    "latitude": "30.011621153696414",
    "geocoded_column": {
      "latitude": "30.011621153696414",
      "longitude": "-90.06776950275017"
    }
  },
  {
    "service_request": "2022-875968",
    "request_type": "Abandoned Vehicles",
    "request_reason": "Abandoned/Junk Vehicles",
    "date_created": "2022-04-19T12:34:36.000",
    "date_modified": "2022-04-19T12:34:36.000",
    "request_status": "Pending",
    "responsible_agency": "Department of Public Works",
    "final_address": "3327 Huntlee Dr",
    "address_councildis": "C",
    "status": "Pending",
    "rowid": "875968",
    "final_x": "3701697.84157",
    "final_y": "519029.298679",
    "longitude": "-90.00475056345748",
    "latitude": "29.920521912731648",
    "geocoded_column": {
      "latitude": "29.920521912731648",
      "longitude": "-90.00475056345748"
    }
  },