[
  {
    "service_request": "2024-1128976",
    "request_type": "Streetlights",
    "request_reason": "Streetlight Outage/Malfunction",
    "date_created": "2024-09-09T22:06:50.000",
    "date_modified": "2024-09-09T22:06:51.000",
    "request_status": "Pending",
    "responsible_agency": "Department of Public Works",
    "final_address": "4900 BLK Constance St",
    "address_councildis": "B",
    "status": "Pending",
    "contractor": "Legacy Professional Services",
    "rowid": "1128976",
    "final_x": "3668806.71058",
    "final_y": "518207.52374",
    "longitude": "-90.10860058841389",
    "latitude": "29.919269953526967",
    "geocoded_column": {
      "latitude": "29.919269953526967",
      "longitude": "-90.10860058841389"
    }
  },
  {
    "service_request": "2024-1128975",
    "request_type": "Trash/Recycling",
    "request_reason": "Dead Animal Pick Up",
    "date_created": "2024-09-09T22:04:26.000",
    "date_modified": "2024-09-09T22:04:27.000",
    "request_status": "Pending",
    "responsible_agency": "Department of Sanitation",
    "final_address": "2501 Elysian Fields Ave",
    "address_councildis": "D",
    "status": "Assigned to Contractor",
    "contractor": "IV Waste",
    "rowid": "1128975",
    "final_x": "3684712.22882",
    "final_y": "541736.654412",
    "longitude": "-90.05756809244224",
    "latitude": "29.98349001297375",
    "geocoded_column": {
      "latitude": "29.98349001297375",
      "longitude": "-90.05756809244224"
    }
  },
  {
    "service_request": "2024-1128974",
    "request_type": "Mosquito, Termite & Rodent Control",
    "request_reason": "Mosquito Complaint",
    "date_created": "2024-09-09T22:02:40.000",
    "date_modified": "2024-09-09T22:02:40.000",
    "request_status": "Pending",
    "responsible_agency": "Mosquito, Termite & Rodent Control Board",
    "final_address": "7507 Scottwood Dr",
    "address_councildis": "E",
    "status": "Pending",
    "rowid": "1128974",
    "final_x": "3717783.20146",
    "final_y": "570185.366375",
    "longitude": "-89.95203064061042",
    "latitude": "30.060658752170845",
    "geocoded_column": {
      "latitude": "30.060658752170845",
      "longitude": "-89.95203064061042"
    }
  },
  {
    "service_request": "2024-1128973",
    "request_type": "Streetlights",
    "request_reason": "Streetlight Outage/Malfunction",
    "date_created": "2024-09-09T21:56:03.000",
    "date_modified": "2024-09-09T21:56:04.000",
    "request_status": "Pending",
    "responsible_agency": "Department of Public Works",
    "final_address": "7512 Scottwood Dr",
    "address_councildis": "E",
    "status": "Pending",
    "contractor": "Legacy Professional Services",
    "rowid": "1128973",
    "final_x": "3717628.25714",
    "final_y": "570120.069223",
    "longitude": "-89.95252289638798",
    "latitude": "30.060484347067643",
    "geocoded_column": {
      "latitude": "30.060484347067643",
      "longitude": "-89.95252289638798"
    }
  },
  {
    "service_request": "2024-1128972",
    "request_type": "Drainage",
    "request_reason": "Street Flooding",
    "date_created": "2024-09-09T21:48:50.000",
    "date_modified": "2024-09-09T21:48:50.000",
    "request_status": "Pending",
    "responsible_agency": "Department of Public Works",
    "final_address": "9408 Palm St",
    "address_councildis": "A",
    "status": "Pending",
    "rowid": "1128972",
    "final_x": "3664198.11546",
    "final_y": "537835.589001",
    "longitude": "-90.12249295035443",
    "latitude": "29.97337546338181",
    "geocoded_column": {
      "latitude": "29.97337546338181",
      "longitude": "-90.12249295035443"
    }
  },
  {
    "service_request": "2024-1128971",
    "request_type": "Drainage",
    "request_reason": "Catch Basin Clogged",
    "date_created": "2024-09-09T21:37:57.000",
    "date_modified": "2024-09-09T21:37:57.000",
    "request_status": "Pending",
    "responsible_agency": "Department of Public Works",
    "final_address": "9408 Palm St",
    "address_councildis": "A",
    "status": "Pending",
    "rowid": "1128971",
    "final_x": "3664198.11546",
    "final_y": "537835.589001",
    "longitude": "-90.12249295035443",
    "latitude": "29.97337546338181",
    "geocoded_column": {
      "latitude": "29.97337546338181",
      "longitude": "-90.12249295035443"
    }
  },
  {
    "service_request": "2024-1128969",
    "request_type": "Abandoned Vehicles",
    "request_reason": "Vehicle Blocking Your Driveway",
    "date_created": "2024-09-09T21:36:17.000",
    "date_modified": "2024-09-09T21:36:17.000",
    "request_status": "Pending",
    "responsible_agency": "Department of Public Works",
    "final_address": "1ST ST & MAGAZINE ST",
    "address_councildis": "B",
    "status": "Pending",
    "rowid": "1128969",
    "final_x": "3678080.3",
    "final_y": "521503.78",
    "longitude": "-90.07921467002753",
    "latitude": "29.928057781401485",
    "geocoded_column": {
      "latitude": "29.928057781401485",
      "longitude": "-90.07921467002753"
    }
  },
  {
    "service_request": "2024-1128968",
    "request_type": "Abandoned Vehicles",
    "request_reason": "Vehicle Blocking Your Driveway",
    "date_created": "2024-09-09T21:32:09.000",
    "date_modified": "2024-09-09T21:32:09.000",
    "request_status": "Pending",
    "responsible_agency": "Department of Public Works",
    "final_address": "1ST ST & MAGAZINE ST",
    "address_councildis": "B",
    "status": "Pending",
    "rowid": "1128968",
    "final_x": "3678080.3",
    "final_y": "521503.78",
    "longitude": "-90.07921467002753",
    "latitude": "29.928057781401485",
    "geocoded_column": {
      "latitude": "29.928057781401485",
      "longitude": "-90.07921467002753"
    }
  },
  {
    "service_request": "2024-1128967",
    "request_type": "Drainage",
    "request_reason": "Catch Basin Clogged",
    "date_created": "2024-09-09T21:15:54.000",
    "date_modified": "2024-09-09T21:15:54.000",
    "request_status": "Pending",
    "responsible_agency": "Department of Public Works",
    "final_address": "GREEN ST & S CARROLLTON AVE",
    "address_councildis": "A",
    "status": "Pending",
    "rowid": "1128967",
    "final_x": "3663238.5",
    "final_y": "529590.38",
    "longitude": "-90.12579804954098",
    "latitude": "29.950731680424404",
    "geocoded_column": {
      "latitude": "29.950731680424404",
      "longitude": "-90.12579804954098"
    }
  },
  {
    "service_request": "2024-1128966",
    "request_type": "Drainage",
    "request_reason": "Catch Basin Clogged",
    "date_created": "2024-09-09T21:14:57.000",
    "date_modified": "2024-09-09T21:14:57.000",
    "request_status": "Pending",
    "responsible_agency": "Department of Public Works",
    "final_address": "S CARROLLTON AVE & GREEN ST",
    "address_councildis": "A",
    "status": "Pending",
    "rowid": "1128966",
    "final_x": "3663170.7",
    "final_y": "529649.48",
    "longitude": "-90.1260101621165",
    "latitude": "29.95089615085432",
    "geocoded_column": {
      "latitude": "29.95089615085432",
      "longitude": "-90.1260101621165"
    }
  },
  {
    "service_request": "2024-1128965",
    "request_type": "Trash/Recycling",
    "request_reason": "Return Trash Cart",
    "date_created": "2024-09-09T21:08:45.000",
    "date_modified": "2024-09-09T21:08:46.000",
    "request_status": "Pending",
    "responsible_agency": "Department of Sanitation",
    "final_address": "5706 Tchoupitoulas St",
    "address_councildis": "A",
    "status": "Assigned to Contractor",
    "contractor": "IV Waste",
    "rowid": "1128965",
    "final_x": "3665367.70138",
    "final_y": "517175.483893",
    "longitude": "-90.11949035496892",
    "latitude": "29.916532790491317",
    "geocoded_column": {
      "latitude": "29.916532790491317",
      "longitude": "-90.11949035496892"
    }
  },
  {
    "service_request": "2024-1128964",
    "request_type": "Streetlights",
    "request_reason": "Streetlight Outage/Malfunction",
    "date_created": "2024-09-09T20:58:32.000",
    "date_modified": "2024-09-09T20:58:33.000",
    "request_status": "Pending",
    "responsible_agency": "Department of Public Works",
    "final_address": "4913 Constance St",
    "address_councildis": "B",
    "status": "Pending",
    "contractor": "Legacy Professional Services",
    "rowid": "1128964",
    "final_x": "3668860.43828",
    "final_y": "518246.404982",
    "longitude": "-90.1084296847542",
    "latitude": "29.919375285515766",
    "geocoded_column": {
      "latitude": "29.919375285515766",
      "longitude": "-90.1084296847542"
    }
  },
  {
    "service_request": "2024-1128963",
    "request_type": "Streetlights",
    "request_reason": "Streetlight Outage/Malfunction",
    "date_created": "2024-09-09T20:49:58.000",
    "date_modified": "2024-09-09T20:49:59.000",
    "request_status": "Pending",
    "responsible_agency": "Department of Public Works",
    "final_address": "7321 General Haig St",
    "address_councildis": "D",
    "status": "Pending",
    "contractor": "Legacy Professional Services",
    "rowid": "1128963",
    "final_x": "3671370.31937",
    "final_y": "555280.449113",
    "longitude": "-90.09924822776834",
    "latitude": "30.021132419374368",
    "geocoded_column": {
      "latitude": "30.021132419374368",
      "longitude": "-90.09924822776834"
    }
  },
  {
    "service_request": "2024-1128962",
    "request_type": "Trash/Recycling",
    "request_reason": "Request a Large Item Pick Up",
    "date_created": "2024-09-09T20:36:50.000",
    "date_modified": "2024-09-09T20:37:01.000",
    "request_status": "Pending",
    "responsible_agency": "Department of Sanitation",
    "final_address": "4000 Constance St",
    "address_councildis": "B",
    "status": "Assigned to Contractor",
    "contractor": "IV Waste",
    "rowid": "1128962",
    "final_x": "3672526.53006",
    "final_y": "518524.538359",
    "longitude": "-90.09684817851132",
    "latitude": "29.92003179335413",
    "geocoded_column": {
      "latitude": "29.92003179335413",
      "longitude": "-90.09684817851132"
    }
  },
  {
    "service_request": "2024-1128961",
    "request_type": "Roads and Streets",
    "request_reason": "Debris in Driving Lanes",
    "date_created": "2024-09-09T20:25:12.000",
    "date_modified": "2024-09-09T20:25:12.000",
    "request_status": "Pending",
    "responsible_agency": "Department of Public Works",
    "final_address": "429 Filmore Ave",
    "address_councildis": "A",
    "status": "Pending",
    "rowid": "1128961",
    "final_x": "3668127.07002",
    "final_y": "552173.706198",
    "longitude": "-90.10960085292425",
    "latitude": "30.01268562039053",
    "geocoded_column": {
      "latitude": "30.01268562039053",
      "longitude": "-90.10960085292425"
    }
  },
  {
    "service_request": "2024-1128960",
    "request_type": "Trash/Recycling",
    "request_reason": "Order Recycling Cart",
    "date_created": "2024-09-09T20:15:54.000",
    "date_modified": "2024-09-09T20:15:54.000",
    "request_status": "Pending",
    "responsible_agency": "Department of Sanitation",
    "final_address": "812 Hillary St",
    "address_councildis": "A",
    "status": "Pending",
    "rowid": "1128960",
    "final_x": "3662405.01255",
    "final_y": "526241.528766",
    "longitude": "-90.12854097021442",
    "latitude": "29.941547536776724",
    "geocoded_column": {
      "latitude": "29.941547536776724",
      "longitude": "-90.12854097021442"
    }
  },
  {
    "service_request": "2024-1128959",
    "request_type": "Trash/Recycling",
    "request_reason": "Repair Trash Cart",
    "date_created": "2024-09-09T20:04:11.000",
    "date_modified": "2024-09-09T20:04:13.000",
    "request_status": "Pending",
    "responsible_agency": "Department of Sanitation",
    "final_address": "311 Calhoun St",
    "address_councildis": "A",
    "status": "Assigned to Contractor",
    "contractor": "IV Waste",
    "rowid": "1128959",
    "final_x": "3662833.19002",
    "final_y": "518182.159222",
    "longitude": "-90.1274569048848",
    "latitude": "29.919374419188497",
    "geocoded_column": {
      "latitude": "29.919374419188497",
      "longitude": "-90.1274569048848"
    }
  },
  {
    "service_request": "2024-1128958",
    "request_type": "Property Maintenance",
    "request_reason": "Property Maintenance",
    "date_created": "2024-09-09T20:02:17.000",
    "date_modified": "2024-09-09T20:02:17.000",
    "request_status": "Pending",
    "responsible_agency": "Department of Code Enforcement",
    "final_address": "2510 N Prieur St",
    "address_councildis": "D",
    "status": "Pending",
    "rowid": "1128958",
    "final_x": "3687080.2207",
    "final_y": "539401.334346",
    "longitude": "-90.05017134812796",
    "latitude": "29.97699600149534",
    "geocoded_column": {
      "latitude": "29.97699600149534",
      "longitude": "-90.05017134812796"
    }
  },
  {
    "service_request": "2024-1128955",
    "request_type": "Trash/Recycling",
    "request_reason": "Request a Large Item Pick Up",
    "date_created": "2024-09-09T19:48:51.000",
    "date_modified": "2024-09-09T19:48:52.000",
    "request_status": "Pending",
    "responsible_agency": "Department of Sanitation",
    "final_address": "461 Pine St",
    "address_councildis": "A",
    "status": "Assigned to Contractor",
    "contractor": "IV Waste",
    "rowid": "1128955",
    "final_x": "3662352.24627",
    "final_y": "524230.352252",
    "longitude": "-90.1287743155141",
    "latitude": "29.93601896467124",
    "geocoded_column": {
      "latitude": "29.93601896467124",
      "longitude": "-90.1287743155141"
    }
  },
  {
    "service_request": "2024-1128954",
    "request_type": "Trash/Recycling",
    "request_reason": "Request a Large Item Pick Up",
    "date_created": "2024-09-09T19:28:09.000",
    "date_modified": "2024-09-09T19:28:10.000",
    "request_status": "Pending",
    "responsible_agency": "Department of Sanitation",
    "final_address": "4719 Cardenas Dr",
    "address_councildis": "E",
    "status": "Assigned to Contractor",
    "contractor": "Waste Pro",
    "rowid": "1128954",
    "final_x": "3713769.15845",
    "final_y": "556207.345242",
    "longitude": "-89.96524631436293",
    "latitude": "30.022357272185314",
    "geocoded_column": {
      "latitude": "30.022357272185314",
      "longitude": "-89.96524631436293"
    }
  },
  {
    "service_request": "2024-1128953",
    "request_type": "Trash/Recycling",
    "request_reason": "Request a Large Item Pick Up",
    "date_created": "2024-09-09T19:21:17.000",
    "date_modified": "2024-09-09T19:21:18.000",
    "request_status": "Pending",
    "responsible_agency": "Department of Sanitation",
    "final_address": "18 Flowerdale Ct",
    "address_councildis": "A",
    "status": "Assigned to Contractor",
    "contractor": "IV Waste",
    "rowid": "1128953",
    "final_x": "3673390.20296",
    "final_y": "541163.082316",
    "longitude": "-90.09334867266806",
    "latitude": "29.98225464446807",
    "geocoded_column": {
      "latitude": "29.98225464446807",
      "longitude": "-90.09334867266806"
    }
  },
  {
    "service_request": "2024-1128952",
    "request_type": "Trash/Recycling",
    "request_reason": "Request a Large Item Pick Up",
    "date_created": "2024-09-09T19:19:44.000",
    "date_modified": "2024-09-09T19:19:45.000",
    "request_status": "Pending",
    "responsible_agency": "Department of Sanitation",
    "final_address": "18 Flowerdale Ct",
    "address_councildis": "A",
    "status": "Assigned to Contractor",
    "contractor": "IV Waste",
    "rowid": "1128952",
    "final_x": "3673390.20296",
    "final_y": "541163.082316",
    "longitude": "-90.09334867266806",
    "latitude": "29.98225464446807",
    "geocoded_column": {
      "latitude": "29.98225464446807",
      "longitude": "-90.09334867266806"
    }
  },
  {
    "service_request": "2024-1128951",
    "request_type": "Abandoned Vehicles",
    "request_reason": "Abandoned/Junk Vehicles",
    "date_created": "2024-09-09T19:10:09.000",
    "date_modified": "2024-09-09T19:10:09.000",
    "request_status": "Pending",
    "responsible_agency": "Department of Public Works",
    "final_address": "HOLLYGROVE ST & PEAR ST",
    "address_councildis": "A",
    "status": "Pending",
    "rowid": "1128951",
    "final_x": "3666785.3",
    "final_y": "538388.48",
    "longitude": "-90.11430348226955",
    "latitude": "29.974820300936127",
    "geocoded_column": {
      "latitude": "29.974820300936127",
      "longitude": "-90.11430348226955"
    }
  },
  {
    "service_request": "2024-1128950",
    "request_type": "Trash/Recycling",
    "request_reason": "Dead Animal Pick Up",
    "date_created": "2024-09-09T18:40:50.000",
    "date_modified": "2024-09-09T18:40:51.000",
    "request_status": "Pending",
    "responsible_agency": "Department of Sanitation",
    "final_address": "2501 Elysian Fields Ave",
    "address_councildis": "D",
    "status": "Assigned to Contractor",
    "contractor": "IV Waste",
    "rowid": "1128950",
    "final_x": "3684712.22882",
    "final_y": "541736.654412",
    "longitude": "-90.05756809244224",
    "latitude": "29.98349001297375",
    "geocoded_column": {
      "latitude": "29.98349001297375",
      "longitude": "-90.05756809244224"
    }
  },
  {
    "service_request": "2024-1128949",
    "request_type": "Trash/Recycling",
    "request_reason": "Request a Large Item Pick Up",
    "date_created": "2024-09-09T18:34:08.000",
    "date_modified": "2024-09-09T18:34:09.000",
    "request_status": "Pending",
    "responsible_agency": "Department of Sanitation",
    "final_address": "5805 Fontainebleau Dr",
    "address_councildis": "B",
    "status": "Assigned to Contractor",
    "contractor": "IV Waste",
    "rowid": "1128949",
    "final_x": "3668477.80218",
    "final_y": "529867.832577",
    "longitude": "-90.10924559784861",
    "latitude": "29.951341724272368",
    "geocoded_column": {
      "latitude": "29.951341724272368",
      "longitude": "-90.10924559784861"
    }
  },
  {
    "service_request": "2024-1128948",
    "request_type": "Trash/Recycling",
    "request_reason": "Illegal Dumping",
    "date_created": "2024-09-09T18:28:21.000",
    "date_modified": "2024-09-09T18:28:21.000",
    "request_status": "Pending",
    "responsible_agency": "Department of Sanitation",
    "final_address": "2540 Congress St",
    "address_councildis": "D",
    "status": "Pending",
    "rowid": "1128948",
    "final_x": "3692078.56272",
    "final_y": "541203.422348",
    "longitude": "-90.0343205214625",
    "latitude": "29.9817962447357",
    "geocoded_column": {
      "latitude": "29.9817962447357",
      "longitude": "-90.0343205214625"
    }
  },
  {
    "service_request": "2024-1128946",
    "request_type": "Trash/Recycling",
    "request_reason": "Request a Large Item Pick Up",
    "date_created": "2024-09-09T18:17:36.000",
    "date_modified": "2024-09-09T18:17:37.000",
    "request_status": "Pending",
    "responsible_agency": "Department of Sanitation",
    "final_address": "8011 Michigan St",
    "address_councildis": "E",
    "status": "Assigned to Contractor",
    "contractor": "Waste Pro",
    "rowid": "1128946",
    "final_x": "3711026.76773",
    "final_y": "567704.877604",
    "longitude": "-89.97348036880456",
    "latitude": "30.05406064031886",
    "geocoded_column": {
      "latitude": "30.05406064031886",
      "longitude": "-89.97348036880456"
    }
  },
  {
    "service_request": "2024-1128945",
    "request_type": "Trash/Recycling",
    "request_reason": "Repair Recycling Cart",
    "date_created": "2024-09-09T18:15:46.000",
    "date_modified": "2024-09-09T18:15:46.000",
    "request_status": "Pending",
    "responsible_agency": "Department of Sanitation",
    "final_address": "918 Solomon Pl",
    "address_councildis": "A",
    "status": "Pending",
    "rowid": "1128945",
    "final_x": "3672557.26542",
    "final_y": "541236.614028",
    "longitude": "-90.09597699217116",
    "latitude": "29.98248158985676",
    "geocoded_column": {
      "latitude": "29.98248158985676",
      "longitude": "-90.09597699217116"
    }
  },
  {
    "service_request": "2024-1128944",
    "request_type": "Trash/Recycling",
    "request_reason": "Repair Trash Cart",
    "date_created": "2024-09-09T18:11:01.000",
    "date_modified": "2024-09-09T18:11:03.000",
    "request_status": "Pending",
    "responsible_agency": "Department of Sanitation",
    "final_address": "8134 Spruce St, New Orleans, Louisiana, 70118",
    "address_councildis": "A",
    "status": "Assigned to Contractor",
    "contractor": "IV Waste",
    "rowid": "1128944",
    "final_x": "3663606.94496",
    "final_y": "530625.08173",
    "longitude": "-90.12460021932637",
    "latitude": "29.953566094165115",
    "geocoded_column": {
      "latitude": "29.953566094165115",
      "longitude": "-90.12460021932637"
    }
  },
  {
    "service_request": "2024-1128943",
    "request_type": "Trash/Recycling",
    "request_reason": "Illegal Dumping",
    "date_created": "2024-09-09T18:10:17.000",
    "date_modified": "2024-09-09T18:10:17.000",
    "request_status": "Pending",
    "responsible_agency": "Department of Sanitation",
    "final_address": "400 BLK Austerlitz St",
    "address_councildis": "B",
    "status": "Pending",
    "rowid": "1128943",
    "final_x": "3673007.00139",
    "final_y": "517528.350558",
    "longitude": "-90.09536553227875",
    "latitude": "29.917278328913394",
    "geocoded_column": {
      "latitude": "29.917278328913394",
      "longitude": "-90.09536553227875"
    }
  },
  {
    "service_request": "2024-1128942",
    "request_type": "Trash/Recycling",
    "request_reason": "Replace Recycling Cart",
    "date_created": "2024-09-09T18:02:36.000",
    "date_modified": "2024-09-09T18:02:36.000",
    "request_status": "Pending",
    "responsible_agency": "Department of Sanitation",
    "final_address": "347 22Nd St",
    "address_councildis": "A",
    "status": "Pending",
    "rowid": "1128942",
    "final_x": "3664839.11597",
    "final_y": "549399.402643",
    "longitude": "-90.12008183507523",
    "latitude": "30.00515339149226",
    "geocoded_column": {
      "latitude": "30.00515339149226",
      "longitude": "-90.12008183507523"
    }
  },
  {
    "service_request": "2024-1128941",
    "request_type": "Abandoned Vehicles",
    "request_reason": "Abandoned/Junk Vehicles",
    "date_created": "2024-09-09T17:57:51.000",
    "date_modified": "2024-09-09T17:57:51.000",
    "request_status": "Pending",
    "responsible_agency": "Department of Public Works",
    "final_address": "616 S Hennessey St",
    "address_councildis": "A",
    "status": "Pending",
    "rowid": "1128941",
    "final_x": "3669023.15745",
    "final_y": "537225.463752",
    "longitude": "-90.10727504662084",
    "latitude": "29.97155674308327",
    "geocoded_column": {
      "latitude": "29.97155674308327",
      "longitude": "-90.10727504662084"
    }
  },
  {
    "service_request": "2024-1128940",
    "request_type": "Parks & Parkways",
    "request_reason": "Request Tree Service (Right of Way/Public Property)",
    "date_created": "2024-09-09T17:38:54.000",
    "date_modified": "2024-09-09T17:38:54.000",
    "request_status": "Pending",
    "responsible_agency": "Department of Parks & Parkway",
    "final_address": "2722 Banks St",
    "address_councildis": "B",
    "status": "Pending",
    "rowid": "1128940",
    "final_x": "3674397.71912",
    "final_y": "534232.450245",
    "longitude": "-90.09040389273228",
    "latitude": "29.963167744302833",
    "geocoded_column": {
      "latitude": "29.963167744302833",
      "longitude": "-90.09040389273228"
    }
  },
  {
    "service_request": "2024-1128939",
    "request_type": "Drainage",
    "request_reason": "Drainage Manhole Cover Missing or Damaged",
    "date_created": "2024-09-09T17:37:50.000",
    "date_modified": "2024-09-09T17:37:50.000",
    "request_status": "Pending",
    "responsible_agency": "Department of Public Works",
    "final_address": "3308 Burgundy St",
    "address_councildis": "C",
    "status": "Pending",
    "rowid": "1128939",
    "final_x": "3689721.15971",
    "final_y": "534952.560134",
    "longitude": "-90.04198879203038",
    "latitude": "29.964681854830143",
    "geocoded_column": {
      "latitude": "29.964681854830143",
      "longitude": "-90.04198879203038"
    }
  },
  {
    "service_request": "2024-1128938",
    "request_type": "Trash/Recycling",
    "request_reason": "Missed Trash Pick-Up",
    "date_created": "2024-09-09T17:36:26.000",
    "date_modified": "2024-09-09T17:36:27.000",
    "request_status": "Pending",
    "responsible_agency": "Department of Sanitation",
    "final_address": "4218 Annunciation St, New Orleans, Louisiana, 70115",
    "address_councildis": "B",
    "status": "Assigned to Contractor",
    "contractor": "IV Waste",
    "rowid": "1128938",
    "final_x": "3671719.62254",
    "final_y": "517771.153078",
    "longitude": "-90.09942081109605",
    "latitude": "29.91798414097997",
    "geocoded_column": {
      "latitude": "29.91798414097997",
      "longitude": "-90.09942081109605"
    }
  },
  {
    "service_request": "2024-1128937",
    "request_type": "Trash/Recycling",
    "request_reason": "Request a Large Item Pick Up",
    "date_created": "2024-09-09T17:30:40.000",
    "date_modified": "2024-09-09T17:30:41.000",
    "request_status": "Pending",
    "responsible_agency": "Department of Sanitation",
    "final_address": "125 S Murat St",
    "address_councildis": "A",
    "status": "Assigned to Contractor",
    "contractor": "IV Waste",
    "rowid": "1128937",
    "final_x": "3669510.47278",
    "final_y": "539212.832778",
    "longitude": "-90.10566878206552",
    "latitude": "29.977006992491603",
    "geocoded_column": {
      "latitude": "29.977006992491603",
      "longitude": "-90.10566878206552"
    }
  },
  {
    "service_request": "2024-1128935",
    "request_type": "Trash/Recycling",
    "request_reason": "Replace Recycling Cart",
    "date_created": "2024-09-09T17:21:44.000",
    "date_modified": "2024-09-09T17:21:44.000",
    "request_status": "Pending",
    "responsible_agency": "Department of Sanitation",
    "final_address": "3656 Louisiana Avenue Prkwy",
    "address_councildis": "B",
    "status": "Pending",
    "rowid": "1128935",
    "final_x": "3671377.52987",
    "final_y": "528352.514112",
    "longitude": "-90.10014115543083",
    "latitude": "29.947089599777538",
    "geocoded_column": {
      "latitude": "29.947089599777538",
      "longitude": "-90.10014115543083"
    }
  },
  {
    "service_request": "2024-1128934",
    "request_type": "Trash/Recycling",
    "request_reason": "Order Recycling Cart",
    "date_created": "2024-09-09T17:06:13.000",
    "date_modified": "2024-09-09T17:06:13.000",
    "request_status": "Pending",
    "responsible_agency": "Department of Sanitation",
    "final_address": "6595 Wuerpel St",
    "address_councildis": "A",
    "status": "Pending",
    "rowid": "1128934",
    "final_x": "3667159.19719",
    "final_y": "551656.330133",
    "longitude": "-90.11267622379138",
    "latitude": "30.011291404076783",
    "geocoded_column": {
      "latitude": "30.011291404076783",
      "longitude": "-90.11267622379138"
    }
  },
  {
    "service_request": "2024-1128933",
    "request_type": "Trash/Recycling",
    "request_reason": "Order Recycling Cart",
    "date_created": "2024-09-09T17:05:33.000",
    "date_modified": "2024-09-09T17:05:33.000",
    "request_status": "Pending",
    "responsible_agency": "Department of Sanitation",
    "final_address": "417 Alabo St",
    "address_councildis": "E",
    "status": "Pending",
    "rowid": "1128933",
    "final_x": "3698305.76259",
    "final_y": "531182.607298",
    "longitude": "-90.015016344318",
    "latitude": "29.954047008794774",
    "geocoded_column": {
      "latitude": "29.954047008794774",
      "longitude": "-90.015016344318"
    }
  },
  {
    "service_request": "2024-1128932",
    "request_type": "Trash/Recycling",
    "request_reason": "Request a Large Item Pick Up",
    "date_created": "2024-09-09T17:05:19.000",
    "date_modified": "2024-09-09T17:05:20.000",
    "request_status": "Pending",
    "responsible_agency": "Department of Sanitation",
    "final_address": "2224 Allen St, New Orleans, Louisiana, 70119",
    "address_councildis": "D",
    "status": "Assigned to Contractor",
    "contractor": "IV Waste",
    "rowid": "1128932",
    "final_x": "3682405.63912",
    "final_y": "540367.586187",
    "longitude": "-90.06490137754228",
    "latitude": "29.979795967720538",
    "geocoded_column": {
      "latitude": "29.979795967720538",
      "longitude": "-90.06490137754228"
    }
  },
  {
    "service_request": "2024-1128931",
    "request_type": "Property Maintenance",
    "request_reason": "Property Maintenance",
    "date_created": "2024-09-09T17:02:08.000",
    "date_modified": "2024-09-09T17:02:08.000",
    "request_status": "Pending",
    "responsible_agency": "Department of Code Enforcement",
    "final_address": "2318 N Prieur St",
    "address_councildis": "D",
    "status": "Pending",
    "rowid": "1128931",
    "final_x": "3685747.9469",
    "final_y": "539299.477578",
    "longitude": "-90.05438267784253",
    "latitude": "29.976756886991883",
    "geocoded_column": {
      "latitude": "29.976756886991883",
      "longitude": "-90.05438267784253"
    }
  },
  {
    "service_request": "2024-1128930",
    "request_type": "Drainage",
    "request_reason": "Catch Basin Clogged",
    "date_created": "2024-09-09T16:55:47.000",
    "date_modified": "2024-09-09T16:55:47.000",
    "request_status": "Pending",
    "responsible_agency": "Department of Public Works",
    "final_address": "1905 Wilton Dr",
    "address_councildis": "D",
    "status": "Pending",
    "rowid": "1128930",
    "final_x": "3681213.94965",
    "final_y": "550944.758933",
    "longitude": "-90.06829639574323",
    "latitude": "30.008915663366814",
    "geocoded_column": {
      "latitude": "30.008915663366814",
      "longitude": "-90.06829639574323"
    }
  },
  {
    "service_request": "2024-1128929",
    "request_type": "Parks & Parkways",
    "request_reason": "Request Tree Service (Right of Way/Public Property)",
    "date_created": "2024-09-09T16:50:53.000",
    "date_modified": "2024-09-09T16:50:53.000",
    "request_status": "Pending",
    "responsible_agency": "Department of Parks & Parkway",
    "final_address": "2729 Octavia St",
    "address_councildis": "A",
    "status": "Pending",
    "rowid": "1128929",
    "final_x": "3667979.27002",
    "final_y": "525608.885565",
    "longitude": "-90.11096318100708",
    "latitude": "29.93964563529448",
    "geocoded_column": {
      "latitude": "29.93964563529448",
      "longitude": "-90.11096318100708"
    }
  },
  {
    "service_request": "2024-1128928",
    "request_type": "Trash/Recycling",
    "request_reason": "Missed Trash Pick-Up",
    "date_created": "2024-09-09T16:44:26.000",
    "date_modified": "2024-09-09T16:44:27.000",
    "request_status": "Pending",
    "responsible_agency": "Department of Sanitation",
    "final_address": "7501 Morrison Rd",
    "address_councildis": "E",
    "status": "Assigned to Contractor",
    "contractor": "Waste Pro",
    "rowid": "1128928",
    "final_x": "3700903.11549",
    "final_y": "559701.312157",
    "longitude": "-90.00577169892954",
    "latitude": "30.032380443347375",
    "geocoded_column": {
      "latitude": "30.032380443347375",
      "longitude": "-90.00577169892954"
    }
  },
  {
    "service_request": "2024-1128927",
    "request_type": "Trash/Recycling",
    "request_reason": "Request a Large Item Pick Up",
    "date_created": "2024-09-09T16:42:29.000",
    "date_modified": "2024-09-09T16:42:30.000",
    "request_status": "Pending",
    "responsible_agency": "Department of Sanitation",
    "final_address": "5846 E Deer Park Blvd",
    "address_councildis": "E",
    "status": "Assigned to Contractor",
    "contractor": "Waste Pro",
    "rowid": "1128927",
    "final_x": "3712297.75934",
    "final_y": "561071.84067",
    "longitude": "-89.96971260997002",
    "latitude": "30.035780929548295",
    "geocoded_column": {
      "latitude": "30.035780929548295",
      "longitude": "-89.96971260997002"
    }
  },
  {
    "service_request": "2024-1128926",
    "request_type": "Trash/Recycling",
    "request_reason": "Request a Large Item Pick Up",
    "date_created": "2024-09-09T16:42:07.000",
    "date_modified": "2024-09-09T16:42:09.000",
    "request_status": "Pending",
    "responsible_agency": "Department of Sanitation",
    "final_address": "1724 Leon C Simon Dr",
    "address_councildis": "D",
    "status": "Assigned to Contractor",
    "contractor": "IV Waste",
    "rowid": "1128926",
    "final_x": "3679821.48808",
    "final_y": "555781.052185",
    "longitude": "-90.07252751715974",
    "latitude": "30.02225591498599",
    "geocoded_column": {
      "latitude": "30.02225591498599",
      "longitude": "-90.07252751715974"
    }
  },
  {
    "service_request": "2024-1128925",
    "request_type": "Trash/Recycling",
    "request_reason": "Missed Trash Pick-Up",
    "date_created": "2024-09-09T16:40:19.000",
    "date_modified": "2024-09-09T16:40:20.000",
    "request_status": "Pending",
    "responsible_agency": "Department of Sanitation",
    "final_address": "4970 Pecan St",
    "address_councildis": "E",
    "status": "Assigned to Contractor",
    "contractor": "Waste Pro",
    "rowid": "1128925",
    "final_x": "3701628.85917",
    "final_y": "555583.301145",
    "longitude": "-90.00362932392795",
    "latitude": "30.02103436184319",
    "geocoded_column": {
      "latitude": "30.02103436184319",
      "longitude": "-90.00362932392795"
    }
  },
  {
    "service_request": "2024-1128924",
    "request_type": "Trash/Recycling",
    "request_reason": "Dead Animal Pick Up",
    "date_created": "2024-09-09T16:39:40.000",
    "date_modified": "2024-09-09T16:39:41.000",
    "request_status": "Pending",
    "responsible_agency": "Department of Sanitation",
    "final_address": "ELYSIAN FIELDS AV OVER & ELYSIAN FIELDS AVE",
    "address_councildis": "D",
    "status": "Assigned to Contractor",
    "contractor": "IV Waste",
    "rowid": "1128924",
    "final_x": "3684527.2",
    "final_y": "541571.48",
    "longitude": "-90.05815831576034",
    "latitude": "29.98304150480719",
    "geocoded_column": {
      "latitude": "29.98304150480719",
      "longitude": "-90.05815831576034"
    }
  },
  {
    "service_request": "2024-1128923",
    "request_type": "Roads and Streets",
    "request_reason": "Pothole",
    "date_created": "2024-09-09T16:38:27.000",
    "date_modified": "2024-09-09T16:38:27.000",
    "request_status": "Pending",
    "responsible_agency": "Department of Public Works",
    "final_address": "6500 BLK Congress Dr",
    "address_councildis": "D",
    "status": "Pending",
    "rowid": "1128923",
    "final_x": "3690618.11348",
    "final_y": "558046.392881",
    "longitude": "-90.03833206259695",
    "latitude": "30.028153678788968",
    "geocoded_column": {
      "latitude": "30.028153678788968",
      "longitude": "-90.03833206259695"
    }
  },
  {
    "service_request": "2024-1128922",
    "request_type": "Trash/Recycling",
    "request_reason": "Replace Recycling Cart",
    "date_created": "2024-09-09T16:33:19.000",
    "date_modified": "2024-09-09T16:33:19.000",
    "request_status": "Pending",
    "responsible_agency": "Department of Sanitation",
    "final_address": "1617 N Miro St",
    "address_councildis": "D",
    "status": "Pending",
    "rowid": "1128922",
    "final_x": "3680576.28335",
    "final_y": "539249.074314",
    "longitude": "-90.07071815628427",
    "latitude": "29.976776004218017",
    "geocoded_column": {
      "latitude": "29.976776004218017",
      "longitude": "-90.07071815628427"
    }
  },
  {
    "service_request": "2024-1128921",
    "request_type": "Trash/Recycling",
    "request_reason": "Missed Trash Pick-Up",
    "date_created": "2024-09-09T16:25:39.000",
    "date_modified": "2024-09-09T16:25:40.000",
    "request_status": "Pending",
    "responsible_agency": "Department of Sanitation",
    "final_address": "7824 Sand St",
    "address_councildis": "E",
    "status": "Assigned to Contractor",
    "contractor": "Waste Pro",
    "rowid": "1128921",
    "final_x": "3720220.16921",
    "final_y": "574138.186986",
    "longitude": "-89.94417607808263",
    "latitude": "30.07144634447736",
    "geocoded_column": {
      "latitude": "30.07144634447736",
      "longitude": "-89.94417607808263"
    }
  },
  {
    "service_request": "2024-1128920",
    "request_type": "Trash/Recycling",
    "request_reason": "Return Trash Cart",
    "date_created": "2024-09-09T16:25:36.000",
    "date_modified": "2024-09-09T16:25:37.000",
    "request_status": "Pending",
    "responsible_agency": "Department of Sanitation",
    "final_address": "3619 Laurel St",
    "address_councildis": "B",
    "status": "Assigned to Contractor",
    "contractor": "IV Waste",
    "rowid": "1128920",
    "final_x": "3674226.90555",
    "final_y": "518577.790903",
    "longitude": "-90.09147908254751",
    "latitude": "29.920127657802144",
    "geocoded_column": {
      "latitude": "29.920127657802144",
      "longitude": "-90.09147908254751"
    }
  },
  {
    "service_request": "2024-1128919",
    "request_type": "Abandoned Vehicles",
    "request_reason": "Vehicle Blocking Your Driveway",
    "date_created": "2024-09-09T16:25:21.000",
    "date_modified": "2024-09-09T16:25:21.000",
    "request_status": "Pending",
    "responsible_agency": "Department of Public Works",
    "final_address": "3821 Annunciation St",
    "address_councildis": "B",
    "status": "Pending",
    "rowid": "1128919",
    "final_x": "3673436.55124",
    "final_y": "518035.035574",
    "longitude": "-90.09399238720226",
    "latitude": "29.9186587834005",
    "geocoded_column": {
      "latitude": "29.9186587834005",
      "longitude": "-90.09399238720226"
    }
  },
  {
    "service_request": "2024-1128918",
    "request_type": "Drainage",
    "request_reason": "Catch Basin Clogged",
    "date_created": "2024-09-09T16:22:35.000",
    "date_modified": "2024-09-09T16:22:37.000",
    "request_status": "Pending",
    "responsible_agency": "Department of Public Works",
    "final_address": "5401 Pauline Dr",
    "address_councildis": "D",
    "status": "Pending",
    "rowid": "1128918",
    "final_x": "3692275.00566",
    "final_y": "553914.994967",
    "longitude": "-90.03324452637246",
    "latitude": "30.016742293894175",
    "geocoded_column": {
      "latitude": "30.016742293894175",
      "longitude": "-90.03324452637246"
    }
  },
  {
    "service_request": "2024-1128917",
    "request_type": "Trash/Recycling",
    "request_reason": "Request a Large Item Pick Up",
    "date_created": "2024-09-09T16:19:08.000",
    "date_modified": "2024-09-09T16:19:09.000",
    "request_status": "Pending",
    "responsible_agency": "Department of Sanitation",
    "final_address": "14000 Linden St",
    "address_councildis": "E",
    "status": "Assigned to Contractor",
    "contractor": "Waste Pro",
    "rowid": "1128917",
    "final_x": "3718372.08319",
    "final_y": "572376.049705",
    "longitude": "-89.95008563198658",
    "latitude": "30.066662683650527",
    "geocoded_column": {
      "latitude": "30.066662683650527",
      "longitude": "-89.95008563198658"
    }
  },
  {
    "service_request": "2024-1128916",
    "request_type": "Roads and Streets",
    "request_reason": "Pothole",
    "date_created": "2024-09-09T16:16:09.000",
    "date_modified": "2024-09-09T16:16:10.000",
    "request_status": "Pending",
    "responsible_agency": "Department of Public Works",
    "final_address": "5118 Elysian Fields Ave",
    "address_councildis": "D",
    "status": "Pending",
    "rowid": "1128916",
    "final_x": "3683663.5133",
    "final_y": "551696.309461",
    "longitude": "-90.06053104884565",
    "latitude": "30.010907566328843",
    "geocoded_column": {
      "latitude": "30.010907566328843",
      "longitude": "-90.06053104884565"
    }
  },
  {
    "service_request": "2024-1128915",
    "request_type": "Parks & Parkways",
    "request_reason": "Request Tree Service (Right of Way/Public Property)",
    "date_created": "2024-09-09T16:15:07.000",
    "date_modified": "2024-09-09T16:15:08.000",
    "request_status": "Pending",
    "responsible_agency": "Department of Parks & Parkway",
    "final_address": "N WHITE ST & ST ANN ST",
    "address_councildis": "A",
    "status": "Pending",
    "rowid": "1128915",
    "final_x": "3676470.3",
    "final_y": "537555.28",
    "longitude": "-90.08374448823255",
    "latitude": "29.972242417120526",
    "geocoded_column": {
      "latitude": "29.972242417120526",
      "longitude": "-90.08374448823255"
    }
  },
  {
    "service_request": "2024-1128914",
    "request_type": "Roads and Streets",
    "request_reason": "Pothole",
    "date_created": "2024-09-09T16:14:36.000",
    "date_modified": "2024-09-09T16:14:58.000",
    "case_close_date": "2024-09-09T11:14:58.000",
    "request_status": "Closed",
    "responsible_agency": "Department of Public Works",
    "final_address": "2100 Ellen Park Pl",
    "address_councildis": "C",
    "status": "Resolved",
    "rowid": "1128914",
    "final_x": "3703001.60945",
    "final_y": "523174.987963",
    "longitude": "-90.00048298973115",
    "latitude": "29.931879490008896",
    "geocoded_column": {
      "latitude": "29.931879490008896",
      "longitude": "-90.00048298973115"
    }
  },
  {
    "service_request": "2024-1128913",
    "request_type": "Trash/Recycling",
    "request_reason": "Request a Large Item Pick Up",
    "date_created": "2024-09-09T16:14:07.000",
    "date_modified": "2024-09-09T16:14:08.000",
    "request_status": "Pending",
    "responsible_agency": "Department of Sanitation",
    "final_address": "2430 Amelia St",
    "address_councildis": "B",
    "status": "Assigned to Contractor",
    "contractor": "IV Waste",
    "rowid": "1128913",
    "final_x": "3672351.50638",
    "final_y": "524156.366588",
    "longitude": "-90.0972088682849",
    "latitude": "29.935522704025395",
    "geocoded_column": {
      "latitude": "29.935522704025395",
      "longitude": "-90.0972088682849"
    }
  },
  {
    "service_request": "2024-1128912",
    "request_type": "Mosquito, Termite & Rodent Control",
    "request_reason": "Non-Rodent Complaint (Mice, Possums, Snakes)",
    "date_created": "2024-09-09T16:11:00.000",
    "date_modified": "2024-09-09T16:11:01.000",
    "request_status": "Pending",
    "responsible_agency": "Mosquito, Termite & Rodent Control Board",
    "final_address": "13652 N Cavelier Dr",
    "address_councildis": "E",
    "status": "Pending",
    "rowid": "1128912",
    "final_x": "3724065.73727",
    "final_y": "570056.767591",
    "longitude": "-89.93217698357395",
    "latitude": "30.060095419917687",
    "geocoded_column": {
      "latitude": "30.060095419917687",
      "longitude": "-89.93217698357395"
    }
  },
  {
    "service_request": "2024-1128911",
    "request_type": "Roads and Streets",
    "request_reason": "Pothole",
    "date_created": "2024-09-09T16:10:32.000",
    "date_modified": "2024-09-09T16:11:47.000",
    "case_close_date": "2024-09-09T11:11:47.000",
    "request_status": "Closed",
    "responsible_agency": "Department of Public Works",
    "final_address": "6500 Avenue A",
    "address_councildis": "A",
    "status": "Resolved",
    "rowid": "1128911",
    "final_x": "3665945.08122",
    "final_y": "551371.261205",
    "longitude": "-90.11652168897672",
    "latitude": "30.01054307172348",
    "geocoded_column": {
      "latitude": "30.01054307172348",
      "longitude": "-90.11652168897672"
    }
  },
  {
    "service_request": "2024-1128910",
    "request_type": "Trash/Recycling",
    "request_reason": "Repair Trash Cart",
    "date_created": "2024-09-09T16:09:16.000",
    "date_modified": "2024-09-09T16:09:17.000",
    "request_status": "Pending",
    "responsible_agency": "Department of Sanitation",
    "final_address": "2126 Pace Blvd",
    "address_councildis": "C",
    "status": "Assigned to Contractor",
    "contractor": "Richards Disposal",
    "rowid": "1128910",
    "final_x": "3694529.81373",
    "final_y": "522472.553786",
    "longitude": "-90.02725269104945",
    "latitude": "29.930216281740122",
    "geocoded_column": {
      "latitude": "29.930216281740122",
      "longitude": "-90.02725269104945"
    }
  },
  {
    "service_request": "2024-1128909",
    "request_type": "Trash/Recycling",
    "request_reason": "Request a Large Item Pick Up",
    "date_created": "2024-09-09T16:08:14.000",
    "date_modified": "2024-09-09T16:08:51.000",
    "request_status": "Pending",
    "responsible_agency": "Department of Sanitation",
    "final_address": "7721 Branch Dr",
    "address_councildis": "E",
    "status": "Assigned to Contractor",
    "contractor": "Waste Pro",
    "rowid": "1128909",
    "final_x": "3714478.73215",
    "final_y": "569102.329638",
    "longitude": "-89.96251681135584",
    "latitude": "30.05778996443443",
    "geocoded_column": {
      "latitude": "30.05778996443443",
      "longitude": "-89.96251681135584"
    }
  },
  {
    "service_request": "2024-1128908",
    "request_type": "Roads and Streets",
    "request_reason": "Pothole",
    "date_created": "2024-09-09T16:07:53.000",
    "date_modified": "2024-09-09T16:08:14.000",
    "case_close_date": "2024-09-09T11:08:14.000",
    "request_status": "Closed",
    "responsible_agency": "Department of Public Works",
    "final_address": "2200 Poydras St",
    "address_councildis": "B",
    "status": "Resolved",
    "rowid": "1128908",
    "final_x": "3675102.65333",
    "final_y": "531540.356611",
    "longitude": "-90.08827016524687",
    "latitude": "29.955744344938772",
    "geocoded_column": {
      "latitude": "29.955744344938772",
      "longitude": "-90.08827016524687"
    }
  },
  {
    "service_request": "2024-1128907",
    "request_type": "Trash/Recycling",
    "request_reason": "Missed Trash Pick-Up",
    "date_created": "2024-09-09T16:06:36.000",
    "date_modified": "2024-09-09T16:06:37.000",
    "request_status": "Pending",
    "responsible_agency": "Department of Sanitation",
    "final_address": "14742 Beekman Rd",
    "address_councildis": "E",
    "status": "Assigned to Contractor",
    "contractor": "Waste Pro",
    "rowid": "1128907",
    "final_x": "3721271.74854",
    "final_y": "573870.378026",
    "longitude": "-89.94086203983147",
    "latitude": "30.070674887333745",
    "geocoded_column": {
      "latitude": "30.070674887333745",
      "longitude": "-89.94086203983147"
    }
  },
  {
    "service_request": "2024-1128906",
    "request_type": "Roads and Streets",
    "request_reason": "Pothole",
    "date_created": "2024-09-09T16:06:14.000",
    "date_modified": "2024-09-09T16:06:46.000",
    "case_close_date": "2024-09-09T11:06:46.000",
    "request_status": "Closed",
    "responsible_agency": "Department of Public Works",
    "final_address": "6449 Avenue A",
    "address_councildis": "A",
    "status": "Resolved",
    "rowid": "1128906",
    "final_x": "3666029.40468",
    "final_y": "551069.295317",
    "longitude": "-90.1162654111666",
    "latitude": "30.009710308312005",
    "geocoded_column": {
      "latitude": "30.009710308312005",
      "longitude": "-90.1162654111666"
    }
  },
  {
    "service_request": "2024-1128905",
    "request_type": "Trash/Recycling",
    "request_reason": "Repair Trash Cart",
    "date_created": "2024-09-09T16:05:53.000",
    "date_modified": "2024-09-09T16:05:54.000",
    "request_status": "Pending",
    "responsible_agency": "Department of Sanitation",
    "final_address": "11940 Lakeland Ct Unit C",
    "address_councildis": "E",
    "status": "Assigned to Contractor",
    "contractor": "Waste Pro",
    "rowid": "1128905",
    "final_x": "3712613.93278",
    "final_y": "568558.526629",
    "longitude": "-89.96843163117005",
    "latitude": "30.056355939000735",
    "geocoded_column": {
      "latitude": "30.056355939000735",
      "longitude": "-89.96843163117005"
    }
  },
  {
    "service_request": "2024-1128904",
    "request_type": "Trash/Recycling",
    "request_reason": "Missed Trash Pick-Up",
    "date_created": "2024-09-09T16:05:41.000",
    "date_modified": "2024-09-09T16:05:42.000",
    "request_status": "Pending",
    "responsible_agency": "Department of Sanitation",
    "final_address": "5512 Patio Way",
    "address_councildis": "E",
    "status": "Assigned to Contractor",
    "contractor": "Waste Pro",
    "rowid": "1128904",
    "final_x": "3725289.69235",
    "final_y": "563900.762017",
    "longitude": "-89.9285467380515",
    "latitude": "30.043127771523103",
    "geocoded_column": {
      "latitude": "30.043127771523103",
      "longitude": "-89.9285467380515"
    }
  },
  {
    "service_request": "2024-1128903",
    "request_type": "Drainage",
    "request_reason": "Catch Basin Clogged",
    "date_created": "2024-09-09T16:03:44.000",
    "date_modified": "2024-09-09T16:04:38.000",
    "case_close_date": "2024-09-09T11:04:38.000",
    "request_status": "Closed",
    "responsible_agency": "Department of Public Works",
    "final_address": "3480 Esplanade Ave",
    "address_councildis": "A",
    "status": "Resolved",
    "rowid": "1128903",
    "final_x": "3674877.06229",
    "final_y": "541434.667276",
    "longitude": "-90.08864312297646",
    "latitude": "29.982957083289012",
    "geocoded_column": {
      "latitude": "29.982957083289012",
      "longitude": "-90.08864312297646"
    }
  },
  {
    "service_request": "2024-1128902",
    "request_type": "Trash/Recycling",
    "request_reason": "Illegal Dumping",
    "date_created": "2024-09-09T16:02:59.000",
    "date_modified": "2024-09-09T16:03:00.000",
    "request_status": "Pending",
    "responsible_agency": "Department of Sanitation",
    "final_address": "7922 Arcadia Ln",
    "address_councildis": "E",
    "status": "Pending",
    "rowid": "1128902",
    "final_x": "3711799.78846",
    "final_y": "567881.948709",
    "longitude": "-89.97103040553964",
    "latitude": "30.054522266104446",
    "geocoded_column": {
      "latitude": "30.054522266104446",
      "longitude": "-89.97103040553964"
    }
  },
  {
    "service_request": "2024-1128901",
    "request_type": "Drainage",
    "request_reason": "Catch Basin Clogged",
    "date_created": "2024-09-09T16:02:06.000",
    "date_modified": "2024-09-09T16:02:48.000",
    "case_close_date": "2024-09-09T11:02:48.000",
    "request_status": "Closed",
    "responsible_agency": "Department of Public Works",
    "final_address": "6530 Avenue B",
    "address_councildis": "A",
    "status": "Resolved",
    "rowid": "1128901",
    "final_x": "3665652.39034",
    "final_y": "551600.388821",
    "longitude": "-90.11743873358387",
    "latitude": "30.011181635984038",
    "geocoded_column": {
      "latitude": "30.011181635984038",
      "longitude": "-90.11743873358387"
    }
  },
  {
    "service_request": "2024-1128900",
    "request_type": "Roads and Streets",
    "request_reason": "Street Subsidence (Sinking)",
    "date_created": "2024-09-09T16:01:26.000",
    "date_modified": "2024-09-09T16:01:27.000",
    "request_status": "Pending",
    "responsible_agency": "Department of Public Works",
    "final_address": "COHN ST & LEONIDAS ST",
    "address_councildis": "A",
    "status": "Pending",
    "rowid": "1128900",
    "final_x": "3662300.3",
    "final_y": "531389.08",
    "longitude": "-90.12870071279517",
    "latitude": "29.955704678320068",
    "geocoded_column": {
      "latitude": "29.955704678320068",
      "longitude": "-90.12870071279517"
    }
  },
  {
    "service_request": "2024-1128899",
    "request_type": "Property Maintenance",
    "request_reason": "Property Maintenance",
    "date_created": "2024-09-09T16:00:49.000",
    "date_modified": "2024-09-09T16:01:40.000",
    "request_status": "Pending",
    "responsible_agency": "Department of Code Enforcement",
    "final_address": "2106 Louisa St",
    "address_councildis": "D",
    "status": "Pending",
    "rowid": "1128899",
    "final_x": "3690490.71913",
    "final_y": "539715.080778",
    "longitude": "-90.03938874897526",
    "latitude": "29.977753236577673",
    "geocoded_column": {
      "latitude": "29.977753236577673",
      "longitude": "-90.03938874897526"
    }
  },
  {
    "service_request": "2024-1128898",
    "request_type": "Property Maintenance",
    "request_reason": "Property Maintenance",
    "date_created": "2024-09-09T16:00:15.000",
    "date_modified": "2024-09-09T16:00:17.000",
    "request_status": "Pending",
    "responsible_agency": "Department of Code Enforcement",
    "final_address": "2106 Louisa St",
    "address_councildis": "D",
    "status": "Pending",
    "rowid": "1128898",
    "final_x": "3690490.71913",
    "final_y": "539715.080778",
    "longitude": "-90.03938874897526",
    "latitude": "29.977753236577673",
    "geocoded_column": {
      "latitude": "29.977753236577673",
      "longitude": "-90.03938874897526"
    }
  },
  {
    "service_request": "2024-1128897",
    "request_type": "Abandoned Vehicles",
    "request_reason": "Abandoned/Junk Vehicles",
    "date_created": "2024-09-09T15:59:14.000",
    "date_modified": "2024-09-09T16:00:50.000",
    "request_status": "Pending",
    "responsible_agency": "Department of Public Works",
    "final_address": "7422 Spring Lake Dr",
    "address_councildis": "E",
    "status": "Pending",
    "rowid": "1128897",
    "final_x": "3700962.68266",
    "final_y": "559045.724124",
    "longitude": "-90.00560746905768",
    "latitude": "30.030575932428277",
    "geocoded_column": {
      "latitude": "30.030575932428277",
      "longitude": "-90.00560746905768"
    }
  },
  {
    "service_request": "2024-1128896",
    "request_type": "Drainage",
    "request_reason": "Catch Basin Clogged",
    "date_created": "2024-09-09T15:58:21.000",
    "date_modified": "2024-09-09T15:58:48.000",
    "case_close_date": "2024-09-09T10:58:48.000",
    "request_status": "Closed",
    "responsible_agency": "Department of Public Works",
    "final_address": "3100 BLK Esplanade Ave",
    "address_councildis": "A",
    "status": "Resolved",
    "rowid": "1128896",
    "final_x": "3676477.67785",
    "final_y": "540262.909419",
    "longitude": "-90.08362792493647",
    "latitude": "29.979687248269876",
    "geocoded_column": {
      "latitude": "29.979687248269876",
      "longitude": "-90.08362792493647"
    }
  },
  {
    "service_request": "2024-1128895",
    "request_type": "Abandoned Vehicles",
    "request_reason": "Abandoned/Junk Vehicles",
    "date_created": "2024-09-09T15:58:04.000",
    "date_modified": "2024-09-09T15:58:51.000",
    "request_status": "Pending",
    "responsible_agency": "Department of Public Works",
    "final_address": "7421 Spring Lake Dr",
    "address_councildis": "E",
    "status": "Pending",
    "rowid": "1128895",
    "final_x": "3700843.33335",
    "final_y": "559230.258268",
    "longitude": "-90.00597785735827",
    "latitude": "30.031087131954393",
    "geocoded_column": {
      "latitude": "30.031087131954393",
      "longitude": "-90.00597785735827"
    }
  },
  {
    "service_request": "2024-1128894",
    "request_type": "Abandoned Vehicles",
    "request_reason": "Abandoned/Junk Vehicles",
    "date_created": "2024-09-09T15:57:52.000",
    "date_modified": "2024-09-09T15:57:53.000",
    "request_status": "Pending",
    "responsible_agency": "Department of Public Works",
    "final_address": "8718 Hammond St",
    "address_councildis": "E",
    "status": "Pending",
    "rowid": "1128894",
    "final_x": "3707579.13476",
    "final_y": "555866.992793",
    "longitude": "-89.98481776692688",
    "latitude": "30.021623197637272",
    "geocoded_column": {
      "latitude": "30.021623197637272",
      "longitude": "-89.98481776692688"
    }
  },
  {
    "service_request": "2024-1128893",
    "request_type": "Parks & Parkways",
    "request_reason": "Request Tree Service (Right of Way/Public Property)",
    "date_created": "2024-09-09T15:56:12.000",
    "date_modified": "2024-09-09T15:56:13.000",
    "request_status": "Pending",
    "responsible_agency": "Department of Parks & Parkway",
    "final_address": "13211 Dwyer Blvd",
    "address_councildis": "E",
    "status": "Pending",
    "rowid": "1128893",
    "final_x": "3724365.33728",
    "final_y": "561532.289055",
    "longitude": "-89.93155961390502",
    "latitude": "30.036646574891197",
    "geocoded_column": {
      "latitude": "30.036646574891197",
      "longitude": "-89.93155961390502"
    }
  },
  {
    "service_request": "2024-1128892",
    "request_type": "Drainage",
    "request_reason": "Catch Basin Clogged",
    "date_created": "2024-09-09T15:55:23.000",
    "date_modified": "2024-09-09T15:56:32.000",
    "case_close_date": "2024-09-09T10:56:32.000",
    "request_status": "Closed",
    "responsible_agency": "Department of Public Works",
    "final_address": "3000 Esplanade Ave",
    "address_councildis": "A",
    "status": "Resolved",
    "rowid": "1128892",
    "final_x": "3676771.54011",
    "final_y": "539933.69217",
    "longitude": "-90.08271113693336",
    "latitude": "29.978773198343983",
    "geocoded_column": {
      "latitude": "29.978773198343983",
      "longitude": "-90.08271113693336"
    }
  },
  {
    "service_request": "2024-1128891",
    "request_type": "Trash/Recycling",
    "request_reason": "Order Trash Cart",
    "date_created": "2024-09-09T15:54:53.000",
    "date_modified": "2024-09-09T15:54:53.000",
    "request_status": "Pending",
    "responsible_agency": "Department of Sanitation",
    "final_address": "702 N Johnson St",
    "address_councildis": "D",
    "status": "Assigned to Contractor",
    "contractor": "IV Waste",
    "rowid": "1128891",
    "final_x": "3678610.22267",
    "final_y": "535351.342854",
    "longitude": "-90.07706255982238",
    "latitude": "29.966118002000556",
    "geocoded_column": {
      "latitude": "29.966118002000556",
      "longitude": "-90.07706255982238"
    }
  },
  {
    "service_request": "2024-1128890",
    "request_type": "Drainage",
    "request_reason": "Catch Basin Clogged",
    "date_created": "2024-09-09T15:54:25.000",
    "date_modified": "2024-09-09T15:54:26.000",
    "request_status": "Pending",
    "responsible_agency": "Department of Public Works",
    "final_address": "4756 Lonely Oak Dr",
    "address_councildis": "E",
    "status": "Pending",
    "rowid": "1128890",
    "final_x": "3702247.15767",
    "final_y": "554467.702616",
    "longitude": "-90.0017166556246",
    "latitude": "30.017947149932315",
    "geocoded_column": {
      "latitude": "30.017947149932315",
      "longitude": "-90.0017166556246"
    }
  },
  {
    "service_request": "2024-1128889",
    "request_type": "Trash/Recycling",
    "request_reason": "Request a Large Item Pick Up",
    "date_created": "2024-09-09T15:52:19.000",
    "date_modified": "2024-09-09T15:52:21.000",
    "request_status": "Pending",
    "responsible_agency": "Department of Sanitation",
    "final_address": "410 Olivier St",
    "address_councildis": "C",
    "status": "Assigned to Contractor",
    "contractor": "Richards Disposal",
    "rowid": "1128889",
    "final_x": "3687285.00706",
    "final_y": "530242.991361",
    "longitude": "-90.04984856451719",
    "latitude": "29.951807432797757",
    "geocoded_column": {
      "latitude": "29.951807432797757",
      "longitude": "-90.04984856451719"
    }
  },
  {
    "service_request": "2024-1128888",
    "request_type": "Drainage",
    "request_reason": "Catch Basin Clogged",
    "date_created": "2024-09-09T15:51:01.000",
    "date_modified": "2024-09-09T15:51:31.000",
    "case_close_date": "2024-09-09T10:51:31.000",
    "request_status": "Closed",
    "responsible_agency": "Department of Public Works",
    "final_address": "3424 Esplanade Ave",
    "address_councildis": "A",
    "status": "Resolved",
    "rowid": "1128888",
    "final_x": "3675133.02305",
    "final_y": "541190.800844",
    "longitude": "-90.08784304001769",
    "latitude": "29.982278886936417",
    "geocoded_column": {
      "latitude": "29.982278886936417",
      "longitude": "-90.08784304001769"
    }
  },
  {
    "service_request": "2024-1128887",
    "request_type": "Trash/Recycling",
    "request_reason": "Missed Trash Pick-Up",
    "date_created": "2024-09-09T15:50:52.000",
    "date_modified": "2024-09-09T15:50:54.000",
    "request_status": "Pending",
    "responsible_agency": "Department of Sanitation",
    "final_address": "6232 Carlisle Ct",
    "address_councildis": "C",
    "status": "Assigned to Contractor",
    "contractor": "Richards Disposal",
    "rowid": "1128887",
    "final_x": "3707194.20728",
    "final_y": "516543.932469",
    "longitude": "-89.987493396082",
    "latitude": "29.91351163935187",
    "geocoded_column": {
      "latitude": "29.91351163935187",
      "longitude": "-89.987493396082"
    }
  },
  {
    "service_request": "2024-1128886",
    "request_type": "Drainage",
    "request_reason": "Catch Basin Clogged",
    "date_created": "2024-09-09T15:49:13.000",
    "date_modified": "2024-09-09T15:49:39.000",
    "case_close_date": "2024-09-09T10:49:39.000",
    "request_status": "Closed",
    "responsible_agency": "Department of Public Works",
    "final_address": "2900 Banks St",
    "address_councildis": "B",
    "status": "Resolved",
    "rowid": "1128886",
    "final_x": "3673817.75444",
    "final_y": "534673.22855",
    "longitude": "-90.09222027950189",
    "latitude": "29.96439702211562",
    "geocoded_column": {
      "latitude": "29.96439702211562",
      "longitude": "-90.09222027950189"
    }
  },
  {
    "service_request": "2024-1128885",
    "request_type": "Abandoned Vehicles",
    "request_reason": "Abandoned/Junk Vehicles",
    "date_created": "2024-09-09T15:48:03.000",
    "date_modified": "2024-09-09T15:48:04.000",
    "request_status": "Pending",
    "responsible_agency": "Department of Public Works",
    "final_address": "1218 N Villere St",
    "address_councildis": "C",
    "status": "Pending",
    "rowid": "1128885",
    "final_x": "3681614.7668",
    "final_y": "535831.001287",
    "longitude": "-90.06755755540848",
    "latitude": "29.96734597917894",
    "geocoded_column": {
      "latitude": "29.96734597917894",
      "longitude": "-90.06755755540848"
    }
  },
  {
    "service_request": "2024-1128884",
    "request_type": "Traffic Signals",
    "request_reason": "Traffic Signal Malfunctioning or Damaged",
    "date_created": "2024-09-09T15:46:02.000",
    "date_modified": "2024-09-09T15:46:02.000",
    "request_status": "Pending",
    "responsible_agency": "Department of Public Works",
    "final_address": "CONTI ST & N CARROLLTON AVE",
    "address_councildis": "A",
    "status": "Pending",
    "rowid": "1128884",
    "final_x": "3671933.5",
    "final_y": "539167.98",
    "longitude": "-90.0980175955765",
    "latitude": "29.976812057502084",
    "geocoded_column": {
      "latitude": "29.976812057502084",
      "longitude": "-90.0980175955765"
    }
  },
  {
    "service_request": "2024-1128883",
    "request_type": "Trash/Recycling",
    "request_reason": "Repair Trash Cart",
    "date_created": "2024-09-09T15:44:51.000",
    "date_modified": "2024-09-09T15:44:52.000",
    "request_status": "Pending",
    "responsible_agency": "Department of Sanitation",
    "final_address": "2737 Edna St",
    "address_councildis": "D",
    "status": "Assigned to Contractor",
    "contractor": "IV Waste",
    "rowid": "1128883",
    "final_x": "3689662.18243",
    "final_y": "545337.530575",
    "longitude": "-90.04180539071751",
    "latitude": "29.993238661882355",
    "geocoded_column": {
      "latitude": "29.993238661882355",
      "longitude": "-90.04180539071751"
    }
  },
  {
    "service_request": "2024-1128882",
    "request_type": "Drainage",
    "request_reason": "Catch Basin Clogged",
    "date_created": "2024-09-09T15:42:42.000",
    "date_modified": "2024-09-09T15:47:17.000",
    "case_close_date": "2024-09-09T10:47:17.000",
    "request_status": "Closed",
    "responsible_agency": "Department of Public Works",
    "final_address": "2500 Banks St",
    "address_councildis": "B",
    "status": "Resolved",
    "rowid": "1128882",
    "final_x": "3675340.06376",
    "final_y": "533521.545797",
    "longitude": "-90.0874524849992",
    "latitude": "29.961184855881598",
    "geocoded_column": {
      "latitude": "29.961184855881598",
      "longitude": "-90.0874524849992"
    }
  },
  {
    "service_request": "2024-1128881",
    "request_type": "Trash/Recycling",
    "request_reason": "Order Recycling Cart",
    "date_created": "2024-09-09T15:42:20.000",
    "date_modified": "2024-09-09T15:42:21.000",
    "request_status": "Pending",
    "responsible_agency": "Department of Sanitation",
    "final_address": "2514 Ursulines Ave",
    "address_councildis": "D",
    "status": "Pending",
    "rowid": "1128881",
    "final_x": "3678276.47822",
    "final_y": "537547.92756",
    "longitude": "-90.07804052336544",
    "latitude": "29.972167916386567",
    "geocoded_column": {
      "latitude": "29.972167916386567",
      "longitude": "-90.07804052336544"
    }
  },
  {
    "service_request": "2024-1128880",
    "request_type": "Trash/Recycling",
    "request_reason": "Order Trash Cart",
    "date_created": "2024-09-09T15:42:02.000",
    "date_modified": "2024-09-09T15:42:02.000",
    "request_status": "Pending",
    "responsible_agency": "Department of Sanitation",
    "final_address": "2514 Ursulines Ave",
    "address_councildis": "D",
    "status": "Assigned to Contractor",
    "contractor": "IV Waste",
    "rowid": "1128880",
    "final_x": "3678276.47822",
    "final_y": "537547.92756",
    "longitude": "-90.07804052336544",
    "latitude": "29.972167916386567",
    "geocoded_column": {
      "latitude": "29.972167916386567",
      "longitude": "-90.07804052336544"
    }
  },
  {
    "service_request": "2024-1128879",
    "request_type": "Trash/Recycling",
    "request_reason": "Start Trash Service",
    "date_created": "2024-09-09T15:41:41.000",
    "date_modified": "2024-09-09T15:41:42.000",
    "request_status": "Pending",
    "responsible_agency": "Department of Sanitation",
    "final_address": "2514 Ursulines Ave",
    "address_councildis": "D",
    "status": "Assigned to Contractor",
    "contractor": "IV Waste",
    "rowid": "1128879",
    "final_x": "3678276.47822",
    "final_y": "537547.92756",
    "longitude": "-90.07804052336544",
    "latitude": "29.972167916386567",
    "geocoded_column": {
      "latitude": "29.972167916386567",
      "longitude": "-90.07804052336544"
    }
  },
  {
    "service_request": "2024-1128878",
    "request_type": "Trash/Recycling",
    "request_reason": "Return Trash Cart",
    "date_created": "2024-09-09T15:37:02.000",
    "date_modified": "2024-09-09T15:37:40.000",
    "request_status": "Pending",
    "responsible_agency": "Department of Sanitation",
    "final_address": "2221 Delachaise St",
    "address_councildis": "B",
    "status": "Assigned to Contractor",
    "contractor": "IV Waste",
    "rowid": "1128878",
    "final_x": "3672932.4852",
    "final_y": "523535.592187",
    "longitude": "-90.09539588310334",
    "latitude": "29.93379852915509",
    "geocoded_column": {
      "latitude": "29.93379852915509",
      "longitude": "-90.09539588310334"
    }
  },
  {
    "service_request": "2024-1128877",
    "request_type": "Trash/Recycling",
    "request_reason": "Order Recycling Cart",
    "date_created": "2024-09-09T15:36:28.000",
    "date_modified": "2024-09-09T15:36:29.000",
    "request_status": "Pending",
    "responsible_agency": "Department of Sanitation",
    "final_address": "2221 Delachaise St",
    "address_councildis": "B",
    "status": "Pending",
    "rowid": "1128877",
    "final_x": "3672932.4852",
    "final_y": "523535.592187",
    "longitude": "-90.09539588310334",
    "latitude": "29.93379852915509",
    "geocoded_column": {
      "latitude": "29.93379852915509",
      "longitude": "-90.09539588310334"
    }
  },
  {
    "service_request": "2024-1128876",
    "request_type": "Trash/Recycling",
    "request_reason": "Order Trash Cart",
    "date_created": "2024-09-09T15:32:15.000",
    "date_modified": "2024-09-09T15:32:16.000",
    "request_status": "Pending",
    "responsible_agency": "Department of Sanitation",
    "final_address": "2031 Desire St",
    "address_councildis": "D",
    "status": "Assigned to Contractor",
    "contractor": "IV Waste",
    "rowid": "1128876",
    "final_x": "3691119.69993",
    "final_y": "539334.794058",
    "longitude": "-90.03741580217529",
    "latitude": "29.976688038203616",
    "geocoded_column": {
      "latitude": "29.976688038203616",
      "longitude": "-90.03741580217529"
    }
  },
  {
    "service_request": "2024-1128875",
    "request_type": "Trash/Recycling",
    "request_reason": "Illegal Dumping",
    "date_created": "2024-09-09T15:28:22.000",
    "date_modified": "2024-09-09T15:28:23.000",
    "request_status": "Pending",
    "responsible_agency": "Department of Sanitation",
    "final_address": "7915 Redfish St",
    "address_councildis": "E",
    "status": "Pending",
    "rowid": "1128875",
    "final_x": "3698653.99229",
    "final_y": "560925.39555",
    "longitude": "-90.01283447480422",
    "latitude": "30.035817657944083",
    "geocoded_column": {
      "latitude": "30.035817657944083",
      "longitude": "-90.01283447480422"
    }
  },
  {
    "service_request": "2024-1128874",
    "request_type": "Drainage",
    "request_reason": "Ditch and Culvert Maintenance",
    "date_created": "2024-09-09T15:24:36.000",
    "date_modified": "2024-09-09T15:24:37.000",
    "request_status": "Pending",
    "responsible_agency": "Department of Public Works",
    "final_address": "8008 Redfish St",
    "address_councildis": "E",
    "status": "Pending",
    "rowid": "1128874",
    "final_x": "3698439.16656",
    "final_y": "561082.84643",
    "longitude": "-90.01350762822047",
    "latitude": "30.03625739243074",
    "geocoded_column": {
      "latitude": "30.03625739243074",
      "longitude": "-90.01350762822047"
    }
  },
  {
    "service_request": "2024-1128873",
    "request_type": "Trash/Recycling",
    "request_reason": "Request a Large Item Pick Up",
    "date_created": "2024-09-09T15:18:20.000",
    "date_modified": "2024-09-09T15:18:20.000",
    "request_status": "Pending",
    "responsible_agency": "Department of Sanitation",
    "final_address": "6109 Milne Blvd",
    "address_councildis": "A",
    "status": "Assigned to Contractor",
    "contractor": "IV Waste",
    "rowid": "1128873",
    "final_x": "3667181.42113",
    "final_y": "548191.25685",
    "longitude": "-90.11272262866004",
    "latitude": "30.001763007252087",
    "geocoded_column": {
      "latitude": "30.001763007252087",
      "longitude": "-90.11272262866004"
    }
  },
  {
    "service_request": "2024-1128871",
    "request_type": "Drainage",
    "request_reason": "Catch Basin Clogged",
    "date_created": "2024-09-09T15:08:09.000",
    "date_modified": "2024-09-09T15:08:09.000",
    "request_status": "Pending",
    "responsible_agency": "Department of Public Works",
    "final_address": "2720 Annunciation St",
    "address_councildis": "B",
    "status": "Pending",
    "rowid": "1128871",
    "final_x": "3677793.15758",
    "final_y": "519968.04108",
    "longitude": "-90.08017413393189",
    "latitude": "29.923843637004087",
    "geocoded_column": {
      "latitude": "29.923843637004087",
      "longitude": "-90.08017413393189"
    }
  },
  {
    "service_request": "2024-1128870",
    "request_type": "Streetlights",
    "request_reason": "Streetlight Outage/Malfunction",
    "date_created": "2024-09-09T15:06:59.000",
    "date_modified": "2024-09-09T15:07:01.000",
    "request_status": "Pending",
    "responsible_agency": "Department of Public Works",
    "final_address": "2924 Potomac St",
    "address_councildis": "C",
    "status": "Pending",
    "contractor": "Legacy Professional Services",
    "rowid": "1128870",
    "final_x": "3693080.28457",
    "final_y": "519309.561783",
    "longitude": "-90.03194200896561",
    "latitude": "29.9215644741262",
    "geocoded_column": {
      "latitude": "29.9215644741262",
      "longitude": "-90.03194200896561"
    }
  },
  {
    "service_request": "2024-1128869",
    "request_type": "Abandoned Vehicles",
    "request_reason": "Abandoned/Junk Vehicles",
    "date_created": "2024-09-09T15:06:23.000",
    "date_modified": "2024-09-09T15:06:58.000",
    "request_status": "Pending",
    "responsible_agency": "Department of Public Works",
    "final_address": "2108 Magnolia St",
    "address_councildis": "B",
    "status": "Pending",
    "rowid": "1128869",
    "final_x": "3675453.91112",
    "final_y": "526984.805246",
    "longitude": "-90.08731743990084",
    "latitude": "29.94320759065088",
    "geocoded_column": {
      "latitude": "29.94320759065088",
      "longitude": "-90.08731743990084"
    }
  },
  {
    "service_request": "2024-1128868",
    "request_type": "Streetlights",
    "request_reason": "Streetlight Outage/Malfunction",
    "date_created": "2024-09-09T15:05:24.000",
    "date_modified": "2024-09-09T15:05:25.000",
    "request_status": "Pending",
    "responsible_agency": "Department of Public Works",
    "final_address": "2145 Law St",
    "address_councildis": "D",
    "status": "Pending",
    "contractor": "Legacy Professional Services",
    "rowid": "1128868",
    "final_x": "3683921.55701",
    "final_y": "541808.963148",
    "longitude": "-90.06006290838108",
    "latitude": "29.98371301868733",
    "geocoded_column": {
      "latitude": "29.98371301868733",
      "longitude": "-90.06006290838108"
    }
  },
  {
    "service_request": "2024-1128867",
    "request_type": "Trash/Recycling",
    "request_reason": "Request a Large Item Pick Up",
    "date_created": "2024-09-09T15:02:19.000",
    "date_modified": "2024-09-09T15:02:21.000",
    "request_status": "Pending",
    "responsible_agency": "Department of Sanitation",
    "final_address": "1912 Frenchmen St",
    "address_councildis": "D",
    "status": "Assigned to Contractor",
    "contractor": "IV Waste",
    "rowid": "1128867",
    "final_x": "3684312.36297",
    "final_y": "539345.131978",
    "longitude": "-90.0589150901442",
    "latitude": "29.97692640167169",
    "geocoded_column": {
      "latitude": "29.97692640167169",
      "longitude": "-90.0589150901442"
    }
  },
  {
    "service_request": "2024-1128866",
    "request_type": "Trash/Recycling",
    "request_reason": "Request a Large Item Pick Up",
    "date_created": "2024-09-09T15:00:57.000",
    "date_modified": "2024-09-09T15:00:58.000",
    "request_status": "Pending",
    "responsible_agency": "Department of Sanitation",
    "final_address": "4323 Plum Orchard St",
    "address_councildis": "E",
    "status": "Assigned to Contractor",
    "contractor": "Waste Pro",
    "rowid": "1128866",
    "final_x": "3701938.58455",
    "final_y": "552512.397974",
    "longitude": "-90.00276336167086",
    "latitude": "30.01258066387363",
    "geocoded_column": {
      "latitude": "30.01258066387363",
      "longitude": "-90.00276336167086"
    }
  },
  {
    "service_request": "2024-1128865",
    "request_type": "Trash/Recycling",
    "request_reason": "Request a Large Item Pick Up",
    "date_created": "2024-09-09T14:58:10.000",
    "date_modified": "2024-09-09T14:58:11.000",
    "request_status": "Pending",
    "responsible_agency": "Department of Sanitation",
    "final_address": "6822 W Coronet Ct",
    "address_councildis": "E",
    "status": "Assigned to Contractor",
    "contractor": "Waste Pro",
    "rowid": "1128865",
    "final_x": "3702339.25501",
    "final_y": "557381.698459",
    "longitude": "-90.00131863496833",
    "latitude": "30.02595657534957",
    "geocoded_column": {
      "latitude": "30.02595657534957",
      "longitude": "-90.00131863496833"
    }
  },
  {
    "service_request": "2024-1128864",
    "request_type": "Trash/Recycling",
    "request_reason": "Missed Trash Pick-Up",
    "date_created": "2024-09-09T14:57:49.000",
    "date_modified": "2024-09-09T14:57:50.000",
    "request_status": "Pending",
    "responsible_agency": "Department of Sanitation",
    "final_address": "6822 W Coronet Ct",
    "address_councildis": "E",
    "status": "Assigned to Contractor",
    "contractor": "Waste Pro",
    "rowid": "1128864",
    "final_x": "3702339.25501",
    "final_y": "557381.698459",
    "longitude": "-90.00131863496833",
    "latitude": "30.02595657534957",
    "geocoded_column": {
      "latitude": "30.02595657534957",
      "longitude": "-90.00131863496833"
    }
  },
  {
    "service_request": "2024-1128863",
    "request_type": "Trash/Recycling",
    "request_reason": "Request a Large Item Pick Up",
    "date_created": "2024-09-09T14:56:45.000",
    "date_modified": "2024-09-09T14:56:46.000",
    "request_status": "Pending",
    "responsible_agency": "Department of Sanitation",
    "final_address": "8132 Belfast St",
    "address_councildis": "A",
    "status": "Assigned to Contractor",
    "contractor": "IV Waste",
    "rowid": "1128863",
    "final_x": "3665382.86381",
    "final_y": "532501.925316",
    "longitude": "-90.11892978353336",
    "latitude": "29.95867517036736",
    "geocoded_column": {
      "latitude": "29.95867517036736",
      "longitude": "-90.11892978353336"
    }
  },
  {
    "service_request": "2024-1128862",
    "request_type": "Trash/Recycling",
    "request_reason": "Return Trash Cart",
    "date_created": "2024-09-09T14:53:55.000",
    "date_modified": "2024-09-09T14:53:56.000",
    "request_status": "Pending",
    "responsible_agency": "Department of Sanitation",
    "final_address": "2822 Jefferson Ave",
    "address_councildis": "A",
    "status": "Assigned to Contractor",
    "contractor": "IV Waste",
    "rowid": "1128862",
    "final_x": "3668212.37338",
    "final_y": "525843.847869",
    "longitude": "-90.11021932065239",
    "latitude": "29.940284866176665",
    "geocoded_column": {
      "latitude": "29.940284866176665",
      "longitude": "-90.11021932065239"
    }
  },
  {
    "service_request": "2024-1128861",
    "request_type": "Trash/Recycling",
    "request_reason": "Return Recycling Cart",
    "date_created": "2024-09-09T14:53:38.000",
    "date_modified": "2024-09-09T14:53:39.000",
    "request_status": "Pending",
    "responsible_agency": "Department of Sanitation",
    "final_address": "2822 Jefferson Ave",
    "address_councildis": "A",
    "status": "Pending",
    "rowid": "1128861",
    "final_x": "3668212.37338",
    "final_y": "525843.847869",
    "longitude": "-90.11021932065239",
    "latitude": "29.940284866176665",
    "geocoded_column": {
      "latitude": "29.940284866176665",
      "longitude": "-90.11021932065239"
    }
  },
  {
    "service_request": "2024-1128860",
    "request_type": "Abandoned Vehicles",
    "request_reason": "Abandoned/Junk Vehicles",
    "date_created": "2024-09-09T14:52:39.000",
    "date_modified": "2024-09-09T14:52:39.000",
    "request_status": "Pending",
    "responsible_agency": "Department of Public Works",
    "final_address": "2528 S Carrollton Ave",
    "address_councildis": "A",
    "status": "Pending",
    "rowid": "1128860",
    "final_x": "3665292.20448",
    "final_y": "532066.173443",
    "longitude": "-90.11923064302228",
    "latitude": "29.957479636792897",
    "geocoded_column": {
      "latitude": "29.957479636792897",
      "longitude": "-90.11923064302228"
    }
  },
  {
    "service_request": "2024-1128859",
    "request_type": "Trash/Recycling",
    "request_reason": "Request a Large Item Pick Up",
    "date_created": "2024-09-09T14:51:53.000",
    "date_modified": "2024-09-09T14:51:54.000",
    "request_status": "Pending",
    "responsible_agency": "Department of Sanitation",
    "final_address": "4805 Iberville St",
    "address_councildis": "A",
    "status": "Assigned to Contractor",
    "contractor": "IV Waste",
    "rowid": "1128859",
    "final_x": "3669060.10094",
    "final_y": "540501.056075",
    "longitude": "-90.10704766237714",
    "latitude": "29.980562431467295",
    "geocoded_column": {
      "latitude": "29.980562431467295",
      "longitude": "-90.10704766237714"
    }
  },
  {
    "service_request": "2024-1128858",
    "request_type": "Drainage",
    "request_reason": "Catch Basin Clogged",
    "date_created": "2024-09-09T14:51:13.000",
    "date_modified": "2024-09-09T14:51:14.000",
    "request_status": "Pending",
    "responsible_agency": "Department of Public Works",
    "final_address": "5147 Timber Crest Dr",
    "address_councildis": "C",
    "status": "Pending",
    "rowid": "1128858",
    "final_x": "3703277.87614",
    "final_y": "511141.554416",
    "longitude": "-90.00005287571756",
    "latitude": "29.898782837428335",
    "geocoded_column": {
      "latitude": "29.898782837428335",
      "longitude": "-90.00005287571756"
    }
  },
  {
    "service_request": "2024-1128857",
    "request_type": "Trash/Recycling",
    "request_reason": "Illegal Dumping",
    "date_created": "2024-09-09T14:50:16.000",
    "date_modified": "2024-09-09T14:50:16.000",
    "request_status": "Pending",
    "responsible_agency": "Department of Sanitation",
    "final_address": "7000 BLK Canal Blvd",
    "address_councildis": "A",
    "status": "Pending",
    "rowid": "1128857",
    "final_x": "3669075.05814",
    "final_y": "554478.1428",
    "longitude": "-90.10652777013544",
    "latitude": "30.018994134168437",
    "geocoded_column": {
      "latitude": "30.018994134168437",
      "longitude": "-90.10652777013544"
    }
  },
  {
    "service_request": "2024-1128856",
    "request_type": "Trash/Recycling",
    "request_reason": "Repair Trash Cart",
    "date_created": "2024-09-09T14:48:41.000",
    "date_modified": "2024-09-09T14:48:42.000",
    "request_status": "Pending",
    "responsible_agency": "Department of Sanitation",
    "final_address": "2523 Governor Nicholls St",
    "address_councildis": "D",
    "status": "Assigned to Contractor",
    "contractor": "IV Waste",
    "rowid": "1128856",
    "final_x": "3678519.39803",
    "final_y": "537952.406985",
    "longitude": "-90.07725933870195",
    "latitude": "29.97327277621095",
    "geocoded_column": {
      "latitude": "29.97327277621095",
      "longitude": "-90.07725933870195"
    }
  },
  {
    "service_request": "2024-1128855",
    "request_type": "Trash/Recycling",
    "request_reason": "Repair Trash Cart",
    "date_created": "2024-09-09T14:48:34.000",
    "date_modified": "2024-09-09T14:48:35.000",
    "request_status": "Pending",
    "responsible_agency": "Department of Sanitation",
    "final_address": "6001 Congress Dr",
    "address_councildis": "D",
    "status": "Assigned to Contractor",
    "contractor": "IV Waste",
    "rowid": "1128855",
    "final_x": "3690972.9512",
    "final_y": "555938.975129",
    "longitude": "-90.0372861232108",
    "latitude": "30.022348040546486",
    "geocoded_column": {
      "latitude": "30.022348040546486",
      "longitude": "-90.0372861232108"
    }
  },
  {
    "service_request": "2024-1128854",
    "request_type": "Abandoned Vehicles",
    "request_reason": "Abandoned/Junk Vehicles",
    "date_created": "2024-09-09T14:47:50.000",
    "date_modified": "2024-09-09T14:47:50.000",
    "request_status": "Pending",
    "responsible_agency": "Department of Public Works",
    "final_address": "2526 S Carrollton Ave",
    "address_councildis": "A",
    "status": "Pending",
    "rowid": "1128854",
    "final_x": "3665233.64775",
    "final_y": "532052.592451",
    "longitude": "-90.11941600286009",
    "latitude": "29.95744399940446",
    "geocoded_column": {
      "latitude": "29.95744399940446",
      "longitude": "-90.11941600286009"
    }
  },
  {
    "service_request": "2024-1128853",
    "request_type": "Roads and Streets",
    "request_reason": "Push-up/Pavement Expansion",
    "date_created": "2024-09-09T14:46:50.000",
    "date_modified": "2024-09-09T14:46:51.000",
    "request_status": "Pending",
    "responsible_agency": "Department of Public Works",
    "final_address": "7700 Trapier Ave",
    "address_councildis": "E",
    "status": "Pending",
    "rowid": "1128853",
    "final_x": "3706417.37239",
    "final_y": "563705.031201",
    "longitude": "-89.98819785936722",
    "latitude": "30.04321226920568",
    "geocoded_column": {
      "latitude": "30.04321226920568",
      "longitude": "-89.98819785936722"
    }
  },
  {
    "service_request": "2024-1128852",
    "request_type": "Streetlights",
    "request_reason": "Streetlight Outage/Malfunction",
    "date_created": "2024-09-09T14:44:34.000",
    "date_modified": "2024-09-09T14:44:35.000",
    "request_status": "Pending",
    "responsible_agency": "Department of Public Works",
    "final_address": "4412 S Tonti St",
    "address_councildis": "B",
    "status": "Pending",
    "contractor": "Legacy Professional Services",
    "rowid": "1128852",
    "final_x": "3669932.36398",
    "final_y": "528084.450239",
    "longitude": "-90.10471317245715",
    "latitude": "29.9463951990462",
    "geocoded_column": {
      "latitude": "29.9463951990462",
      "longitude": "-90.10471317245715"
    }
  },
  {
    "service_request": "2024-1128851",
    "request_type": "Drainage",
    "request_reason": "Catch Basin Clogged",
    "date_created": "2024-09-09T14:43:49.000",
    "date_modified": "2024-09-09T14:43:49.000",
    "request_status": "Pending",
    "responsible_agency": "Department of Public Works",
    "final_address": "2716 St Ann St",
    "address_councildis": "A",
    "status": "Pending",
    "rowid": "1128851",
    "final_x": "3676748.19893",
    "final_y": "537304.921608",
    "longitude": "-90.08287546419793",
    "latitude": "29.971545680984985",
    "geocoded_column": {
      "latitude": "29.971545680984985",
      "longitude": "-90.08287546419793"
    }
  },
  {
    "service_request": "2024-1128850",
    "request_type": "Trash/Recycling",
    "request_reason": "Repair Trash Cart",
    "date_created": "2024-09-09T14:39:48.000",
    "date_modified": "2024-09-09T14:39:49.000",
    "request_status": "Pending",
    "responsible_agency": "Department of Sanitation",
    "final_address": "1227 Elmira Ave",
    "address_councildis": "C",
    "status": "Assigned to Contractor",
    "contractor": "Richards Disposal",
    "rowid": "1128850",
    "final_x": "3688041.03324",
    "final_y": "526940.914686",
    "longitude": "-90.04757839574975",
    "latitude": "29.94270454249436",
    "geocoded_column": {
      "latitude": "29.94270454249436",
      "longitude": "-90.04757839574975"
    }
  },
  {
    "service_request": "2024-1128849",
    "request_type": "Trash/Recycling",
    "request_reason": "Illegal Dumping",
    "date_created": "2024-09-09T14:38:03.000",
    "date_modified": "2024-09-09T15:01:10.000",
    "request_status": "Pending",
    "responsible_agency": "Department of Sanitation",
    "final_address": "600 BLK Clouet St",
    "address_councildis": "C",
    "rowid": "1128849",
    "final_x": "3688582.73402",
    "final_y": "534327.953113",
    "longitude": "-90.04560601812058",
    "latitude": "29.962999631732707",
    "geocoded_column": {
      "latitude": "29.962999631732707",
      "longitude": "-90.04560601812058"
    }
  },
  {
    "service_request": "2024-1128848",
    "request_type": "Trash/Recycling",
    "request_reason": "Repair Recycling Cart",
    "date_created": "2024-09-09T14:37:19.000",
    "date_modified": "2024-09-09T14:37:20.000",
    "request_status": "Pending",
    "responsible_agency": "Department of Sanitation",
    "final_address": "1325 N Rendon St",
    "address_councildis": "A",
    "status": "Pending",
    "rowid": "1128848",
    "final_x": "3676103.40373",
    "final_y": "540204.905931",
    "longitude": "-90.08481203164864",
    "latitude": "29.979538977423253",
    "geocoded_column": {
      "latitude": "29.979538977423253",
      "longitude": "-90.08481203164864"
    }
  },
  {
    "service_request": "2024-1128847",
    "request_type": "Trash/Recycling",
    "request_reason": "Repair Trash Cart",
    "date_created": "2024-09-09T14:37:17.000",
    "date_modified": "2024-09-09T14:37:18.000",
    "request_status": "Pending",
    "responsible_agency": "Department of Sanitation",
    "final_address": "3701 Rue Michelle",
    "address_councildis": "C",
    "status": "Assigned to Contractor",
    "contractor": "Richards Disposal",
    "rowid": "1128847",
    "final_x": "3703529.13303",
    "final_y": "516950.810805",
    "longitude": "-89.99904647202453",
    "latitude": "29.914748274112917",
    "geocoded_column": {
      "latitude": "29.914748274112917",
      "longitude": "-89.99904647202453"
    }
  },
  {
    "service_request": "2024-1128846",
    "request_type": "Trash/Recycling",
    "request_reason": "Order Trash Cart",
    "date_created": "2024-09-09T14:34:35.000",
    "date_modified": "2024-09-09T14:34:36.000",
    "request_status": "Pending",
    "responsible_agency": "Department of Sanitation",
    "final_address": "117 Chalfant Pl",
    "address_councildis": "D",
    "status": "Assigned to Contractor",
    "contractor": "IV Waste",
    "rowid": "1128846",
    "final_x": "3677782.81557",
    "final_y": "544544.547407",
    "longitude": "-90.07935777546034",
    "latitude": "29.99142105895442",
    "geocoded_column": {
      "latitude": "29.99142105895442",
      "longitude": "-90.07935777546034"
    }
  },
  {
    "service_request": "2024-1128845",
    "request_type": "Drainage",
    "request_reason": "Catch Basin Clogged",
    "date_created": "2024-09-09T14:31:48.000",
    "date_modified": "2024-09-09T14:31:49.000",
    "request_status": "Pending",
    "responsible_agency": "Department of Public Works",
    "final_address": "LAW ST & ALLEN ST",
    "address_councildis": "D",
    "status": "Pending",
    "rowid": "1128845",
    "final_x": "3682331.5",
    "final_y": "541648.08",
    "longitude": "-90.06509077549656",
    "latitude": "29.983319133928436",
    "geocoded_column": {
      "latitude": "29.983319133928436",
      "longitude": "-90.06509077549656"
    }
  },
  {
    "service_request": "2024-1128844",
    "request_type": "Trash/Recycling",
    "request_reason": "Request a Large Item Pick Up",
    "date_created": "2024-09-09T14:31:45.000",
    "date_modified": "2024-09-09T14:31:46.000",
    "request_status": "Pending",
    "responsible_agency": "Department of Sanitation",
    "final_address": "6301 Bertha Dr",
    "address_councildis": "D",
    "status": "Assigned to Contractor",
    "contractor": "IV Waste",
    "rowid": "1128844",
    "final_x": "3678456.48501",
    "final_y": "556237.006554",
    "longitude": "-90.07682479312035",
    "latitude": "30.02355085112004",
    "geocoded_column": {
      "latitude": "30.02355085112004",
      "longitude": "-90.07682479312035"
    }
  },
  {
    "service_request": "2024-1128843",
    "request_type": "Trash/Recycling",
    "request_reason": "Illegal Dumping",
    "date_created": "2024-09-09T14:28:32.000",
    "date_modified": "2024-09-09T14:28:33.000",
    "request_status": "Pending",
    "responsible_agency": "Department of Sanitation",
    "final_address": "4827 Evangeline Dr",
    "address_councildis": "E",
    "status": "Pending",
    "rowid": "1128843",
    "final_x": "3709121.46885",
    "final_y": "556294.380378",
    "longitude": "-89.9799284973336",
    "latitude": "30.02274834684033",
    "geocoded_column": {
      "latitude": "30.02274834684033",
      "longitude": "-89.9799284973336"
    }
  },
  {
    "service_request": "2024-1128842",
    "request_type": "Trash/Recycling",
    "request_reason": "Order Recycling Cart",
    "date_created": "2024-09-09T14:28:21.000",
    "date_modified": "2024-09-09T14:28:22.000",
    "request_status": "Pending",
    "responsible_agency": "Department of Sanitation",
    "final_address": "2617 Aubry St",
    "address_councildis": "D",
    "status": "Pending",
    "rowid": "1128842",
    "final_x": "3679645.86184",
    "final_y": "541170.904652",
    "longitude": "-90.0735899874945",
    "latitude": "29.982088528679654",
    "geocoded_column": {
      "latitude": "29.982088528679654",
      "longitude": "-90.0735899874945"
    }
  },
  {
    "service_request": "2024-1128841",
    "request_type": "Trash/Recycling",
    "request_reason": "Replace Trash Cart",
    "date_created": "2024-09-09T14:27:44.000",
    "date_modified": "2024-09-09T14:27:45.000",
    "request_status": "Pending",
    "responsible_agency": "Department of Sanitation",
    "final_address": "2617 Aubry St",
    "address_councildis": "D",
    "status": "Assigned to Contractor",
    "contractor": "IV Waste",
    "rowid": "1128841",
    "final_x": "3679645.86184",
    "final_y": "541170.904652",
    "longitude": "-90.0735899874945",
    "latitude": "29.982088528679654",
    "geocoded_column": {
      "latitude": "29.982088528679654",
      "longitude": "-90.0735899874945"
    }
  },
  {
    "service_request": "2024-1128840",
    "request_type": "Drainage",
    "request_reason": "Catch Basin Clogged",
    "date_created": "2024-09-09T14:24:22.000",
    "date_modified": "2024-09-09T14:24:23.000",
    "request_status": "Pending",
    "responsible_agency": "Department of Public Works",
    "final_address": "2535 Allen St",
    "address_councildis": "D",
    "status": "Pending",
    "rowid": "1128840",
    "final_x": "3682377.06396",
    "final_y": "541575.884108",
    "longitude": "-90.0649493851264",
    "latitude": "29.98311923378746",
    "geocoded_column": {
      "latitude": "29.98311923378746",
      "longitude": "-90.0649493851264"
    }
  },
  {
    "service_request": "2024-1128839",
    "request_type": "Trash/Recycling",
    "request_reason": "Request a Large Item Pick Up",
    "date_created": "2024-09-09T14:16:47.000",
    "date_modified": "2024-09-09T14:16:48.000",
    "request_status": "Pending",
    "responsible_agency": "Department of Sanitation",
    "final_address": "2939 Palmyra St",
    "address_councildis": "B",
    "status": "Assigned to Contractor",
    "contractor": "IV Waste",
    "rowid": "1128839",
    "final_x": "3673951.77256",
    "final_y": "535267.125446",
    "longitude": "-90.09177673865776",
    "latitude": "29.96602604655955",
    "geocoded_column": {
      "latitude": "29.96602604655955",
      "longitude": "-90.09177673865776"
    }
  },
  {
    "service_request": "2024-1128838",
    "request_type": "Drainage",
    "request_reason": "Catch Basin Clogged",
    "date_created": "2024-09-09T14:15:29.000",
    "date_modified": "2024-09-09T14:17:57.000",
    "case_close_date": "2024-09-09T09:17:57.000",
    "request_status": "Closed",
    "responsible_agency": "Department of Public Works",
    "final_address": "2400 BLK Napoleon Ave",
    "address_councildis": "B",
    "status": "Resolved",
    "rowid": "1128838",
    "final_x": "3670511.63893",
    "final_y": "523864.280799",
    "longitude": "-90.10302726068878",
    "latitude": "29.93477401053035",
    "geocoded_column": {
      "latitude": "29.93477401053035",
      "longitude": "-90.10302726068878"
    }
  },
  {
    "service_request": "2024-1128837",
    "request_type": "Drainage",
    "request_reason": "Catch Basin Clogged",
    "date_created": "2024-09-09T14:14:12.000",
    "date_modified": "2024-09-09T14:14:35.000",
    "case_close_date": "2024-09-09T09:14:35.000",
    "request_status": "Closed",
    "responsible_agency": "Department of Public Works",
    "final_address": "5630 Crowder Blvd",
    "address_councildis": "E",
    "status": "Resolved",
    "rowid": "1128837",
    "final_x": "3705269.07953",
    "final_y": "557649.728731",
    "longitude": "-89.99205092910366",
    "latitude": "30.026599580575592",
    "geocoded_column": {
      "latitude": "30.026599580575592",
      "longitude": "-89.99205092910366"
    }
  },
  {
    "service_request": "2024-1128836",
    "request_type": "Property Maintenance",
    "request_reason": "Property Maintenance",
    "date_created": "2024-09-09T14:14:07.000",
    "date_modified": "2024-09-09T14:14:07.000",
    "request_status": "Pending",
    "responsible_agency": "Department of Code Enforcement",
    "final_address": "8532 Cohn St",
    "address_councildis": "A",
    "status": "Pending",
    "rowid": "1128836",
    "final_x": "3662337.62541",
    "final_y": "531297.698498",
    "longitude": "-90.12858588560752",
    "latitude": "29.955452329710724",
    "geocoded_column": {
      "latitude": "29.955452329710724",
      "longitude": "-90.12858588560752"
    }
  },
  {
    "service_request": "2024-1128835",
    "request_type": "Trash/Recycling",
    "request_reason": "Request a Large Item Pick Up",
    "date_created": "2024-09-09T14:13:27.000",
    "date_modified": "2024-09-09T14:13:27.000",
    "request_status": "Pending",
    "responsible_agency": "Department of Sanitation",
    "final_address": "6620 Louis Xiv St",
    "address_councildis": "A",
    "status": "Assigned to Contractor",
    "contractor": "IV Waste",
    "rowid": "1128835",
    "final_x": "3668400.53697",
    "final_y": "551610.077525",
    "longitude": "-90.1087558760874",
    "latitude": "30.01112780616014",
    "geocoded_column": {
      "latitude": "30.01112780616014",
      "longitude": "-90.1087558760874"
    }
  },
  {
    "service_request": "2024-1128834",
    "request_type": "Drainage",
    "request_reason": "Catch Basin Clogged",
    "date_created": "2024-09-09T14:12:31.000",
    "date_modified": "2024-09-09T14:13:23.000",
    "case_close_date": "2024-09-09T09:13:23.000",
    "request_status": "Closed",
    "responsible_agency": "Department of Public Works",
    "final_address": "7152 Crowder Blvd",
    "address_councildis": "E",
    "status": "Resolved",
    "rowid": "1128834",
    "final_x": "3704034.15236",
    "final_y": "560099.054237",
    "longitude": "-89.99586279495838",
    "latitude": "30.03337396177104",
    "geocoded_column": {
      "latitude": "30.03337396177104",
      "longitude": "-89.99586279495838"
    }
  },
  {
    "service_request": "2024-1128833",
    "request_type": "Trash/Recycling",
    "request_reason": "Illegal Dumping",
    "date_created": "2024-09-09T14:11:48.000",
    "date_modified": "2024-09-09T14:11:49.000",
    "request_status": "Pending",
    "responsible_agency": "Department of Sanitation",
    "final_address": "DUMAINE ST & WILSON DR",
    "address_councildis": "A",
    "status": "Pending",
    "rowid": "1128833",
    "final_x": "3674091.0",
    "final_y": "539858.58",
    "longitude": "-90.09117987685747",
    "latitude": "29.978646838909015",
    "geocoded_column": {
      "latitude": "29.978646838909015",
      "longitude": "-90.09117987685747"
    }
  },
  {
    "service_request": "2024-1128832",
    "request_type": "Trash/Recycling",
    "request_reason": "Return Trash Cart",
    "date_created": "2024-09-09T14:11:23.000",
    "date_modified": "2024-09-09T14:11:24.000",
    "request_status": "Pending",
    "responsible_agency": "Department of Sanitation",
    "final_address": "6318 Ransom St",
    "address_councildis": "D",
    "status": "Assigned to Contractor",
    "contractor": "Waste Pro",
    "rowid": "1128832",
    "final_x": "3698194.62474",
    "final_y": "552870.312855",
    "longitude": "-90.01457912068713",
    "latitude": "30.013683805289574",
    "geocoded_column": {
      "latitude": "30.013683805289574",
      "longitude": "-90.01457912068713"
    }
  },