[
  {
    "service_request": "2024-1105563",
    "request_type": "Roads/Drainage",
    "request_reason": "Pothole",
    "date_created": "2024-06-20T23:54:38.000",
    "date_modified": "2024-06-20T23:54:38.000",
    "request_status": "Pending",
    "responsible_agency": "Department of Public Works",
    "final_address": "900 BLK General Pershing St",
    "address_councildis": "B",
    "status": "Pending",
    "rowid": "1105563",
    "final_x": "3671434.25257",
    "final_y": "519008.473254",
    "longitude": "-90.10027954212089",
    "latitude": "29.921394825297973",
    "geocoded_column": {
      "latitude": "29.921394825297973",
      "longitude": "-90.10027954212089"
    }
  },
  {
    "service_request": "2024-1105562",
    "request_type": "Roads/Drainage",
    "request_reason": "Pothole",
    "date_created": "2024-06-20T23:18:27.000",
    "date_modified": "2024-06-20T23:18:27.000",
    "request_status": "Pending",
    "responsible_agency": "Department of Public Works",
    "final_address": "3407 Camp St",
    "address_councildis": "B",
    "status": "Pending",
    "rowid": "1105562",
    "final_x": "3674761.46542",
    "final_y": "519965.724792",
    "longitude": "-90.08974418292789",
    "latitude": "29.923928089137455",
    "geocoded_column": {
      "latitude": "29.923928089137455",
      "longitude": "-90.08974418292789"
    }
  },
  {
    "service_request": "2024-1105561",
    "request_type": "Trash/Recycling",
    "request_reason": "Request a Large Item Pick Up",
    "date_created": "2024-06-20T22:19:01.000",
    "date_modified": "2024-06-20T22:19:02.000",
    "request_status": "Pending",
    "responsible_agency": "Department of Sanitation",
    "final_address": "212 Nashville Ave",
    "address_councildis": "A",
    "status": "Assigned to Contractor",
    "contractor": "IV Waste",
    "rowid": "1105561",
    "final_x": "3665034.3401",
    "final_y": "517048.915061",
    "longitude": "-90.12054681190509",
    "latitude": "29.91619447175899",
    "geocoded_column": {
      "latitude": "29.91619447175899",
      "longitude": "-90.12054681190509"
    }
  },
  {
    "service_request": "2024-1105560",
    "request_type": "Roads/Drainage",
    "request_reason": "Pothole",
    "date_created": "2024-06-20T21:57:13.000",
    "date_modified": "2024-06-20T21:57:13.000",
    "request_status": "Pending",
    "responsible_agency": "Department of Public Works",
    "final_address": "827 Nashville Ave",
    "address_councildis": "A",
    "status": "Pending",
    "rowid": "1105560",
    "final_x": "3665627.01946",
    "final_y": "519205.746423",
    "longitude": "-90.11860390192565",
    "latitude": "29.92210782133062",
    "geocoded_column": {
      "latitude": "29.92210782133062",
      "longitude": "-90.11860390192565"
    }
  },
  {
    "service_request": "2024-1105559",
    "request_type": "Roads/Drainage",
    "request_reason": "Pothole",
    "date_created": "2024-06-20T21:56:01.000",
    "date_modified": "2024-06-20T21:56:01.000",
    "request_status": "Pending",
    "responsible_agency": "Department of Public Works",
    "final_address": "6003 Chestnut St",
    "address_councildis": "A",
    "status": "Pending",
    "rowid": "1105559",
    "final_x": "3664843.83136",
    "final_y": "519920.84268",
    "longitude": "-90.12105222985214",
    "latitude": "29.924096918512866",
    "geocoded_column": {
      "latitude": "29.924096918512866",
      "longitude": "-90.12105222985214"
    }
  },
  {
    "service_request": "2024-1105558",
    "request_type": "Roads/Drainage",
    "request_reason": "Pothole",
    "date_created": "2024-06-20T21:54:22.000",
    "date_modified": "2024-06-20T21:54:22.000",
    "request_status": "Pending",
    "responsible_agency": "Department of Public Works",
    "final_address": "5923 Pitt St",
    "address_councildis": "A",
    "status": "Pending",
    "rowid": "1105558",
    "final_x": "3665490.05639",
    "final_y": "521140.942649",
    "longitude": "-90.11897149996602",
    "latitude": "29.92743299392239",
    "geocoded_column": {
      "latitude": "29.92743299392239",
      "longitude": "-90.11897149996602"
    }
  },
  {
    "service_request": "2024-1105557",
    "request_type": "Utility Poles",
    "request_reason": "Utility Pole Leaning",
    "date_created": "2024-06-20T21:48:53.000",
    "date_modified": "2024-06-20T21:48:58.000",
    "request_status": "Pending",
    "responsible_agency": "Utility Company Collective",
    "final_address": "220 Eliza St",
    "address_councildis": "C",
    "status": "Pending",
    "rowid": "1105557",
    "final_x": "3686159.50242",
    "final_y": "529348.710017",
    "longitude": "-90.05343390476055",
    "latitude": "29.94938308134444",
    "geocoded_column": {
      "latitude": "29.94938308134444",
      "longitude": "-90.05343390476055"
    }
  },
  {
    "service_request": "2024-1105556",
    "request_type": "Healthy Homes",
    "request_reason": "Healthy Homes",
    "date_created": "2024-06-20T21:41:57.000",
    "date_modified": "2024-06-20T21:41:57.000",
    "request_status": "Pending",
    "responsible_agency": "Department of Code Enforcement",
    "final_address": "10151 Curran Rd Apt 178",
    "address_councildis": "E",
    "status": "Pending",
    "rowid": "1105556",
    "final_x": "3708673.13444",
    "final_y": "565618.594658",
    "longitude": "-89.98099739982545",
    "latitude": "30.048400796308197",
    "geocoded_column": {
      "latitude": "30.048400796308197",
      "longitude": "-89.98099739982545"
    }
  },
  {
    "service_request": "2024-1105554",
    "request_type": "Abandoned Vehicles",
    "request_reason": "Abandoned/Junk Vehicles",
    "date_created": "2024-06-20T21:28:26.000",
    "date_modified": "2024-06-20T21:28:26.000",
    "request_status": "Pending",
    "responsible_agency": "Department of Public Works",
    "final_address": "437 S Bernadotte St",
    "address_councildis": "A",
    "status": "Pending",
    "rowid": "1105554",
    "final_x": "3667858.47841",
    "final_y": "538861.818185",
    "longitude": "-90.11089815498302",
    "latitude": "29.97609038483502",
    "geocoded_column": {
      "latitude": "29.97609038483502",
      "longitude": "-90.11089815498302"
    }
  },
  {
    "service_request": "2024-1105553",
    "request_type": "Trash/Recycling",
    "request_reason": "Missed Trash Pick-Up",
    "date_created": "2024-06-20T21:15:33.000",
    "date_modified": "2024-06-20T21:15:34.000",
    "request_status": "Pending",
    "responsible_agency": "Department of Sanitation",
    "final_address": "2011 Washington Ave",
    "address_councildis": "B",
    "status": "Assigned to Contractor",
    "contractor": "IV Waste",
    "rowid": "1105553",
    "final_x": "3675097.84846",
    "final_y": "523850.157627",
    "longitude": "-90.08854913526439",
    "latitude": "29.93459897807159",
    "geocoded_column": {
      "latitude": "29.93459897807159",
      "longitude": "-90.08854913526439"
    }
  },
  {
    "service_request": "2024-1105552",
    "request_type": "Traffic Signals/Signs/Striping/Streetlights",
    "request_reason": "Street Light Outage/Malfunction",
    "date_created": "2024-06-20T21:07:06.000",
    "date_modified": "2024-06-20T21:07:07.000",
    "request_status": "Pending",
    "responsible_agency": "Department of Public Works",
    "final_address": "2227 Lapeyrouse St",
    "address_councildis": "D",
    "status": "Assigned to Contractor",
    "contractor": "Legacy Professional Services",
    "rowid": "1105552",
    "final_x": "3680317.17935",
    "final_y": "539253.325706",
    "longitude": "-90.07153633977786",
    "latitude": "29.976795542060273",
    "geocoded_column": {
      "latitude": "29.976795542060273",
      "longitude": "-90.07153633977786"
    }
  },
  {
    "service_request": "2024-1105551",
    "request_type": "Trash/Recycling",
    "request_reason": "Request a Large Item Pick Up",
    "date_created": "2024-06-20T21:06:01.000",
    "date_modified": "2024-06-20T21:06:02.000",
    "request_status": "Pending",
    "responsible_agency": "Department of Sanitation",
    "final_address": "4246 Vincennes Pl",
    "address_councildis": "B",
    "status": "Assigned to Contractor",
    "contractor": "IV Waste",
    "rowid": "1105551",
    "final_x": "3668809.15982",
    "final_y": "531665.993347",
    "longitude": "-90.10813862086026",
    "latitude": "29.956276339040272",
    "geocoded_column": {
      "latitude": "29.956276339040272",
      "longitude": "-90.10813862086026"
    }
  },
  {
    "service_request": "2024-1105550",
    "request_type": "Property Maintenance",
    "request_reason": "Property Maintenance",
    "date_created": "2024-06-20T21:02:13.000",
    "date_modified": "2024-06-20T21:02:13.000",
    "request_status": "Pending",
    "responsible_agency": "Department of Code Enforcement",
    "final_address": "3501 Roger Williams St",
    "address_councildis": "D",
    "status": "Pending",
    "rowid": "1105550",
    "final_x": "3676260.90261",
    "final_y": "544065.355086",
    "longitude": "-90.08418166481174",
    "latitude": "29.990149155891068",
    "geocoded_column": {
      "latitude": "29.990149155891068",
      "longitude": "-90.08418166481174"
    }
  },
  {
    "service_request": "2024-1105549",
    "request_type": "Roads/Drainage",
    "request_reason": "WaterMain Break",
    "date_created": "2024-06-20T20:39:39.000",
    "date_modified": "2024-06-20T21:04:58.000",
    "request_status": "Pending",
    "responsible_agency": "Department of Public Works",
    "final_address": "New Orleans,LA",
    "address_councildis": "D",
    "status": "Pending",
    "rowid": "1105549",
    "final_x": "3696133.86979",
    "final_y": "553374.245143",
    "longitude": "-90.02107177092893",
    "latitude": "30.01513448282876",
    "geocoded_column": {
      "latitude": "30.01513448282876",
      "longitude": "-90.02107177092893"
    }
  },
  {
    "service_request": "2024-1105548",
    "request_type": "Trash/Recycling",
    "request_reason": "Repair Trash Cart",
    "date_created": "2024-06-20T20:37:55.000",
    "date_modified": "2024-06-20T20:37:55.000",
    "request_status": "Pending",
    "responsible_agency": "Department of Sanitation",
    "final_address": "5214 Constance St",
    "address_councildis": "B",
    "status": "Assigned to Contractor",
    "contractor": "IV Waste",
    "rowid": "1105548",
    "final_x": "3667896.29991",
    "final_y": "518192.354422",
    "longitude": "-90.11147481459228",
    "latitude": "29.919254968227357",
    "geocoded_column": {
      "latitude": "29.919254968227357",
      "longitude": "-90.11147481459228"
    }
  },
  {
    "service_request": "2024-1105547",
    "request_type": "Roads/Drainage",
    "request_reason": "WaterMain Break",
    "date_created": "2024-06-20T20:32:39.000",
    "date_modified": "2024-06-20T20:57:11.000",
    "request_status": "Pending",
    "responsible_agency": "Department of Public Works",
    "final_address": "4501 Downman Rd, New Orleans, Louisiana, 70126",
    "address_councildis": "D",
    "status": "Pending",
    "rowid": "1105547",
    "final_x": "3696133.86979",
    "final_y": "553374.245143",
    "longitude": "-90.02107177092893",
    "latitude": "30.01513448282876",
    "geocoded_column": {
      "latitude": "30.01513448282876",
      "longitude": "-90.02107177092893"
    }
  },
  {
    "service_request": "2024-1105546",
    "request_type": "Trash/Recycling",
    "request_reason": "Request a Large Item Pick Up",
    "date_created": "2024-06-20T20:20:42.000",
    "date_modified": "2024-06-20T20:20:43.000",
    "request_status": "Pending",
    "responsible_agency": "Department of Sanitation",
    "final_address": "1301 Chartres St, New Orleans, Louisiana, 70116",
    "address_councildis": "C",
    "status": "Assigned to Contractor",
    "contractor": "Empire Services",
    "rowid": "1105546",
    "final_x": "3684144.08591",
    "final_y": "534019.575493",
    "longitude": "-90.05963352825471",
    "latitude": "29.96228811342682",
    "geocoded_column": {
      "latitude": "29.96228811342682",
      "longitude": "-90.05963352825471"
    }
  },
  {
    "service_request": "2024-1105545",
    "request_type": "Trash/Recycling",
    "request_reason": "Return Trash Cart",
    "date_created": "2024-06-20T20:07:46.000",
    "date_modified": "2024-06-20T20:07:49.000",
    "request_status": "Pending",
    "responsible_agency": "Department of Sanitation",
    "final_address": "1114 Bordeaux St",
    "address_councildis": "B",
    "status": "Assigned to Contractor",
    "contractor": "IV Waste",
    "rowid": "1105545",
    "final_x": "3669458.60385",
    "final_y": "519504.743927",
    "longitude": "-90.10649904413462",
    "latitude": "29.922817723308707",
    "geocoded_column": {
      "latitude": "29.922817723308707",
      "longitude": "-90.10649904413462"
    }
  },
  {
    "service_request": "2024-1105544",
    "request_type": "Trash/Recycling",
    "request_reason": "Order Recycling Cart",
    "date_created": "2024-06-20T20:04:41.000",
    "date_modified": "2024-06-20T20:04:41.000",
    "request_status": "Pending",
    "responsible_agency": "Department of Sanitation",
    "final_address": "1114 Bordeaux St",
    "address_councildis": "B",
    "status": "Pending",
    "rowid": "1105544",
    "final_x": "3669458.60385",
    "final_y": "519504.743927",
    "longitude": "-90.10649904413462",
    "latitude": "29.922817723308707",
    "geocoded_column": {
      "latitude": "29.922817723308707",
      "longitude": "-90.10649904413462"
    }
  },
  {
    "service_request": "2024-1105543",
    "request_type": "Parks & Parkways",
    "request_reason": "Request Tree Service (Right of Way/Public Property)",
    "date_created": "2024-06-20T19:52:45.000",
    "date_modified": "2024-06-20T19:52:45.000",
    "request_status": "Pending",
    "responsible_agency": "Department of Parks & Parkway",
    "final_address": "3800 BLK Dryades St",
    "address_councildis": "B",
    "status": "Pending",
    "rowid": "1105543",
    "final_x": "3672506.24747",
    "final_y": "522134.007685",
    "longitude": "-90.09678924850023",
    "latitude": "29.92995727951538",
    "geocoded_column": {
      "latitude": "29.92995727951538",
      "longitude": "-90.09678924850023"
    }
  },
  {
    "service_request": "2024-1105542",
    "request_type": "Abandoned Vehicles",
    "request_reason": "Abandoned/Junk Vehicles",
    "date_created": "2024-06-20T19:50:23.000",
    "date_modified": "2024-06-20T19:50:23.000",
    "request_status": "Pending",
    "responsible_agency": "Department of Public Works",
    "final_address": "2112 Marais St",
    "address_councildis": "C",
    "status": "Pending",
    "rowid": "1105542",
    "final_x": "3684693.59977",
    "final_y": "536609.637639",
    "longitude": "-90.05780719882162",
    "latitude": "29.96939308152586",
    "geocoded_column": {
      "latitude": "29.96939308152586",
      "longitude": "-90.05780719882162"
    }
  },
  {
    "service_request": "2024-1105541",
    "request_type": "Trash/Recycling",
    "request_reason": "Repair Trash Cart",
    "date_created": "2024-06-20T19:45:18.000",
    "date_modified": "2024-06-20T19:45:19.000",
    "request_status": "Pending",
    "responsible_agency": "Department of Sanitation",
    "final_address": "2519 General Pershing St",
    "address_councildis": "B",
    "status": "Assigned to Contractor",
    "contractor": "IV Waste",
    "rowid": "1105541",
    "final_x": "3670961.8331",
    "final_y": "524280.44838",
    "longitude": "-90.10159187791244",
    "latitude": "29.935905037976166",
    "geocoded_column": {
      "latitude": "29.935905037976166",
      "longitude": "-90.10159187791244"
    }
  },
  {
    "service_request": "2024-1105540",
    "request_type": "Trash/Recycling",
    "request_reason": "Replace Recycling Cart",
    "date_created": "2024-06-20T19:45:07.000",
    "date_modified": "2024-06-20T19:45:07.000",
    "request_status": "Pending",
    "responsible_agency": "Department of Sanitation",
    "final_address": "1542 Riviera Ave",
    "address_councildis": "D",
    "status": "Pending",
    "rowid": "1105540",
    "final_x": "3679027.85167",
    "final_y": "550873.434069",
    "longitude": "-90.07520547762448",
    "latitude": "30.00878572721095",
    "geocoded_column": {
      "latitude": "30.00878572721095",
      "longitude": "-90.07520547762448"
    }
  },
  {
    "service_request": "2024-1105539",
    "request_type": "Abandoned Vehicles",
    "request_reason": "Abandoned/Junk Vehicles",
    "date_created": "2024-06-20T19:38:49.000",
    "date_modified": "2024-06-20T19:38:49.000",
    "request_status": "Pending",
    "responsible_agency": "Department of Public Works",
    "final_address": "2426 Eagle St",
    "address_councildis": "A",
    "status": "Pending",
    "rowid": "1105539",
    "final_x": "3663195.53914",
    "final_y": "533465.534532",
    "longitude": "-90.12580475353431",
    "latitude": "29.961388343353967",
    "geocoded_column": {
      "latitude": "29.961388343353967",
      "longitude": "-90.12580475353431"
    }
  },
  {
    "service_request": "2024-1105538",
    "request_type": "Trash/Recycling",
    "request_reason": "Replace Trash Cart",
    "date_created": "2024-06-20T19:35:31.000",
    "date_modified": "2024-06-20T19:35:31.000",
    "request_status": "Pending",
    "responsible_agency": "Department of Sanitation",
    "final_address": "1818 Allen St",
    "address_councildis": "D",
    "status": "Assigned to Contractor",
    "contractor": "IV Waste",
    "rowid": "1105538",
    "final_x": "3682530.54319",
    "final_y": "538834.510665",
    "longitude": "-90.06456049544278",
    "latitude": "29.97557674208943",
    "geocoded_column": {
      "latitude": "29.97557674208943",
      "longitude": "-90.06456049544278"
    }
  },
  {
    "service_request": "2024-1105537",
    "request_type": "Trash/Recycling",
    "request_reason": "Request a Large Item Pick Up",
    "date_created": "2024-06-20T19:34:55.000",
    "date_modified": "2024-06-20T19:34:56.000",
    "request_status": "Pending",
    "responsible_agency": "Department of Sanitation",
    "final_address": "302 S Scott St, New Orleans, Louisiana, 70119",
    "address_councildis": "A",
    "status": "Assigned to Contractor",
    "contractor": "IV Waste",
    "rowid": "1105537",
    "final_x": "3671294.31003",
    "final_y": "537134.281224",
    "longitude": "-90.10010549253754",
    "latitude": "29.97123900551795",
    "geocoded_column": {
      "latitude": "29.97123900551795",
      "longitude": "-90.10010549253754"
    }
  },
  {
    "service_request": "2024-1105536",
    "request_type": "Trash/Recycling",
    "request_reason": "Replace Trash Cart",
    "date_created": "2024-06-20T19:34:28.000",
    "date_modified": "2024-06-20T19:34:29.000",
    "request_status": "Pending",
    "responsible_agency": "Department of Sanitation",
    "final_address": "1818 Allen St",
    "address_councildis": "D",
    "status": "Assigned to Contractor",
    "contractor": "IV Waste",
    "rowid": "1105536",
    "final_x": "3682530.54319",
    "final_y": "538834.510665",
    "longitude": "-90.06456049544278",
    "latitude": "29.97557674208943",
    "geocoded_column": {
      "latitude": "29.97557674208943",
      "longitude": "-90.06456049544278"
    }
  },
  {
    "service_request": "2024-1105535",
    "request_type": "Trash/Recycling",
    "request_reason": "Request a Large Item Pick Up",
    "date_created": "2024-06-20T19:32:54.000",
    "date_modified": "2024-06-20T19:32:55.000",
    "request_status": "Pending",
    "responsible_agency": "Department of Sanitation",
    "final_address": "5551 Rickert Dr",
    "address_councildis": "E",
    "status": "Assigned to Contractor",
    "contractor": "Waste Pro",
    "rowid": "1105535",
    "final_x": "3703191.32983",
    "final_y": "556411.421786",
    "longitude": "-89.99866192063784",
    "latitude": "30.02326142616753",
    "geocoded_column": {
      "latitude": "30.02326142616753",
      "longitude": "-89.99866192063784"
    }
  },
  {
    "service_request": "2024-1105534",
    "request_type": "Trash/Recycling",
    "request_reason": "Request a Large Item Pick Up",
    "date_created": "2024-06-20T19:29:24.000",
    "date_modified": "2024-06-20T19:29:25.000",
    "request_status": "Pending",
    "responsible_agency": "Department of Sanitation",
    "final_address": "5551 Rickert Dr",
    "address_councildis": "E",
    "status": "Assigned to Contractor",
    "contractor": "Waste Pro",
    "rowid": "1105534",
    "final_x": "3703191.32983",
    "final_y": "556411.421786",
    "longitude": "-89.99866192063784",
    "latitude": "30.02326142616753",
    "geocoded_column": {
      "latitude": "30.02326142616753",
      "longitude": "-89.99866192063784"
    }
  },
  {
    "service_request": "2024-1105533",
    "request_type": "Trash/Recycling",
    "request_reason": "Missed Trash Pick-Up",
    "date_created": "2024-06-20T19:27:08.000",
    "date_modified": "2024-06-20T19:27:09.000",
    "request_status": "Pending",
    "responsible_agency": "Department of Sanitation",
    "final_address": "6120 Law St",
    "address_councildis": "E",
    "status": "Assigned to Contractor",
    "contractor": "Waste Pro",
    "rowid": "1105533",
    "final_x": "3701816.47895",
    "final_y": "538559.798473",
    "longitude": "-90.0036606924821",
    "latitude": "29.974220099732527",
    "geocoded_column": {
      "latitude": "29.974220099732527",
      "longitude": "-90.0036606924821"
    }
  },
  {
    "service_request": "2024-1105531",
    "request_type": "Parks & Parkways",
    "request_reason": "Request Tree Service (Right of Way/Public Property)",
    "date_created": "2024-06-20T19:20:17.000",
    "date_modified": "2024-06-20T19:20:18.000",
    "request_status": "Pending",
    "responsible_agency": "Department of Parks & Parkway",
    "final_address": "1744 N Rampart St",
    "address_councildis": "C",
    "status": "Pending",
    "rowid": "1105531",
    "final_x": "3683387.4813",
    "final_y": "535779.804743",
    "longitude": "-90.0619610976394",
    "latitude": "29.96715124171078",
    "geocoded_column": {
      "latitude": "29.96715124171078",
      "longitude": "-90.0619610976394"
    }
  },
  {
    "service_request": "2024-1105530",
    "request_type": "Parks & Parkways",
    "request_reason": "Request Tree Service (Right of Way/Public Property)",
    "date_created": "2024-06-20T19:16:56.000",
    "date_modified": "2024-06-20T19:16:56.000",
    "request_status": "Pending",
    "responsible_agency": "Department of Parks & Parkway",
    "final_address": "121 N Hennessey St",
    "address_councildis": "A",
    "status": "Pending",
    "rowid": "1105530",
    "final_x": "3670390.74497",
    "final_y": "539186.848138",
    "longitude": "-90.10288947413162",
    "latitude": "29.976909581260333",
    "geocoded_column": {
      "latitude": "29.976909581260333",
      "longitude": "-90.10288947413162"
    }
  },
  {
    "service_request": "2024-1105529",
    "request_type": "Trash/Recycling",
    "request_reason": "Replace Trash Cart",
    "date_created": "2024-06-20T18:49:27.000",
    "date_modified": "2024-06-20T18:49:27.000",
    "request_status": "Pending",
    "responsible_agency": "Department of Sanitation",
    "final_address": "1024 Robert St",
    "address_councildis": "B",
    "status": "Assigned to Contractor",
    "contractor": "IV Waste",
    "rowid": "1105529",
    "final_x": "3668621.38689",
    "final_y": "519165.358839",
    "longitude": "-90.10915326229221",
    "latitude": "29.92190914309281",
    "geocoded_column": {
      "latitude": "29.92190914309281",
      "longitude": "-90.10915326229221"
    }
  },
  {
    "service_request": "2024-1105528",
    "request_type": "Trash/Recycling",
    "request_reason": "Request a Large Item Pick Up",
    "date_created": "2024-06-20T18:35:52.000",
    "date_modified": "2024-06-20T18:35:53.000",
    "request_status": "Pending",
    "responsible_agency": "Department of Sanitation",
    "final_address": "6620 Coventry St",
    "address_councildis": "E",
    "status": "Assigned to Contractor",
    "contractor": "Waste Pro",
    "rowid": "1105528",
    "final_x": "3697788.54781",
    "final_y": "559158.626652",
    "longitude": "-90.01563362954312",
    "latitude": "30.030987119760898",
    "geocoded_column": {
      "latitude": "30.030987119760898",
      "longitude": "-90.01563362954312"
    }
  },
  {
    "service_request": "2024-1105527",
    "request_type": "Trash/Recycling",
    "request_reason": "MIssed Recycling Pick-Up",
    "date_created": "2024-06-20T18:31:06.000",
    "date_modified": "2024-06-20T18:31:07.000",
    "request_status": "Pending",
    "responsible_agency": "Department of Sanitation",
    "final_address": "6032 Patton St",
    "address_councildis": "A",
    "status": "Assigned to Contractor",
    "contractor": "IV Waste",
    "rowid": "1105527",
    "final_x": "3664198.8057",
    "final_y": "518565.898167",
    "longitude": "-90.12313353028217",
    "latitude": "29.92038999351547",
    "geocoded_column": {
      "latitude": "29.92038999351547",
      "longitude": "-90.12313353028217"
    }
  },
  {
    "service_request": "2024-1105526",
    "request_type": "Trash/Recycling",
    "request_reason": "Request a Large Item Pick Up",
    "date_created": "2024-06-20T18:18:08.000",
    "date_modified": "2024-06-20T18:18:09.000",
    "request_status": "Pending",
    "responsible_agency": "Department of Sanitation",
    "final_address": "214 Nashville Ave",
    "address_councildis": "A",
    "status": "Assigned to Contractor",
    "contractor": "IV Waste",
    "rowid": "1105526",
    "final_x": "3665038.82791",
    "final_y": "517070.384245",
    "longitude": "-90.12053192928163",
    "latitude": "29.916253374722878",
    "geocoded_column": {
      "latitude": "29.916253374722878",
      "longitude": "-90.12053192928163"
    }
  },
  {
    "service_request": "2024-1105525",
    "request_type": "Trash/Recycling",
    "request_reason": "Order Recycling Cart",
    "date_created": "2024-06-20T18:05:01.000",
    "date_modified": "2024-06-20T18:05:01.000",
    "request_status": "Pending",
    "responsible_agency": "Department of Sanitation",
    "final_address": "1460 Athis St",
    "address_councildis": "D",
    "status": "Pending",
    "rowid": "1105525",
    "final_x": "3677977.50094",
    "final_y": "553660.911127",
    "longitude": "-90.07842743227152",
    "latitude": "30.016481956494907",
    "geocoded_column": {
      "latitude": "30.016481956494907",
      "longitude": "-90.07842743227152"
    }
  },
  {
    "service_request": "2024-1105524",
    "request_type": "Trash/Recycling",
    "request_reason": "Replace Trash Cart",
    "date_created": "2024-06-20T17:46:38.000",
    "date_modified": "2024-06-20T17:46:39.000",
    "request_status": "Pending",
    "responsible_agency": "Department of Sanitation",
    "final_address": "526 Second St",
    "address_councildis": "B",
    "status": "Assigned to Contractor",
    "contractor": "IV Waste",
    "rowid": "1105524",
    "final_x": "3678923.54216",
    "final_y": "519609.036152",
    "longitude": "-90.07661834694494",
    "latitude": "29.92282244873559",
    "geocoded_column": {
      "latitude": "29.92282244873559",
      "longitude": "-90.07661834694494"
    }
  },
  {
    "service_request": "2024-1105523",
    "request_type": "Trash/Recycling",
    "request_reason": "Request a Large Item Pick Up",
    "date_created": "2024-06-20T17:46:20.000",
    "date_modified": "2024-06-20T17:46:20.000",
    "request_status": "Pending",
    "responsible_agency": "Department of Sanitation",
    "final_address": "1827 Baronne St",
    "address_councildis": "B",
    "status": "Assigned to Contractor",
    "contractor": "IV Waste",
    "rowid": "1105523",
    "final_x": "3677685.20475",
    "final_y": "525036.660669",
    "longitude": "-90.0803399419708",
    "latitude": "29.93778393082698",
    "geocoded_column": {
      "latitude": "29.93778393082698",
      "longitude": "-90.0803399419708"
    }
  },
  {
    "service_request": "2024-1105522",
    "request_type": "Trash/Recycling",
    "request_reason": "Request a Large Item Pick Up",
    "date_created": "2024-06-20T17:41:59.000",
    "date_modified": "2024-06-20T17:41:59.000",
    "request_status": "Pending",
    "responsible_agency": "Department of Sanitation",
    "final_address": "808 Delery St",
    "address_councildis": "E",
    "status": "Assigned to Contractor",
    "contractor": "Waste Pro",
    "rowid": "1105522",
    "final_x": "3699998.89732",
    "final_y": "531934.571011",
    "longitude": "-90.00964271737993",
    "latitude": "29.95606097052958",
    "geocoded_column": {
      "latitude": "29.95606097052958",
      "longitude": "-90.00964271737993"
    }
  },
  {
    "service_request": "2024-1105521",
    "request_type": "Parks & Parkways",
    "request_reason": "Request Tree Service (Right of Way/Public Property)",
    "date_created": "2024-06-20T17:40:36.000",
    "date_modified": "2024-06-20T17:40:36.000",
    "request_status": "Pending",
    "responsible_agency": "Department of Parks & Parkway",
    "final_address": "3527 Camp St",
    "address_councildis": "B",
    "status": "Pending",
    "rowid": "1105521",
    "final_x": "3674088.25185",
    "final_y": "519723.452152",
    "longitude": "-90.09187756586013",
    "latitude": "29.92328199034976",
    "geocoded_column": {
      "latitude": "29.92328199034976",
      "longitude": "-90.09187756586013"
    }
  },
  {
    "service_request": "2024-1105520",
    "request_type": "Abandoned Vehicles",
    "request_reason": "Abandoned/Junk Vehicles",
    "date_created": "2024-06-20T17:31:15.000",
    "date_modified": "2024-06-20T17:31:15.000",
    "request_status": "Pending",
    "responsible_agency": "Department of Public Works",
    "final_address": "2221 Urquhart St",
    "address_councildis": "C",
    "status": "Pending",
    "rowid": "1105520",
    "final_x": "3685212.07445",
    "final_y": "537096.582408",
    "longitude": "-90.05615267668087",
    "latitude": "29.970716130274933",
    "geocoded_column": {
      "latitude": "29.970716130274933",
      "longitude": "-90.05615267668087"
    }
  },
  {
    "service_request": "2024-1105519",
    "request_type": "Trash/Recycling",
    "request_reason": "Request a Large Item Pick Up",
    "date_created": "2024-06-20T17:08:32.000",
    "date_modified": "2024-06-20T17:08:33.000",
    "request_status": "Pending",
    "responsible_agency": "Department of Sanitation",
    "final_address": "5660 Clements Dr",
    "address_councildis": "E",
    "status": "Assigned to Contractor",
    "contractor": "Waste Pro",
    "rowid": "1105519",
    "final_x": "3702521.95588",
    "final_y": "556486.985178",
    "longitude": "-90.00077420668512",
    "latitude": "30.02349061783908",
    "geocoded_column": {
      "latitude": "30.02349061783908",
      "longitude": "-90.00077420668512"
    }
  },
  {
    "service_request": "2024-1105518",
    "request_type": "Trash/Recycling",
    "request_reason": "Request a Large Item Pick Up",
    "date_created": "2024-06-20T17:06:09.000",
    "date_modified": "2024-06-20T17:06:10.000",
    "request_status": "Pending",
    "responsible_agency": "Department of Sanitation",
    "final_address": "3338 Annette St",
    "address_councildis": "D",
    "status": "Assigned to Contractor",
    "contractor": "IV Waste",
    "rowid": "1105518",
    "final_x": "3682400.52168",
    "final_y": "544960.370895",
    "longitude": "-90.06475694373235",
    "latitude": "29.99242466491517",
    "geocoded_column": {
      "latitude": "29.99242466491517",
      "longitude": "-90.06475694373235"
    }
  },
  {
    "service_request": "2024-1105517",
    "request_type": "Trash/Recycling",
    "request_reason": "Request a Large Item Pick Up",
    "date_created": "2024-06-20T17:03:08.000",
    "date_modified": "2024-06-20T17:03:09.000",
    "request_status": "Pending",
    "responsible_agency": "Department of Sanitation",
    "final_address": "7334 Cameo St",
    "address_councildis": "D",
    "status": "Assigned to Contractor",
    "contractor": "IV Waste",
    "rowid": "1105517",
    "final_x": "3667718.67847",
    "final_y": "555553.056793",
    "longitude": "-90.11077723284939",
    "latitude": "30.021989627782137",
    "geocoded_column": {
      "latitude": "30.021989627782137",
      "longitude": "-90.11077723284939"
    }
  },
  {
    "service_request": "2024-1105516",
    "request_type": "Trash/Recycling",
    "request_reason": "Request a Large Item Pick Up",
    "date_created": "2024-06-20T17:02:58.000",
    "date_modified": "2024-06-20T17:02:59.000",
    "request_status": "Pending",
    "responsible_agency": "Department of Sanitation",
    "final_address": "4200 General Ogden St",
    "address_councildis": "A",
    "status": "Assigned to Contractor",
    "contractor": "IV Waste",
    "rowid": "1105516",
    "final_x": "538205.776585",
    "final_y": "538205.776585",
    "longitude": "-99.97976230355724",
    "latitude": "29.695288080917436",
    "geocoded_column": {
      "latitude": "29.695288080917436",
      "longitude": "-99.97976230355724"
    }
  },
  {
    "service_request": "2024-1105515",
    "request_type": "Parks & Parkways",
    "request_reason": "Request Tree Service (Right of Way/Public Property)",
    "date_created": "2024-06-20T17:00:38.000",
    "date_modified": "2024-06-20T17:00:39.000",
    "request_status": "Pending",
    "responsible_agency": "Department of Parks & Parkway",
    "final_address": "1202 S Lopez St",
    "address_councildis": "B",
    "status": "Pending",
    "rowid": "1105515",
    "final_x": "3670846.9387",
    "final_y": "531904.116675",
    "longitude": "-90.1016959003695",
    "latitude": "29.95687102956776",
    "geocoded_column": {
      "latitude": "29.95687102956776",
      "longitude": "-90.1016959003695"
    }
  },
  {
    "service_request": "2024-1105514",
    "request_type": "Roads/Drainage",
    "request_reason": "Street Subsidence (Sinking)",
    "date_created": "2024-06-20T17:00:06.000",
    "date_modified": "2024-06-20T17:00:06.000",
    "request_status": "Pending",
    "responsible_agency": "Department of Public Works",
    "final_address": "3418 S Broad St",
    "address_councildis": "B",
    "status": "Pending",
    "rowid": "1105514",
    "final_x": "3670917.52174",
    "final_y": "529478.308673",
    "longitude": "-90.10155536523936",
    "latitude": "29.950198770789438",
    "geocoded_column": {
      "latitude": "29.950198770789438",
      "longitude": "-90.10155536523936"
    }
  },
  {
    "service_request": "2024-1105513",
    "request_type": "Trash/Recycling",
    "request_reason": "Repair Trash Cart",
    "date_created": "2024-06-20T16:55:27.000",
    "date_modified": "2024-06-20T16:55:28.000",
    "request_status": "Pending",
    "responsible_agency": "Department of Sanitation",
    "final_address": "4604 Toulouse St",
    "address_councildis": "A",
    "status": "Assigned to Contractor",
    "contractor": "IV Waste",
    "rowid": "1105513",
    "final_x": "3670410.99143",
    "final_y": "541046.069324",
    "longitude": "-90.102762466925",
    "latitude": "29.98202121075726",
    "geocoded_column": {
      "latitude": "29.98202121075726",
      "longitude": "-90.102762466925"
    }
  },
  {
    "service_request": "2024-1105512",
    "request_type": "Property Maintenance",
    "request_reason": "Property Maintenance",
    "date_created": "2024-06-20T16:52:54.000",
    "date_modified": "2024-06-20T16:52:55.000",
    "request_status": "Pending",
    "responsible_agency": "Department of Code Enforcement",
    "final_address": "7510 Pineridge St",
    "address_councildis": "E",
    "status": "Pending",
    "rowid": "1105512",
    "final_x": "3719362.35634",
    "final_y": "571502.16452",
    "longitude": "-89.94698868192387",
    "latitude": "30.064226958746573",
    "geocoded_column": {
      "latitude": "30.064226958746573",
      "longitude": "-89.94698868192387"
    }
  },
  {
    "service_request": "2024-1105511",
    "request_type": "Property Maintenance",
    "request_reason": "Property Maintenance",
    "date_created": "2024-06-20T16:52:07.000",
    "date_modified": "2024-06-20T16:52:07.000",
    "request_status": "Pending",
    "responsible_agency": "Department of Code Enforcement",
    "final_address": "2929 Kabel Dr",
    "address_councildis": "C",
    "status": "Pending",
    "rowid": "1105511",
    "final_x": "3700575.60957",
    "final_y": "520395.240824",
    "longitude": "-90.00824304180405",
    "latitude": "29.924313516086716",
    "geocoded_column": {
      "latitude": "29.924313516086716",
      "longitude": "-90.00824304180405"
    }
  },
  {
    "service_request": "2024-1105510",
    "request_type": "Trash/Recycling",
    "request_reason": "Request a Large Item Pick Up",
    "date_created": "2024-06-20T16:49:39.000",
    "date_modified": "2024-06-20T16:49:40.000",
    "request_status": "Pending",
    "responsible_agency": "Department of Sanitation",
    "final_address": "7644 Lehigh St Apt B",
    "address_councildis": "E",
    "status": "Assigned to Contractor",
    "contractor": "Waste Pro",
    "rowid": "1105510",
    "final_x": "3710410.32369",
    "final_y": "565823.524259",
    "longitude": "-89.97549924897801",
    "latitude": "30.048907781496247",
    "geocoded_column": {
      "latitude": "30.048907781496247",
      "longitude": "-89.97549924897801"
    }
  },
  {
    "service_request": "2024-1105509",
    "request_type": "Roads/Drainage",
    "request_reason": "Man hole cover issue",
    "date_created": "2024-06-20T16:44:17.000",
    "date_modified": "2024-06-20T16:44:18.000",
    "request_status": "Pending",
    "responsible_agency": "Department of Public Works",
    "final_address": "OLD GENTILLY RD & LOUISA ST",
    "address_councildis": "D",
    "status": "Pending",
    "rowid": "1105509",
    "final_x": "3691562.7",
    "final_y": "549283.78",
    "longitude": "-90.03566081991953",
    "latitude": "30.004030369093243",
    "geocoded_column": {
      "latitude": "30.004030369093243",
      "longitude": "-90.03566081991953"
    }
  },
  {
    "service_request": "2024-1105508",
    "request_type": "Trash/Recycling",
    "request_reason": "Repair Trash Cart",
    "date_created": "2024-06-20T16:42:43.000",
    "date_modified": "2024-06-20T16:42:43.000",
    "request_status": "Pending",
    "responsible_agency": "Department of Sanitation",
    "final_address": "3714 Mimosa Ct",
    "address_councildis": "C",
    "status": "Assigned to Contractor",
    "contractor": "Richards Disposal",
    "rowid": "1105508",
    "final_x": "3703602.93086",
    "final_y": "513348.371698",
    "longitude": "-89.99894595736342",
    "latitude": "29.90484043344514",
    "geocoded_column": {
      "latitude": "29.90484043344514",
      "longitude": "-89.99894595736342"
    }
  },
  {
    "service_request": "2024-1105507",
    "request_type": "Trash/Recycling",
    "request_reason": "Repair Recycling Cart",
    "date_created": "2024-06-20T16:41:59.000",
    "date_modified": "2024-06-20T16:41:59.000",
    "request_status": "Pending",
    "responsible_agency": "Department of Sanitation",
    "final_address": "3714 Mimosa Ct",
    "address_councildis": "C",
    "status": "Pending",
    "rowid": "1105507",
    "final_x": "3703602.93086",
    "final_y": "513348.371698",
    "longitude": "-89.99894595736342",
    "latitude": "29.90484043344514",
    "geocoded_column": {
      "latitude": "29.90484043344514",
      "longitude": "-89.99894595736342"
    }
  },
  {
    "service_request": "2024-1105506",
    "request_type": "Trash/Recycling",
    "request_reason": "Request a Large Item Pick Up",
    "date_created": "2024-06-20T16:41:24.000",
    "date_modified": "2024-06-20T16:41:25.000",
    "request_status": "Pending",
    "responsible_agency": "Department of Sanitation",
    "final_address": "3621 Robert St",
    "address_councildis": "B",
    "status": "Assigned to Contractor",
    "contractor": "IV Waste",
    "rowid": "1105506",
    "final_x": "3669037.15642",
    "final_y": "528227.498368",
    "longitude": "-90.10753483469357",
    "latitude": "29.94681489802551",
    "geocoded_column": {
      "latitude": "29.94681489802551",
      "longitude": "-90.10753483469357"
    }
  },
  {
    "service_request": "2024-1105505",
    "request_type": "Abandoned Vehicles",
    "request_reason": "Abandoned/Junk Vehicles",
    "date_created": "2024-06-20T16:40:02.000",
    "date_modified": "2024-06-20T16:40:02.000",
    "request_status": "Pending",
    "responsible_agency": "Department of Public Works",
    "final_address": "3417 Havana St",
    "address_councildis": "D",
    "status": "Pending",
    "rowid": "1105505",
    "final_x": "3680925.14773",
    "final_y": "545010.182159",
    "longitude": "-90.06941562994982",
    "latitude": "29.992606458741687",
    "geocoded_column": {
      "latitude": "29.992606458741687",
      "longitude": "-90.06941562994982"
    }
  },
  {
    "service_request": "2024-1105504",
    "request_type": "Trash/Recycling",
    "request_reason": "Repair Trash Cart",
    "date_created": "2024-06-20T16:38:07.000",
    "date_modified": "2024-06-20T16:38:08.000",
    "request_status": "Pending",
    "responsible_agency": "Department of Sanitation",
    "final_address": "4405 Annunciation St",
    "address_councildis": "B",
    "status": "Assigned to Contractor",
    "contractor": "IV Waste",
    "rowid": "1105504",
    "final_x": "3671039.32155",
    "final_y": "517779.281398",
    "longitude": "-90.10156787893925",
    "latitude": "29.918026617644397",
    "geocoded_column": {
      "latitude": "29.918026617644397",
      "longitude": "-90.10156787893925"
    }
  },
  {
    "service_request": "2024-1105503",
    "request_type": "Roads/Drainage",
    "request_reason": "Damaged Sidewalk",
    "date_created": "2024-06-20T16:33:12.000",
    "date_modified": "2024-06-20T16:33:12.000",
    "request_status": "Pending",
    "responsible_agency": "Department of Public Works",
    "final_address": "1725 Dufossat St",
    "address_councildis": "B",
    "status": "Pending",
    "rowid": "1105503",
    "final_x": "3668192.68743",
    "final_y": "522036.060218",
    "longitude": "-90.11040977787289",
    "latitude": "29.92981524824353",
    "geocoded_column": {
      "latitude": "29.92981524824353",
      "longitude": "-90.11040977787289"
    }
  },
  {
    "service_request": "2024-1105502",
    "request_type": "Traffic Signals/Signs/Striping/Streetlights",
    "request_reason": "Traffic Sign Missing/Damaged",
    "date_created": "2024-06-20T16:33:11.000",
    "date_modified": "2024-06-20T16:33:11.000",
    "request_status": "Pending",
    "responsible_agency": "Department of Public Works",
    "final_address": "N VILLERE ST & EGANIA ST",
    "address_councildis": "E",
    "status": "Pending",
    "rowid": "1105502",
    "final_x": "3697113.4",
    "final_y": "535168.18",
    "longitude": "-90.01863692697394",
    "latitude": "29.965043590039112",
    "geocoded_column": {
      "latitude": "29.965043590039112",
      "longitude": "-90.01863692697394"
    }
  },
  {
    "service_request": "2024-1105501",
    "request_type": "Trash/Recycling",
    "request_reason": "Repair Trash Cart",
    "date_created": "2024-06-20T16:30:39.000",
    "date_modified": "2024-06-20T16:30:39.000",
    "request_status": "Pending",
    "responsible_agency": "Department of Sanitation",
    "final_address": "4308 Dreux Ave",
    "address_councildis": "D",
    "status": "Assigned to Contractor",
    "contractor": "IV Waste",
    "rowid": "1105501",
    "final_x": "3689777.84572",
    "final_y": "552663.512918",
    "longitude": "-90.04117906556934",
    "latitude": "30.0133788513177",
    "geocoded_column": {
      "latitude": "30.0133788513177",
      "longitude": "-90.04117906556934"
    }
  },
  {
    "service_request": "2024-1105499",
    "request_type": "Property Maintenance",
    "request_reason": "Property Maintenance",
    "date_created": "2024-06-20T16:21:20.000",
    "date_modified": "2024-06-20T16:21:20.000",
    "request_status": "Pending",
    "responsible_agency": "Department of Code Enforcement",
    "final_address": "4788 Charlene Dr",
    "address_councildis": "E",
    "status": "Pending",
    "rowid": "1105499",
    "final_x": "3707809.44555",
    "final_y": "555877.659993",
    "longitude": "-89.98408965582159",
    "latitude": "30.021645073467777",
    "geocoded_column": {
      "latitude": "30.021645073467777",
      "longitude": "-89.98408965582159"
    }
  },
  {
    "service_request": "2024-1105498",
    "request_type": "Property Maintenance",
    "request_reason": "Property Maintenance",
    "date_created": "2024-06-20T16:20:55.000",
    "date_modified": "2024-06-20T16:20:55.000",
    "request_status": "Pending",
    "responsible_agency": "Department of Code Enforcement",
    "final_address": "4767 Charlene Dr",
    "address_councildis": "E",
    "status": "Pending",
    "rowid": "1105498",
    "final_x": "3707953.78379",
    "final_y": "555735.276377",
    "longitude": "-89.98363888876929",
    "latitude": "30.021248899856143",
    "geocoded_column": {
      "latitude": "30.021248899856143",
      "longitude": "-89.98363888876929"
    }
  },
  {
    "service_request": "2024-1105497",
    "request_type": "Property Maintenance",
    "request_reason": "Property Maintenance",
    "date_created": "2024-06-20T16:20:19.000",
    "date_modified": "2024-06-20T16:20:19.000",
    "request_status": "Pending",
    "responsible_agency": "Department of Code Enforcement",
    "final_address": "4744 Charlene Dr",
    "address_councildis": "E",
    "status": "Pending",
    "rowid": "1105497",
    "final_x": "3707841.79172",
    "final_y": "555557.695129",
    "longitude": "-89.9839993569152",
    "latitude": "30.020764247198773",
    "geocoded_column": {
      "latitude": "30.020764247198773",
      "longitude": "-89.9839993569152"
    }
  },
  {
    "service_request": "2024-1105496",
    "request_type": "Property Maintenance",
    "request_reason": "Property Maintenance",
    "date_created": "2024-06-20T16:19:43.000",
    "date_modified": "2024-06-20T16:19:43.000",
    "request_status": "Pending",
    "responsible_agency": "Department of Code Enforcement",
    "final_address": "4500 Knight Dr",
    "address_councildis": "E",
    "status": "Pending",
    "rowid": "1105496",
    "final_x": "3708208.46872",
    "final_y": "554065.377304",
    "longitude": "-89.98289634790018",
    "latitude": "30.016649074471946",
    "geocoded_column": {
      "latitude": "30.016649074471946",
      "longitude": "-89.98289634790018"
    }
  },
  {
    "service_request": "2024-1105495",
    "request_type": "Trash/Recycling",
    "request_reason": "Missed Trash Pick-Up",
    "date_created": "2024-06-20T16:18:49.000",
    "date_modified": "2024-06-20T16:18:49.000",
    "request_status": "Pending",
    "responsible_agency": "Department of Sanitation",
    "final_address": "1135 Jourdan Ave",
    "address_councildis": "E",
    "status": "Assigned to Contractor",
    "contractor": "Waste Pro",
    "rowid": "1105495",
    "final_x": "3695177.54378",
    "final_y": "534764.24007",
    "longitude": "-90.02476478632913",
    "latitude": "29.963993829783046",
    "geocoded_column": {
      "latitude": "29.963993829783046",
      "longitude": "-90.02476478632913"
    }
  },
  {
    "service_request": "2024-1105494",
    "request_type": "Trash/Recycling",
    "request_reason": "Request a Large Item Pick Up",
    "date_created": "2024-06-20T16:18:41.000",
    "date_modified": "2024-06-20T16:18:41.000",
    "request_status": "Pending",
    "responsible_agency": "Department of Sanitation",
    "final_address": "7609 Edward St",
    "address_councildis": "E",
    "status": "Assigned to Contractor",
    "contractor": "Waste Pro",
    "rowid": "1105494",
    "final_x": "3701134.06973",
    "final_y": "560915.113822",
    "longitude": "-90.00499740533121",
    "latitude": "30.035710566679526",
    "geocoded_column": {
      "latitude": "30.035710566679526",
      "longitude": "-90.00499740533121"
    }
  },
  {
    "service_request": "2024-1105493",
    "request_type": "Parks & Parkways",
    "request_reason": "Request Tree Service (Right of Way/Public Property)",
    "date_created": "2024-06-20T16:16:07.000",
    "date_modified": "2024-06-20T16:16:08.000",
    "request_status": "Pending",
    "responsible_agency": "Department of Parks & Parkway",
    "final_address": "9003 Fig St",
    "address_councildis": "A",
    "status": "Pending",
    "rowid": "1105493",
    "final_x": "3663942.18503",
    "final_y": "535339.756102",
    "longitude": "-90.12338446872319",
    "latitude": "29.96652018130879",
    "geocoded_column": {
      "latitude": "29.96652018130879",
      "longitude": "-90.12338446872319"
    }
  },
  {
    "service_request": "2024-1105492",
    "request_type": "Roads/Drainage",
    "request_reason": "Pothole",
    "date_created": "2024-06-20T16:15:08.000",
    "date_modified": "2024-06-20T16:15:08.000",
    "request_status": "Pending",
    "responsible_agency": "Department of Public Works",
    "final_address": "1400 BLK Valence St",
    "address_councildis": "B",
    "status": "Pending",
    "rowid": "1105492",
    "final_x": "3669784.65285",
    "final_y": "520336.257015",
    "longitude": "-90.1054417057675",
    "latitude": "29.925094517046503",
    "geocoded_column": {
      "latitude": "29.925094517046503",
      "longitude": "-90.1054417057675"
    }
  },
  {
    "service_request": "2024-1105491",
    "request_type": "Trash/Recycling",
    "request_reason": "Request a Large Item Pick Up",
    "date_created": "2024-06-20T16:13:25.000",
    "date_modified": "2024-06-20T16:13:26.000",
    "request_status": "Pending",
    "responsible_agency": "Department of Sanitation",
    "final_address": "2039 Valence St",
    "address_councildis": "B",
    "status": "Assigned to Contractor",
    "contractor": "IV Waste",
    "rowid": "1105491",
    "final_x": "3669611.1449",
    "final_y": "522491.684026",
    "longitude": "-90.10591653215063",
    "latitude": "29.931026364952196",
    "geocoded_column": {
      "latitude": "29.931026364952196",
      "longitude": "-90.10591653215063"
    }
  },
  {
    "service_request": "2024-1105490",
    "request_type": "Traffic Signals/Signs/Striping/Streetlights",
    "request_reason": "Traffic Signal Malfunctioning/Damaged",
    "date_created": "2024-06-20T16:13:22.000",
    "date_modified": "2024-06-20T16:13:23.000",
    "request_status": "Pending",
    "responsible_agency": "Department of Public Works",
    "final_address": "CANAL BLVD & CITY PARK AVE",
    "address_councildis": "A",
    "status": "Pending",
    "rowid": "1105490",
    "final_x": "3667987.5",
    "final_y": "541115.08",
    "longitude": "-90.11041471405822",
    "latitude": "29.98228230942653",
    "geocoded_column": {
      "latitude": "29.98228230942653",
      "longitude": "-90.11041471405822"
    }
  },
  {
    "service_request": "2024-1105489",
    "request_type": "Trash/Recycling",
    "request_reason": "Repair Trash Cart",
    "date_created": "2024-06-20T16:08:14.000",
    "date_modified": "2024-06-20T16:08:14.000",
    "request_status": "Pending",
    "responsible_agency": "Department of Sanitation",
    "final_address": "4801 Coronado Dr",
    "address_councildis": "E",
    "status": "Assigned to Contractor",
    "contractor": "Waste Pro",
    "rowid": "1105489",
    "final_x": "3714182.00376",
    "final_y": "556601.501274",
    "longitude": "-89.96392695367543",
    "latitude": "30.0234274855252",
    "geocoded_column": {
      "latitude": "30.0234274855252",
      "longitude": "-89.96392695367543"
    }
  },
  {
    "service_request": "2024-1105488",
    "request_type": "Trash/Recycling",
    "request_reason": "Repair Trash Cart",
    "date_created": "2024-06-20T16:07:20.000",
    "date_modified": "2024-06-20T16:07:21.000",
    "request_status": "Pending",
    "responsible_agency": "Department of Sanitation",
    "final_address": "1501 Holiday Pl",
    "address_councildis": "C",
    "status": "Assigned to Contractor",
    "contractor": "Richards Disposal",
    "rowid": "1105488",
    "final_x": "3698899.66557",
    "final_y": "525630.616253",
    "longitude": "-90.01334300441818",
    "latitude": "29.938762177682424",
    "geocoded_column": {
      "latitude": "29.938762177682424",
      "longitude": "-90.01334300441818"
    }
  },
  {
    "service_request": "2024-1105487",
    "request_type": "Abandoned Vehicles",
    "request_reason": "Abandoned/Junk Vehicles",
    "date_created": "2024-06-20T16:02:45.000",
    "date_modified": "2024-06-20T16:02:45.000",
    "request_status": "Pending",
    "responsible_agency": "Department of Public Works",
    "final_address": "532 S Pierce St",
    "address_councildis": "B",
    "status": "Pending",
    "rowid": "1105487",
    "final_x": "3670398.94913",
    "final_y": "536488.641223",
    "longitude": "-90.10295506795414",
    "latitude": "29.96949017885343",
    "geocoded_column": {
      "latitude": "29.96949017885343",
      "longitude": "-90.10295506795414"
    }
  },
  {
    "service_request": "2024-1105486",
    "request_type": "Trash/Recycling",
    "request_reason": "Repair Recycling Cart",
    "date_created": "2024-06-20T16:01:07.000",
    "date_modified": "2024-06-20T16:01:07.000",
    "request_status": "Pending",
    "responsible_agency": "Department of Sanitation",
    "final_address": "2358 Jay St",
    "address_councildis": "D",
    "status": "Pending",
    "rowid": "1105486",
    "final_x": "3684570.00425",
    "final_y": "557260.487387",
    "longitude": "-90.0574713493026",
    "latitude": "30.026179292632616",
    "geocoded_column": {
      "latitude": "30.026179292632616",
      "longitude": "-90.0574713493026"
    }
  },
  {
    "service_request": "2024-1105485",
    "request_type": "Traffic Signals/Signs/Striping/Streetlights",
    "request_reason": "Traffic Signal Malfunctioning/Damaged",
    "date_created": "2024-06-20T15:52:12.000",
    "date_modified": "2024-06-20T15:52:13.000",
    "request_status": "Pending",
    "responsible_agency": "Department of Public Works",
    "final_address": "NAPOLEON AVE & S CLAIBORNE AVE",
    "address_councildis": "B",
    "status": "Pending",
    "rowid": "1105485",
    "final_x": "3670320.5",
    "final_y": "525786.88",
    "longitude": "-90.10356554298984",
    "latitude": "29.940066178929065",
    "geocoded_column": {
      "latitude": "29.940066178929065",
      "longitude": "-90.10356554298984"
    }
  },
  {
    "service_request": "2024-1105484",
    "request_type": "Trash/Recycling",
    "request_reason": "Illegal Dumping",
    "date_created": "2024-06-20T15:49:03.000",
    "date_modified": "2024-06-20T15:49:03.000",
    "request_status": "Pending",
    "responsible_agency": "Department of Sanitation",
    "final_address": "4600 BLK Werner Dr",
    "address_councildis": "E",
    "status": "Pending",
    "rowid": "1105484",
    "final_x": "3704832.78157",
    "final_y": "554649.484321",
    "longitude": "-89.99354042360318",
    "latitude": "30.018364104400074",
    "geocoded_column": {
      "latitude": "30.018364104400074",
      "longitude": "-89.99354042360318"
    }
  },
  {
    "service_request": "2024-1105483",
    "request_type": "Roads/Drainage",
    "request_reason": "Catch Basin - Clogged",
    "date_created": "2024-06-20T15:48:35.000",
    "date_modified": "2024-06-20T15:48:35.000",
    "request_status": "Pending",
    "responsible_agency": "Department of Public Works",
    "final_address": "6303 Fontainebleau Dr",
    "address_councildis": "B",
    "status": "Pending",
    "rowid": "1105483",
    "final_x": "3667952.26727",
    "final_y": "530080.978945",
    "longitude": "-90.11089780434226",
    "latitude": "29.95194323399175",
    "geocoded_column": {
      "latitude": "29.95194323399175",
      "longitude": "-90.11089780434226"
    }
  },
  {
    "service_request": "2024-1105481",
    "request_type": "Trash/Recycling",
    "request_reason": "Request a Large Item Pick Up",
    "date_created": "2024-06-20T15:46:19.000",
    "date_modified": "2024-06-20T15:46:20.000",
    "request_status": "Pending",
    "responsible_agency": "Department of Sanitation",
    "final_address": "1410 Jackson Ave",
    "address_councildis": "B",
    "status": "Assigned to Contractor",
    "contractor": "IV Waste",
    "rowid": "1105481",
    "final_x": "3678103.46293",
    "final_y": "522922.013179",
    "longitude": "-90.0790925440959",
    "latitude": "29.93195676211378",
    "geocoded_column": {
      "latitude": "29.93195676211378",
      "longitude": "-90.0790925440959"
    }
  },
  {
    "service_request": "2024-1105480",
    "request_type": "Trash/Recycling",
    "request_reason": "Illegal Dumping",
    "date_created": "2024-06-20T15:44:24.000",
    "date_modified": "2024-06-20T15:44:24.000",
    "request_status": "Pending",
    "responsible_agency": "Department of Sanitation",
    "final_address": "4600 BLK Werner Dr",
    "address_councildis": "E",
    "status": "Pending",
    "rowid": "1105480",
    "final_x": "3704832.78157",
    "final_y": "554649.484321",
    "longitude": "-89.99354042360318",
    "latitude": "30.018364104400074",
    "geocoded_column": {
      "latitude": "30.018364104400074",
      "longitude": "-89.99354042360318"
    }
  },
  {
    "service_request": "2024-1105479",
    "request_type": "Trash/Recycling",
    "request_reason": "Repair Trash Cart",
    "date_created": "2024-06-20T15:43:27.000",
    "date_modified": "2024-06-20T15:43:27.000",
    "request_status": "Pending",
    "responsible_agency": "Department of Sanitation",
    "final_address": "2720 General Pershing St",
    "address_councildis": "B",
    "status": "Assigned to Contractor",
    "contractor": "IV Waste",
    "rowid": "1105479",
    "final_x": "3670807.18196",
    "final_y": "524937.999101",
    "longitude": "-90.10205780906398",
    "latitude": "29.937717660196043",
    "geocoded_column": {
      "latitude": "29.937717660196043",
      "longitude": "-90.10205780906398"
    }
  },
  {
    "service_request": "2024-1105478",
    "request_type": "Trash/Recycling",
    "request_reason": "Request a Large Item Pick Up",
    "date_created": "2024-06-20T15:43:26.000",
    "date_modified": "2024-06-20T15:43:26.000",
    "request_status": "Pending",
    "responsible_agency": "Department of Sanitation",
    "final_address": "1020 Esplanade Ave, New Orleans, Louisiana, 70116",
    "address_councildis": "C",
    "status": "Assigned to Contractor",
    "contractor": "Empire Services",
    "rowid": "1105478",
    "final_x": "3683003.51669",
    "final_y": "535152.73223",
    "longitude": "-90.0631956110011",
    "latitude": "29.965438717113845",
    "geocoded_column": {
      "latitude": "29.965438717113845",
      "longitude": "-90.0631956110011"
    }
  },
  {
    "service_request": "2024-1105477",
    "request_type": "Trash/Recycling",
    "request_reason": "Request a Large Item Pick Up",
    "date_created": "2024-06-20T15:40:39.000",
    "date_modified": "2024-06-20T15:40:40.000",
    "request_status": "Pending",
    "responsible_agency": "Department of Sanitation",
    "final_address": "4109 Erato St",
    "address_councildis": "B",
    "status": "Assigned to Contractor",
    "contractor": "IV Waste",
    "rowid": "1105477",
    "final_x": "3671345.17492",
    "final_y": "531238.99661",
    "longitude": "-90.10014522783004",
    "latitude": "29.955027434422547",
    "geocoded_column": {
      "latitude": "29.955027434422547",
      "longitude": "-90.10014522783004"
    }
  },
  {
    "service_request": "2024-1105476",
    "request_type": "Trash/Recycling",
    "request_reason": "Request a Large Item Pick Up",
    "date_created": "2024-06-20T15:40:01.000",
    "date_modified": "2024-06-20T15:40:02.000",
    "request_status": "Pending",
    "responsible_agency": "Department of Sanitation",
    "final_address": "7581 Vincent Rd",
    "address_councildis": "E",
    "status": "Assigned to Contractor",
    "contractor": "Waste Pro",
    "rowid": "1105476",
    "final_x": "3718689.82162",
    "final_y": "571425.137512",
    "longitude": "-89.94911753541153",
    "latitude": "30.064037522945117",
    "geocoded_column": {
      "latitude": "30.064037522945117",
      "longitude": "-89.94911753541153"
    }
  },
  {
    "service_request": "2024-1105475",
    "request_type": "Trash/Recycling",
    "request_reason": "Illegal Dumping",
    "date_created": "2024-06-20T15:39:14.000",
    "date_modified": "2024-06-20T15:39:15.000",
    "request_status": "Pending",
    "responsible_agency": "Department of Sanitation",
    "final_address": "MONTICELLO AVE & COLAPISSA ST & LIVINGSTON ST",
    "address_councildis": "A",
    "status": "Pending",
    "rowid": "1105475",
    "final_x": "3662928.1",
    "final_y": "536686.08",
    "longitude": "-90.1265421748744",
    "latitude": "29.970251534229494",
    "geocoded_column": {
      "latitude": "29.970251534229494",
      "longitude": "-90.1265421748744"
    }
  },
  {
    "service_request": "2024-1105474",
    "request_type": "Abandoned Vehicles",
    "request_reason": "Abandoned/Junk Vehicles",
    "date_created": "2024-06-20T15:37:32.000",
    "date_modified": "2024-06-20T15:37:32.000",
    "request_status": "Pending",
    "responsible_agency": "Department of Public Works",
    "final_address": "129 N Roadway St",
    "address_councildis": "A",
    "status": "Pending",
    "rowid": "1105474",
    "final_x": "3666244.87194",
    "final_y": "556869.430618",
    "longitude": "-90.11538989255295",
    "latitude": "30.02565234405346",
    "geocoded_column": {
      "latitude": "30.02565234405346",
      "longitude": "-90.11538989255295"
    }
  },
  {
    "service_request": "2024-1105473",
    "request_type": "Trash/Recycling",
    "request_reason": "Request a Large Item Pick Up",
    "date_created": "2024-06-20T15:36:01.000",
    "date_modified": "2024-06-20T15:36:02.000",
    "request_status": "Pending",
    "responsible_agency": "Department of Sanitation",
    "final_address": "2716 Comet St",
    "address_councildis": "C",
    "status": "Assigned to Contractor",
    "contractor": "Richards Disposal",
    "rowid": "1105473",
    "final_x": "3699864.72349",
    "final_y": "520911.669433",
    "longitude": "-90.01046822815259",
    "latitude": "29.925756103072064",
    "geocoded_column": {
      "latitude": "29.925756103072064",
      "longitude": "-90.01046822815259"
    }
  },
  {
    "service_request": "2024-1105472",
    "request_type": "Roads/Drainage",
    "request_reason": "Pothole",
    "date_created": "2024-06-20T15:34:34.000",
    "date_modified": "2024-06-20T15:34:34.000",
    "request_status": "Pending",
    "responsible_agency": "Department of Public Works",
    "final_address": "9438 Oleander St",
    "address_councildis": "A",
    "status": "Pending",
    "rowid": "1105472",
    "final_x": "3663132.45895",
    "final_y": "536928.646088",
    "longitude": "-90.12588871203356",
    "latitude": "29.970912591277354",
    "geocoded_column": {
      "latitude": "29.970912591277354",
      "longitude": "-90.12588871203356"
    }
  },
  {
    "service_request": "2024-1105471",
    "request_type": "Roads/Drainage",
    "request_reason": "WaterMain Break",
    "date_created": "2024-06-20T15:33:57.000",
    "date_modified": "2024-06-20T15:33:57.000",
    "request_status": "Pending",
    "responsible_agency": "Department of Public Works",
    "final_address": "1733 N Dupre St",
    "address_councildis": "D",
    "status": "Pending",
    "rowid": "1105471",
    "final_x": "3679091.45083",
    "final_y": "541428.690316",
    "longitude": "-90.07533214539751",
    "latitude": "29.982814097723026",
    "geocoded_column": {
      "latitude": "29.982814097723026",
      "longitude": "-90.07533214539751"
    }
  },
  {
    "service_request": "2024-1105470",
    "request_type": "Parks & Parkways",
    "request_reason": "Request Tree Service (Right of Way/Public Property)",
    "date_created": "2024-06-20T15:33:25.000",
    "date_modified": "2024-06-20T15:33:25.000",
    "request_status": "Pending",
    "responsible_agency": "Department of Parks & Parkway",
    "final_address": "4302 Van Ave",
    "address_councildis": "D",
    "status": "Pending",
    "rowid": "1105470",
    "final_x": "3679943.36859",
    "final_y": "548021.533586",
    "longitude": "-90.07241221094527",
    "latitude": "30.000916348964175",
    "geocoded_column": {
      "latitude": "30.000916348964175",
      "longitude": "-90.07241221094527"
    }
  },
  {
    "service_request": "2024-1105469",
    "request_type": "Trash/Recycling",
    "request_reason": "Missed Trash Pick-Up",
    "date_created": "2024-06-20T15:29:08.000",
    "date_modified": "2024-06-20T15:29:09.000",
    "request_status": "Pending",
    "responsible_agency": "Department of Sanitation",
    "final_address": "6412 Urville St",
    "address_councildis": "E",
    "status": "Assigned to Contractor",
    "contractor": "Waste Pro",
    "rowid": "1105469",
    "final_x": "3700958.14999",
    "final_y": "533797.202437",
    "longitude": "-90.00654564289766",
    "latitude": "29.96115203712596",
    "geocoded_column": {
      "latitude": "29.96115203712596",
      "longitude": "-90.00654564289766"
    }
  },
  {
    "service_request": "2024-1105468",
    "request_type": "Trash/Recycling",
    "request_reason": "Replace Trash Cart",
    "date_created": "2024-06-20T15:26:40.000",
    "date_modified": "2024-06-20T15:26:40.000",
    "request_status": "Pending",
    "responsible_agency": "Department of Sanitation",
    "final_address": "1834 Dublin St",
    "address_councildis": "A",
    "status": "Assigned to Contractor",
    "contractor": "IV Waste",
    "rowid": "1105468",
    "final_x": "3663268.90432",
    "final_y": "530386.254722",
    "longitude": "-90.12567556234906",
    "latitude": "29.952919197956437",
    "geocoded_column": {
      "latitude": "29.952919197956437",
      "longitude": "-90.12567556234906"
    }
  },
  {
    "service_request": "2024-1105467",
    "request_type": "Parks & Parkways",
    "request_reason": "Request Tree Service (Right of Way/Public Property)",
    "date_created": "2024-06-20T15:25:28.000",
    "date_modified": "2024-06-20T15:25:28.000",
    "request_status": "Pending",
    "responsible_agency": "Department of Parks & Parkway",
    "final_address": "4211 Dreux Ave",
    "address_councildis": "D",
    "status": "Pending",
    "rowid": "1105467",
    "final_x": "3689430.93699",
    "final_y": "552741.72015",
    "longitude": "-90.0422723266163",
    "latitude": "30.01360464449211",
    "geocoded_column": {
      "latitude": "30.01360464449211",
      "longitude": "-90.0422723266163"
    }
  },
  {
    "service_request": "2024-1105466",
    "request_type": "Trash/Recycling",
    "request_reason": "Repair Trash Cart",
    "date_created": "2024-06-20T15:25:00.000",
    "date_modified": "2024-06-20T15:29:21.000",
    "request_status": "Pending",
    "responsible_agency": "Department of Sanitation",
    "final_address": "1014 Frenchmen St",
    "address_councildis": "C",
    "status": "Assigned to Contractor",
    "contractor": "IV Waste",
    "rowid": "1105466",
    "final_x": "3684579.13692",
    "final_y": "536033.881287",
    "longitude": "-90.05818891573428",
    "latitude": "29.967813454261815",
    "geocoded_column": {
      "latitude": "29.967813454261815",
      "longitude": "-90.05818891573428"
    }
  },
  {
    "service_request": "2024-1105465",
    "request_type": "Trash/Recycling",
    "request_reason": "Request a Large Item Pick Up",
    "date_created": "2024-06-20T15:24:05.000",
    "date_modified": "2024-06-20T15:24:06.000",
    "request_status": "Pending",
    "responsible_agency": "Department of Sanitation",
    "final_address": "1635 Eighth St",
    "address_councildis": "B",
    "status": "Assigned to Contractor",
    "contractor": "IV Waste",
    "rowid": "1105465",
    "final_x": "3674826.59035",
    "final_y": "522212.338554",
    "longitude": "-90.08946162175849",
    "latitude": "29.93010360773719",
    "geocoded_column": {
      "latitude": "29.93010360773719",
      "longitude": "-90.08946162175849"
    }
  },
  {
    "service_request": "2024-1105464",
    "request_type": "Abandoned Vehicles",
    "request_reason": "Abandoned/Junk Vehicles",
    "date_created": "2024-06-20T15:23:40.000",
    "date_modified": "2024-06-20T15:26:34.000",
    "request_status": "Pending",
    "responsible_agency": "Department of Public Works",
    "final_address": "2210 Orleans Ave",
    "address_councildis": "D",
    "status": "Pending",
    "rowid": "1105464",
    "final_x": "3678255.75426",
    "final_y": "535823.555591",
    "longitude": "-90.0781656276981",
    "latitude": "29.96742710736512",
    "geocoded_column": {
      "latitude": "29.96742710736512",
      "longitude": "-90.0781656276981"
    }
  },
  {
    "service_request": "2024-1105463",
    "request_type": "Trash/Recycling",
    "request_reason": "Replace Trash Cart",
    "date_created": "2024-06-20T15:23:01.000",
    "date_modified": "2024-06-20T16:04:53.000",
    "case_close_date": "2024-06-20T11:04:53.000",
    "request_status": "Closed",
    "responsible_agency": "Department of Sanitation",
    "final_address": "1834 Dublin St",
    "address_councildis": "A",
    "status": "Duplicate Request",
    "contractor": "IV Waste",
    "contractor_action": "Duplicate",
    "rowid": "1105463",
    "final_x": "3663268.90432",
    "final_y": "530386.254722",
    "longitude": "-90.12567556234906",
    "latitude": "29.952919197956437",
    "geocoded_column": {
      "latitude": "29.952919197956437",
      "longitude": "-90.12567556234906"
    }
  },
  {
    "service_request": "2024-1105462",
    "request_type": "Traffic Signals/Signs/Striping/Streetlights",
    "request_reason": "Street Light Outage/Malfunction",
    "date_created": "2024-06-20T15:18:27.000",
    "date_modified": "2024-06-20T15:18:27.000",
    "request_status": "Pending",
    "responsible_agency": "Department of Public Works",
    "final_address": "1325 Calhoun St",
    "address_councildis": "A",
    "status": "Assigned to Contractor",
    "contractor": "Legacy Professional Services",
    "rowid": "1105462",
    "final_x": "3664259.19252",
    "final_y": "521463.638009",
    "longitude": "-90.1228462880201",
    "latitude": "29.928356115922004",
    "geocoded_column": {
      "latitude": "29.928356115922004",
      "longitude": "-90.1228462880201"
    }
  },
  {
    "service_request": "2024-1105461",
    "request_type": "Roads/Drainage",
    "request_reason": "Pothole",
    "date_created": "2024-06-20T15:16:54.000",
    "date_modified": "2024-06-20T15:16:54.000",
    "request_status": "Pending",
    "responsible_agency": "Department of Public Works",
    "final_address": "3020 Rue Parc Fontaine",
    "address_councildis": "C",
    "status": "Pending",
    "rowid": "1105461",
    "final_x": "3700235.47773",
    "final_y": "519938.27532",
    "longitude": "-90.00933338079066",
    "latitude": "29.923067829027186",
    "geocoded_column": {
      "latitude": "29.923067829027186",
      "longitude": "-90.00933338079066"
    }
  },
  {
    "service_request": "2024-1105460",
    "request_type": "Trash/Recycling",
    "request_reason": "MIssed Recycling Pick-Up",
    "date_created": "2024-06-20T15:14:35.000",
    "date_modified": "2024-06-20T15:14:35.000",
    "request_status": "Pending",
    "responsible_agency": "Department of Sanitation",
    "final_address": "6139 N Rampart St",
    "address_councildis": "E",
    "status": "Assigned to Contractor",
    "contractor": "Waste Pro",
    "rowid": "1105460",
    "final_x": "3699641.41008",
    "final_y": "532809.82394",
    "longitude": "-90.01073963189948",
    "latitude": "29.958478955646143",
    "geocoded_column": {
      "latitude": "29.958478955646143",
      "longitude": "-90.01073963189948"
    }
  },
  {
    "service_request": "2024-1105459",
    "request_type": "Roads/Drainage",
    "request_reason": "Street Flooding / Drainage",
    "date_created": "2024-06-20T15:13:21.000",
    "date_modified": "2024-06-20T15:13:21.000",
    "request_status": "Pending",
    "responsible_agency": "Department of Public Works",
    "final_address": "4700 BLK Saint Anthony Ave",
    "address_councildis": "D",
    "status": "Pending",
    "rowid": "1105459",
    "final_x": "3682431.34048",
    "final_y": "549997.289885",
    "longitude": "-90.06448340596361",
    "latitude": "30.006273453303518",
    "geocoded_column": {
      "latitude": "30.006273453303518",
      "longitude": "-90.06448340596361"
    }
  },
  {
    "service_request": "2024-1105457",
    "request_type": "Trash/Recycling",
    "request_reason": "Order Trash Cart",
    "date_created": "2024-06-20T15:11:47.000",
    "date_modified": "2024-06-20T15:11:48.000",
    "request_status": "Pending",
    "responsible_agency": "Department of Sanitation",
    "final_address": "9023 Palmetto St",
    "address_councildis": "A",
    "status": "Assigned to Contractor",
    "contractor": "IV Waste",
    "rowid": "1105457",
    "final_x": "3665727.07034",
    "final_y": "537548.14164",
    "longitude": "-90.11767380825384",
    "latitude": "29.97254056434668",
    "geocoded_column": {
      "latitude": "29.97254056434668",
      "longitude": "-90.11767380825384"
    }
  },
  {
    "service_request": "2024-1105456",
    "request_type": "Roads/Drainage",
    "request_reason": "Catch Basin - Clogged",
    "date_created": "2024-06-20T15:10:52.000",
    "date_modified": "2024-06-20T15:10:53.000",
    "request_status": "Pending",
    "responsible_agency": "Department of Public Works",
    "final_address": "4806 Virgilian St",
    "address_councildis": "D",
    "status": "Pending",
    "rowid": "1105456",
    "final_x": "3697370.26122",
    "final_y": "554063.422744",
    "longitude": "-90.01714036751348",
    "latitude": "30.016990469369716",
    "geocoded_column": {
      "latitude": "30.016990469369716",
      "longitude": "-90.01714036751348"
    }
  },
  {
    "service_request": "2024-1105455",
    "request_type": "Property Maintenance",
    "request_reason": "Property Maintenance",
    "date_created": "2024-06-20T15:06:04.000",
    "date_modified": "2024-06-20T15:06:04.000",
    "request_status": "Pending",
    "responsible_agency": "Department of Code Enforcement",
    "final_address": "1643 Rivertree Court New Orleans 70131",
    "address_councildis": "C",
    "status": "Pending",
    "rowid": "1105455",
    "final_x": "3701367.48708",
    "final_y": "524716.215996",
    "longitude": "-90.0055853243854",
    "latitude": "29.936169495753223",
    "geocoded_column": {
      "latitude": "29.936169495753223",
      "longitude": "-90.0055853243854"
    }
  },
  {
    "service_request": "2024-1105454",
    "request_type": "Traffic Signals/Signs/Striping/Streetlights",
    "request_reason": "Street Name Sign Damaged or Missing",
    "date_created": "2024-06-20T15:05:28.000",
    "date_modified": "2024-06-20T15:25:16.000",
    "case_close_date": "2024-06-20T10:25:16.000",
    "request_status": "Closed",
    "responsible_agency": "Department of Public Works",
    "final_address": "HAYNE BLVD & ALABAMA ST",
    "address_councildis": "D",
    "status": "Duplicate Request",
    "rowid": "1105454",
    "final_x": "3694477.6",
    "final_y": "559858.88",
    "longitude": "-90.02607103024322",
    "latitude": "30.03301682655515",
    "geocoded_column": {
      "latitude": "30.03301682655515",
      "longitude": "-90.02607103024322"
    }
  },
  {
    "service_request": "2024-1105453",
    "request_type": "Trash/Recycling",
    "request_reason": "Order Trash Cart",
    "date_created": "2024-06-20T15:04:38.000",
    "date_modified": "2024-06-20T15:04:38.000",
    "request_status": "Pending",
    "responsible_agency": "Department of Sanitation",
    "final_address": "163 Westpark Ct",
    "address_councildis": "C",
    "status": "Assigned to Contractor",
    "contractor": "Richards Disposal",
    "rowid": "1105453",
    "final_x": "3695806.25706",
    "final_y": "522221.670074",
    "longitude": "-90.02323223937708",
    "latitude": "29.929486369320017",
    "geocoded_column": {
      "latitude": "29.929486369320017",
      "longitude": "-90.02323223937708"
    }
  },
  {
    "service_request": "2024-1105452",
    "request_type": "Abandoned Vehicles",
    "request_reason": "Abandoned/Junk Vehicles",
    "date_created": "2024-06-20T15:03:55.000",
    "date_modified": "2024-06-20T15:03:55.000",
    "request_status": "Pending",
    "responsible_agency": "Department of Public Works",
    "final_address": "4500 Knight Dr",
    "address_councildis": "E",
    "status": "Pending",
    "rowid": "1105452",
    "final_x": "3708208.46872",
    "final_y": "554065.377304",
    "longitude": "-89.98289634790018",
    "latitude": "30.016649074471946",
    "geocoded_column": {
      "latitude": "30.016649074471946",
      "longitude": "-89.98289634790018"
    }
  },
  {
    "service_request": "2024-1105451",
    "request_type": "Parks & Parkways",
    "request_reason": "Tree Stump (removal, grind)",
    "date_created": "2024-06-20T15:00:47.000",
    "date_modified": "2024-06-20T15:00:48.000",
    "request_status": "Pending",
    "responsible_agency": "Department of Parks & Parkway",
    "final_address": "4520 Knight Dr",
    "address_councildis": "E",
    "status": "Pending",
    "rowid": "1105451",
    "final_x": "3708195.50084",
    "final_y": "554194.185304",
    "longitude": "-89.98293252420224",
    "latitude": "30.017003666816976",
    "geocoded_column": {
      "latitude": "30.017003666816976",
      "longitude": "-89.98293252420224"
    }
  },
  {
    "service_request": "2024-1105450",
    "request_type": "Trash/Recycling",
    "request_reason": "Order Recycling Cart",
    "date_created": "2024-06-20T14:57:52.000",
    "date_modified": "2024-06-20T14:57:52.000",
    "request_status": "Pending",
    "responsible_agency": "Department of Sanitation",
    "final_address": "1120 S Broad St",
    "address_councildis": "B",
    "status": "Pending",
    "rowid": "1105450",
    "final_x": "3672580.67457",
    "final_y": "531042.49517",
    "longitude": "-90.09625067424788",
    "latitude": "29.95445050095013",
    "geocoded_column": {
      "latitude": "29.95445050095013",
      "longitude": "-90.09625067424788"
    }
  },
  {
    "service_request": "2024-1105449",
    "request_type": "Traffic Signals/Signs/Striping/Streetlights",
    "request_reason": "Street Name Sign Damaged or Missing",
    "date_created": "2024-06-20T14:57:38.000",
    "date_modified": "2024-06-20T14:57:39.000",
    "request_status": "Pending",
    "responsible_agency": "Department of Public Works",
    "final_address": "HAYNE BLVD & ALABAMA ST",
    "address_councildis": "D",
    "status": "Pending",
    "rowid": "1105449",
    "final_x": "3694477.6",
    "final_y": "559858.88",
    "longitude": "-90.02607103024322",
    "latitude": "30.03301682655515",
    "geocoded_column": {
      "latitude": "30.03301682655515",
      "longitude": "-90.02607103024322"
    }
  },
  {
    "service_request": "2024-1105448",
    "request_type": "Property Maintenance",
    "request_reason": "Property Maintenance",
    "date_created": "2024-06-20T14:55:19.000",
    "date_modified": "2024-06-20T14:55:20.000",
    "request_status": "Pending",
    "responsible_agency": "Department of Code Enforcement",
    "final_address": "2109 Iberville St",
    "address_councildis": "B",
    "status": "Pending",
    "rowid": "1105448",
    "final_x": "3677459.54485",
    "final_y": "534097.435141",
    "longitude": "-90.08073966204229",
    "latitude": "29.96270481990602",
    "geocoded_column": {
      "latitude": "29.96270481990602",
      "longitude": "-90.08073966204229"
    }
  },
  {
    "service_request": "2024-1105447",
    "request_type": "Trash/Recycling",
    "request_reason": "Request a Large Item Pick Up",
    "date_created": "2024-06-20T14:52:49.000",
    "date_modified": "2024-06-20T14:52:50.000",
    "request_status": "Pending",
    "responsible_agency": "Department of Sanitation",
    "final_address": "4853 Francis Dr",
    "address_councildis": "D",
    "status": "Assigned to Contractor",
    "contractor": "Waste Pro",
    "rowid": "1105447",
    "final_x": "3698218.94371",
    "final_y": "555016.563865",
    "longitude": "-90.0144242333853",
    "latitude": "30.019584413843724",
    "geocoded_column": {
      "latitude": "30.019584413843724",
      "longitude": "-90.0144242333853"
    }
  },
  {
    "service_request": "2024-1105446",
    "request_type": "Trash/Recycling",
    "request_reason": "Illegal Dumping",
    "date_created": "2024-06-20T14:52:42.000",
    "date_modified": "2024-06-20T14:52:42.000",
    "request_status": "Pending",
    "responsible_agency": "Department of Sanitation",
    "final_address": "1520 Sumner St",
    "address_councildis": "C",
    "status": "Pending",
    "rowid": "1105446",
    "final_x": "3691054.57219",
    "final_y": "525711.449405",
    "longitude": "-90.03810785667969",
    "latitude": "29.93923060880024",
    "geocoded_column": {
      "latitude": "29.93923060880024",
      "longitude": "-90.03810785667969"
    }
  },
  {
    "service_request": "2024-1105444",
    "request_type": "Property Maintenance",
    "request_reason": "Property Maintenance",
    "date_created": "2024-06-20T14:49:55.000",
    "date_modified": "2024-06-20T14:49:55.000",
    "request_status": "Pending",
    "responsible_agency": "Department of Code Enforcement",
    "final_address": "3300 Short St",
    "address_councildis": "B",
    "status": "Pending",
    "rowid": "1105444",
    "final_x": "3667363.10829",
    "final_y": "533685.534533",
    "longitude": "-90.1126368462438",
    "latitude": "29.96187184919605",
    "geocoded_column": {
      "latitude": "29.96187184919605",
      "longitude": "-90.1126368462438"
    }
  },
  {
    "service_request": "2024-1105443",
    "request_type": "Trash/Recycling",
    "request_reason": "Request a Large Item Pick Up",
    "date_created": "2024-06-20T14:47:11.000",
    "date_modified": "2024-06-20T14:47:11.000",
    "request_status": "Pending",
    "responsible_agency": "Department of Sanitation",
    "final_address": "5661 Red Maple Dr",
    "address_councildis": "E",
    "status": "Assigned to Contractor",
    "contractor": "Waste Pro",
    "rowid": "1105443",
    "final_x": "3723458.37177",
    "final_y": "564398.800673",
    "longitude": "-89.93431517153918",
    "latitude": "30.044558778517278",
    "geocoded_column": {
      "latitude": "30.044558778517278",
      "longitude": "-89.93431517153918"
    }
  },
  {
    "service_request": "2024-1105442",
    "request_type": "Trash/Recycling",
    "request_reason": "Dead Animal Pick Up",
    "date_created": "2024-06-20T14:45:37.000",
    "date_modified": "2024-06-20T14:45:37.000",
    "request_status": "Pending",
    "responsible_agency": "Department of Sanitation",
    "final_address": "DOWNMAN RD & CURRAN BLVD",
    "address_councildis": "D",
    "status": "Assigned to Contractor",
    "contractor": "Waste Pro",
    "rowid": "1105442",
    "final_x": "3694594.4",
    "final_y": "558628.48",
    "longitude": "-90.02574630322133",
    "latitude": "30.02963003170184",
    "geocoded_column": {
      "latitude": "30.02963003170184",
      "longitude": "-90.02574630322133"
    }
  },
  {
    "service_request": "2024-1105441",
    "request_type": "Trash/Recycling",
    "request_reason": "Order Trash Cart",
    "date_created": "2024-06-20T14:44:23.000",
    "date_modified": "2024-06-20T14:44:24.000",
    "request_status": "Pending",
    "responsible_agency": "Department of Sanitation",
    "final_address": "4851 Francis Dr",
    "address_councildis": "D",
    "status": "Assigned to Contractor",
    "contractor": "Waste Pro",
    "rowid": "1105441",
    "final_x": "3698222.76586",
    "final_y": "554993.612888",
    "longitude": "-90.01441299143889",
    "latitude": "30.01952118640135",
    "geocoded_column": {
      "latitude": "30.01952118640135",
      "longitude": "-90.01441299143889"
    }
  },
  {
    "service_request": "2024-1105440",
    "request_type": "Roads/Drainage",
    "request_reason": "Damaged Sidewalk",
    "date_created": "2024-06-20T14:43:26.000",
    "date_modified": "2024-06-20T14:43:26.000",
    "request_status": "Pending",
    "responsible_agency": "Department of Public Works",
    "final_address": "551 Joseph St",
    "address_councildis": "A",
    "status": "Pending",
    "rowid": "1105440",
    "final_x": "3666027.17191",
    "final_y": "518285.101942",
    "longitude": "-90.11737162159568",
    "latitude": "29.91956466725834",
    "geocoded_column": {
      "latitude": "29.91956466725834",
      "longitude": "-90.11737162159568"
    }
  },
  {
    "service_request": "2024-1105439",
    "request_type": "Trash/Recycling",
    "request_reason": "Request a Large Item Pick Up",
    "date_created": "2024-06-20T14:42:19.000",
    "date_modified": "2024-06-20T14:42:19.000",
    "request_status": "Pending",
    "responsible_agency": "Department of Sanitation",
    "final_address": "4851 Francis Dr",
    "address_councildis": "D",
    "status": "Assigned to Contractor",
    "contractor": "Waste Pro",
    "rowid": "1105439",
    "final_x": "3698222.76586",
    "final_y": "554993.612888",
    "longitude": "-90.01441299143889",
    "latitude": "30.01952118640135",
    "geocoded_column": {
      "latitude": "30.01952118640135",
      "longitude": "-90.01441299143889"
    }
  },
  {
    "service_request": "2024-1105438",
    "request_type": "Trash/Recycling",
    "request_reason": "Start Trash Service",
    "date_created": "2024-06-20T14:36:34.000",
    "date_modified": "2024-06-20T14:36:34.000",
    "request_status": "Pending",
    "responsible_agency": "Department of Sanitation",
    "final_address": "8337 Hickory St",
    "address_councildis": "A",
    "status": "Assigned to Contractor",
    "contractor": "IV Waste",
    "rowid": "1105438",
    "final_x": "3662637.67879",
    "final_y": "530657.873986",
    "longitude": "-90.1276596791941",
    "latitude": "29.953684341133556",
    "geocoded_column": {
      "latitude": "29.953684341133556",
      "longitude": "-90.1276596791941"
    }
  },
  {
    "service_request": "2024-1105437",
    "request_type": "Trash/Recycling",
    "request_reason": "Order Recycling Cart",
    "date_created": "2024-06-20T14:34:43.000",
    "date_modified": "2024-06-20T14:34:43.000",
    "request_status": "Pending",
    "responsible_agency": "Department of Sanitation",
    "final_address": "326 Pacific Ave",
    "address_councildis": "C",
    "status": "Pending",
    "rowid": "1105437",
    "final_x": "3688573.3263",
    "final_y": "530509.825666",
    "longitude": "-90.04577121086515",
    "latitude": "29.952501392739382",
    "geocoded_column": {
      "latitude": "29.952501392739382",
      "longitude": "-90.04577121086515"
    }
  },
  {
    "service_request": "2024-1105436",
    "request_type": "Traffic Signals/Signs/Striping/Streetlights",
    "request_reason": "Street Light Outage/Malfunction",
    "date_created": "2024-06-20T14:33:55.000",
    "date_modified": "2024-06-20T14:33:56.000",
    "request_status": "Pending",
    "responsible_agency": "Department of Public Works",
    "final_address": "11201 Ivy Ln",
    "address_councildis": "E",
    "status": "Assigned to Contractor",
    "contractor": "Legacy Professional Services",
    "rowid": "1105436",
    "final_x": "3716130.50258",
    "final_y": "560018.774621",
    "longitude": "-89.95764053875162",
    "latitude": "30.032759448744773",
    "geocoded_column": {
      "latitude": "30.032759448744773",
      "longitude": "-89.95764053875162"
    }
  },
  {
    "service_request": "2024-1105435",
    "request_type": "Trash/Recycling",
    "request_reason": "Order Recycling Cart",
    "date_created": "2024-06-20T14:33:37.000",
    "date_modified": "2024-06-20T14:33:37.000",
    "request_status": "Pending",
    "responsible_agency": "Department of Sanitation",
    "final_address": "10131 Hammond St",
    "address_councildis": "E",
    "status": "Pending",
    "rowid": "1105435",
    "final_x": "3713037.89355",
    "final_y": "556495.45609",
    "longitude": "-89.9675460579638",
    "latitude": "30.02317345015798",
    "geocoded_column": {
      "latitude": "30.02317345015798",
      "longitude": "-89.9675460579638"
    }
  },
  {
    "service_request": "2024-1105434",
    "request_type": "Trash/Recycling",
    "request_reason": "Request a Large Item Pick Up",
    "date_created": "2024-06-20T14:33:17.000",
    "date_modified": "2024-06-20T14:33:18.000",
    "request_status": "Pending",
    "responsible_agency": "Department of Sanitation",
    "final_address": "107 Alden Pl",
    "address_councildis": "D",
    "status": "Assigned to Contractor",
    "contractor": "IV Waste",
    "rowid": "1105434",
    "final_x": "3678657.95246",
    "final_y": "543904.45851",
    "longitude": "-90.07661558816092",
    "latitude": "29.989634675826697",
    "geocoded_column": {
      "latitude": "29.989634675826697",
      "longitude": "-90.07661558816092"
    }
  },
  {
    "service_request": "2024-1105433",
    "request_type": "Property Maintenance",
    "request_reason": "Property Maintenance",
    "date_created": "2024-06-20T14:31:44.000",
    "date_modified": "2024-06-20T14:31:44.000",
    "request_status": "Pending",
    "responsible_agency": "Department of Code Enforcement",
    "final_address": "1735 Montegut St",
    "address_councildis": "D",
    "status": "Pending",
    "rowid": "1105433",
    "final_x": "3689117.65711",
    "final_y": "538693.710537",
    "longitude": "-90.04376164320037",
    "latitude": "29.974987392554915",
    "geocoded_column": {
      "latitude": "29.974987392554915",
      "longitude": "-90.04376164320037"
    }
  },
  {
    "service_request": "2024-1105432",
    "request_type": "Traffic Signals/Signs/Striping/Streetlights",
    "request_reason": "Street Name Sign Damaged or Missing",
    "date_created": "2024-06-20T14:30:06.000",
    "date_modified": "2024-06-20T14:30:06.000",
    "request_status": "Pending",
    "responsible_agency": "Department of Public Works",
    "final_address": "7601 Bullard Ave",
    "address_councildis": "E",
    "status": "Pending",
    "rowid": "1105432",
    "final_x": "3713023.98469",
    "final_y": "567679.6273",
    "longitude": "-89.96716866093256",
    "latitude": "30.053925888519245",
    "geocoded_column": {
      "latitude": "30.053925888519245",
      "longitude": "-89.96716866093256"
    }
  },
  {
    "service_request": "2024-1105431",
    "request_type": "Abandoned Vehicles",
    "request_reason": "Abandoned/Junk Vehicles",
    "date_created": "2024-06-20T14:29:31.000",
    "date_modified": "2024-06-20T14:29:31.000",
    "request_status": "Pending",
    "responsible_agency": "Department of Public Works",
    "final_address": "6055 Milne Blvd",
    "address_councildis": "A",
    "status": "Pending",
    "rowid": "1105431",
    "final_x": "3667145.1129",
    "final_y": "548008.742226",
    "longitude": "-90.11284347203514",
    "latitude": "30.00126221859402",
    "geocoded_column": {
      "latitude": "30.00126221859402",
      "longitude": "-90.11284347203514"
    }
  },
  {
    "service_request": "2024-1105430",
    "request_type": "Traffic Signals/Signs/Striping/Streetlights",
    "request_reason": "Street Name Sign Damaged or Missing",
    "date_created": "2024-06-20T14:29:11.000",
    "date_modified": "2024-06-20T14:29:11.000",
    "request_status": "Pending",
    "responsible_agency": "Department of Public Works",
    "final_address": "4842 Strasbourg Pl",
    "address_councildis": "E",
    "status": "Pending",
    "rowid": "1105430",
    "final_x": "3725745.89836",
    "final_y": "561252.663646",
    "longitude": "-89.92720766052243",
    "latitude": "30.03583120908293",
    "geocoded_column": {
      "latitude": "30.03583120908293",
      "longitude": "-89.92720766052243"
    }
  },
  {
    "service_request": "2024-1105429",
    "request_type": "Property Maintenance",
    "request_reason": "Property Maintenance",
    "date_created": "2024-06-20T14:29:05.000",
    "date_modified": "2024-06-20T14:29:05.000",
    "request_status": "Pending",
    "responsible_agency": "Department of Code Enforcement",
    "final_address": "1735 Feliciana St",
    "address_councildis": "D",
    "status": "Pending",
    "rowid": "1105429",
    "final_x": "3689393.39516",
    "final_y": "538520.101641",
    "longitude": "-90.04289696927974",
    "latitude": "29.974501493659407",
    "geocoded_column": {
      "latitude": "29.974501493659407",
      "longitude": "-90.04289696927974"
    }
  },
  {
    "service_request": "2024-1105428",
    "request_type": "Trash/Recycling",
    "request_reason": "Order Recycling Cart",
    "date_created": "2024-06-20T14:28:19.000",
    "date_modified": "2024-06-20T14:28:19.000",
    "request_status": "Pending",
    "responsible_agency": "Department of Sanitation",
    "final_address": "1120 S Broad St",
    "address_councildis": "B",
    "status": "Pending",
    "rowid": "1105428",
    "final_x": "3672580.67457",
    "final_y": "531042.49517",
    "longitude": "-90.09625067424788",
    "latitude": "29.95445050095013",
    "geocoded_column": {
      "latitude": "29.95445050095013",
      "longitude": "-90.09625067424788"
    }
  },
  {
    "service_request": "2024-1105427",
    "request_type": "Roads/Drainage",
    "request_reason": "Pothole",
    "date_created": "2024-06-20T14:27:25.000",
    "date_modified": "2024-06-20T14:28:40.000",
    "request_status": "Pending",
    "responsible_agency": "Department of Public Works",
    "final_address": "FILMORE AVE & WISNER BLVD",
    "address_councildis": "A",
    "status": "Pending",
    "rowid": "1105427",
    "final_x": "3675505.3",
    "final_y": "551657.28",
    "longitude": "-90.08630743138559",
    "latitude": "30.01104690311035",
    "geocoded_column": {
      "latitude": "30.01104690311035",
      "longitude": "-90.08630743138559"
    }
  },
  {
    "service_request": "2024-1105426",
    "request_type": "Trash/Recycling",
    "request_reason": "Return Trash Cart",
    "date_created": "2024-06-20T14:27:09.000",
    "date_modified": "2024-06-20T14:27:10.000",
    "request_status": "Pending",
    "responsible_agency": "Department of Sanitation",
    "final_address": "1472 Constance St",
    "address_councildis": "B",
    "status": "Assigned to Contractor",
    "contractor": "IV Waste",
    "rowid": "1105426",
    "final_x": "3680612.63605",
    "final_y": "523831.775099",
    "longitude": "-90.0711397141191",
    "latitude": "29.934382547630115",
    "geocoded_column": {
      "latitude": "29.934382547630115",
      "longitude": "-90.0711397141191"
    }
  },
  {
    "service_request": "2024-1105425",
    "request_type": "Property Maintenance",
    "request_reason": "Property Maintenance",
    "date_created": "2024-06-20T14:26:13.000",
    "date_modified": "2024-06-20T14:26:13.000",
    "request_status": "Pending",
    "responsible_agency": "Department of Code Enforcement",
    "final_address": "5542 Pratt Dr",
    "address_councildis": "D",
    "status": "Pending",
    "rowid": "1105425",
    "final_x": "3680244.85423",
    "final_y": "552965.284759",
    "longitude": "-90.07128777912374",
    "latitude": "30.014500763127213",
    "geocoded_column": {
      "latitude": "30.014500763127213",
      "longitude": "-90.07128777912374"
    }
  },
  {
    "service_request": "2024-1105424",
    "request_type": "Property Maintenance",
    "request_reason": "Property Maintenance",
    "date_created": "2024-06-20T14:25:04.000",
    "date_modified": "2024-06-20T14:25:04.000",
    "request_status": "Pending",
    "responsible_agency": "Department of Code Enforcement",
    "final_address": "3026 N Roman St",
    "address_councildis": "D",
    "status": "Pending",
    "rowid": "1105424",
    "final_x": "3689285.25692",
    "final_y": "538674.234761",
    "longitude": "-90.04323301413655",
    "latitude": "29.97492865350749",
    "geocoded_column": {
      "latitude": "29.97492865350749",
      "longitude": "-90.04323301413655"
    }
  },
  {
    "service_request": "2024-1105423",
    "request_type": "Parks & Parkways",
    "request_reason": "Request Tree Service (Right of Way/Public Property)",
    "date_created": "2024-06-20T14:24:10.000",
    "date_modified": "2024-06-20T14:24:11.000",
    "request_status": "Pending",
    "responsible_agency": "Department of Parks & Parkway",
    "final_address": "4826 Knight Dr",
    "address_councildis": "E",
    "status": "Pending",
    "rowid": "1105423",
    "final_x": "3707994.58097",
    "final_y": "556219.29193",
    "longitude": "-89.98349196590233",
    "latitude": "30.02257843278205",
    "geocoded_column": {
      "latitude": "30.02257843278205",
      "longitude": "-89.98349196590233"
    }
  },
  {
    "service_request": "2024-1105422",
    "request_type": "Trash/Recycling",
    "request_reason": "Replace Trash Cart",
    "date_created": "2024-06-20T14:21:41.000",
    "date_modified": "2024-06-20T14:21:42.000",
    "request_status": "Pending",
    "responsible_agency": "Department of Sanitation",
    "final_address": "1122 Spain St",
    "address_councildis": "C",
    "status": "Assigned to Contractor",
    "contractor": "IV Waste",
    "rowid": "1105422",
    "final_x": "3686085.89698",
    "final_y": "536660.713927",
    "longitude": "-90.05340842072972",
    "latitude": "29.969490833797458",
    "geocoded_column": {
      "latitude": "29.969490833797458",
      "longitude": "-90.05340842072972"
    }
  },
  {
    "service_request": "2024-1105421",
    "request_type": "Trash/Recycling",
    "request_reason": "Request a Large Item Pick Up",
    "date_created": "2024-06-20T14:21:21.000",
    "date_modified": "2024-06-20T14:21:21.000",
    "request_status": "Pending",
    "responsible_agency": "Department of Sanitation",
    "final_address": "1122 Spain St",
    "address_councildis": "C",
    "status": "Assigned to Contractor",
    "contractor": "IV Waste",
    "rowid": "1105421",
    "final_x": "3686085.89698",
    "final_y": "536660.713927",
    "longitude": "-90.05340842072972",
    "latitude": "29.969490833797458",
    "geocoded_column": {
      "latitude": "29.969490833797458",
      "longitude": "-90.05340842072972"
    }
  },
  {
    "service_request": "2024-1105420",
    "request_type": "Abandoned Vehicles",
    "request_reason": "Abandoned/Junk Vehicles",
    "date_created": "2024-06-20T14:21:18.000",
    "date_modified": "2024-06-20T14:21:18.000",
    "request_status": "Pending",
    "responsible_agency": "Department of Public Works",
    "final_address": "5350 Pratt Dr",
    "address_councildis": "D",
    "status": "Pending",
    "rowid": "1105420",
    "final_x": "3680308.32155",
    "final_y": "552074.866582",
    "longitude": "-90.07111824376224",
    "latitude": "30.01205051288932",
    "geocoded_column": {
      "latitude": "30.01205051288932",
      "longitude": "-90.07111824376224"
    }
  },
  {
    "service_request": "2024-1105419",
    "request_type": "Traffic Signals/Signs/Striping/Streetlights",
    "request_reason": "Street Light Outage/Malfunction",
    "date_created": "2024-06-20T14:20:14.000",
    "date_modified": "2024-06-20T14:20:15.000",
    "request_status": "Pending",
    "responsible_agency": "Department of Public Works",
    "final_address": "11417 Melvin Pl",
    "address_councildis": "E",
    "status": "Assigned to Contractor",
    "contractor": "Legacy Professional Services",
    "rowid": "1105419",
    "final_x": "3717823.43845",
    "final_y": "561685.377631",
    "longitude": "-89.95222730128802",
    "latitude": "30.03728593803662",
    "geocoded_column": {
      "latitude": "30.03728593803662",
      "longitude": "-89.95222730128802"
    }
  },