[
  {
    "service_request": "2024-1143231",
    "request_type": "Street and Traffic Signs",
    "request_reason": "Stop Sign Missing or Damaged",
    "date_created": "2024-10-22T23:33:57.000",
    "date_modified": "2024-10-22T23:33:57.000",
    "request_status": "Pending",
    "responsible_agency": "Department of Public Works",
    "final_address": "1104 Teche St",
    "address_councildis": "C",
    "status": "Pending",
    "rowid": "1143231",
    "final_x": "3686651.18492",
    "final_y": "527465.939455",
    "longitude": "-90.05194792673396",
    "latitude": "29.944190992136157",
    "geocoded_column": {
      "latitude": "29.944190992136157",
      "longitude": "-90.05194792673396"
    }
  },
  {
    "service_request": "2024-1143230",
    "request_type": "General Services",
    "request_reason": "General Service Request",
    "date_created": "2024-10-22T23:23:03.000",
    "date_modified": "2024-10-22T23:23:03.000",
    "request_status": "Pending",
    "responsible_agency": "Orleans Parish Communication District",
    "final_address": "1000 S Dupre St",
    "address_councildis": "B",
    "status": "Pending",
    "rowid": "1143230",
    "final_x": "3672092.10286",
    "final_y": "532118.410115",
    "longitude": "-90.09775676111572",
    "latitude": "29.957423405197243",
    "geocoded_column": {
      "latitude": "29.957423405197243",
      "longitude": "-90.09775676111572"
    }
  },
  {
    "service_request": "2024-1143229",
    "request_type": "Streetlights",
    "request_reason": "Streetlight Outage/Malfunction",
    "date_created": "2024-10-22T23:13:29.000",
    "date_modified": "2024-10-22T23:13:30.000",
    "request_status": "Pending",
    "responsible_agency": "Department of Public Works",
    "final_address": "1821 Clouet St",
    "address_councildis": "D",
    "status": "Pending",
    "contractor": "Legacy Professional Services",
    "rowid": "1143229",
    "final_x": "3689741.18275",
    "final_y": "538797.999305",
    "longitude": "-90.04178868296711",
    "latitude": "29.975254839659534",
    "geocoded_column": {
      "latitude": "29.975254839659534",
      "longitude": "-90.04178868296711"
    }
  },
  {
    "service_request": "2024-1143228",
    "request_type": "Streetlights",
    "request_reason": "Streetlight Outage/Malfunction",
    "date_created": "2024-10-22T23:10:39.000",
    "date_modified": "2024-10-22T23:10:41.000",
    "request_status": "Pending",
    "responsible_agency": "Department of Public Works",
    "final_address": "1821 Clouet St",
    "address_councildis": "D",
    "status": "Pending",
    "contractor": "Legacy Professional Services",
    "rowid": "1143228",
    "final_x": "3689741.18275",
    "final_y": "538797.999305",
    "longitude": "-90.04178868296711",
    "latitude": "29.975254839659534",
    "geocoded_column": {
      "latitude": "29.975254839659534",
      "longitude": "-90.04178868296711"
    }
  },
  {
    "service_request": "2024-1143227",
    "request_type": "Trash/Recycling",
    "request_reason": "Request a Large Item Pick Up",
    "date_created": "2024-10-22T22:22:40.000",
    "date_modified": "2024-10-22T22:22:41.000",
    "request_status": "Pending",
    "responsible_agency": "Department of Sanitation",
    "final_address": "4547 Louisa Dr",
    "address_councildis": "D",
    "status": "Assigned to Contractor",
    "contractor": "IV Waste",
    "rowid": "1143227",
    "final_x": "3691017.15056",
    "final_y": "550772.218261",
    "longitude": "-90.03733111595481",
    "latitude": "30.00814000419238",
    "geocoded_column": {
      "latitude": "30.00814000419238",
      "longitude": "-90.03733111595481"
    }
  },
  {
    "service_request": "2024-1143226",
    "request_type": "Roads and Streets",
    "request_reason": "Push-up/Pavement Expansion",
    "date_created": "2024-10-22T21:47:54.000",
    "date_modified": "2024-10-22T21:47:54.000",
    "request_status": "Pending",
    "responsible_agency": "Department of Public Works",
    "final_address": "3133 Newton St",
    "address_councildis": "C",
    "status": "Pending",
    "rowid": "1143226",
    "final_x": "3695918.30794",
    "final_y": "527748.184191",
    "longitude": "-90.0226789614437",
    "latitude": "29.944678856341913",
    "geocoded_column": {
      "latitude": "29.944678856341913",
      "longitude": "-90.0226789614437"
    }
  },
  {
    "service_request": "2024-1143225",
    "request_type": "Streetlights",
    "request_reason": "New Streetlight Request",
    "date_created": "2024-10-22T21:42:26.000",
    "date_modified": "2024-10-22T21:42:28.000",
    "request_status": "Pending",
    "responsible_agency": "Department of Public Works",
    "final_address": "3133 Newton St",
    "address_councildis": "C",
    "status": "Pending",
    "contractor": "Legacy Professional Services",
    "rowid": "1143225",
    "final_x": "3695918.30794",
    "final_y": "527748.184191",
    "longitude": "-90.0226789614437",
    "latitude": "29.944678856341913",
    "geocoded_column": {
      "latitude": "29.944678856341913",
      "longitude": "-90.0226789614437"
    }
  },
  {
    "service_request": "2024-1143224",
    "request_type": "Trash/Recycling",
    "request_reason": "Request a Large Item Pick Up",
    "date_created": "2024-10-22T20:33:23.000",
    "date_modified": "2024-10-22T20:33:24.000",
    "request_status": "Pending",
    "responsible_agency": "Department of Sanitation",
    "final_address": "7500 Hickman St",
    "address_councildis": "E",
    "status": "Assigned to Contractor",
    "contractor": "Waste Pro",
    "rowid": "1143224",
    "final_x": "3706289.10903",
    "final_y": "562902.069792",
    "longitude": "-89.98863300273872",
    "latitude": "30.041008583524885",
    "geocoded_column": {
      "latitude": "30.041008583524885",
      "longitude": "-89.98863300273872"
    }
  },
  {
    "service_request": "2024-1143223",
    "request_type": "Streetlights",
    "request_reason": "Streetlight Outage/Malfunction",
    "date_created": "2024-10-22T20:25:09.000",
    "date_modified": "2024-10-22T20:25:11.000",
    "request_status": "Pending",
    "responsible_agency": "Department of Public Works",
    "final_address": "65 Versailles Blvd",
    "address_councildis": "B",
    "status": "Pending",
    "contractor": "Legacy Professional Services",
    "rowid": "1143223",
    "final_x": "3667786.32353",
    "final_y": "530363.657538",
    "longitude": "-90.11141225974532",
    "latitude": "29.952725374670543",
    "geocoded_column": {
      "latitude": "29.952725374670543",
      "longitude": "-90.11141225974532"
    }
  },
  {
    "service_request": "2024-1143222",
    "request_type": "Mosquito, Termite & Rodent Control",
    "request_reason": "Mosquito Complaint",
    "date_created": "2024-10-22T20:22:17.000",
    "date_modified": "2024-10-22T20:22:17.000",
    "request_status": "Pending",
    "responsible_agency": "Mosquito, Termite & Rodent Control Board",
    "final_address": "7963 Jahncke Rd",
    "address_councildis": "E",
    "status": "Pending",
    "rowid": "1143222",
    "final_x": "3713420.77131",
    "final_y": "569409.67607",
    "longitude": "-89.96584926839381",
    "latitude": "30.058669799760057",
    "geocoded_column": {
      "latitude": "30.058669799760057",
      "longitude": "-89.96584926839381"
    }
  },
  {
    "service_request": "2024-1143221",
    "request_type": "Trash/Recycling",
    "request_reason": "Request a Large Item Pick Up",
    "date_created": "2024-10-22T20:18:24.000",
    "date_modified": "2024-10-22T20:18:25.000",
    "request_status": "Pending",
    "responsible_agency": "Department of Sanitation",
    "final_address": "5415 Burgundy St",
    "address_councildis": "E",
    "status": "Assigned to Contractor",
    "contractor": "Waste Pro",
    "rowid": "1143221",
    "final_x": "3697082.16797",
    "final_y": "533198.77082",
    "longitude": "-90.01880690380933",
    "latitude": "29.959629399258237",
    "geocoded_column": {
      "latitude": "29.959629399258237",
      "longitude": "-90.01880690380933"
    }
  },
  {
    "service_request": "2024-1143220",
    "request_type": "Trash/Recycling",
    "request_reason": "Request a Large Item Pick Up",
    "date_created": "2024-10-22T20:16:53.000",
    "date_modified": "2024-10-22T20:16:54.000",
    "request_status": "Pending",
    "responsible_agency": "Department of Sanitation",
    "final_address": "5413 Burgundy St",
    "address_councildis": "E",
    "status": "Assigned to Contractor",
    "contractor": "Waste Pro",
    "rowid": "1143220",
    "final_x": "3697069.76682",
    "final_y": "533200.837316",
    "longitude": "-90.0188459887216",
    "latitude": "29.95963547257295",
    "geocoded_column": {
      "latitude": "29.95963547257295",
      "longitude": "-90.0188459887216"
    }
  },
  {
    "service_request": "2024-1143219",
    "request_type": "Streetlights",
    "request_reason": "Streetlight Outage/Malfunction",
    "date_created": "2024-10-22T19:53:34.000",
    "date_modified": "2024-10-22T19:53:35.000",
    "request_status": "Pending",
    "responsible_agency": "Department of Public Works",
    "final_address": "4012 Vendome Pl",
    "address_councildis": "B",
    "status": "Pending",
    "contractor": "Legacy Professional Services",
    "rowid": "1143219",
    "final_x": "3668626.63022",
    "final_y": "529951.891265",
    "longitude": "-90.10877283406187",
    "latitude": "29.951568485613283",
    "geocoded_column": {
      "latitude": "29.951568485613283",
      "longitude": "-90.10877283406187"
    }
  },
  {
    "service_request": "2024-1143218",
    "request_type": "Trash/Recycling",
    "request_reason": "Return Trash Cart",
    "date_created": "2024-10-22T19:43:27.000",
    "date_modified": "2024-10-22T19:43:28.000",
    "request_status": "Pending",
    "responsible_agency": "Department of Sanitation",
    "final_address": "356 Pine St",
    "address_councildis": "A",
    "status": "Assigned to Contractor",
    "contractor": "IV Waste",
    "rowid": "1143218",
    "final_x": "3661806.37485",
    "final_y": "523661.655291",
    "longitude": "-90.13051650010839",
    "latitude": "29.934470994983734",
    "geocoded_column": {
      "latitude": "29.934470994983734",
      "longitude": "-90.13051650010839"
    }
  },
  {
    "service_request": "2024-1143217",
    "request_type": "Streetlights",
    "request_reason": "Streetlight Outage/Malfunction",
    "date_created": "2024-10-22T19:42:15.000",
    "date_modified": "2024-10-22T19:42:16.000",
    "request_status": "Pending",
    "responsible_agency": "Department of Public Works",
    "final_address": "1205 Coliseum St",
    "address_councildis": "B",
    "status": "Pending",
    "contractor": "Legacy Professional Services",
    "rowid": "1143217",
    "final_x": "3680130.04968",
    "final_y": "525587.591421",
    "longitude": "-90.07260223682472",
    "latitude": "29.9392250696267",
    "geocoded_column": {
      "latitude": "29.9392250696267",
      "longitude": "-90.07260223682472"
    }
  },
  {
    "service_request": "2024-1143216",
    "request_type": "Trash/Recycling",
    "request_reason": "Request a Large Item Pick Up",
    "date_created": "2024-10-22T19:39:43.000",
    "date_modified": "2024-10-22T19:39:44.000",
    "request_status": "Pending",
    "responsible_agency": "Department of Sanitation",
    "final_address": "813 Verret St",
    "address_councildis": "C",
    "status": "Assigned to Contractor",
    "contractor": "Richards Disposal",
    "rowid": "1143216",
    "final_x": "3687108.22754",
    "final_y": "528597.013696",
    "longitude": "-90.05046493589333",
    "latitude": "29.947286999956315",
    "geocoded_column": {
      "latitude": "29.947286999956315",
      "longitude": "-90.05046493589333"
    }
  },
  {
    "service_request": "2024-1143215",
    "request_type": "Streetlights",
    "request_reason": "Streetlight Outage/Malfunction",
    "date_created": "2024-10-22T19:37:23.000",
    "date_modified": "2024-10-22T19:37:25.000",
    "request_status": "Pending",
    "responsible_agency": "Department of Public Works",
    "final_address": "1205 Coliseum St",
    "address_councildis": "B",
    "status": "Pending",
    "contractor": "Legacy Professional Services",
    "rowid": "1143215",
    "final_x": "3680130.04968",
    "final_y": "525587.591421",
    "longitude": "-90.07260223682472",
    "latitude": "29.9392250696267",
    "geocoded_column": {
      "latitude": "29.9392250696267",
      "longitude": "-90.07260223682472"
    }
  },
  {
    "service_request": "2024-1143214",
    "request_type": "Trash/Recycling",
    "request_reason": "Replace Trash Cart",
    "date_created": "2024-10-22T19:34:24.000",
    "date_modified": "2024-10-22T19:34:25.000",
    "request_status": "Pending",
    "responsible_agency": "Department of Sanitation",
    "final_address": "4633 Dart St",
    "address_councildis": "B",
    "status": "Assigned to Contractor",
    "contractor": "IV Waste",
    "rowid": "1143214",
    "final_x": "3669125.99137",
    "final_y": "531725.207875",
    "longitude": "-90.10713616915234",
    "latitude": "29.95642984055844",
    "geocoded_column": {
      "latitude": "29.95642984055844",
      "longitude": "-90.10713616915234"
    }
  },
  {
    "service_request": "2024-1143213",
    "request_type": "Trash/Recycling",
    "request_reason": "Request a Large Item Pick Up",
    "date_created": "2024-10-22T19:16:35.000",
    "date_modified": "2024-10-22T19:16:36.000",
    "request_status": "Pending",
    "responsible_agency": "Department of Sanitation",
    "final_address": "4013 Lennox Blvd",
    "address_councildis": "C",
    "status": "Assigned to Contractor",
    "contractor": "Richards Disposal",
    "rowid": "1143213",
    "final_x": "3700721.20106",
    "final_y": "515977.5733",
    "longitude": "-90.00794476433357",
    "latitude": "29.912161810227953",
    "geocoded_column": {
      "latitude": "29.912161810227953",
      "longitude": "-90.00794476433357"
    }
  },
  {
    "service_request": "2024-1143212",
    "request_type": "Streetlights",
    "request_reason": "Streetlight Outage/Malfunction",
    "date_created": "2024-10-22T19:16:12.000",
    "date_modified": "2024-10-22T19:16:17.000",
    "request_status": "Pending",
    "responsible_agency": "Department of Public Works",
    "final_address": "6500 BLK Spanish Fort Blvd",
    "address_councildis": "D",
    "status": "Pending",
    "contractor": "Legacy Professional Services",
    "rowid": "1143212",
    "final_x": "3674250.92082",
    "final_y": "556117.832106",
    "longitude": "-90.09011761819339",
    "latitude": "30.023349300138513",
    "geocoded_column": {
      "latitude": "30.023349300138513",
      "longitude": "-90.09011761819339"
    }
  },
  {
    "service_request": "2024-1143211",
    "request_type": "Trash/Recycling",
    "request_reason": "Request a Large Item Pick Up",
    "date_created": "2024-10-22T19:09:19.000",
    "date_modified": "2024-10-22T19:09:20.000",
    "request_status": "Pending",
    "responsible_agency": "Department of Sanitation",
    "final_address": "4617 Willow St, New Orleans, Louisiana, 70115",
    "address_councildis": "B",
    "status": "Assigned to Contractor",
    "contractor": "IV Waste",
    "rowid": "1143211",
    "final_x": "3669489.08122",
    "final_y": "525380.482557",
    "longitude": "-90.10620420671661",
    "latitude": "29.93897322687392",
    "geocoded_column": {
      "latitude": "29.93897322687392",
      "longitude": "-90.10620420671661"
    }
  },
  {
    "service_request": "2024-1143210",
    "request_type": "Trash/Recycling",
    "request_reason": "Request a Large Item Pick Up",
    "date_created": "2024-10-22T18:40:33.000",
    "date_modified": "2024-10-22T18:40:34.000",
    "request_status": "Pending",
    "responsible_agency": "Department of Sanitation",
    "final_address": "2736 Jonquil St",
    "address_councildis": "D",
    "status": "Assigned to Contractor",
    "contractor": "IV Waste",
    "rowid": "1143210",
    "final_x": "3688046.51881",
    "final_y": "547215.230225",
    "longitude": "-90.04684239697757",
    "latitude": "29.998451632988573",
    "geocoded_column": {
      "latitude": "29.998451632988573",
      "longitude": "-90.04684239697757"
    }
  },
  {
    "service_request": "2024-1143209",
    "request_type": "Trash/Recycling",
    "request_reason": "Missed Trash Pick-Up",
    "date_created": "2024-10-22T18:19:30.000",
    "date_modified": "2024-10-22T18:19:31.000",
    "request_status": "Pending",
    "responsible_agency": "Department of Sanitation",
    "final_address": "300 Wagner St, New Orleans, Louisiana, 70114",
    "address_councildis": "C",
    "status": "Assigned to Contractor",
    "contractor": "Richards Disposal",
    "rowid": "1143209",
    "final_x": "3690676.72636",
    "final_y": "530599.550274",
    "longitude": "-90.03912645363664",
    "latitude": "29.95268294699283",
    "geocoded_column": {
      "latitude": "29.95268294699283",
      "longitude": "-90.03912645363664"
    }
  },
  {
    "service_request": "2024-1143208",
    "request_type": "Roads and Streets",
    "request_reason": "Pothole",
    "date_created": "2024-10-22T18:12:18.000",
    "date_modified": "2024-10-22T18:12:18.000",
    "request_status": "Pending",
    "responsible_agency": "Department of Public Works",
    "final_address": "624 Eliza St",
    "address_councildis": "C",
    "status": "Pending",
    "rowid": "1143208",
    "final_x": "3687391.50902",
    "final_y": "530004.746305",
    "longitude": "-90.04952071139542",
    "latitude": "29.95114905984249",
    "geocoded_column": {
      "latitude": "29.95114905984249",
      "longitude": "-90.04952071139542"
    }
  },
  {
    "service_request": "2024-1143207",
    "request_type": "Roads and Streets",
    "request_reason": "Street Subsidence (Sinking)",
    "date_created": "2024-10-22T18:10:29.000",
    "date_modified": "2024-10-22T18:10:29.000",
    "request_status": "Pending",
    "responsible_agency": "Department of Public Works",
    "final_address": "510 N Carrollton Ave",
    "address_councildis": "A",
    "status": "Pending",
    "rowid": "1143207",
    "final_x": "3672261.59585",
    "final_y": "539376.533962",
    "longitude": "-90.09697425639553",
    "latitude": "29.97737577995756",
    "geocoded_column": {
      "latitude": "29.97737577995756",
      "longitude": "-90.09697425639553"
    }
  },
  {
    "service_request": "2024-1143206",
    "request_type": "Trash/Recycling",
    "request_reason": "Illegal Dumping",
    "date_created": "2024-10-22T18:07:42.000",
    "date_modified": "2024-10-22T18:07:42.000",
    "request_status": "Pending",
    "responsible_agency": "Department of Sanitation",
    "final_address": "700 BLK River Oaks Dr",
    "address_councildis": "C",
    "status": "Pending",
    "rowid": "1143206",
    "final_x": "3701465.27846",
    "final_y": "519836.196664",
    "longitude": "-90.00545513535191",
    "latitude": "29.922748017377632",
    "geocoded_column": {
      "latitude": "29.922748017377632",
      "longitude": "-90.00545513535191"
    }
  },
  {
    "service_request": "2024-1143205",
    "request_type": "Trash/Recycling",
    "request_reason": "Illegal Dumping",
    "date_created": "2024-10-22T17:57:17.000",
    "date_modified": "2024-10-22T17:57:17.000",
    "request_status": "Pending",
    "responsible_agency": "Department of Sanitation",
    "final_address": "1400 BLK Brooklyn Ave",
    "address_councildis": "C",
    "status": "Pending",
    "rowid": "1143205",
    "final_x": "3686302.8393",
    "final_y": "526168.472713",
    "longitude": "-90.05309351933364",
    "latitude": "29.94063410416927",
    "geocoded_column": {
      "latitude": "29.94063410416927",
      "longitude": "-90.05309351933364"
    }
  },
  {
    "service_request": "2024-1143204",
    "request_type": "Streetlights",
    "request_reason": "Streetlight Outage/Malfunction",
    "date_created": "2024-10-22T17:48:43.000",
    "date_modified": "2024-10-22T17:48:44.000",
    "request_status": "Pending",
    "responsible_agency": "Department of Public Works",
    "final_address": "1818 Magazine St",
    "address_councildis": "B",
    "status": "Pending",
    "contractor": "Legacy Professional Services",
    "rowid": "1143204",
    "final_x": "3679810.00763",
    "final_y": "522804.744699",
    "longitude": "-90.07370923182951",
    "latitude": "29.931582838462727",
    "geocoded_column": {
      "latitude": "29.931582838462727",
      "longitude": "-90.07370923182951"
    }
  },
  {
    "service_request": "2024-1143203",
    "request_type": "Trash/Recycling",
    "request_reason": "Replace Trash Cart",
    "date_created": "2024-10-22T17:33:34.000",
    "date_modified": "2024-10-22T17:33:35.000",
    "request_status": "Pending",
    "responsible_agency": "Department of Sanitation",
    "final_address": "7430 Crestmont Rd",
    "address_councildis": "E",
    "status": "Assigned to Contractor",
    "contractor": "Waste Pro",
    "rowid": "1143203",
    "final_x": "3699771.87428",
    "final_y": "559768.438813",
    "longitude": "-90.00934403153849",
    "latitude": "30.032601005048615",
    "geocoded_column": {
      "latitude": "30.032601005048615",
      "longitude": "-90.00934403153849"
    }
  },
  {
    "service_request": "2024-1143202",
    "request_type": "Trash/Recycling",
    "request_reason": "Return Trash Cart",
    "date_created": "2024-10-22T17:29:38.000",
    "date_modified": "2024-10-22T17:29:39.000",
    "request_status": "Pending",
    "responsible_agency": "Department of Sanitation",
    "final_address": "3229 Grand-Route St John St",
    "address_councildis": "A",
    "status": "Assigned to Contractor",
    "contractor": "IV Waste",
    "rowid": "1143202",
    "final_x": "3675758.71381",
    "final_y": "540378.615627",
    "longitude": "-90.0858947287956",
    "latitude": "29.980026941954087",
    "geocoded_column": {
      "latitude": "29.980026941954087",
      "longitude": "-90.0858947287956"
    }
  },
  {
    "service_request": "2024-1143201",
    "request_type": "Street and Traffic Signs",
    "request_reason": "Stop Sign Missing or Damaged",
    "date_created": "2024-10-22T17:28:19.000",
    "date_modified": "2024-10-22T17:28:19.000",
    "request_status": "Pending",
    "responsible_agency": "Department of Public Works",
    "final_address": "739 Pine St",
    "address_councildis": "A",
    "status": "Pending",
    "rowid": "1143201",
    "final_x": "3663139.88967",
    "final_y": "525422.210749",
    "longitude": "-90.12624805627492",
    "latitude": "29.939273406309354",
    "geocoded_column": {
      "latitude": "29.939273406309354",
      "longitude": "-90.12624805627492"
    }
  },
  {
    "service_request": "2024-1143200",
    "request_type": "Trash/Recycling",
    "request_reason": "Request a Large Item Pick Up",
    "date_created": "2024-10-22T17:24:48.000",
    "date_modified": "2024-10-22T17:24:49.000",
    "request_status": "Pending",
    "responsible_agency": "Department of Sanitation",
    "final_address": "1725 Delachaise St",
    "address_councildis": "B",
    "status": "Assigned to Contractor",
    "contractor": "IV Waste",
    "rowid": "1143200",
    "final_x": "3673621.01499",
    "final_y": "521958.910842",
    "longitude": "-90.0932760907818",
    "latitude": "29.929442693780985",
    "geocoded_column": {
      "latitude": "29.929442693780985",
      "longitude": "-90.0932760907818"
    }
  },
  {
    "service_request": "2024-1143199",
    "request_type": "Street and Traffic Signs",
    "request_reason": "Additional Signage Request",
    "date_created": "2024-10-22T17:21:58.000",
    "date_modified": "2024-10-22T17:21:58.000",
    "request_status": "Pending",
    "responsible_agency": "Department of Public Works",
    "final_address": "FILMORE AVE & ST BERNARD AVE",
    "address_councildis": "D",
    "status": "Pending",
    "rowid": "1143199",
    "final_x": "3676785.3",
    "final_y": "551661.08",
    "longitude": "-90.08226326715142",
    "latitude": "30.011018986243883",
    "geocoded_column": {
      "latitude": "30.011018986243883",
      "longitude": "-90.08226326715142"
    }
  },
  {
    "service_request": "2024-1143198",
    "request_type": "General Services",
    "request_reason": "General Service Request",
    "date_created": "2024-10-22T17:21:02.000",
    "date_modified": "2024-10-22T17:21:02.000",
    "request_status": "Pending",
    "responsible_agency": "Orleans Parish Communication District",
    "final_address": "4205 Perrier St",
    "address_councildis": "B",
    "status": "Pending",
    "rowid": "1143198",
    "final_x": "3671596.53287",
    "final_y": "520171.374008",
    "longitude": "-90.09972777393337",
    "latitude": "29.924587628722843",
    "geocoded_column": {
      "latitude": "29.924587628722843",
      "longitude": "-90.09972777393337"
    }
  },
  {
    "service_request": "2024-1143197",
    "request_type": "Trash/Recycling",
    "request_reason": "Request a Large Item Pick Up",
    "date_created": "2024-10-22T17:19:06.000",
    "date_modified": "2024-10-22T17:19:07.000",
    "request_status": "Pending",
    "responsible_agency": "Department of Sanitation",
    "final_address": "13537 N Lemans St",
    "address_councildis": "E",
    "status": "Assigned to Contractor",
    "contractor": "Waste Pro",
    "rowid": "1143197",
    "final_x": "3725725.69964",
    "final_y": "563184.95056",
    "longitude": "-89.92719655614712",
    "latitude": "30.041144881783488",
    "geocoded_column": {
      "latitude": "30.041144881783488",
      "longitude": "-89.92719655614712"
    }
  },
  {
    "service_request": "2024-1143196",
    "request_type": "Trash/Recycling",
    "request_reason": "MIssed Recycling Pick-Up",
    "date_created": "2024-10-22T17:16:19.000",
    "date_modified": "2024-10-22T17:16:20.000",
    "request_status": "Pending",
    "responsible_agency": "Department of Sanitation",
    "final_address": "7500 Garnet St",
    "address_councildis": "D",
    "status": "Assigned to Contractor",
    "contractor": "IV Waste",
    "rowid": "1143196",
    "final_x": "3667317.05652",
    "final_y": "556458.052954",
    "longitude": "-90.11201578118447",
    "latitude": "30.024489822068457",
    "geocoded_column": {
      "latitude": "30.024489822068457",
      "longitude": "-90.11201578118447"
    }
  },
  {
    "service_request": "2024-1143195",
    "request_type": "Trash/Recycling",
    "request_reason": "Order Recycling Cart",
    "date_created": "2024-10-22T17:15:12.000",
    "date_modified": "2024-10-22T17:15:12.000",
    "request_status": "Pending",
    "responsible_agency": "Department of Sanitation",
    "final_address": "11266 Asphodel Dr",
    "address_councildis": "E",
    "status": "Pending",
    "rowid": "1143195",
    "final_x": "3717824.41695",
    "final_y": "559716.868189",
    "longitude": "-89.95229918718786",
    "latitude": "30.031873299617057",
    "geocoded_column": {
      "latitude": "30.031873299617057",
      "longitude": "-89.95229918718786"
    }
  },
  {
    "service_request": "2024-1143194",
    "request_type": "Streetlights",
    "request_reason": "Streetlight Outage/Malfunction",
    "date_created": "2024-10-22T16:57:51.000",
    "date_modified": "2024-10-22T16:57:52.000",
    "request_status": "Pending",
    "responsible_agency": "Department of Public Works",
    "final_address": "203 Rhodes Ave",
    "address_councildis": "C",
    "status": "Pending",
    "contractor": "Legacy Professional Services",
    "rowid": "1143194",
    "final_x": "3706190.37195",
    "final_y": "519311.706231",
    "longitude": "-89.99055941325352",
    "latitude": "29.921154440347443",
    "geocoded_column": {
      "latitude": "29.921154440347443",
      "longitude": "-89.99055941325352"
    }
  },
  {
    "service_request": "2024-1143193",
    "request_type": "Drainage",
    "request_reason": "Catch Basin Clogged",
    "date_created": "2024-10-22T16:56:08.000",
    "date_modified": "2024-10-22T16:56:08.000",
    "request_status": "Pending",
    "responsible_agency": "Department of Public Works",
    "final_address": "5001 Freret St",
    "address_councildis": "B",
    "status": "Pending",
    "rowid": "1143193",
    "final_x": "3668775.38983",
    "final_y": "523965.865212",
    "longitude": "-90.10850516096421",
    "latitude": "29.935104481291926",
    "geocoded_column": {
      "latitude": "29.935104481291926",
      "longitude": "-90.10850516096421"
    }
  },
  {
    "service_request": "2024-1143192",
    "request_type": "Trash/Recycling",
    "request_reason": "Repair Trash Cart",
    "date_created": "2024-10-22T16:55:02.000",
    "date_modified": "2024-10-22T16:55:03.000",
    "request_status": "Pending",
    "responsible_agency": "Department of Sanitation",
    "final_address": "6312 S Claiborne Ave",
    "address_councildis": "A",
    "status": "Assigned to Contractor",
    "contractor": "IV Waste",
    "rowid": "1143192",
    "final_x": "3666901.10093",
    "final_y": "527935.765439",
    "longitude": "-90.1142889663585",
    "latitude": "29.94607538705741",
    "geocoded_column": {
      "latitude": "29.94607538705741",
      "longitude": "-90.1142889663585"
    }
  },
  {
    "service_request": "2024-1143191",
    "request_type": "Trash/Recycling",
    "request_reason": "Request a Large Item Pick Up",
    "date_created": "2024-10-22T16:47:29.000",
    "date_modified": "2024-10-22T16:47:30.000",
    "request_status": "Pending",
    "responsible_agency": "Department of Sanitation",
    "final_address": "6766 Argonne Blvd",
    "address_councildis": "A",
    "status": "Assigned to Contractor",
    "contractor": "IV Waste",
    "rowid": "1143191",
    "final_x": "3670572.5307",
    "final_y": "552375.340822",
    "longitude": "-90.1018676743654",
    "latitude": "30.013168005274746",
    "geocoded_column": {
      "latitude": "30.013168005274746",
      "longitude": "-90.1018676743654"
    }
  },
  {
    "service_request": "2024-1143190",
    "request_type": "Trash/Recycling",
    "request_reason": "Request a Large Item Pick Up",
    "date_created": "2024-10-22T16:40:16.000",
    "date_modified": "2024-10-22T16:40:17.000",
    "request_status": "Pending",
    "responsible_agency": "Department of Sanitation",
    "final_address": "3032 Robert St",
    "address_councildis": "B",
    "status": "Assigned to Contractor",
    "contractor": "IV Waste",
    "rowid": "1143190",
    "final_x": "3668861.83284",
    "final_y": "526532.903166",
    "longitude": "-90.10814560669311",
    "latitude": "29.942160467187083",
    "geocoded_column": {
      "latitude": "29.942160467187083",
      "longitude": "-90.10814560669311"
    }
  },
  {
    "service_request": "2024-1143189",
    "request_type": "Trash/Recycling",
    "request_reason": "Request a Large Item Pick Up",
    "date_created": "2024-10-22T16:35:04.000",
    "date_modified": "2024-10-22T16:35:05.000",
    "request_status": "Pending",
    "responsible_agency": "Department of Sanitation",
    "final_address": "3633 Pin Oak Ave",
    "address_councildis": "C",
    "status": "Assigned to Contractor",
    "contractor": "Richards Disposal",
    "rowid": "1143189",
    "final_x": "3703864.39934",
    "final_y": "514745.901747",
    "longitude": "-89.99806936138764",
    "latitude": "29.908674789904655",
    "geocoded_column": {
      "latitude": "29.908674789904655",
      "longitude": "-89.99806936138764"
    }
  },
  {
    "service_request": "2024-1143188",
    "request_type": "Roads and Streets",
    "request_reason": "Pothole",
    "date_created": "2024-10-22T16:22:48.000",
    "date_modified": "2024-10-22T16:22:49.000",
    "request_status": "Pending",
    "responsible_agency": "Department of Public Works",
    "final_address": "5800 BLK Tullis Dr",
    "address_councildis": "C",
    "status": "Pending",
    "rowid": "1143188",
    "final_x": "3705788.10381",
    "final_y": "513196.21224",
    "longitude": "-89.99205514717478",
    "latitude": "29.904351894017385",
    "geocoded_column": {
      "latitude": "29.904351894017385",
      "longitude": "-89.99205514717478"
    }
  },
  {
    "service_request": "2024-1143187",
    "request_type": "Trash/Recycling",
    "request_reason": "Request a Large Item Pick Up",
    "date_created": "2024-10-22T16:19:39.000",
    "date_modified": "2024-10-22T16:20:38.000",
    "request_status": "Pending",
    "responsible_agency": "Department of Sanitation",
    "final_address": "5747 Oxford Pl",
    "address_councildis": "C",
    "status": "Assigned to Contractor",
    "contractor": "Richards Disposal",
    "rowid": "1143187",
    "final_x": "3704756.02282",
    "final_y": "519886.392568",
    "longitude": "-89.99506579055185",
    "latitude": "29.922780768885097",
    "geocoded_column": {
      "latitude": "29.922780768885097",
      "longitude": "-89.99506579055185"
    }
  },
  {
    "service_request": "2024-1143186",
    "request_type": "Property Maintenance",
    "request_reason": "Property Maintenance",
    "date_created": "2024-10-22T16:19:33.000",
    "date_modified": "2024-10-22T16:19:34.000",
    "request_status": "Pending",
    "responsible_agency": "Department of Code Enforcement",
    "final_address": "7810 Parry St",
    "address_councildis": "E",
    "status": "Pending",
    "rowid": "1143186",
    "final_x": "3714004.72357",
    "final_y": "568887.280869",
    "longitude": "-89.96402320216197",
    "latitude": "30.057214252544263",
    "geocoded_column": {
      "latitude": "30.057214252544263",
      "longitude": "-89.96402320216197"
    }
  },
  {
    "service_request": "2024-1143185",
    "request_type": "Trash/Recycling",
    "request_reason": "MIssed Recycling Pick-Up",
    "date_created": "2024-10-22T16:16:53.000",
    "date_modified": "2024-10-22T16:16:54.000",
    "request_status": "Pending",
    "responsible_agency": "Department of Sanitation",
    "final_address": "8004 Trapier Ave Apt A",
    "address_councildis": "E",
    "status": "Assigned to Contractor",
    "contractor": "Waste Pro",
    "rowid": "1143185",
    "final_x": "3706011.46436",
    "final_y": "564453.916321",
    "longitude": "-89.98945292912211",
    "latitude": "30.04528450142072",
    "geocoded_column": {
      "latitude": "30.04528450142072",
      "longitude": "-89.98945292912211"
    }
  },
  {
    "service_request": "2024-1143184",
    "request_type": "Trash/Recycling",
    "request_reason": "Request a Large Item Pick Up",
    "date_created": "2024-10-22T16:13:58.000",
    "date_modified": "2024-10-22T16:13:59.000",
    "request_status": "Pending",
    "responsible_agency": "Department of Sanitation",
    "final_address": "6112 Warwick Ct",
    "address_councildis": "C",
    "status": "Assigned to Contractor",
    "contractor": "Richards Disposal",
    "rowid": "1143184",
    "final_x": "3706470.21143",
    "final_y": "515948.473972",
    "longitude": "-89.9898005705179",
    "latitude": "29.911897696288268",
    "geocoded_column": {
      "latitude": "29.911897696288268",
      "longitude": "-89.9898005705179"
    }
  },
  {
    "service_request": "2024-1143183",
    "request_type": "Trash/Recycling",
    "request_reason": "Request a Large Item Pick Up",
    "date_created": "2024-10-22T16:13:32.000",
    "date_modified": "2024-10-22T16:13:33.000",
    "request_status": "Pending",
    "responsible_agency": "Department of Sanitation",
    "final_address": "52 Fairway Oaks Dr",
    "address_councildis": "C",
    "status": "Assigned to Contractor",
    "contractor": "Richards Disposal",
    "rowid": "1143183",
    "final_x": "3717489.44997",
    "final_y": "515663.714868",
    "longitude": "-89.95503220981449",
    "latitude": "29.910754843310386",
    "geocoded_column": {
      "latitude": "29.910754843310386",
      "longitude": "-89.95503220981449"
    }
  },
  {
    "service_request": "2024-1143182",
    "request_type": "Trash/Recycling",
    "request_reason": "Repair Trash Cart",
    "date_created": "2024-10-22T16:13:22.000",
    "date_modified": "2024-10-22T16:13:23.000",
    "request_status": "Pending",
    "responsible_agency": "Department of Sanitation",
    "final_address": "3621 Tasha Pl",
    "address_councildis": "C",
    "status": "Assigned to Contractor",
    "contractor": "Richards Disposal",
    "rowid": "1143182",
    "final_x": "3709977.40382",
    "final_y": "516872.766325",
    "longitude": "-89.97869657395191",
    "latitude": "29.914325638169213",
    "geocoded_column": {
      "latitude": "29.914325638169213",
      "longitude": "-89.97869657395191"
    }
  },
  {
    "service_request": "2024-1143181",
    "request_type": "Trash/Recycling",
    "request_reason": "Repair Trash Cart",
    "date_created": "2024-10-22T16:11:53.000",
    "date_modified": "2024-10-22T16:11:54.000",
    "request_status": "Pending",
    "responsible_agency": "Department of Sanitation",
    "final_address": "2318 Mexico St",
    "address_councildis": "D",
    "status": "Assigned to Contractor",
    "contractor": "IV Waste",
    "rowid": "1143181",
    "final_x": "3684367.0134",
    "final_y": "556172.616346",
    "longitude": "-90.05815103027327",
    "latitude": "30.023194263097455",
    "geocoded_column": {
      "latitude": "30.023194263097455",
      "longitude": "-90.05815103027327"
    }
  },
  {
    "service_request": "2024-1143180",
    "request_type": "Traffic Signals",
    "request_reason": "Traffic Signal Malfunctioning or Damaged",
    "date_created": "2024-10-22T16:08:56.000",
    "date_modified": "2024-10-22T16:08:57.000",
    "request_status": "Pending",
    "responsible_agency": "Department of Public Works",
    "final_address": "POLK AVE & WEST END BLVD",
    "address_councildis": "A",
    "status": "Pending",
    "rowid": "1143180",
    "final_x": "3666453.2",
    "final_y": "547537.78",
    "longitude": "-90.11504511338072",
    "latitude": "29.999987481371257",
    "geocoded_column": {
      "latitude": "29.999987481371257",
      "longitude": "-90.11504511338072"
    }
  },
  {
    "service_request": "2024-1143179",
    "request_type": "Trash/Recycling",
    "request_reason": "Order Trash Cart",
    "date_created": "2024-10-22T16:07:37.000",
    "date_modified": "2024-10-22T16:07:39.000",
    "request_status": "Pending",
    "responsible_agency": "Department of Sanitation",
    "final_address": "6509 Center St",
    "address_councildis": "A",
    "status": "Assigned to Contractor",
    "contractor": "IV Waste",
    "rowid": "1143179",
    "final_x": "3664943.39994",
    "final_y": "551318.883669",
    "longitude": "-90.1196881495735",
    "latitude": "30.01042826229712",
    "geocoded_column": {
      "latitude": "30.01042826229712",
      "longitude": "-90.1196881495735"
    }
  },
  {
    "service_request": "2024-1143178",
    "request_type": "Trash/Recycling",
    "request_reason": "Request a Large Item Pick Up",
    "date_created": "2024-10-22T16:05:57.000",
    "date_modified": "2024-10-22T16:05:58.000",
    "request_status": "Pending",
    "responsible_agency": "Department of Sanitation",
    "final_address": "1126 Cherokee St",
    "address_councildis": "A",
    "status": "Assigned to Contractor",
    "contractor": "IV Waste",
    "rowid": "1143178",
    "final_x": "3663362.23258",
    "final_y": "526807.985534",
    "longitude": "-90.12549997048461",
    "latitude": "29.943077402763066",
    "geocoded_column": {
      "latitude": "29.943077402763066",
      "longitude": "-90.12549997048461"
    }
  },
  {
    "service_request": "2024-1143177",
    "request_type": "Abandoned Vehicles",
    "request_reason": "Abandoned/Junk Vehicles",
    "date_created": "2024-10-22T16:05:17.000",
    "date_modified": "2024-10-22T16:29:52.000",
    "request_status": "Pending",
    "responsible_agency": "Department of Public Works",
    "final_address": "1448 N Claiborne Ave",
    "address_councildis": "C",
    "status": "Inspected",
    "rowid": "1143177",
    "final_x": "3681641.72104",
    "final_y": "536882.9586",
    "longitude": "-90.06743573184403",
    "latitude": "29.97023768077398",
    "geocoded_column": {
      "latitude": "29.97023768077398",
      "longitude": "-90.06743573184403"
    }
  },
  {
    "service_request": "2024-1143176",
    "request_type": "Trash/Recycling",
    "request_reason": "Order Recycling Cart",
    "date_created": "2024-10-22T16:02:48.000",
    "date_modified": "2024-10-22T16:02:49.000",
    "request_status": "Pending",
    "responsible_agency": "Department of Sanitation",
    "final_address": "3049 Behrman Hwy",
    "address_councildis": "C",
    "status": "Pending",
    "rowid": "1143176",
    "final_x": "3694337.78333",
    "final_y": "519214.906487",
    "longitude": "-90.02797605262904",
    "latitude": "29.92126487309897",
    "geocoded_column": {
      "latitude": "29.92126487309897",
      "longitude": "-90.02797605262904"
    }
  },
  {
    "service_request": "2024-1143175",
    "request_type": "Trash/Recycling",
    "request_reason": "Repair Trash Cart",
    "date_created": "2024-10-22T16:02:25.000",
    "date_modified": "2024-10-22T16:02:27.000",
    "request_status": "Pending",
    "responsible_agency": "Department of Sanitation",
    "final_address": "3049 Behrman Hwy",
    "address_councildis": "C",
    "status": "Assigned to Contractor",
    "contractor": "Richards Disposal",
    "rowid": "1143175",
    "final_x": "3694337.78333",
    "final_y": "519214.906487",
    "longitude": "-90.02797605262904",
    "latitude": "29.92126487309897",
    "geocoded_column": {
      "latitude": "29.92126487309897",
      "longitude": "-90.02797605262904"
    }
  },
  {
    "service_request": "2024-1143174",
    "request_type": "Abandoned Vehicles",
    "request_reason": "Abandoned/Junk Vehicles",
    "date_created": "2024-10-22T16:02:23.000",
    "date_modified": "2024-10-22T16:03:34.000",
    "request_status": "Pending",
    "responsible_agency": "Department of Public Works",
    "final_address": "800 Magazine St",
    "address_councildis": "B",
    "status": "Pending",
    "rowid": "1143174",
    "final_x": "3681201.88066",
    "final_y": "527733.957247",
    "longitude": "-90.06914357188084",
    "latitude": "29.94509438882781",
    "geocoded_column": {
      "latitude": "29.94509438882781",
      "longitude": "-90.06914357188084"
    }
  },
  {
    "service_request": "2024-1143173",
    "request_type": "Trash/Recycling",
    "request_reason": "Repair Trash Cart",
    "date_created": "2024-10-22T16:01:57.000",
    "date_modified": "2024-10-22T16:01:58.000",
    "request_status": "Pending",
    "responsible_agency": "Department of Sanitation",
    "final_address": "3049 Behrman Hwy",
    "address_councildis": "C",
    "status": "Assigned to Contractor",
    "contractor": "Richards Disposal",
    "rowid": "1143173",
    "final_x": "3694337.78333",
    "final_y": "519214.906487",
    "longitude": "-90.02797605262904",
    "latitude": "29.92126487309897",
    "geocoded_column": {
      "latitude": "29.92126487309897",
      "longitude": "-90.02797605262904"
    }
  },
  {
    "service_request": "2024-1143172",
    "request_type": "General Services",
    "request_reason": "General Service Request",
    "date_created": "2024-10-22T16:01:39.000",
    "date_modified": "2024-10-22T16:11:10.000",
    "case_close_date": "2024-10-22T11:11:10.000",
    "request_status": "Closed",
    "responsible_agency": "Orleans Parish Communication District",
    "final_address": "8432 Panola St",
    "address_councildis": "A",
    "status": "Question Answered.",
    "rowid": "1143172",
    "final_x": "3663106.9792",
    "final_y": "531560.678211",
    "longitude": "-90.12614778431227",
    "latitude": "29.95615317403037",
    "geocoded_column": {
      "latitude": "29.95615317403037",
      "longitude": "-90.12614778431227"
    }
  },
  {
    "service_request": "2024-1143171",
    "request_type": "General Services",
    "request_reason": "General Service Request",
    "date_created": "2024-10-22T15:56:47.000",
    "date_modified": "2024-10-22T16:06:29.000",
    "case_close_date": "2024-10-22T11:06:29.000",
    "request_status": "Closed",
    "responsible_agency": "Orleans Parish Communication District",
    "final_address": "3537 Republic St",
    "address_councildis": "D",
    "status": "Question Answered.",
    "rowid": "1143171",
    "final_x": "3680505.59976",
    "final_y": "545487.173648",
    "longitude": "-90.07072430093648",
    "latitude": "29.993930734999136",
    "geocoded_column": {
      "latitude": "29.993930734999136",
      "longitude": "-90.07072430093648"
    }
  },
  {
    "service_request": "2024-1143170",
    "request_type": "Trash/Recycling",
    "request_reason": "Illegal Dumping",
    "date_created": "2024-10-22T15:54:53.000",
    "date_modified": "2024-10-22T15:54:54.000",
    "request_status": "Pending",
    "responsible_agency": "Department of Sanitation",
    "final_address": "7TH ST & S SARATOGA ST",
    "address_councildis": "B",
    "status": "Pending",
    "rowid": "1143170",
    "final_x": "3674263.7",
    "final_y": "523579.38",
    "longitude": "-90.0911917950588",
    "latitude": "29.93387931818623",
    "geocoded_column": {
      "latitude": "29.93387931818623",
      "longitude": "-90.0911917950588"
    }
  },
  {
    "service_request": "2024-1143169",
    "request_type": "Roads and Streets",
    "request_reason": "Abandoned Service Cut",
    "date_created": "2024-10-22T15:52:16.000",
    "date_modified": "2024-10-22T15:52:16.000",
    "request_status": "Pending",
    "responsible_agency": "Department of Public Works",
    "final_address": "2112 Milan St",
    "address_councildis": "B",
    "status": "Pending",
    "rowid": "1143169",
    "final_x": "3671361.74823",
    "final_y": "522852.692411",
    "longitude": "-90.1003778362874",
    "latitude": "29.931967342927965",
    "geocoded_column": {
      "latitude": "29.931967342927965",
      "longitude": "-90.1003778362874"
    }
  },
  {
    "service_request": "2024-1143168",
    "request_type": "Trash/Recycling",
    "request_reason": "MIssed Recycling Pick-Up",
    "date_created": "2024-10-22T15:51:15.000",
    "date_modified": "2024-10-22T16:46:08.000",
    "case_close_date": "2024-10-22T11:46:08.000",
    "request_status": "Closed",
    "responsible_agency": "Department of Sanitation",
    "final_address": "7500 Garnet St",
    "address_councildis": "D",
    "status": "Invalid Request",
    "contractor": "IV Waste",
    "contractor_action": "Invalid Request",
    "rowid": "1143168",
    "final_x": "3667317.05652",
    "final_y": "556458.052954",
    "longitude": "-90.11201578118447",
    "latitude": "30.024489822068457",
    "geocoded_column": {
      "latitude": "30.024489822068457",
      "longitude": "-90.11201578118447"
    }
  },
  {
    "service_request": "2024-1143167",
    "request_type": "Drainage",
    "request_reason": "Drainage Manhole Cover Missing or Damaged",
    "date_created": "2024-10-22T15:50:10.000",
    "date_modified": "2024-10-22T15:50:11.000",
    "request_status": "Pending",
    "responsible_agency": "Department of Public Works",
    "final_address": "PINE ST & ST CHARLES AVE",
    "address_councildis": "A",
    "status": "Pending",
    "rowid": "1143167",
    "final_x": "3662751.3",
    "final_y": "524904.38",
    "longitude": "-90.12749209375382",
    "latitude": "29.937860786442457",
    "geocoded_column": {
      "latitude": "29.937860786442457",
      "longitude": "-90.12749209375382"
    }
  },
  {
    "service_request": "2024-1143166",
    "request_type": "Trash/Recycling",
    "request_reason": "Request a Large Item Pick Up",
    "date_created": "2024-10-22T15:47:47.000",
    "date_modified": "2024-10-22T15:48:30.000",
    "request_status": "Pending",
    "responsible_agency": "Department of Sanitation",
    "final_address": "3129 N Roman St",
    "address_councildis": "D",
    "status": "Assigned to Contractor",
    "contractor": "IV Waste",
    "rowid": "1143166",
    "final_x": "3689907.04931",
    "final_y": "538612.581001",
    "longitude": "-90.04127143738042",
    "latitude": "29.974739863191452",
    "geocoded_column": {
      "latitude": "29.974739863191452",
      "longitude": "-90.04127143738042"
    }
  },
  {
    "service_request": "2024-1143165",
    "request_type": "Trash/Recycling",
    "request_reason": "Request a Large Item Pick Up",
    "date_created": "2024-10-22T15:46:40.000",
    "date_modified": "2024-10-22T15:46:41.000",
    "request_status": "Pending",
    "responsible_agency": "Department of Sanitation",
    "final_address": "4829 Crowder Blvd",
    "address_councildis": "E",
    "status": "Assigned to Contractor",
    "contractor": "Waste Pro",
    "rowid": "1143165",
    "final_x": "3706441.79524",
    "final_y": "556276.941082",
    "longitude": "-89.98839622226133",
    "latitude": "30.022787151370807",
    "geocoded_column": {
      "latitude": "30.022787151370807",
      "longitude": "-89.98839622226133"
    }
  },
  {
    "service_request": "2024-1143164",
    "request_type": "Trash/Recycling",
    "request_reason": "Request a Large Item Pick Up",
    "date_created": "2024-10-22T15:45:19.000",
    "date_modified": "2024-10-22T15:45:20.000",
    "request_status": "Pending",
    "responsible_agency": "Department of Sanitation",
    "final_address": "4634 Galahad Dr",
    "address_councildis": "E",
    "status": "Assigned to Contractor",
    "contractor": "Waste Pro",
    "rowid": "1143164",
    "final_x": "3707217.45732",
    "final_y": "554678.827096",
    "longitude": "-89.98600470566834",
    "latitude": "30.01836790157996",
    "geocoded_column": {
      "latitude": "30.01836790157996",
      "longitude": "-89.98600470566834"
    }
  },
  {
    "service_request": "2024-1143163",
    "request_type": "Trash/Recycling",
    "request_reason": "Repair Recycling Cart",
    "date_created": "2024-10-22T15:44:13.000",
    "date_modified": "2024-10-22T15:44:14.000",
    "request_status": "Pending",
    "responsible_agency": "Department of Sanitation",
    "final_address": "6145 Louis Xiv St",
    "address_councildis": "A",
    "status": "Pending",
    "rowid": "1143163",
    "final_x": "3668219.17204",
    "final_y": "548318.296018",
    "longitude": "-90.10943996761269",
    "latitude": "30.002081883611943",
    "geocoded_column": {
      "latitude": "30.002081883611943",
      "longitude": "-90.10943996761269"
    }
  },
  {
    "service_request": "2024-1143162",
    "request_type": "Abandoned Vehicles",
    "request_reason": "Abandoned/Junk Vehicles",
    "date_created": "2024-10-22T15:43:57.000",
    "date_modified": "2024-10-22T15:43:58.000",
    "request_status": "Pending",
    "responsible_agency": "Department of Public Works",
    "final_address": "303 Wagner St",
    "address_councildis": "C",
    "status": "Pending",
    "rowid": "1143162",
    "final_x": "3690572.20195",
    "final_y": "530607.980418",
    "longitude": "-90.03945619305522",
    "latitude": "29.952709372768954",
    "geocoded_column": {
      "latitude": "29.952709372768954",
      "longitude": "-90.03945619305522"
    }
  },
  {
    "service_request": "2024-1143161",
    "request_type": "Trash/Recycling",
    "request_reason": "Missed Trash Pick-Up",
    "date_created": "2024-10-22T15:40:11.000",
    "date_modified": "2024-10-22T15:40:12.000",
    "request_status": "Pending",
    "responsible_agency": "Department of Sanitation",
    "final_address": "305 Vallette St",
    "address_councildis": "C",
    "status": "Assigned to Contractor",
    "contractor": "Richards Disposal",
    "rowid": "1143161",
    "final_x": "3687518.14479",
    "final_y": "530729.834178",
    "longitude": "-90.04909519974422",
    "latitude": "29.95313890093693",
    "geocoded_column": {
      "latitude": "29.95313890093693",
      "longitude": "-90.04909519974422"
    }
  },
  {
    "service_request": "2024-1143160",
    "request_type": "Trash/Recycling",
    "request_reason": "Request a Large Item Pick Up",
    "date_created": "2024-10-22T15:39:09.000",
    "date_modified": "2024-10-22T15:39:10.000",
    "request_status": "Pending",
    "responsible_agency": "Department of Sanitation",
    "final_address": "7401 Benson St",
    "address_councildis": "E",
    "status": "Assigned to Contractor",
    "contractor": "Waste Pro",
    "rowid": "1143160",
    "final_x": "3704816.5018",
    "final_y": "561825.826143",
    "longitude": "-89.99332669328376",
    "latitude": "30.038096774023977",
    "geocoded_column": {
      "latitude": "30.038096774023977",
      "longitude": "-89.99332669328376"
    }
  },
  {
    "service_request": "2024-1143159",
    "request_type": "Alley Ways",
    "request_reason": "Alley Way Regrading",
    "date_created": "2024-10-22T15:38:51.000",
    "date_modified": "2024-10-22T15:38:51.000",
    "request_status": "Pending",
    "responsible_agency": "Department of Public Works",
    "final_address": "5851 General Haig St",
    "address_councildis": "A",
    "status": "Pending",
    "rowid": "1143159",
    "final_x": "3670508.57102",
    "final_y": "546185.99688",
    "longitude": "-90.1022798462466",
    "latitude": "29.996151364830524",
    "geocoded_column": {
      "latitude": "29.996151364830524",
      "longitude": "-90.1022798462466"
    }
  },
  {
    "service_request": "2024-1143158",
    "request_type": "Streetlights",
    "request_reason": "Streetlight Outage/Malfunction",
    "date_created": "2024-10-22T15:37:29.000",
    "date_modified": "2024-10-22T15:37:30.000",
    "request_status": "Pending",
    "responsible_agency": "Department of Public Works",
    "final_address": "45 Yosemite Dr",
    "address_councildis": "C",
    "status": "Pending",
    "contractor": "Legacy Professional Services",
    "rowid": "1143158",
    "final_x": "3699886.95856",
    "final_y": "516936.350901",
    "longitude": "-90.01054290671291",
    "latitude": "29.914824630176987",
    "geocoded_column": {
      "latitude": "29.914824630176987",
      "longitude": "-90.01054290671291"
    }
  },
  {
    "service_request": "2024-1143157",
    "request_type": "Trash/Recycling",
    "request_reason": "Illegal Dumping",
    "date_created": "2024-10-22T15:36:51.000",
    "date_modified": "2024-10-22T15:36:51.000",
    "request_status": "Pending",
    "responsible_agency": "Department of Sanitation",
    "final_address": "N GALVEZ ST & PAUGER ST",
    "address_councildis": "D",
    "status": "Pending",
    "rowid": "1143157",
    "final_x": "3683586.0",
    "final_y": "539903.78",
    "longitude": "-90.06118958370858",
    "latitude": "29.978484682084815",
    "geocoded_column": {
      "latitude": "29.978484682084815",
      "longitude": "-90.06118958370858"
    }
  },
  {
    "service_request": "2024-1143156",
    "request_type": "Roads and Streets",
    "request_reason": "Pothole",
    "date_created": "2024-10-22T15:35:51.000",
    "date_modified": "2024-10-22T15:35:52.000",
    "request_status": "Pending",
    "responsible_agency": "Department of Public Works",
    "final_address": "HARMONY ST & ANNUNCIATION ST",
    "address_councildis": "B",
    "status": "Pending",
    "rowid": "1143156",
    "final_x": "3676310.4",
    "final_y": "519021.98",
    "longitude": "-90.08488720593395",
    "latitude": "29.921286780579763",
    "geocoded_column": {
      "latitude": "29.921286780579763",
      "longitude": "-90.08488720593395"
    }
  },
  {
    "service_request": "2024-1143155",
    "request_type": "Trash/Recycling",
    "request_reason": "Illegal Dumping",
    "date_created": "2024-10-22T15:35:47.000",
    "date_modified": "2024-10-22T15:35:47.000",
    "request_status": "Pending",
    "responsible_agency": "Department of Sanitation",
    "final_address": "PAUGER ST & N JOHNSON ST",
    "address_councildis": "D",
    "status": "Pending",
    "rowid": "1143155",
    "final_x": "3683608.7",
    "final_y": "539527.28",
    "longitude": "-90.06113109146264",
    "latitude": "29.97744874574606",
    "geocoded_column": {
      "latitude": "29.97744874574606",
      "longitude": "-90.06113109146264"
    }
  },
  {
    "service_request": "2024-1143154",
    "request_type": "Trash/Recycling",
    "request_reason": "Order Recycling Cart",
    "date_created": "2024-10-22T15:28:37.000",
    "date_modified": "2024-10-22T15:28:39.000",
    "request_status": "Pending",
    "responsible_agency": "Department of Sanitation",
    "final_address": "1206 N Tonti St",
    "address_councildis": "D",
    "status": "Pending",
    "rowid": "1143154",
    "final_x": "3678997.23125",
    "final_y": "537619.582216",
    "longitude": "-90.07576178077747",
    "latitude": "29.972343211091182",
    "geocoded_column": {
      "latitude": "29.972343211091182",
      "longitude": "-90.07576178077747"
    }
  },
  {
    "service_request": "2024-1143153",
    "request_type": "Trash/Recycling",
    "request_reason": "Request a Large Item Pick Up",
    "date_created": "2024-10-22T15:27:49.000",
    "date_modified": "2024-10-22T15:28:51.000",
    "request_status": "Pending",
    "responsible_agency": "Department of Sanitation",
    "final_address": "3620 Rue Delphine",
    "address_councildis": "C",
    "status": "Assigned to Contractor",
    "contractor": "Richards Disposal",
    "rowid": "1143153",
    "final_x": "3703090.70212",
    "final_y": "517277.205749",
    "longitude": "-90.00041831951722",
    "latitude": "29.915659779074407",
    "geocoded_column": {
      "latitude": "29.915659779074407",
      "longitude": "-90.00041831951722"
    }
  },
  {
    "service_request": "2024-1143152",
    "request_type": "Trash/Recycling",
    "request_reason": "Order Trash Cart",
    "date_created": "2024-10-22T15:27:27.000",
    "date_modified": "2024-10-22T15:27:29.000",
    "request_status": "Pending",
    "responsible_agency": "Department of Sanitation",
    "final_address": "1206 N Tonti St",
    "address_councildis": "D",
    "status": "Assigned to Contractor",
    "contractor": "IV Waste",
    "rowid": "1143152",
    "final_x": "3678997.23125",
    "final_y": "537619.582216",
    "longitude": "-90.07576178077747",
    "latitude": "29.972343211091182",
    "geocoded_column": {
      "latitude": "29.972343211091182",
      "longitude": "-90.07576178077747"
    }
  },
  {
    "service_request": "2024-1143151",
    "request_type": "Abandoned Vehicles",
    "request_reason": "Abandoned/Junk Vehicles",
    "date_created": "2024-10-22T15:26:01.000",
    "date_modified": "2024-10-22T15:26:01.000",
    "request_status": "Closed",
    "responsible_agency": "Department of Public Works",
    "final_address": "100 BLK S Claiborne Ave",
    "address_councildis": "B",
    "status": "Inspected",
    "rowid": "1143151",
    "final_x": "3678206.60516",
    "final_y": "532645.332463",
    "longitude": "-90.07843076351136",
    "latitude": "29.95868955229672",
    "geocoded_column": {
      "latitude": "29.95868955229672",
      "longitude": "-90.07843076351136"
    }
  },
  {
    "service_request": "2024-1143150",
    "request_type": "Abandoned Vehicles",
    "request_reason": "Abandoned/Junk Vehicles",
    "date_created": "2024-10-22T15:25:16.000",
    "date_modified": "2024-10-22T15:25:18.000",
    "request_status": "Pending",
    "responsible_agency": "Department of Public Works",
    "final_address": "2500 BLK N Galvez St",
    "address_councildis": "D",
    "status": "Pending",
    "rowid": "1143150",
    "final_x": "3687090.83379",
    "final_y": "540176.758673",
    "longitude": "-90.05011040199253",
    "latitude": "29.97912781813533",
    "geocoded_column": {
      "latitude": "29.97912781813533",
      "longitude": "-90.05011040199253"
    }
  },
  {
    "service_request": "2024-1143149",
    "request_type": "Abandoned Vehicles",
    "request_reason": "Abandoned/Junk Vehicles",
    "date_created": "2024-10-22T15:23:51.000",
    "date_modified": "2024-10-22T15:23:51.000",
    "request_status": "Pending",
    "responsible_agency": "Department of Public Works",
    "final_address": "7100 BLK Crowder Blvd",
    "address_councildis": "E",
    "status": "Pending",
    "rowid": "1143149",
    "final_x": "3704119.18785",
    "final_y": "560087.699822",
    "longitude": "-89.99559449479099",
    "latitude": "30.03334001210639",
    "geocoded_column": {
      "latitude": "30.03334001210639",
      "longitude": "-89.99559449479099"
    }
  },
  {
    "service_request": "2024-1143148",
    "request_type": "Abandoned Vehicles",
    "request_reason": "Abandoned/Junk Vehicles",
    "date_created": "2024-10-22T15:20:26.000",
    "date_modified": "2024-10-22T15:20:26.000",
    "request_status": "Pending",
    "responsible_agency": "Department of Public Works",
    "final_address": "900 BLK Port St",
    "address_councildis": "C",
    "status": "Inspected",
    "rowid": "1143148",
    "final_x": "3687263.10017",
    "final_y": "535781.509589",
    "longitude": "-90.04972182918881",
    "latitude": "29.967037119303658",
    "geocoded_column": {
      "latitude": "29.967037119303658",
      "longitude": "-90.04972182918881"
    }
  },
  {
    "service_request": "2024-1143147",
    "request_type": "Trash/Recycling",
    "request_reason": "Request a Large Item Pick Up",
    "date_created": "2024-10-22T15:10:51.000",
    "date_modified": "2024-10-22T19:34:51.000",
    "case_close_date": "2024-10-22T14:34:51.000",
    "request_status": "Closed",
    "responsible_agency": "Department of Sanitation",
    "final_address": "11111 Curran Rd",
    "address_councildis": "E",
    "status": "Duplicate Request",
    "contractor": "Waste Pro",
    "contractor_action": "Duplicate",
    "rowid": "1143147",
    "final_x": "3710656.42904",
    "final_y": "566296.224867",
    "longitude": "-89.97470370193881",
    "latitude": "30.05019949590267",
    "geocoded_column": {
      "latitude": "30.05019949590267",
      "longitude": "-89.97470370193881"
    }
  },
  {
    "service_request": "2024-1143146",
    "request_type": "Abandoned Vehicles",
    "request_reason": "Abandoned/Junk Vehicles",
    "date_created": "2024-10-22T15:10:27.000",
    "date_modified": "2024-10-22T15:10:29.000",
    "request_status": "Pending",
    "responsible_agency": "Department of Public Works",
    "final_address": "1800 BLK Duels St",
    "address_councildis": "D",
    "status": "Pending",
    "rowid": "1143146",
    "final_x": "3681717.76678",
    "final_y": "542340.848833",
    "longitude": "-90.06700508087435",
    "latitude": "29.985242669242375",
    "geocoded_column": {
      "latitude": "29.985242669242375",
      "longitude": "-90.06700508087435"
    }
  },
  {
    "service_request": "2024-1143145",
    "request_type": "Trash/Recycling",
    "request_reason": "Request a Large Item Pick Up",
    "date_created": "2024-10-22T15:09:03.000",
    "date_modified": "2024-10-22T15:09:04.000",
    "request_status": "Pending",
    "responsible_agency": "Department of Sanitation",
    "final_address": "11100 Curran Rd",
    "address_councildis": "E",
    "status": "Assigned to Contractor",
    "contractor": "Waste Pro",
    "rowid": "1143145",
    "final_x": "3710728.17816",
    "final_y": "566182.010659",
    "longitude": "-89.9744812120682",
    "latitude": "30.04988311364366",
    "geocoded_column": {
      "latitude": "30.04988311364366",
      "longitude": "-89.9744812120682"
    }
  },
  {
    "service_request": "2024-1143144",
    "request_type": "Streetlights",
    "request_reason": "Streetlight Outage/Malfunction",
    "date_created": "2024-10-22T15:03:56.000",
    "date_modified": "2024-10-22T15:03:58.000",
    "request_status": "Pending",
    "responsible_agency": "Department of Public Works",
    "final_address": "7337 Brevard Ave",
    "address_councildis": "E",
    "status": "Pending",
    "contractor": "Legacy Professional Services",
    "rowid": "1143144",
    "final_x": "3706742.16734",
    "final_y": "562834.905184",
    "longitude": "-89.98720368685306",
    "latitude": "30.040809280365583",
    "geocoded_column": {
      "latitude": "30.040809280365583",
      "longitude": "-89.98720368685306"
    }
  },
  {
    "service_request": "2024-1143143",
    "request_type": "Trash/Recycling",
    "request_reason": "Request a Large Item Pick Up",
    "date_created": "2024-10-22T15:02:22.000",
    "date_modified": "2024-10-22T15:02:25.000",
    "request_status": "Pending",
    "responsible_agency": "Department of Sanitation",
    "final_address": "6205 Wadsworth Dr",
    "address_councildis": "D",
    "status": "Assigned to Contractor",
    "contractor": "IV Waste",
    "rowid": "1143143",
    "final_x": "3681673.99503",
    "final_y": "555725.579993",
    "longitude": "-90.06667599346663",
    "latitude": "30.022047208841077",
    "geocoded_column": {
      "latitude": "30.022047208841077",
      "longitude": "-90.06667599346663"
    }
  },
  {
    "service_request": "2024-1143142",
    "request_type": "Trash/Recycling",
    "request_reason": "Order Trash Cart",
    "date_created": "2024-10-22T15:00:47.000",
    "date_modified": "2024-10-22T15:00:48.000",
    "request_status": "Pending",
    "responsible_agency": "Department of Sanitation",
    "final_address": "1802 Hillary St",
    "address_councildis": "A",
    "status": "Assigned to Contractor",
    "contractor": "IV Waste",
    "rowid": "1143142",
    "final_x": "3664714.81882",
    "final_y": "528774.278784",
    "longitude": "-90.12116382876886",
    "latitude": "29.948444803620333",
    "geocoded_column": {
      "latitude": "29.948444803620333",
      "longitude": "-90.12116382876886"
    }
  },
  {
    "service_request": "2024-1143141",
    "request_type": "Trash/Recycling",
    "request_reason": "Order Trash Cart",
    "date_created": "2024-10-22T15:00:33.000",
    "date_modified": "2024-10-22T15:00:34.000",
    "request_status": "Pending",
    "responsible_agency": "Department of Sanitation",
    "final_address": "1800 Hillary St",
    "address_councildis": "A",
    "status": "Assigned to Contractor",
    "contractor": "IV Waste",
    "rowid": "1143141",
    "final_x": "3664710.76576",
    "final_y": "528770.302784",
    "longitude": "-90.12117675882848",
    "latitude": "29.948433988799547",
    "geocoded_column": {
      "latitude": "29.948433988799547",
      "longitude": "-90.12117675882848"
    }
  },
  {
    "service_request": "2024-1143140",
    "request_type": "Property Maintenance",
    "request_reason": "Property Maintenance",
    "date_created": "2024-10-22T14:59:01.000",
    "date_modified": "2024-10-22T14:59:02.000",
    "request_status": "Pending",
    "responsible_agency": "Department of Code Enforcement",
    "final_address": "4807 St Claude Ave",
    "address_councildis": "E",
    "status": "Pending",
    "rowid": "1143140",
    "final_x": "3695153.97546",
    "final_y": "534632.945286",
    "longitude": "-90.02484394726747",
    "latitude": "29.96363355565473",
    "geocoded_column": {
      "latitude": "29.96363355565473",
      "longitude": "-90.02484394726747"
    }
  },
  {
    "service_request": "2024-1143139",
    "request_type": "Streetlights",
    "request_reason": "Streetlight Outage/Malfunction",
    "date_created": "2024-10-22T14:57:55.000",
    "date_modified": "2024-10-22T14:58:19.000",
    "request_status": "Pending",
    "responsible_agency": "Department of Public Works",
    "final_address": "5010 Westlake Dr",
    "address_councildis": "E",
    "status": "Pending",
    "contractor": "Legacy Professional Services",
    "rowid": "1143139",
    "final_x": "3699636.15748",
    "final_y": "555717.734041",
    "longitude": "-90.00992074739891",
    "latitude": "30.02146743438946",
    "geocoded_column": {
      "latitude": "30.02146743438946",
      "longitude": "-90.00992074739891"
    }
  },
  {
    "service_request": "2024-1143138",
    "request_type": "Trash/Recycling",
    "request_reason": "Request a Large Item Pick Up",
    "date_created": "2024-10-22T14:53:21.000",
    "date_modified": "2024-10-22T14:53:22.000",
    "request_status": "Pending",
    "responsible_agency": "Department of Sanitation",
    "final_address": "1417 Clouet St",
    "address_councildis": "C",
    "status": "Assigned to Contractor",
    "contractor": "IV Waste",
    "rowid": "1143138",
    "final_x": "3689347.38268",
    "final_y": "537248.620872",
    "longitude": "-90.04308750447551",
    "latitude": "29.971006794443035",
    "geocoded_column": {
      "latitude": "29.971006794443035",
      "longitude": "-90.04308750447551"
    }
  },
  {
    "service_request": "2024-1143137",
    "request_type": "Trash/Recycling",
    "request_reason": "Request a Large Item Pick Up",
    "date_created": "2024-10-22T14:51:28.000",
    "date_modified": "2024-10-22T14:51:29.000",
    "request_status": "Pending",
    "responsible_agency": "Department of Sanitation",
    "final_address": "4706 W Adams Ct",
    "address_councildis": "E",
    "status": "Assigned to Contractor",
    "contractor": "Waste Pro",
    "rowid": "1143137",
    "final_x": "3718486.30373",
    "final_y": "556767.886682",
    "longitude": "-89.95032009037851",
    "latitude": "30.02374283268497",
    "geocoded_column": {
      "latitude": "30.02374283268497",
      "longitude": "-89.95032009037851"
    }
  },
  {
    "service_request": "2024-1143136",
    "request_type": "Trash/Recycling",
    "request_reason": "Replace Trash Cart",
    "date_created": "2024-10-22T14:48:24.000",
    "date_modified": "2024-10-22T14:48:26.000",
    "request_status": "Pending",
    "responsible_agency": "Department of Sanitation",
    "final_address": "2930 Camp St",
    "address_councildis": "B",
    "status": "Assigned to Contractor",
    "contractor": "IV Waste",
    "rowid": "1143136",
    "final_x": "3676232.91918",
    "final_y": "520673.226681",
    "longitude": "-90.08507499743682",
    "latitude": "29.925829496791156",
    "geocoded_column": {
      "latitude": "29.925829496791156",
      "longitude": "-90.08507499743682"
    }
  },
  {
    "service_request": "2024-1143135",
    "request_type": "Taxi Issues",
    "request_reason": "Taxi Compliment",
    "date_created": "2024-10-22T14:48:10.000",
    "date_modified": "2024-10-22T14:48:58.000",
    "request_status": "Pending",
    "responsible_agency": "Ground Transportation Bureau",
    "final_address": "0 BLK Poydras St",
    "address_councildis": "B",
    "status": "Pending",
    "rowid": "1143135",
    "final_x": "3682820.46766",
    "final_y": "528816.972666",
    "longitude": "-90.06399531569016",
    "latitude": "29.948023114681554",
    "geocoded_column": {
      "latitude": "29.948023114681554",
      "longitude": "-90.06399531569016"
    }
  },
  {
    "service_request": "2024-1143134",
    "request_type": "Trash/Recycling",
    "request_reason": "Request a Large Item Pick Up",
    "date_created": "2024-10-22T14:47:30.000",
    "date_modified": "2024-10-22T14:52:10.000",
    "request_status": "Pending",
    "responsible_agency": "Department of Sanitation",
    "final_address": "7650 Lady Gray St",
    "address_councildis": "E",
    "status": "Assigned to Contractor",
    "contractor": "Waste Pro",
    "rowid": "1143134",
    "final_x": "3709827.71339",
    "final_y": "565451.422114",
    "longitude": "-89.977354545809",
    "latitude": "30.047903620986805",
    "geocoded_column": {
      "latitude": "30.047903620986805",
      "longitude": "-89.977354545809"
    }
  },
  {
    "service_request": "2024-1143133",
    "request_type": "Roads and Streets",
    "request_reason": "Sidewalk Damaged or Missing",
    "date_created": "2024-10-22T14:43:35.000",
    "date_modified": "2024-10-22T14:43:36.000",
    "request_status": "Pending",
    "responsible_agency": "Department of Public Works",
    "final_address": "3923 Martin Luther King, Jr. Blvd",
    "address_councildis": "B",
    "status": "Pending",
    "rowid": "1143133",
    "final_x": "3672271.10254",
    "final_y": "529995.756801",
    "longitude": "-90.09726383761293",
    "latitude": "29.951581502766103",
    "geocoded_column": {
      "latitude": "29.951581502766103",
      "longitude": "-90.09726383761293"
    }
  },
  {
    "service_request": "2024-1143132",
    "request_type": "Trash/Recycling",
    "request_reason": "Request a Large Item Pick Up",
    "date_created": "2024-10-22T14:43:30.000",
    "date_modified": "2024-10-22T14:43:31.000",
    "request_status": "Pending",
    "responsible_agency": "Department of Sanitation",
    "final_address": "4527 Longfellow Dr",
    "address_councildis": "E",
    "status": "Assigned to Contractor",
    "contractor": "Waste Pro",
    "rowid": "1143132",
    "final_x": "3709807.74168",
    "final_y": "554642.313048",
    "longitude": "-89.97782180777156",
    "latitude": "30.01818350049045",
    "geocoded_column": {
      "latitude": "30.01818350049045",
      "longitude": "-89.97782180777156"
    }
  },
  {
    "service_request": "2024-1143131",
    "request_type": "Trash/Recycling",
    "request_reason": "Request a Large Item Pick Up",
    "date_created": "2024-10-22T14:43:03.000",
    "date_modified": "2024-10-22T14:43:04.000",
    "request_status": "Pending",
    "responsible_agency": "Department of Sanitation",
    "final_address": "3657 Piedmont Dr",
    "address_councildis": "D",
    "status": "Assigned to Contractor",
    "contractor": "IV Waste",
    "rowid": "1143131",
    "final_x": "3686016.97398",
    "final_y": "546233.707408",
    "longitude": "-90.05328835293862",
    "latitude": "29.995815297330473",
    "geocoded_column": {
      "latitude": "29.995815297330473",
      "longitude": "-90.05328835293862"
    }
  },
  {
    "service_request": "2024-1143130",
    "request_type": "Alley Ways",
    "request_reason": "Alley Way Regrading",
    "date_created": "2024-10-22T14:40:26.000",
    "date_modified": "2024-10-22T14:40:26.000",
    "request_status": "Pending",
    "responsible_agency": "Department of Public Works",
    "final_address": "6469 Louis Xiv St",
    "address_councildis": "A",
    "status": "Pending",
    "rowid": "1143130",
    "final_x": "3668472.95521",
    "final_y": "550630.257044",
    "longitude": "-90.108560166054",
    "latitude": "30.008431514885324",
    "geocoded_column": {
      "latitude": "30.008431514885324",
      "longitude": "-90.108560166054"
    }
  },
  {
    "service_request": "2024-1143129",
    "request_type": "Trash/Recycling",
    "request_reason": "Order Second Trash Cart",
    "date_created": "2024-10-22T14:37:21.000",
    "date_modified": "2024-10-22T14:37:22.000",
    "request_status": "Pending",
    "responsible_agency": "Department of Sanitation",
    "final_address": "405 New Orleans-Hammond Hwy",
    "address_councildis": "A",
    "status": "Assigned to Contractor",
    "contractor": "IV Waste",
    "rowid": "1143129",
    "final_x": "3665493.51642",
    "final_y": "554730.85372",
    "longitude": "-90.11783576570065",
    "latitude": "30.019793951976666",
    "geocoded_column": {
      "latitude": "30.019793951976666",
      "longitude": "-90.11783576570065"
    }
  },
  {
    "service_request": "2024-1143128",
    "request_type": "Streetlights",
    "request_reason": "Streetlight Outage/Malfunction",
    "date_created": "2024-10-22T14:36:13.000",
    "date_modified": "2024-10-22T14:36:15.000",
    "request_status": "Pending",
    "responsible_agency": "Department of Public Works",
    "final_address": "1430 Hermosa St",
    "address_councildis": "C",
    "status": "Pending",
    "contractor": "Legacy Professional Services",
    "rowid": "1143128",
    "final_x": "3687623.60092",
    "final_y": "526092.938174",
    "longitude": "-90.04892633458797",
    "latitude": "29.940385767461155",
    "geocoded_column": {
      "latitude": "29.940385767461155",
      "longitude": "-90.04892633458797"
    }
  },
  {
    "service_request": "2024-1143127",
    "request_type": "Trash/Recycling",
    "request_reason": "Request a Large Item Pick Up",
    "date_created": "2024-10-22T14:36:07.000",
    "date_modified": "2024-10-22T15:17:45.000",
    "request_status": "Pending",
    "responsible_agency": "Department of Sanitation",
    "final_address": "4641 Alba Rd",
    "address_councildis": "E",
    "status": "Assigned to Contractor",
    "contractor": "Waste Pro",
    "rowid": "1143127",
    "final_x": "3761921.82435",
    "final_y": "573957.26417",
    "longitude": "-89.812355306233",
    "latitude": "30.06949282052853",
    "geocoded_column": {
      "latitude": "30.06949282052853",
      "longitude": "-89.812355306233"
    }
  },
  {
    "service_request": "2024-1143126",
    "request_type": "Trash/Recycling",
    "request_reason": "Request a Large Item Pick Up",
    "date_created": "2024-10-22T14:35:38.000",
    "date_modified": "2024-10-22T14:35:39.000",
    "request_status": "Pending",
    "responsible_agency": "Department of Sanitation",
    "final_address": "709 S Gayoso St",
    "address_councildis": "B",
    "status": "Assigned to Contractor",
    "contractor": "IV Waste",
    "rowid": "1143126",
    "final_x": "3672734.16385",
    "final_y": "533859.736517",
    "longitude": "-90.09566992836507",
    "latitude": "29.962192419352963",
    "geocoded_column": {
      "latitude": "29.962192419352963",
      "longitude": "-90.09566992836507"
    }
  },
  {
    "service_request": "2024-1143125",
    "request_type": "Trash/Recycling",
    "request_reason": "Missed Trash Pick-Up",
    "date_created": "2024-10-22T14:35:33.000",
    "date_modified": "2024-10-22T14:38:43.000",
    "case_close_date": "2024-10-22T09:38:43.000",
    "request_status": "Closed",
    "responsible_agency": "Department of Sanitation",
    "final_address": "9215 Colapissa St",
    "address_councildis": "A",
    "status": "Invalid Request",
    "contractor": "IV Waste",
    "contractor_action": "Invalid",
    "rowid": "1143125",
    "final_x": "3663589.16",
    "final_y": "536138.383943",
    "longitude": "-90.12447271523864",
    "latitude": "29.968726390383758",
    "geocoded_column": {
      "latitude": "29.968726390383758",
      "longitude": "-90.12447271523864"
    }
  },
  {
    "service_request": "2024-1143124",
    "request_type": "Trash/Recycling",
    "request_reason": "Request a Large Item Pick Up",
    "date_created": "2024-10-22T14:32:52.000",
    "date_modified": "2024-10-22T14:32:53.000",
    "request_status": "Pending",
    "responsible_agency": "Department of Sanitation",
    "final_address": "11259 Winrock Dr",
    "address_councildis": "E",
    "status": "Assigned to Contractor",
    "contractor": "Waste Pro",
    "rowid": "1143124",
    "final_x": "3716428.80338",
    "final_y": "561528.077919",
    "longitude": "-89.95664058932091",
    "latitude": "30.036899574205986",
    "geocoded_column": {
      "latitude": "30.036899574205986",
      "longitude": "-89.95664058932091"
    }
  },
  {
    "service_request": "2024-1143123",
    "request_type": "Abandoned Vehicles",
    "request_reason": "Abandoned/Junk Vehicles",
    "date_created": "2024-10-22T14:31:02.000",
    "date_modified": "2024-10-22T14:31:02.000",
    "request_status": "Pending",
    "responsible_agency": "Department of Public Works",
    "final_address": "740 Jackson Ave",
    "address_councildis": "B",
    "status": "Pending",
    "rowid": "1143123",
    "final_x": "3679500.32847",
    "final_y": "521153.910969",
    "longitude": "-90.07474409567605",
    "latitude": "29.92705294373134",
    "geocoded_column": {
      "latitude": "29.92705294373134",
      "longitude": "-90.07474409567605"
    }
  },
  {
    "service_request": "2024-1143122",
    "request_type": "Drainage",
    "request_reason": "Catch Basin Clogged",
    "date_created": "2024-10-22T14:27:35.000",
    "date_modified": "2024-10-22T14:27:35.000",
    "request_status": "Pending",
    "responsible_agency": "Department of Public Works",
    "final_address": "4810 Lancelot Dr",
    "address_councildis": "E",
    "status": "Inspected",
    "rowid": "1143122",
    "final_x": "3707323.9171",
    "final_y": "556030.195417",
    "longitude": "-89.98561811436862",
    "latitude": "30.02208019773675",
    "geocoded_column": {
      "latitude": "30.02208019773675",
      "longitude": "-89.98561811436862"
    }
  },
  {
    "service_request": "2024-1143121",
    "request_type": "Street and Traffic Signs",
    "request_reason": "Traffic or Parking Sign Damaged or Missing",
    "date_created": "2024-10-22T14:25:02.000",
    "date_modified": "2024-10-22T14:25:04.000",
    "request_status": "Pending",
    "responsible_agency": "Department of Public Works",
    "final_address": "1019 Dauphine St",
    "address_councildis": "C",
    "status": "Pending",
    "rowid": "1143121",
    "final_x": "3682715.74946",
    "final_y": "533926.078277",
    "longitude": "-90.06414727294234",
    "latitude": "29.96207460766285",
    "geocoded_column": {
      "latitude": "29.96207460766285",
      "longitude": "-90.06414727294234"
    }
  },
  {
    "service_request": "2024-1143120",
    "request_type": "Utility Poles",
    "request_reason": "Wires Sagging/Hanging Low",
    "date_created": "2024-10-22T14:13:56.000",
    "date_modified": "2024-10-22T14:13:59.000",
    "request_status": "Pending",
    "responsible_agency": "Utility Company Collective",
    "final_address": "4718 Dryades St",
    "address_councildis": "B",
    "status": "Pending",
    "rowid": "1143120",
    "final_x": "3669475.37486",
    "final_y": "521715.942714",
    "longitude": "-90.10637136408207",
    "latitude": "29.928897322639358",
    "geocoded_column": {
      "latitude": "29.928897322639358",
      "longitude": "-90.10637136408207"
    }
  },
  {
    "service_request": "2024-1143119",
    "request_type": "Roads and Streets",
    "request_reason": "Road Shoulder Damage",
    "date_created": "2024-10-22T14:13:46.000",
    "date_modified": "2024-10-22T14:13:46.000",
    "request_status": "Pending",
    "responsible_agency": "Department of Public Works",
    "final_address": "3130 Dauphine St",
    "address_councildis": "C",
    "status": "Pending",
    "rowid": "1143119",
    "final_x": "3688955.08425",
    "final_y": "534772.054598",
    "longitude": "-90.04441440994401",
    "latitude": "29.9642092446411",
    "geocoded_column": {
      "latitude": "29.9642092446411",
      "longitude": "-90.04441440994401"
    }
  },
  {
    "service_request": "2024-1143118",
    "request_type": "Utility Poles",
    "request_reason": "Wires Sagging/Hanging Low",
    "date_created": "2024-10-22T14:11:17.000",
    "date_modified": "2024-10-22T14:11:23.000",
    "request_status": "Pending",
    "responsible_agency": "Utility Company Collective",
    "final_address": "4718 Dryades St",
    "address_councildis": "B",
    "status": "Pending",
    "rowid": "1143118",
    "final_x": "3669475.37486",
    "final_y": "521715.942714",
    "longitude": "-90.10637136408207",
    "latitude": "29.928897322639358",
    "geocoded_column": {
      "latitude": "29.928897322639358",
      "longitude": "-90.10637136408207"
    }
  },
  {
    "service_request": "2024-1143117",
    "request_type": "Roads and Streets",
    "request_reason": "Pothole",
    "date_created": "2024-10-22T14:10:42.000",
    "date_modified": "2024-10-22T14:11:07.000",
    "case_close_date": "2024-10-22T09:11:07.000",
    "request_status": "Closed",
    "responsible_agency": "Department of Public Works",
    "final_address": "4000 BLK Thalia St",
    "address_councildis": "B",
    "status": "Resolved",
    "rowid": "1143117",
    "final_x": "3671780.55306",
    "final_y": "530571.982935",
    "longitude": "-90.0987931560357",
    "latitude": "29.95318047606489",
    "geocoded_column": {
      "latitude": "29.95318047606489",
      "longitude": "-90.0987931560357"
    }
  },
  {
    "service_request": "2024-1143116",
    "request_type": "Safety & Permits",
    "request_reason": "Zoning Enforcement",
    "date_created": "2024-10-22T14:08:55.000",
    "date_modified": "2024-10-22T16:47:37.000",
    "case_close_date": "2024-10-22T11:47:37.000",
    "request_status": "Closed",
    "responsible_agency": "Safety and Permits",
    "final_address": "LAFON DR & RANSOM ST",
    "address_councildis": "E",
    "contractor_action": "Invalid Request",
    "rowid": "1143116",
    "final_x": "3701235.7",
    "final_y": "553355.18",
    "longitude": "-90.00495320396578",
    "latitude": "30.014920418201484",
    "geocoded_column": {
      "latitude": "30.014920418201484",
      "longitude": "-90.00495320396578"
    }
  },
  {
    "service_request": "2024-1143115",
    "request_type": "Roads and Streets",
    "request_reason": "Pothole",
    "date_created": "2024-10-22T14:08:42.000",
    "date_modified": "2024-10-22T14:10:18.000",
    "request_status": "Pending",
    "responsible_agency": "Department of Public Works",
    "final_address": "600 BLK Constance St",
    "address_councildis": "B",
    "status": "Pending",
    "rowid": "1143115",
    "final_x": "3681569.24247",
    "final_y": "528493.193457",
    "longitude": "-90.067957225121",
    "latitude": "29.947170883965494",
    "geocoded_column": {
      "latitude": "29.947170883965494",
      "longitude": "-90.067957225121"
    }
  },
  {
    "service_request": "2024-1143114",
    "request_type": "Roads and Streets",
    "request_reason": "Pothole",
    "date_created": "2024-10-22T14:08:40.000",
    "date_modified": "2024-10-22T14:09:01.000",
    "case_close_date": "2024-10-22T09:09:01.000",
    "request_status": "Closed",
    "responsible_agency": "Department of Public Works",
    "final_address": "1300 BLK S White St",
    "address_councildis": "B",
    "status": "Resolved",
    "rowid": "1143114",
    "final_x": "3671617.74465",
    "final_y": "530853.460062",
    "longitude": "-90.09929766367935",
    "latitude": "29.953959267450376",
    "geocoded_column": {
      "latitude": "29.953959267450376",
      "longitude": "-90.09929766367935"
    }
  },
  {
    "service_request": "2024-1143113",
    "request_type": "Trash/Recycling",
    "request_reason": "Illegal Dumping",
    "date_created": "2024-10-22T14:08:38.000",
    "date_modified": "2024-10-22T14:08:40.000",
    "request_status": "Pending",
    "responsible_agency": "Department of Sanitation",
    "final_address": "4626 Longfellow Dr",
    "address_councildis": "E",
    "status": "Pending",
    "rowid": "1143113",
    "final_x": "3709630.71902",
    "final_y": "555053.571289",
    "longitude": "-89.97836576184137",
    "latitude": "30.019320057455435",
    "geocoded_column": {
      "latitude": "30.019320057455435",
      "longitude": "-89.97836576184137"
    }
  },
  {
    "service_request": "2024-1143112",
    "request_type": "Trash/Recycling",
    "request_reason": "Request a Large Item Pick Up",
    "date_created": "2024-10-22T14:07:07.000",
    "date_modified": "2024-10-22T14:07:08.000",
    "request_status": "Pending",
    "responsible_agency": "Department of Sanitation",
    "final_address": "3524 Silver Maple Ct",
    "address_councildis": "C",
    "status": "Assigned to Contractor",
    "contractor": "Richards Disposal",
    "rowid": "1143112",
    "final_x": "3703365.43172",
    "final_y": "512545.071153",
    "longitude": "-89.99972501490134",
    "latitude": "29.902639232282574",
    "geocoded_column": {
      "latitude": "29.902639232282574",
      "longitude": "-89.99972501490134"
    }
  },
  {
    "service_request": "2024-1143111",
    "request_type": "Trash/Recycling",
    "request_reason": "Request a Large Item Pick Up",
    "date_created": "2024-10-22T14:06:56.000",
    "date_modified": "2024-10-22T14:06:57.000",
    "request_status": "Pending",
    "responsible_agency": "Department of Sanitation",
    "final_address": "2233 Dauphine St Apt 1A",
    "address_councildis": "C",
    "status": "Assigned to Contractor",
    "contractor": "IV Waste",
    "rowid": "1143111",
    "final_x": "3685415.70402",
    "final_y": "535298.066118",
    "longitude": "-90.05557292952338",
    "latitude": "29.965764592678934",
    "geocoded_column": {
      "latitude": "29.965764592678934",
      "longitude": "-90.05557292952338"
    }
  },
  {
    "service_request": "2024-1143110",
    "request_type": "Roads and Streets",
    "request_reason": "Pothole",
    "date_created": "2024-10-22T14:06:55.000",
    "date_modified": "2024-10-22T14:07:28.000",
    "case_close_date": "2024-10-22T09:07:28.000",
    "request_status": "Closed",
    "responsible_agency": "Department of Public Works",
    "final_address": "1200 BLK S White St",
    "address_councildis": "B",
    "status": "Resolved",
    "rowid": "1143110",
    "final_x": "3671793.36209",
    "final_y": "531134.390931",
    "longitude": "-90.09873357655387",
    "latitude": "29.95472653272023",
    "geocoded_column": {
      "latitude": "29.95472653272023",
      "longitude": "-90.09873357655387"
    }
  },
  {
    "service_request": "2024-1143109",
    "request_type": "Trash/Recycling",
    "request_reason": "MIssed Recycling Pick-Up",
    "date_created": "2024-10-22T14:04:40.000",
    "date_modified": "2024-10-22T14:36:08.000",
    "case_close_date": "2024-10-22T09:36:08.000",
    "request_status": "Closed",
    "responsible_agency": "Department of Sanitation",
    "final_address": "501 S Cortez St",
    "address_councildis": "B",
    "status": "Invalid Request",
    "contractor": "IV Waste",
    "contractor_action": "Invalid",
    "rowid": "1143109",
    "final_x": "3671042.87502",
    "final_y": "536310.541127",
    "longitude": "-90.10092754119889",
    "latitude": "29.96898143561401",
    "geocoded_column": {
      "latitude": "29.96898143561401",
      "longitude": "-90.10092754119889"
    }
  },
  {
    "service_request": "2024-1143108",
    "request_type": "Trash/Recycling",
    "request_reason": "Missed Trash Pick-Up",
    "date_created": "2024-10-22T14:03:53.000",
    "date_modified": "2024-10-22T14:34:11.000",
    "case_close_date": "2024-10-22T09:34:11.000",
    "request_status": "Closed",
    "responsible_agency": "Department of Sanitation",
    "final_address": "501 S Cortez St",
    "address_councildis": "B",
    "status": "Invalid Request",
    "contractor": "IV Waste",
    "contractor_action": "Invalid",
    "rowid": "1143108",
    "final_x": "3671042.87502",
    "final_y": "536310.541127",
    "longitude": "-90.10092754119889",
    "latitude": "29.96898143561401",
    "geocoded_column": {
      "latitude": "29.96898143561401",
      "longitude": "-90.10092754119889"
    }
  },
  {
    "service_request": "2024-1143107",
    "request_type": "Abandoned Vehicles",
    "request_reason": "Abandoned/Junk Vehicles",
    "date_created": "2024-10-22T14:03:00.000",
    "date_modified": "2024-10-22T14:03:02.000",
    "request_status": "Pending",
    "responsible_agency": "Department of Public Works",
    "final_address": "S ROBERTSON ST & UPPERLINE ST",
    "address_councildis": "B",
    "status": "Pending",
    "rowid": "1143107",
    "final_x": "3669180.1",
    "final_y": "524257.58",
    "longitude": "-90.1072176346007",
    "latitude": "29.935894701664285",
    "geocoded_column": {
      "latitude": "29.935894701664285",
      "longitude": "-90.1072176346007"
    }
  },
  {
    "service_request": "2024-1143106",
    "request_type": "Trash/Recycling",
    "request_reason": "Request a Large Item Pick Up",
    "date_created": "2024-10-22T14:02:47.000",
    "date_modified": "2024-10-22T14:02:48.000",
    "request_status": "Pending",
    "responsible_agency": "Department of Sanitation",
    "final_address": "501 S Cortez St",
    "address_councildis": "B",
    "status": "Assigned to Contractor",
    "contractor": "IV Waste",
    "rowid": "1143106",
    "final_x": "3671042.87502",
    "final_y": "536310.541127",
    "longitude": "-90.10092754119889",
    "latitude": "29.96898143561401",
    "geocoded_column": {
      "latitude": "29.96898143561401",
      "longitude": "-90.10092754119889"
    }
  },
  {
    "service_request": "2024-1143105",
    "request_type": "Trash/Recycling",
    "request_reason": "Request a Large Item Pick Up",
    "date_created": "2024-10-22T14:00:41.000",
    "date_modified": "2024-10-22T14:00:42.000",
    "request_status": "Pending",
    "responsible_agency": "Department of Sanitation",
    "final_address": "8000 Brevard Ave",
    "address_councildis": "E",
    "status": "Assigned to Contractor",
    "contractor": "Waste Pro",
    "rowid": "1143105",
    "final_x": "3705745.60004",
    "final_y": "564460.228577",
    "longitude": "-89.99029294810191",
    "latitude": "30.045310428643678",
    "geocoded_column": {
      "latitude": "30.045310428643678",
      "longitude": "-89.99029294810191"
    }
  },
  {
    "service_request": "2024-1143104",
    "request_type": "Abandoned Vehicles",
    "request_reason": "Abandoned/Junk Vehicles",
    "date_created": "2024-10-22T13:59:50.000",
    "date_modified": "2024-10-22T13:59:52.000",
    "request_status": "Pending",
    "responsible_agency": "Department of Public Works",
    "final_address": "3100 BLK Broadway St",
    "address_councildis": "B",
    "status": "Pending",
    "rowid": "1143104",
    "final_x": "3668133.64007",
    "final_y": "532442.590742",
    "longitude": "-90.11024551715006",
    "latitude": "29.958431570139375",
    "geocoded_column": {
      "latitude": "29.958431570139375",
      "longitude": "-90.11024551715006"
    }
  },
  {
    "service_request": "2024-1143103",
    "request_type": "Traffic Signals",
    "request_reason": "Traffic Signal Malfunctioning or Damaged",
    "date_created": "2024-10-22T13:57:49.000",
    "date_modified": "2024-10-22T13:57:50.000",
    "request_status": "Pending",
    "responsible_agency": "Department of Public Works",
    "final_address": "MORRISON RD & READ BLVD",
    "address_councildis": "E",
    "status": "Pending",
    "rowid": "1143103",
    "final_x": "3708986.9",
    "final_y": "563787.08",
    "longitude": "-89.9800740921111",
    "latitude": "30.043354679575092",
    "geocoded_column": {
      "latitude": "30.043354679575092",
      "longitude": "-89.9800740921111"
    }
  },
  {
    "service_request": "2024-1143102",
    "request_type": "Drainage",
    "request_reason": "Drainage Manhole Cover Missing or Damaged",
    "date_created": "2024-10-22T13:55:56.000",
    "date_modified": "2024-10-22T13:55:56.000",
    "request_status": "Pending",
    "responsible_agency": "Department of Public Works",
    "final_address": "14600 Dwyer Blvd",
    "address_councildis": "E",
    "status": "Pending",
    "rowid": "1143102",
    "final_x": "3731135.24519",
    "final_y": "563588.639328",
    "longitude": "-89.91008492650454",
    "latitude": "30.042071216397762",
    "geocoded_column": {
      "latitude": "30.042071216397762",
      "longitude": "-89.91008492650454"
    }
  },
  {
    "service_request": "2024-1143101",
    "request_type": "Property Maintenance",
    "request_reason": "Property Maintenance",
    "date_created": "2024-10-22T13:52:58.000",
    "date_modified": "2024-10-22T13:52:59.000",
    "request_status": "Pending",
    "responsible_agency": "Department of Code Enforcement",
    "final_address": "3916 Piedmont Dr",
    "address_councildis": "D",
    "status": "Pending",
    "rowid": "1143101",
    "final_x": "3685371.96463",
    "final_y": "547019.521169",
    "longitude": "-90.05529819255621",
    "latitude": "29.997995800050123",
    "geocoded_column": {
      "latitude": "29.997995800050123",
      "longitude": "-90.05529819255621"
    }
  },
  {
    "service_request": "2024-1143100",
    "request_type": "Streetlights",
    "request_reason": "Streetlight Outage/Malfunction",
    "date_created": "2024-10-22T13:46:17.000",
    "date_modified": "2024-10-22T13:46:18.000",
    "request_status": "Pending",
    "responsible_agency": "Department of Public Works",
    "final_address": "3223 Mistletoe St",
    "address_councildis": "A",
    "status": "Pending",
    "contractor": "Legacy Professional Services",
    "rowid": "1143100",
    "final_x": "3664055.2528",
    "final_y": "536379.646471",
    "longitude": "-90.12299271213243",
    "latitude": "29.969376253628237",
    "geocoded_column": {
      "latitude": "29.969376253628237",
      "longitude": "-90.12299271213243"
    }
  },
  {
    "service_request": "2024-1143099",
    "request_type": "Trash/Recycling",
    "request_reason": "Repair Recycling Cart",
    "date_created": "2024-10-22T13:44:52.000",
    "date_modified": "2024-10-22T13:44:54.000",
    "request_status": "Pending",
    "responsible_agency": "Department of Sanitation",
    "final_address": "4432 Jeanne Marie Pl",
    "address_councildis": "D",
    "status": "Pending",
    "rowid": "1143099",
    "final_x": "3678436.8747",
    "final_y": "548865.863443",
    "longitude": "-90.07714210152366",
    "latitude": "30.00328345355277",
    "geocoded_column": {
      "latitude": "30.00328345355277",
      "longitude": "-90.07714210152366"
    }
  },
  {
    "service_request": "2024-1143098",
    "request_type": "Trash/Recycling",
    "request_reason": "Request a Large Item Pick Up",
    "date_created": "2024-10-22T13:44:40.000",
    "date_modified": "2024-10-22T13:44:42.000",
    "request_status": "Pending",
    "responsible_agency": "Department of Sanitation",
    "final_address": "4900 Bancroft Dr",
    "address_councildis": "D",
    "status": "Assigned to Contractor",
    "contractor": "IV Waste",
    "rowid": "1143098",
    "final_x": "3676281.97345",
    "final_y": "550252.41826",
    "longitude": "-90.08390200609179",
    "latitude": "30.0071607696868",
    "geocoded_column": {
      "latitude": "30.0071607696868",
      "longitude": "-90.08390200609179"
    }
  },
  {
    "service_request": "2024-1143097",
    "request_type": "Property Maintenance",
    "request_reason": "Property Maintenance",
    "date_created": "2024-10-22T13:42:42.000",
    "date_modified": "2024-10-22T13:42:42.000",
    "request_status": "Pending",
    "responsible_agency": "Department of Code Enforcement",
    "final_address": "4717 Carondelet St",
    "address_councildis": "B",
    "status": "Pending",
    "rowid": "1143097",
    "final_x": "3669534.68839",
    "final_y": "521157.595513",
    "longitude": "-90.10620299903245",
    "latitude": "29.927360299450815",
    "geocoded_column": {
      "latitude": "29.927360299450815",
      "longitude": "-90.10620299903245"
    }
  },
  {
    "service_request": "2024-1143096",
    "request_type": "Safety & Permits",
    "request_reason": "Zoning Enforcement",
    "date_created": "2024-10-22T13:39:41.000",
    "date_modified": "2024-10-22T13:39:41.000",
    "request_status": "Pending",
    "responsible_agency": "Safety and Permits",
    "final_address": "4417 Dryades St",
    "address_councildis": "B",
    "rowid": "1143096",
    "final_x": "3670505.04142",
    "final_y": "522023.371578",
    "longitude": "-90.10311048613688",
    "latitude": "29.92971229649019",
    "geocoded_column": {
      "latitude": "29.92971229649019",
      "longitude": "-90.10311048613688"
    }
  },
  {
    "service_request": "2024-1143095",
    "request_type": "Trash/Recycling",
    "request_reason": "Dead Animal Pick Up",
    "date_created": "2024-10-22T13:39:06.000",
    "date_modified": "2024-10-22T17:13:56.000",
    "case_close_date": "2024-10-22T12:13:56.000",
    "request_status": "Closed",
    "responsible_agency": "Department of Sanitation",
    "final_address": "7542 Forest Glen Rd",
    "address_councildis": "E",
    "status": "Invalid Request",
    "contractor": "Waste Pro",
    "contractor_action": "Invalid Request",
    "rowid": "1143095",
    "final_x": "3709871.06859",
    "final_y": "564615.410145",
    "longitude": "-89.97724879091489",
    "latitude": "30.04560351350945",
    "geocoded_column": {
      "latitude": "30.04560351350945",
      "longitude": "-89.97724879091489"
    }
  },