[
  {
    "service_request": "2024-1143571",
    "request_type": "Trash/Recycling",
    "request_reason": "Request a Large Item Pick Up",
    "date_created": "2024-10-23T23:08:08.000",
    "date_modified": "2024-10-23T23:08:09.000",
    "request_status": "Pending",
    "responsible_agency": "Department of Sanitation",
    "final_address": "2514 Dryades St",
    "address_councildis": "B",
    "status": "Assigned to Contractor",
    "contractor": "IV Waste",
    "rowid": "1143571",
    "final_x": "3676001.44283",
    "final_y": "523848.670587",
    "longitude": "-90.08569655531606",
    "latitude": "29.934567866941514",
    "geocoded_column": {
      "latitude": "29.934567866941514",
      "longitude": "-90.08569655531606"
    }
  },
  {
    "service_request": "2024-1143570",
    "request_type": "Safety & Permits",
    "request_reason": "Licenses & Permits",
    "date_created": "2024-10-23T23:02:03.000",
    "date_modified": "2024-10-23T23:02:03.000",
    "request_status": "Pending",
    "responsible_agency": "Safety and Permits",
    "final_address": "1499 Pressburg St",
    "address_councildis": "D",
    "status": "Pending",
    "rowid": "1143570",
    "final_x": "3678302.82235",
    "final_y": "554108.0134",
    "longitude": "-90.0773840719837",
    "latitude": "30.017701525458456",
    "geocoded_column": {
      "latitude": "30.017701525458456",
      "longitude": "-90.0773840719837"
    }
  },
  {
    "service_request": "2024-1143569",
    "request_type": "Property Maintenance",
    "request_reason": "Property Maintenance",
    "date_created": "2024-10-23T22:37:35.000",
    "date_modified": "2024-10-23T22:37:35.000",
    "request_status": "Pending",
    "responsible_agency": "Department of Code Enforcement",
    "final_address": "6939 Pinebrook Dr",
    "address_councildis": "E",
    "status": "Pending",
    "rowid": "1143569",
    "final_x": "3720061.10866",
    "final_y": "569277.898534",
    "longitude": "-89.94486509450095",
    "latitude": "30.058087893279666",
    "geocoded_column": {
      "latitude": "30.058087893279666",
      "longitude": "-89.94486509450095"
    }
  },
  {
    "service_request": "2024-1143568",
    "request_type": "Trash/Recycling",
    "request_reason": "Illegal Dumping",
    "date_created": "2024-10-23T22:26:44.000",
    "date_modified": "2024-10-23T22:26:44.000",
    "request_status": "Pending",
    "responsible_agency": "Department of Sanitation",
    "final_address": "5223 Vermillion Blvd",
    "address_councildis": "D",
    "status": "Pending",
    "rowid": "1143568",
    "final_x": "3683359.47657",
    "final_y": "552010.715862",
    "longitude": "-90.06148059376483",
    "latitude": "30.011781352395698",
    "geocoded_column": {
      "latitude": "30.011781352395698",
      "longitude": "-90.06148059376483"
    }
  },
  {
    "service_request": "2024-1143567",
    "request_type": "Drainage",
    "request_reason": "Street Flooding",
    "date_created": "2024-10-23T22:25:15.000",
    "date_modified": "2024-10-23T22:25:15.000",
    "request_status": "Pending",
    "responsible_agency": "Department of Public Works",
    "final_address": "7180 Whitmore Pl",
    "address_councildis": "E",
    "status": "Pending",
    "rowid": "1143567",
    "final_x": "3718528.97516",
    "final_y": "569855.007334",
    "longitude": "-89.94968591087053",
    "latitude": "30.05972566159047",
    "geocoded_column": {
      "latitude": "30.05972566159047",
      "longitude": "-89.94968591087053"
    }
  },
  {
    "service_request": "2024-1143566",
    "request_type": "Streetlights",
    "request_reason": "Streetlight Outage/Malfunction",
    "date_created": "2024-10-23T22:12:10.000",
    "date_modified": "2024-10-23T22:12:12.000",
    "request_status": "Pending",
    "responsible_agency": "Department of Public Works",
    "final_address": "4000 BLK Lennox Blvd",
    "address_councildis": "C",
    "status": "Pending",
    "contractor": "Legacy Professional Services",
    "rowid": "1143566",
    "final_x": "3700852.14813",
    "final_y": "515231.659613",
    "longitude": "-90.00755870289056",
    "latitude": "29.91010663534438",
    "geocoded_column": {
      "latitude": "29.91010663534438",
      "longitude": "-90.00755870289056"
    }
  },
  {
    "service_request": "2024-1143565",
    "request_type": "Streetlights",
    "request_reason": "Streetlight Outage/Malfunction",
    "date_created": "2024-10-23T22:02:34.000",
    "date_modified": "2024-10-23T22:02:35.000",
    "request_status": "Pending",
    "responsible_agency": "Department of Public Works",
    "final_address": "4000 BLK Lennox Blvd",
    "address_councildis": "C",
    "status": "Pending",
    "contractor": "Legacy Professional Services",
    "rowid": "1143565",
    "final_x": "3700852.14813",
    "final_y": "515231.659613",
    "longitude": "-90.00755870289056",
    "latitude": "29.91010663534438",
    "geocoded_column": {
      "latitude": "29.91010663534438",
      "longitude": "-90.00755870289056"
    }
  },
  {
    "service_request": "2024-1143564",
    "request_type": "Trash/Recycling",
    "request_reason": "Order Trash Cart",
    "date_created": "2024-10-23T22:02:29.000",
    "date_modified": "2024-10-23T22:02:30.000",
    "request_status": "Pending",
    "responsible_agency": "Department of Sanitation",
    "final_address": "818 Bourbon St Apt 1A",
    "address_councildis": "C",
    "status": "Assigned to Contractor",
    "contractor": "Empire Services",
    "rowid": "1143564",
    "final_x": "3682620.59311",
    "final_y": "533079.696068",
    "longitude": "-90.06447735879826",
    "latitude": "29.959750243929967",
    "geocoded_column": {
      "latitude": "29.959750243929967",
      "longitude": "-90.06447735879826"
    }
  },
  {
    "service_request": "2024-1143563",
    "request_type": "Trash/Recycling",
    "request_reason": "Replace Trash Cart",
    "date_created": "2024-10-23T21:54:22.000",
    "date_modified": "2024-10-23T21:54:23.000",
    "request_status": "Pending",
    "responsible_agency": "Department of Sanitation",
    "final_address": "7340 Sardonyx St",
    "address_councildis": "D",
    "status": "Assigned to Contractor",
    "contractor": "IV Waste",
    "rowid": "1143563",
    "final_x": "3669527.84686",
    "final_y": "555840.237593",
    "longitude": "-90.10505097798685",
    "latitude": "30.02272607232886",
    "geocoded_column": {
      "latitude": "30.02272607232886",
      "longitude": "-90.10505097798685"
    }
  },
  {
    "service_request": "2024-1143562",
    "request_type": "Mosquito, Termite & Rodent Control",
    "request_reason": "Rodent Complaint (Rats)",
    "date_created": "2024-10-23T21:46:28.000",
    "date_modified": "2024-10-23T21:46:28.000",
    "request_status": "Pending",
    "responsible_agency": "Mosquito, Termite & Rodent Control Board",
    "final_address": "300 BLK S Diamond St",
    "address_councildis": "B",
    "status": "Pending",
    "rowid": "1143562",
    "final_x": "3682005.00406",
    "final_y": "526791.724091",
    "longitude": "-90.06664075070067",
    "latitude": "29.94247917482962",
    "geocoded_column": {
      "latitude": "29.94247917482962",
      "longitude": "-90.06664075070067"
    }
  },
  {
    "service_request": "2024-1143561",
    "request_type": "Trash/Recycling",
    "request_reason": "Order Recycling Cart",
    "date_created": "2024-10-23T20:57:51.000",
    "date_modified": "2024-10-23T20:57:51.000",
    "request_status": "Pending",
    "responsible_agency": "Department of Sanitation",
    "final_address": "604 Jena St",
    "address_councildis": "B",
    "status": "Pending",
    "rowid": "1143561",
    "final_x": "3670715.23649",
    "final_y": "517757.714806",
    "longitude": "-90.10259157255584",
    "latitude": "29.91797689190647",
    "geocoded_column": {
      "latitude": "29.91797689190647",
      "longitude": "-90.10259157255584"
    }
  },
  {
    "service_request": "2024-1143560",
    "request_type": "Trash/Recycling",
    "request_reason": "Order Recycling Cart",
    "date_created": "2024-10-23T20:57:16.000",
    "date_modified": "2024-10-23T20:57:16.000",
    "request_status": "Pending",
    "responsible_agency": "Department of Sanitation",
    "final_address": "600 Jena St",
    "address_councildis": "B",
    "status": "Pending",
    "rowid": "1143560",
    "final_x": "3670719.23079",
    "final_y": "517740.738934",
    "longitude": "-90.10257954024716",
    "latitude": "29.91793009566058",
    "geocoded_column": {
      "latitude": "29.91793009566058",
      "longitude": "-90.10257954024716"
    }
  },
  {
    "service_request": "2024-1143559",
    "request_type": "Trash/Recycling",
    "request_reason": "Missed Trash Pick-Up",
    "date_created": "2024-10-23T20:30:14.000",
    "date_modified": "2024-10-23T20:30:15.000",
    "request_status": "Pending",
    "responsible_agency": "Department of Sanitation",
    "final_address": "410 Olivier St",
    "address_councildis": "C",
    "status": "Assigned to Contractor",
    "contractor": "Richards Disposal",
    "rowid": "1143559",
    "final_x": "3687285.00706",
    "final_y": "530242.991361",
    "longitude": "-90.04984856451719",
    "latitude": "29.951807432797757",
    "geocoded_column": {
      "latitude": "29.951807432797757",
      "longitude": "-90.04984856451719"
    }
  },
  {
    "service_request": "2024-1143558",
    "request_type": "Trash/Recycling",
    "request_reason": "Order Trash Cart",
    "date_created": "2024-10-23T19:25:26.000",
    "date_modified": "2024-10-23T19:25:27.000",
    "request_status": "Pending",
    "responsible_agency": "Department of Sanitation",
    "final_address": "1701 Humanity St",
    "address_councildis": "D",
    "status": "Assigned to Contractor",
    "contractor": "IV Waste",
    "rowid": "1143558",
    "final_x": "3680567.62671",
    "final_y": "544498.389775",
    "longitude": "-90.07056278841887",
    "latitude": "29.991210049004515",
    "geocoded_column": {
      "latitude": "29.991210049004515",
      "longitude": "-90.07056278841887"
    }
  },
  {
    "service_request": "2024-1143557",
    "request_type": "Trash/Recycling",
    "request_reason": "Request a Large Item Pick Up",
    "date_created": "2024-10-23T19:16:16.000",
    "date_modified": "2024-10-23T19:16:17.000",
    "request_status": "Pending",
    "responsible_agency": "Department of Sanitation",
    "final_address": "2326 Jackson Ave Apt B",
    "address_councildis": "B",
    "status": "Assigned to Contractor",
    "contractor": "IV Waste",
    "rowid": "1143557",
    "final_x": "3675616.16789",
    "final_y": "526190.488126",
    "longitude": "-90.08683243568711",
    "latitude": "29.941018627442883",
    "geocoded_column": {
      "latitude": "29.941018627442883",
      "longitude": "-90.08683243568711"
    }
  },
  {
    "service_request": "2024-1143556",
    "request_type": "Abandoned Vehicles",
    "request_reason": "Abandoned/Junk Vehicles",
    "date_created": "2024-10-23T19:13:40.000",
    "date_modified": "2024-10-23T19:13:40.000",
    "request_status": "Pending",
    "responsible_agency": "Department of Public Works",
    "final_address": "3730 Banks St",
    "address_councildis": "B",
    "status": "Pending",
    "rowid": "1143556",
    "final_x": "3671364.53793",
    "final_y": "536539.479175",
    "longitude": "-90.09990392320927",
    "latitude": "29.96960142156067",
    "geocoded_column": {
      "latitude": "29.96960142156067",
      "longitude": "-90.09990392320927"
    }
  },
  {
    "service_request": "2024-1143555",
    "request_type": "Healthy Homes",
    "request_reason": "Healthy Homes",
    "date_created": "2024-10-23T18:45:54.000",
    "date_modified": "2024-10-23T18:45:54.000",
    "request_status": "Pending",
    "responsible_agency": "Department of Code Enforcement",
    "final_address": "2008 Congress St",
    "address_councildis": "D",
    "status": "Pending",
    "rowid": "1143555",
    "final_x": "3691534.72937",
    "final_y": "539061.248266",
    "longitude": "-90.03611479604069",
    "latitude": "29.975922971523467",
    "geocoded_column": {
      "latitude": "29.975922971523467",
      "longitude": "-90.03611479604069"
    }
  },
  {
    "service_request": "2024-1143554",
    "request_type": "Trash/Recycling",
    "request_reason": "Request a Large Item Pick Up",
    "date_created": "2024-10-23T18:43:39.000",
    "date_modified": "2024-10-23T18:43:40.000",
    "request_status": "Pending",
    "responsible_agency": "Department of Sanitation",
    "final_address": "1016 Sixth St",
    "address_councildis": "B",
    "status": "Assigned to Contractor",
    "contractor": "IV Waste",
    "rowid": "1143554",
    "final_x": "3676688.11265",
    "final_y": "520328.363064",
    "longitude": "-90.08364995933096",
    "latitude": "29.92486759062238",
    "geocoded_column": {
      "latitude": "29.92486759062238",
      "longitude": "-90.08364995933096"
    }
  },
  {
    "service_request": "2024-1143553",
    "request_type": "Abandoned Vehicles",
    "request_reason": "Abandoned/Junk Vehicles",
    "date_created": "2024-10-23T18:40:36.000",
    "date_modified": "2024-10-23T18:40:36.000",
    "request_status": "Pending",
    "responsible_agency": "Department of Public Works",
    "final_address": "1710 King Dr",
    "address_councildis": "D",
    "status": "Pending",
    "rowid": "1143553",
    "final_x": "3680329.11707",
    "final_y": "549992.193428",
    "longitude": "-90.07112502488623",
    "latitude": "30.006323281362892",
    "geocoded_column": {
      "latitude": "30.006323281362892",
      "longitude": "-90.07112502488623"
    }
  },
  {
    "service_request": "2024-1143552",
    "request_type": "Trash/Recycling",
    "request_reason": "Repair Trash Cart",
    "date_created": "2024-10-23T18:39:18.000",
    "date_modified": "2024-10-23T18:39:19.000",
    "request_status": "Pending",
    "responsible_agency": "Department of Sanitation",
    "final_address": "1988 Hope St",
    "address_councildis": "D",
    "status": "Assigned to Contractor",
    "contractor": "IV Waste",
    "rowid": "1143552",
    "final_x": "3682200.15503",
    "final_y": "541980.268876",
    "longitude": "-90.06549402152879",
    "latitude": "29.984236533459626",
    "geocoded_column": {
      "latitude": "29.984236533459626",
      "longitude": "-90.06549402152879"
    }
  },
  {
    "service_request": "2024-1143551",
    "request_type": "Trash/Recycling",
    "request_reason": "Start Trash Service",
    "date_created": "2024-10-23T18:35:58.000",
    "date_modified": "2024-10-23T18:35:59.000",
    "request_status": "Pending",
    "responsible_agency": "Department of Sanitation",
    "final_address": " & SHADE TREE LN",
    "address_councildis": "C",
    "status": "Assigned to Contractor",
    "contractor": "Richards Disposal",
    "rowid": "1143551",
    "final_x": "3695620.33",
    "final_y": "522834.78",
    "longitude": "-90.02379705437441",
    "latitude": "29.93117805604866",
    "geocoded_column": {
      "latitude": "29.93117805604866",
      "longitude": "-90.02379705437441"
    }
  },
  {
    "service_request": "2024-1143550",
    "request_type": "General Services",
    "request_reason": "General Service Request",
    "date_created": "2024-10-23T18:32:36.000",
    "date_modified": "2024-10-23T18:32:36.000",
    "request_status": "Pending",
    "responsible_agency": "Orleans Parish Communication District",
    "final_address": "3132 N Robertson St",
    "address_councildis": "C",
    "status": "Pending",
    "rowid": "1143550",
    "final_x": "3689606.82051",
    "final_y": "537387.823368",
    "longitude": "-90.04226321510801",
    "latitude": "29.971381517084883",
    "geocoded_column": {
      "latitude": "29.971381517084883",
      "longitude": "-90.04226321510801"
    }
  },
  {
    "service_request": "2024-1143549",
    "request_type": "Property Maintenance",
    "request_reason": "Property Maintenance",
    "date_created": "2024-10-23T18:30:09.000",
    "date_modified": "2024-10-23T18:30:09.000",
    "request_status": "Pending",
    "responsible_agency": "Department of Code Enforcement",
    "final_address": "3132 N Robertson St",
    "address_councildis": "C",
    "status": "Pending",
    "rowid": "1143549",
    "final_x": "3689606.82051",
    "final_y": "537387.823368",
    "longitude": "-90.04226321510801",
    "latitude": "29.971381517084883",
    "geocoded_column": {
      "latitude": "29.971381517084883",
      "longitude": "-90.04226321510801"
    }
  },
  {
    "service_request": "2024-1143548",
    "request_type": "Trash/Recycling",
    "request_reason": "Replace Trash Cart",
    "date_created": "2024-10-23T18:27:02.000",
    "date_modified": "2024-10-23T18:27:03.000",
    "request_status": "Pending",
    "responsible_agency": "Department of Sanitation",
    "final_address": "2421 Cambronne St",
    "address_councildis": "A",
    "status": "Assigned to Contractor",
    "contractor": "IV Waste",
    "rowid": "1143548",
    "final_x": "3664241.8569",
    "final_y": "532424.421443",
    "longitude": "-90.1225353893967",
    "latitude": "29.958495261843943",
    "geocoded_column": {
      "latitude": "29.958495261843943",
      "longitude": "-90.1225353893967"
    }
  },
  {
    "service_request": "2024-1143547",
    "request_type": "Abandoned Vehicles",
    "request_reason": "Abandoned/Junk Vehicles",
    "date_created": "2024-10-23T18:19:21.000",
    "date_modified": "2024-10-23T18:19:21.000",
    "request_status": "Pending",
    "responsible_agency": "Department of Public Works",
    "final_address": "1710 King Dr",
    "address_councildis": "D",
    "status": "Pending",
    "rowid": "1143547",
    "final_x": "3680329.11707",
    "final_y": "549992.193428",
    "longitude": "-90.07112502488623",
    "latitude": "30.006323281362892",
    "geocoded_column": {
      "latitude": "30.006323281362892",
      "longitude": "-90.07112502488623"
    }
  },
  {
    "service_request": "2024-1143546",
    "request_type": "Traffic Signals",
    "request_reason": "Traffic Signal Malfunctioning or Damaged",
    "date_created": "2024-10-23T18:06:35.000",
    "date_modified": "2024-10-23T18:06:35.000",
    "request_status": "Pending",
    "responsible_agency": "Department of Public Works",
    "final_address": "3300 St Bernard Ave",
    "address_councildis": "D",
    "status": "Pending",
    "rowid": "1143546",
    "final_x": "3678634.0141",
    "final_y": "544727.647247",
    "longitude": "-90.07666268549036",
    "latitude": "29.991898878027502",
    "geocoded_column": {
      "latitude": "29.991898878027502",
      "longitude": "-90.07666268549036"
    }
  },
  {
    "service_request": "2024-1143545",
    "request_type": "Property Maintenance",
    "request_reason": "Property Maintenance",
    "date_created": "2024-10-23T18:06:05.000",
    "date_modified": "2024-10-23T18:06:05.000",
    "request_status": "Pending",
    "responsible_agency": "Department of Code Enforcement",
    "final_address": "3300 BLK Almonaster Ave",
    "address_councildis": "D",
    "status": "Pending",
    "rowid": "1143545",
    "final_x": "3689429.29729",
    "final_y": "545810.088614",
    "longitude": "-90.04252421816963",
    "latitude": "29.99454524146893",
    "geocoded_column": {
      "latitude": "29.99454524146893",
      "longitude": "-90.04252421816963"
    }
  },
  {
    "service_request": "2024-1143544",
    "request_type": "Trash/Recycling",
    "request_reason": "Request a Large Item Pick Up",
    "date_created": "2024-10-23T17:57:29.000",
    "date_modified": "2024-10-23T17:57:30.000",
    "request_status": "Pending",
    "responsible_agency": "Department of Sanitation",
    "final_address": "2226 Foucher St",
    "address_councildis": "B",
    "status": "Assigned to Contractor",
    "contractor": "IV Waste",
    "rowid": "1143544",
    "final_x": "3672657.42068",
    "final_y": "523531.390651",
    "longitude": "-90.09626439391717",
    "latitude": "29.93379514470543",
    "geocoded_column": {
      "latitude": "29.93379514470543",
      "longitude": "-90.09626439391717"
    }
  },
  {
    "service_request": "2024-1143543",
    "request_type": "General Services",
    "request_reason": "General Service Request",
    "date_created": "2024-10-23T17:53:01.000",
    "date_modified": "2024-10-23T17:53:01.000",
    "request_status": "Pending",
    "responsible_agency": "Orleans Parish Communication District",
    "final_address": "5641 Pauline Dr",
    "address_councildis": "D",
    "status": "Pending",
    "rowid": "1143543",
    "final_x": "3691978.26499",
    "final_y": "554888.378456",
    "longitude": "-90.03414722764059",
    "latitude": "30.01942798913461",
    "geocoded_column": {
      "latitude": "30.01942798913461",
      "longitude": "-90.03414722764059"
    }
  },
  {
    "service_request": "2024-1143542",
    "request_type": "Trash/Recycling",
    "request_reason": "Missed Trash Pick-Up",
    "date_created": "2024-10-23T17:52:19.000",
    "date_modified": "2024-10-23T17:52:20.000",
    "request_status": "Pending",
    "responsible_agency": "Department of Sanitation",
    "final_address": "3160 Jack Wyman Rd",
    "address_councildis": "C",
    "status": "Assigned to Contractor",
    "contractor": "Richards Disposal",
    "rowid": "1143542",
    "final_x": "3717462.9548",
    "final_y": "518154.743734",
    "longitude": "-89.95502126026116",
    "latitude": "29.91760516371888",
    "geocoded_column": {
      "latitude": "29.91760516371888",
      "longitude": "-89.95502126026116"
    }
  },
  {
    "service_request": "2024-1143541",
    "request_type": "Trash/Recycling",
    "request_reason": "Request a Large Item Pick Up",
    "date_created": "2024-10-23T17:48:57.000",
    "date_modified": "2024-10-23T17:48:58.000",
    "request_status": "Pending",
    "responsible_agency": "Department of Sanitation",
    "final_address": "7200 Thornley Dr",
    "address_councildis": "E",
    "status": "Assigned to Contractor",
    "contractor": "Waste Pro",
    "rowid": "1143541",
    "final_x": "3702890.17514",
    "final_y": "559749.937757",
    "longitude": "-89.99949070006933",
    "latitude": "30.0324506934833",
    "geocoded_column": {
      "latitude": "30.0324506934833",
      "longitude": "-89.99949070006933"
    }
  },
  {
    "service_request": "2024-1143540",
    "request_type": "Abandoned Vehicles",
    "request_reason": "Vehicle Blocking Your Driveway",
    "date_created": "2024-10-23T17:46:12.000",
    "date_modified": "2024-10-23T17:46:12.000",
    "request_status": "Pending",
    "responsible_agency": "Department of Public Works",
    "final_address": "1011 Treme St",
    "address_councildis": "C",
    "status": "Pending",
    "rowid": "1143540",
    "final_x": "3681507.71624",
    "final_y": "534791.690438",
    "longitude": "-90.06793186874009",
    "latitude": "29.96449148215058",
    "geocoded_column": {
      "latitude": "29.96449148215058",
      "longitude": "-90.06793186874009"
    }
  },
  {
    "service_request": "2024-1143539",
    "request_type": "Street and Traffic Signs",
    "request_reason": "One Way Sign Missing or Damaged",
    "date_created": "2024-10-23T17:44:45.000",
    "date_modified": "2024-10-23T17:44:45.000",
    "request_status": "Pending",
    "responsible_agency": "Department of Public Works",
    "final_address": "5100 BLK Freret St",
    "address_councildis": "B",
    "status": "Pending",
    "rowid": "1143539",
    "final_x": "3668361.19408",
    "final_y": "523927.743271",
    "longitude": "-90.10981406413482",
    "latitude": "29.935011825803024",
    "geocoded_column": {
      "latitude": "29.935011825803024",
      "longitude": "-90.10981406413482"
    }
  },
  {
    "service_request": "2024-1143538",
    "request_type": "Safety & Permits",
    "request_reason": "Licenses & Permits",
    "date_created": "2024-10-23T17:40:05.000",
    "date_modified": "2024-10-23T17:40:05.000",
    "request_status": "Pending",
    "responsible_agency": "Safety and Permits",
    "final_address": "1715 Urquhart St",
    "address_councildis": "C",
    "status": "Pending",
    "rowid": "1143538",
    "final_x": "3683221.34229",
    "final_y": "536930.998024",
    "longitude": "-90.06244544321736",
    "latitude": "29.970321692974334",
    "geocoded_column": {
      "latitude": "29.970321692974334",
      "longitude": "-90.06244544321736"
    }
  },
  {
    "service_request": "2024-1143537",
    "request_type": "Trash/Recycling",
    "request_reason": "Replace Recycling Cart",
    "date_created": "2024-10-23T17:38:57.000",
    "date_modified": "2024-10-23T17:38:57.000",
    "request_status": "Pending",
    "responsible_agency": "Department of Sanitation",
    "final_address": "1237 Filmore Ave",
    "address_councildis": "D",
    "status": "Pending",
    "rowid": "1143537",
    "final_x": "3677173.48936",
    "final_y": "551852.451094",
    "longitude": "-90.08103021388658",
    "latitude": "30.011533528442477",
    "geocoded_column": {
      "latitude": "30.011533528442477",
      "longitude": "-90.08103021388658"
    }
  },
  {
    "service_request": "2024-1143536",
    "request_type": "Property Maintenance",
    "request_reason": "Property Maintenance",
    "date_created": "2024-10-23T17:26:49.000",
    "date_modified": "2024-10-23T17:26:49.000",
    "request_status": "Pending",
    "responsible_agency": "Department of Code Enforcement",
    "final_address": "1750 Industry St",
    "address_councildis": "D",
    "status": "Pending",
    "rowid": "1143536",
    "final_x": "3681298.82184",
    "final_y": "542642.075981",
    "longitude": "-90.06831784765772",
    "latitude": "29.98608366238518",
    "geocoded_column": {
      "latitude": "29.98608366238518",
      "longitude": "-90.06831784765772"
    }
  },
  {
    "service_request": "2024-1143535",
    "request_type": "Parks & Parkways",
    "request_reason": "Tree Stump (removal, grind)",
    "date_created": "2024-10-23T17:20:26.000",
    "date_modified": "2024-10-23T17:20:26.000",
    "request_status": "Pending",
    "responsible_agency": "Department of Parks & Parkway",
    "final_address": "1300 BLK Jena St",
    "address_councildis": "B",
    "status": "Pending",
    "rowid": "1143535",
    "final_x": "3670515.04903",
    "final_y": "520155.665513",
    "longitude": "-90.10314219437628",
    "latitude": "29.924576406087418",
    "geocoded_column": {
      "latitude": "29.924576406087418",
      "longitude": "-90.10314219437628"
    }
  },
  {
    "service_request": "2024-1143534",
    "request_type": "Trash/Recycling",
    "request_reason": "Return Recycling Cart",
    "date_created": "2024-10-23T17:15:05.000",
    "date_modified": "2024-10-23T17:15:05.000",
    "request_status": "Pending",
    "responsible_agency": "Department of Sanitation",
    "final_address": "1719 N Tonti St",
    "address_councildis": "D",
    "status": "Pending",
    "rowid": "1143534",
    "final_x": "3680737.11503",
    "final_y": "540037.620939",
    "longitude": "-90.07018274517681",
    "latitude": "29.97893935965394",
    "geocoded_column": {
      "latitude": "29.97893935965394",
      "longitude": "-90.07018274517681"
    }
  },
  {
    "service_request": "2024-1143533",
    "request_type": "Trash/Recycling",
    "request_reason": "Return Trash Cart",
    "date_created": "2024-10-23T17:14:14.000",
    "date_modified": "2024-10-23T17:14:15.000",
    "request_status": "Pending",
    "responsible_agency": "Department of Sanitation",
    "final_address": "1719 N Tonti St",
    "address_councildis": "D",
    "status": "Assigned to Contractor",
    "contractor": "IV Waste",
    "rowid": "1143533",
    "final_x": "3680737.11503",
    "final_y": "540037.620939",
    "longitude": "-90.07018274517681",
    "latitude": "29.97893935965394",
    "geocoded_column": {
      "latitude": "29.97893935965394",
      "longitude": "-90.07018274517681"
    }
  },
  {
    "service_request": "2024-1143532",
    "request_type": "Trash/Recycling",
    "request_reason": "Return Trash Cart",
    "date_created": "2024-10-23T17:13:59.000",
    "date_modified": "2024-10-23T17:14:01.000",
    "request_status": "Pending",
    "responsible_agency": "Department of Sanitation",
    "final_address": "7520 Plum St",
    "address_councildis": "A",
    "status": "Assigned to Contractor",
    "contractor": "IV Waste",
    "rowid": "1143532",
    "final_x": "3663731.46778",
    "final_y": "527196.452607",
    "longitude": "-90.12432125733751",
    "latitude": "29.944134855675344",
    "geocoded_column": {
      "latitude": "29.944134855675344",
      "longitude": "-90.12432125733751"
    }
  },
  {
    "service_request": "2024-1143531",
    "request_type": "Roads and Streets",
    "request_reason": "Abandoned Service Cut",
    "date_created": "2024-10-23T17:08:22.000",
    "date_modified": "2024-10-23T17:08:22.000",
    "request_status": "Pending",
    "responsible_agency": "Department of Public Works",
    "final_address": "800 BLK General Pershing St",
    "address_councildis": "B",
    "status": "Pending",
    "rowid": "1143531",
    "final_x": "3671472.92244",
    "final_y": "518642.265325",
    "longitude": "-90.10016991855034",
    "latitude": "29.92038672567917",
    "geocoded_column": {
      "latitude": "29.92038672567917",
      "longitude": "-90.10016991855034"
    }
  },
  {
    "service_request": "2024-1143530",
    "request_type": "Roads and Streets",
    "request_reason": "Street Subsidence (Sinking)",
    "date_created": "2024-10-23T17:07:58.000",
    "date_modified": "2024-10-23T17:07:58.000",
    "request_status": "Pending",
    "responsible_agency": "Department of Public Works",
    "final_address": "5231 St Charles Ave",
    "address_councildis": "B",
    "status": "Pending",
    "rowid": "1143530",
    "final_x": "3667943.80679",
    "final_y": "521403.149305",
    "longitude": "-90.11121676372267",
    "latitude": "29.928082245970227",
    "geocoded_column": {
      "latitude": "29.928082245970227",
      "longitude": "-90.11121676372267"
    }
  },
  {
    "service_request": "2024-1143529",
    "request_type": "Abandoned Vehicles",
    "request_reason": "Abandoned/Junk Vehicles",
    "date_created": "2024-10-23T17:04:37.000",
    "date_modified": "2024-10-23T17:04:37.000",
    "request_status": "Pending",
    "responsible_agency": "Department of Public Works",
    "final_address": "10121 Brookfield Dr",
    "address_councildis": "E",
    "status": "Pending",
    "rowid": "1143529",
    "final_x": "3709969.46936",
    "final_y": "562883.466848",
    "longitude": "-89.97700259200603",
    "latitude": "30.040838160895298",
    "geocoded_column": {
      "latitude": "30.040838160895298",
      "longitude": "-89.97700259200603"
    }
  },
  {
    "service_request": "2024-1143528",
    "request_type": "Drainage",
    "request_reason": "Catch Basin Clogged",
    "date_created": "2024-10-23T17:01:24.000",
    "date_modified": "2024-10-23T17:01:24.000",
    "request_status": "Pending",
    "responsible_agency": "Department of Public Works",
    "final_address": "5231 St Charles Ave",
    "address_councildis": "B",
    "status": "Pending",
    "rowid": "1143528",
    "final_x": "3667943.80679",
    "final_y": "521403.149305",
    "longitude": "-90.11121676372267",
    "latitude": "29.928082245970227",
    "geocoded_column": {
      "latitude": "29.928082245970227",
      "longitude": "-90.11121676372267"
    }
  },
  {
    "service_request": "2024-1143527",
    "request_type": "Trash/Recycling",
    "request_reason": "Request a Large Item Pick Up",
    "date_created": "2024-10-23T16:59:47.000",
    "date_modified": "2024-10-23T16:59:48.000",
    "request_status": "Pending",
    "responsible_agency": "Department of Sanitation",
    "final_address": "828 Roosevelt Pl",
    "address_councildis": "A",
    "status": "Assigned to Contractor",
    "contractor": "IV Waste",
    "rowid": "1143527",
    "final_x": "3673598.26094",
    "final_y": "539844.138698",
    "longitude": "-90.09273662685574",
    "latitude": "29.978621808509047",
    "geocoded_column": {
      "latitude": "29.978621808509047",
      "longitude": "-90.09273662685574"
    }
  },
  {
    "service_request": "2024-1143526",
    "request_type": "Health Related Request",
    "request_reason": "Homeless Encampment Complaint",
    "date_created": "2024-10-23T16:47:20.000",
    "date_modified": "2024-10-23T16:47:20.000",
    "request_status": "Pending",
    "responsible_agency": "Health Department",
    "final_address": "923 Decatur St",
    "address_councildis": "C",
    "rowid": "1143526",
    "final_x": "3683710.87215",
    "final_y": "532757.097796",
    "longitude": "-90.0610458192153",
    "latitude": "29.95882996663902",
    "geocoded_column": {
      "latitude": "29.95882996663902",
      "longitude": "-90.0610458192153"
    }
  },
  {
    "service_request": "2024-1143525",
    "request_type": "Trash/Recycling",
    "request_reason": "Request a Large Item Pick Up",
    "date_created": "2024-10-23T16:43:16.000",
    "date_modified": "2024-10-23T16:43:17.000",
    "request_status": "Pending",
    "responsible_agency": "Department of Sanitation",
    "final_address": "4810 Chestnut St",
    "address_councildis": "B",
    "status": "Assigned to Contractor",
    "contractor": "IV Waste",
    "rowid": "1143525",
    "final_x": "3669426.59655",
    "final_y": "519324.756471",
    "longitude": "-90.10660616144067",
    "latitude": "29.92232375712479",
    "geocoded_column": {
      "latitude": "29.92232375712479",
      "longitude": "-90.10660616144067"
    }
  },
  {
    "service_request": "2024-1143524",
    "request_type": "Trash/Recycling",
    "request_reason": "Missed Trash Pick-Up",
    "date_created": "2024-10-23T16:42:03.000",
    "date_modified": "2024-10-23T16:42:04.000",
    "request_status": "Pending",
    "responsible_agency": "Department of Sanitation",
    "final_address": "6018 Campus Blvd",
    "address_councildis": "D",
    "status": "Assigned to Contractor",
    "contractor": "IV Waste",
    "rowid": "1143524",
    "final_x": "3688480.62147",
    "final_y": "555455.747737",
    "longitude": "-90.04517842138013",
    "latitude": "30.02109662299664",
    "geocoded_column": {
      "latitude": "30.02109662299664",
      "longitude": "-90.04517842138013"
    }
  },
  {
    "service_request": "2024-1143523",
    "request_type": "Trash/Recycling",
    "request_reason": "Request a Large Item Pick Up",
    "date_created": "2024-10-23T16:41:38.000",
    "date_modified": "2024-10-23T16:41:39.000",
    "request_status": "Pending",
    "responsible_agency": "Department of Sanitation",
    "final_address": "2517 Frenchmen St",
    "address_councildis": "D",
    "status": "Assigned to Contractor",
    "contractor": "IV Waste",
    "rowid": "1143523",
    "final_x": "3684197.16124",
    "final_y": "541592.444556",
    "longitude": "-90.05920000916132",
    "latitude": "29.98310924504975",
    "geocoded_column": {
      "latitude": "29.98310924504975",
      "longitude": "-90.05920000916132"
    }
  },
  {
    "service_request": "2024-1143522",
    "request_type": "Trash/Recycling",
    "request_reason": "Request a Large Item Pick Up",
    "date_created": "2024-10-23T16:39:24.000",
    "date_modified": "2024-10-23T16:39:26.000",
    "request_status": "Pending",
    "responsible_agency": "Department of Sanitation",
    "final_address": "1425 Josephine St",
    "address_councildis": "B",
    "status": "Assigned to Contractor",
    "contractor": "IV Waste",
    "rowid": "1143522",
    "final_x": "3678435.42216",
    "final_y": "523317.577083",
    "longitude": "-90.07803090285546",
    "latitude": "29.933034437648175",
    "geocoded_column": {
      "latitude": "29.933034437648175",
      "longitude": "-90.07803090285546"
    }
  },
  {
    "service_request": "2024-1143521",
    "request_type": "Trash/Recycling",
    "request_reason": "Order Trash Cart",
    "date_created": "2024-10-23T16:37:23.000",
    "date_modified": "2024-10-23T16:37:24.000",
    "request_status": "Pending",
    "responsible_agency": "Department of Sanitation",
    "final_address": "6241 Pasteur Blvd",
    "address_councildis": "D",
    "status": "Assigned to Contractor",
    "contractor": "IV Waste",
    "rowid": "1143521",
    "final_x": "3682779.00674",
    "final_y": "556246.685274",
    "longitude": "-90.0631661875796",
    "latitude": "30.02344642295852",
    "geocoded_column": {
      "latitude": "30.02344642295852",
      "longitude": "-90.0631661875796"
    }
  },
  {
    "service_request": "2024-1143520",
    "request_type": "Abandoned Vehicles",
    "request_reason": "Abandoned/Junk Vehicles",
    "date_created": "2024-10-23T16:36:09.000",
    "date_modified": "2024-10-23T16:37:18.000",
    "request_status": "Pending",
    "responsible_agency": "Department of Public Works",
    "final_address": "8801 Jeannette St",
    "address_councildis": "A",
    "status": "Pending",
    "rowid": "1143520",
    "final_x": "3660837.32128",
    "final_y": "530881.733122",
    "longitude": "-90.13333708495509",
    "latitude": "29.954351847783173",
    "geocoded_column": {
      "latitude": "29.954351847783173",
      "longitude": "-90.13333708495509"
    }
  },
  {
    "service_request": "2024-1143519",
    "request_type": "Trash/Recycling",
    "request_reason": "Request a Large Item Pick Up",
    "date_created": "2024-10-23T16:34:47.000",
    "date_modified": "2024-10-23T16:34:48.000",
    "request_status": "Pending",
    "responsible_agency": "Department of Sanitation",
    "final_address": "6000 Burgundy St",
    "address_councildis": "E",
    "status": "Assigned to Contractor",
    "contractor": "Waste Pro",
    "rowid": "1143519",
    "final_x": "3698876.49264",
    "final_y": "532650.859332",
    "longitude": "-90.01316080658339",
    "latitude": "29.95806611425129",
    "geocoded_column": {
      "latitude": "29.95806611425129",
      "longitude": "-90.01316080658339"
    }
  },
  {
    "service_request": "2024-1143518",
    "request_type": "Drainage",
    "request_reason": "Street Flooding",
    "date_created": "2024-10-23T16:32:14.000",
    "date_modified": "2024-10-23T16:32:14.000",
    "request_status": "Pending",
    "responsible_agency": "Department of Public Works",
    "final_address": "10101 Patterson Rd",
    "address_councildis": "C",
    "status": "Pending",
    "rowid": "1143518",
    "final_x": "3722991.22419",
    "final_y": "518318.974454",
    "longitude": "-89.9375655306936",
    "latitude": "29.917872732471366",
    "geocoded_column": {
      "latitude": "29.917872732471366",
      "longitude": "-89.9375655306936"
    }
  },
  {
    "service_request": "2024-1143517",
    "request_type": "Trash/Recycling",
    "request_reason": "Request a Large Item Pick Up",
    "date_created": "2024-10-23T16:32:08.000",
    "date_modified": "2024-10-23T16:32:09.000",
    "request_status": "Pending",
    "responsible_agency": "Department of Sanitation",
    "final_address": "37 Honeysuckle Ln",
    "address_councildis": "E",
    "status": "Assigned to Contractor",
    "contractor": "Waste Pro",
    "rowid": "1143517",
    "final_x": "3713126.9475",
    "final_y": "568245.313637",
    "longitude": "-89.96682190065317",
    "latitude": "30.05547791884598",
    "geocoded_column": {
      "latitude": "30.05547791884598",
      "longitude": "-89.96682190065317"
    }
  },
  {
    "service_request": "2024-1143516",
    "request_type": "Trash/Recycling",
    "request_reason": "Missed Trash Pick-Up",
    "date_created": "2024-10-23T16:31:42.000",
    "date_modified": "2024-10-23T16:31:43.000",
    "request_status": "Pending",
    "responsible_agency": "Department of Sanitation",
    "final_address": "4425 Painters St",
    "address_councildis": "D",
    "status": "Assigned to Contractor",
    "contractor": "IV Waste",
    "rowid": "1143516",
    "final_x": "3686403.56809",
    "final_y": "549125.702995",
    "longitude": "-90.05196497621907",
    "latitude": "30.00375536050429",
    "geocoded_column": {
      "latitude": "30.00375536050429",
      "longitude": "-90.05196497621907"
    }
  },
  {
    "service_request": "2024-1143515",
    "request_type": "Trash/Recycling",
    "request_reason": "Request a Large Item Pick Up",
    "date_created": "2024-10-23T16:30:28.000",
    "date_modified": "2024-10-23T16:30:29.000",
    "request_status": "Pending",
    "responsible_agency": "Department of Sanitation",
    "final_address": "5613 N Villere St",
    "address_councildis": "E",
    "status": "Assigned to Contractor",
    "contractor": "Waste Pro",
    "rowid": "1143515",
    "final_x": "3698479.05207",
    "final_y": "534893.31303",
    "longitude": "-90.01433429450884",
    "latitude": "29.964244649031198",
    "geocoded_column": {
      "latitude": "29.964244649031198",
      "longitude": "-90.01433429450884"
    }
  },
  {
    "service_request": "2024-1143514",
    "request_type": "Roads and Streets",
    "request_reason": "Pothole",
    "date_created": "2024-10-23T16:27:55.000",
    "date_modified": "2024-10-23T16:27:56.000",
    "request_status": "Pending",
    "responsible_agency": "Department of Public Works",
    "final_address": "1535 Franklin Ave",
    "address_councildis": "C",
    "status": "Pending",
    "rowid": "1143514",
    "final_x": "3687733.14467",
    "final_y": "538225.755081",
    "longitude": "-90.04815085405225",
    "latitude": "29.973743451600683",
    "geocoded_column": {
      "latitude": "29.973743451600683",
      "longitude": "-90.04815085405225"
    }
  },
  {
    "service_request": "2024-1143513",
    "request_type": "Drainage",
    "request_reason": "Street Flooding",
    "date_created": "2024-10-23T16:26:42.000",
    "date_modified": "2024-10-23T16:26:42.000",
    "request_status": "Pending",
    "responsible_agency": "Department of Public Works",
    "final_address": "12701 Patterson Rd",
    "address_councildis": "C",
    "status": "Pending",
    "rowid": "1143513",
    "final_x": "3729906.83386",
    "final_y": "510356.033455",
    "longitude": "-89.91604799758902",
    "latitude": "29.895744102241004",
    "geocoded_column": {
      "latitude": "29.895744102241004",
      "longitude": "-89.91604799758902"
    }
  },
  {
    "service_request": "2024-1143512",
    "request_type": "Drainage",
    "request_reason": "Ditch and Culvert Maintenance",
    "date_created": "2024-10-23T16:24:09.000",
    "date_modified": "2024-10-23T16:24:09.000",
    "request_status": "Pending",
    "responsible_agency": "Department of Public Works",
    "final_address": "12701 Patterson Rd",
    "address_councildis": "C",
    "status": "Pending",
    "rowid": "1143512",
    "final_x": "3729906.83386",
    "final_y": "510356.033455",
    "longitude": "-89.91604799758902",
    "latitude": "29.895744102241004",
    "geocoded_column": {
      "latitude": "29.895744102241004",
      "longitude": "-89.91604799758902"
    }
  },
  {
    "service_request": "2024-1143511",
    "request_type": "Trash/Recycling",
    "request_reason": "Repair Trash Cart",
    "date_created": "2024-10-23T16:20:30.000",
    "date_modified": "2024-10-23T16:20:31.000",
    "request_status": "Pending",
    "responsible_agency": "Department of Sanitation",
    "final_address": "2359 St Claude Ave",
    "address_councildis": "C",
    "status": "Assigned to Contractor",
    "contractor": "IV Waste",
    "rowid": "1143511",
    "final_x": "3686278.90018",
    "final_y": "536518.829767",
    "longitude": "-90.0528039094804",
    "latitude": "29.969094772457805",
    "geocoded_column": {
      "latitude": "29.969094772457805",
      "longitude": "-90.0528039094804"
    }
  },
  {
    "service_request": "2024-1143510",
    "request_type": "Trash/Recycling",
    "request_reason": "Request a Large Item Pick Up",
    "date_created": "2024-10-23T16:18:49.000",
    "date_modified": "2024-10-23T16:18:50.000",
    "request_status": "Pending",
    "responsible_agency": "Department of Sanitation",
    "final_address": "7095 Edgefield Dr",
    "address_councildis": "E",
    "status": "Assigned to Contractor",
    "contractor": "Waste Pro",
    "rowid": "1143510",
    "final_x": "3718586.25023",
    "final_y": "569528.63703",
    "longitude": "-89.94951732889695",
    "latitude": "30.05882637719464",
    "geocoded_column": {
      "latitude": "30.05882637719464",
      "longitude": "-89.94951732889695"
    }
  },
  {
    "service_request": "2024-1143509",
    "request_type": "Property Maintenance",
    "request_reason": "Property Maintenance",
    "date_created": "2024-10-23T16:17:50.000",
    "date_modified": "2024-10-23T16:20:33.000",
    "request_status": "Pending",
    "responsible_agency": "Department of Code Enforcement",
    "final_address": "739 Aline St",
    "address_councildis": "B",
    "status": "Pending",
    "rowid": "1143509",
    "final_x": "3674943.10197",
    "final_y": "518145.839478",
    "longitude": "-90.0892331943117",
    "latitude": "29.91891856711498",
    "geocoded_column": {
      "latitude": "29.91891856711498",
      "longitude": "-90.0892331943117"
    }
  },
  {
    "service_request": "2024-1143508",
    "request_type": "Trash/Recycling",
    "request_reason": "Request a Large Item Pick Up",
    "date_created": "2024-10-23T16:17:18.000",
    "date_modified": "2024-10-23T16:17:19.000",
    "request_status": "Pending",
    "responsible_agency": "Department of Sanitation",
    "final_address": "501 Andry St",
    "address_councildis": "E",
    "status": "Assigned to Contractor",
    "contractor": "Waste Pro",
    "rowid": "1143508",
    "final_x": "3696613.88682",
    "final_y": "531860.486083",
    "longitude": "-90.02033404524562",
    "latitude": "29.95596435183543",
    "geocoded_column": {
      "latitude": "29.95596435183543",
      "longitude": "-90.02033404524562"
    }
  },
  {
    "service_request": "2024-1143507",
    "request_type": "Trash/Recycling",
    "request_reason": "Request a Large Item Pick Up",
    "date_created": "2024-10-23T16:15:44.000",
    "date_modified": "2024-10-23T16:15:45.000",
    "request_status": "Pending",
    "responsible_agency": "Department of Sanitation",
    "final_address": "2263 Odin St",
    "address_councildis": "D",
    "status": "Assigned to Contractor",
    "contractor": "IV Waste",
    "rowid": "1143507",
    "final_x": "3684322.55881",
    "final_y": "553136.154711",
    "longitude": "-90.05839825208044",
    "latitude": "30.014846469743556",
    "geocoded_column": {
      "latitude": "30.014846469743556",
      "longitude": "-90.05839825208044"
    }
  },
  {
    "service_request": "2024-1143506",
    "request_type": "Trash/Recycling",
    "request_reason": "Request a Large Item Pick Up",
    "date_created": "2024-10-23T16:15:41.000",
    "date_modified": "2024-10-23T16:15:42.000",
    "request_status": "Pending",
    "responsible_agency": "Department of Sanitation",
    "final_address": "6011 Hurst St",
    "address_councildis": "A",
    "status": "Assigned to Contractor",
    "contractor": "IV Waste",
    "rowid": "1143506",
    "final_x": "3665402.81805",
    "final_y": "521896.89337",
    "longitude": "-90.11922160556291",
    "latitude": "29.929514161575888",
    "geocoded_column": {
      "latitude": "29.929514161575888",
      "longitude": "-90.11922160556291"
    }
  },
  {
    "service_request": "2024-1143505",
    "request_type": "Trash/Recycling",
    "request_reason": "Request a Large Item Pick Up",
    "date_created": "2024-10-23T16:13:21.000",
    "date_modified": "2024-10-23T16:13:22.000",
    "request_status": "Pending",
    "responsible_agency": "Department of Sanitation",
    "final_address": "4712 Rosemont Pl",
    "address_councildis": "E",
    "status": "Assigned to Contractor",
    "contractor": "Waste Pro",
    "rowid": "1143505",
    "final_x": "3702680.45201",
    "final_y": "554697.393752",
    "longitude": "-90.00033917870017",
    "latitude": "30.01856485984492",
    "geocoded_column": {
      "latitude": "30.01856485984492",
      "longitude": "-90.00033917870017"
    }
  },
  {
    "service_request": "2024-1143504",
    "request_type": "Trash/Recycling",
    "request_reason": "Repair Trash Cart",
    "date_created": "2024-10-23T16:05:37.000",
    "date_modified": "2024-10-23T16:05:38.000",
    "request_status": "Pending",
    "responsible_agency": "Department of Sanitation",
    "final_address": "1651 Palmer Ave",
    "address_councildis": "A",
    "status": "Assigned to Contractor",
    "contractor": "IV Waste",
    "rowid": "1143504",
    "final_x": "3665463.2073",
    "final_y": "523214.872251",
    "longitude": "-90.11898687316175",
    "latitude": "29.93313642622185",
    "geocoded_column": {
      "latitude": "29.93313642622185",
      "longitude": "-90.11898687316175"
    }
  },
  {
    "service_request": "2024-1143503",
    "request_type": "Safety & Permits",
    "request_reason": "Zoning Enforcement",
    "date_created": "2024-10-23T16:02:02.000",
    "date_modified": "2024-10-23T16:02:02.000",
    "request_status": "Pending",
    "responsible_agency": "Safety and Permits",
    "final_address": "633 Leboeuf St",
    "address_councildis": "C",
    "rowid": "1143503",
    "final_x": "3689773.46",
    "final_y": "529145.038784",
    "longitude": "-90.04203031115773",
    "latitude": "29.94871156289253",
    "geocoded_column": {
      "latitude": "29.94871156289253",
      "longitude": "-90.04203031115773"
    }
  },
  {
    "service_request": "2024-1143502",
    "request_type": "Streetlights",
    "request_reason": "Streetlight Outage/Malfunction",
    "date_created": "2024-10-23T16:01:40.000",
    "date_modified": "2024-10-23T16:01:41.000",
    "request_status": "Pending",
    "responsible_agency": "Department of Public Works",
    "final_address": "3954 Constance St",
    "address_councildis": "B",
    "status": "Pending",
    "contractor": "Legacy Professional Services",
    "rowid": "1143502",
    "final_x": "3672721.76392",
    "final_y": "518538.463991",
    "longitude": "-90.09623144350866",
    "latitude": "29.92006428998432",
    "geocoded_column": {
      "latitude": "29.92006428998432",
      "longitude": "-90.09623144350866"
    }
  },
  {
    "service_request": "2024-1143501",
    "request_type": "Trash/Recycling",
    "request_reason": "Repair Recycling Cart",
    "date_created": "2024-10-23T16:00:34.000",
    "date_modified": "2024-10-23T16:00:34.000",
    "request_status": "Pending",
    "responsible_agency": "Department of Sanitation",
    "final_address": "68 Flamingo St",
    "address_councildis": "D",
    "status": "Pending",
    "rowid": "1143501",
    "final_x": "3674561.39406",
    "final_y": "556028.713241",
    "longitude": "-90.08913964477584",
    "latitude": "30.023094989432686",
    "geocoded_column": {
      "latitude": "30.023094989432686",
      "longitude": "-90.08913964477584"
    }
  },
  {
    "service_request": "2024-1143500",
    "request_type": "Abandoned Vehicles",
    "request_reason": "Abandoned/Junk Vehicles",
    "date_created": "2024-10-23T15:57:26.000",
    "date_modified": "2024-10-23T15:57:26.000",
    "request_status": "Pending",
    "responsible_agency": "Department of Public Works",
    "final_address": "4527 Mark Twain Dr",
    "address_councildis": "D",
    "status": "Pending",
    "rowid": "1143500",
    "final_x": "3691585.91177",
    "final_y": "550890.622357",
    "longitude": "-90.03552999495813",
    "latitude": "30.0084478711569",
    "geocoded_column": {
      "latitude": "30.0084478711569",
      "longitude": "-90.03552999495813"
    }
  },
  {
    "service_request": "2024-1143499",
    "request_type": "Trash/Recycling",
    "request_reason": "Repair Trash Cart",
    "date_created": "2024-10-23T15:57:17.000",
    "date_modified": "2024-10-23T15:57:18.000",
    "request_status": "Pending",
    "responsible_agency": "Department of Sanitation",
    "final_address": "68 Flamingo St",
    "address_councildis": "D",
    "status": "Assigned to Contractor",
    "contractor": "IV Waste",
    "rowid": "1143499",
    "final_x": "3674561.39406",
    "final_y": "556028.713241",
    "longitude": "-90.08913964477584",
    "latitude": "30.023094989432686",
    "geocoded_column": {
      "latitude": "30.023094989432686",
      "longitude": "-90.08913964477584"
    }
  },
  {
    "service_request": "2024-1143498",
    "request_type": "Trash/Recycling",
    "request_reason": "Request a Large Item Pick Up",
    "date_created": "2024-10-23T15:56:37.000",
    "date_modified": "2024-10-23T15:56:38.000",
    "request_status": "Pending",
    "responsible_agency": "Department of Sanitation",
    "final_address": "1223 Andry St",
    "address_councildis": "E",
    "status": "Assigned to Contractor",
    "contractor": "Waste Pro",
    "rowid": "1143498",
    "final_x": "3697360.61872",
    "final_y": "534531.970309",
    "longitude": "-90.01787929406082",
    "latitude": "29.963286438153606",
    "geocoded_column": {
      "latitude": "29.963286438153606",
      "longitude": "-90.01787929406082"
    }
  },
  {
    "service_request": "2024-1143497",
    "request_type": "Trash/Recycling",
    "request_reason": "Replace Trash Cart",
    "date_created": "2024-10-23T15:56:06.000",
    "date_modified": "2024-10-23T15:56:07.000",
    "request_status": "Pending",
    "responsible_agency": "Department of Sanitation",
    "final_address": "4144 Toulouse St",
    "address_councildis": "A",
    "status": "Assigned to Contractor",
    "contractor": "IV Waste",
    "rowid": "1143497",
    "final_x": "3671906.9723",
    "final_y": "539926.799114",
    "longitude": "-90.098075542453",
    "latitude": "29.978899338475003",
    "geocoded_column": {
      "latitude": "29.978899338475003",
      "longitude": "-90.098075542453"
    }
  },
  {
    "service_request": "2024-1143496",
    "request_type": "Trash/Recycling",
    "request_reason": "Request a Large Item Pick Up",
    "date_created": "2024-10-23T15:56:01.000",
    "date_modified": "2024-10-23T15:56:02.000",
    "request_status": "Pending",
    "responsible_agency": "Department of Sanitation",
    "final_address": "4410 San Marco Rd",
    "address_councildis": "E",
    "status": "Assigned to Contractor",
    "contractor": "Waste Pro",
    "rowid": "1143496",
    "final_x": "3762388.79657",
    "final_y": "572774.260905",
    "longitude": "-89.81092881839653",
    "latitude": "30.066223056541155",
    "geocoded_column": {
      "latitude": "30.066223056541155",
      "longitude": "-89.81092881839653"
    }
  },
  {
    "service_request": "2024-1143495",
    "request_type": "Safety & Permits",
    "request_reason": "Zoning Enforcement",
    "date_created": "2024-10-23T15:49:46.000",
    "date_modified": "2024-10-23T15:49:46.000",
    "request_status": "Pending",
    "responsible_agency": "Safety and Permits",
    "final_address": "1781 N Dorgenois St",
    "address_councildis": "D",
    "rowid": "1143495",
    "final_x": "3680379.53691",
    "final_y": "540963.630795",
    "longitude": "-90.07127989982537",
    "latitude": "29.981496398539484",
    "geocoded_column": {
      "latitude": "29.981496398539484",
      "longitude": "-90.07127989982537"
    }
  },
  {
    "service_request": "2024-1143494",
    "request_type": "Property Maintenance",
    "request_reason": "Property Maintenance",
    "date_created": "2024-10-23T15:49:25.000",
    "date_modified": "2024-10-23T15:49:26.000",
    "request_status": "Pending",
    "responsible_agency": "Department of Code Enforcement",
    "final_address": "8937 Dixon St",
    "address_councildis": "A",
    "status": "Pending",
    "rowid": "1143494",
    "final_x": "3666134.10887",
    "final_y": "537600.931784",
    "longitude": "-90.11638653191642",
    "latitude": "29.972673839234265",
    "geocoded_column": {
      "latitude": "29.972673839234265",
      "longitude": "-90.11638653191642"
    }
  },
  {
    "service_request": "2024-1143493",
    "request_type": "Trash/Recycling",
    "request_reason": "Order Trash Cart",
    "date_created": "2024-10-23T15:45:23.000",
    "date_modified": "2024-10-23T15:45:24.000",
    "request_status": "Pending",
    "responsible_agency": "Department of Sanitation",
    "final_address": "2314 Ap Tureaud Ave B",
    "address_councildis": "D",
    "status": "Assigned to Contractor",
    "contractor": "IV Waste",
    "rowid": "1143493",
    "final_x": "3681560.55292",
    "final_y": "540642.946443",
    "longitude": "-90.06756089618018",
    "latitude": "29.980578808312707",
    "geocoded_column": {
      "latitude": "29.980578808312707",
      "longitude": "-90.06756089618018"
    }
  },
  {
    "service_request": "2024-1143492",
    "request_type": "Trash/Recycling",
    "request_reason": "Replace Trash Cart",
    "date_created": "2024-10-23T15:43:24.000",
    "date_modified": "2024-10-23T15:43:25.000",
    "request_status": "Pending",
    "responsible_agency": "Department of Sanitation",
    "final_address": "2318 Ap Tureaud Ave B",
    "address_councildis": "D",
    "status": "Assigned to Contractor",
    "contractor": "IV Waste",
    "rowid": "1143492",
    "final_x": "3681557.08072",
    "final_y": "540671.418699",
    "longitude": "-90.06757086949187",
    "latitude": "29.980657202545146",
    "geocoded_column": {
      "latitude": "29.980657202545146",
      "longitude": "-90.06757086949187"
    }
  },
  {
    "service_request": "2024-1143491",
    "request_type": "Trash/Recycling",
    "request_reason": "Request a Large Item Pick Up",
    "date_created": "2024-10-23T15:42:55.000",
    "date_modified": "2024-10-23T15:42:57.000",
    "request_status": "Pending",
    "responsible_agency": "Department of Sanitation",
    "final_address": "5900 BLK Eastover Dr",
    "address_councildis": "E",
    "status": "Assigned to Contractor",
    "contractor": "Waste Pro",
    "rowid": "1143491",
    "final_x": "3719272.64934",
    "final_y": "564780.41255",
    "longitude": "-89.94752922677218",
    "latitude": "30.045747911351306",
    "geocoded_column": {
      "latitude": "30.045747911351306",
      "longitude": "-89.94752922677218"
    }
  },
  {
    "service_request": "2024-1143490",
    "request_type": "Traffic Signals",
    "request_reason": "Traffic Signal Malfunctioning or Damaged",
    "date_created": "2024-10-23T15:42:12.000",
    "date_modified": "2024-10-23T15:42:13.000",
    "request_status": "Pending",
    "responsible_agency": "Department of Public Works",
    "final_address": "DESIRE PKWY & CHEF MENTEUR HWY",
    "address_councildis": "D",
    "status": "Pending",
    "rowid": "1143490",
    "final_x": "3692027.1",
    "final_y": "550101.18",
    "longitude": "-90.03416442567848",
    "latitude": "30.00626344869749",
    "geocoded_column": {
      "latitude": "30.00626344869749",
      "longitude": "-90.03416442567848"
    }
  },
  {
    "service_request": "2024-1143489",
    "request_type": "Trash/Recycling",
    "request_reason": "Replace Trash Cart",
    "date_created": "2024-10-23T15:38:23.000",
    "date_modified": "2024-10-23T15:38:24.000",
    "request_status": "Pending",
    "responsible_agency": "Department of Sanitation",
    "final_address": "2510 Calhoun St",
    "address_councildis": "A",
    "status": "Assigned to Contractor",
    "contractor": "IV Waste",
    "rowid": "1143489",
    "final_x": "3666192.33972",
    "final_y": "526186.825854",
    "longitude": "-90.11658541370161",
    "latitude": "29.941287081077714",
    "geocoded_column": {
      "latitude": "29.941287081077714",
      "longitude": "-90.11658541370161"
    }
  },
  {
    "service_request": "2024-1143488",
    "request_type": "Parks & Parkways",
    "request_reason": "Request Tree Service (Right of Way/Public Property)",
    "date_created": "2024-10-23T15:35:06.000",
    "date_modified": "2024-10-23T15:35:07.000",
    "request_status": "Pending",
    "responsible_agency": "Department of Parks & Parkway",
    "final_address": "3503 Cambronne St",
    "address_councildis": "A",
    "status": "Pending",
    "rowid": "1143488",
    "final_x": "3666746.88116",
    "final_y": "535174.723654",
    "longitude": "-90.11453278052336",
    "latitude": "29.965984664230824",
    "geocoded_column": {
      "latitude": "29.965984664230824",
      "longitude": "-90.11453278052336"
    }
  },
  {
    "service_request": "2024-1143487",
    "request_type": "Trash/Recycling",
    "request_reason": "Request a Large Item Pick Up",
    "date_created": "2024-10-23T15:32:12.000",
    "date_modified": "2024-10-23T15:32:14.000",
    "request_status": "Pending",
    "responsible_agency": "Department of Sanitation",
    "final_address": "4675 Sandalwood St",
    "address_councildis": "E",
    "status": "Assigned to Contractor",
    "contractor": "Waste Pro",
    "rowid": "1143487",
    "final_x": "3712344.24293",
    "final_y": "555793.102681",
    "longitude": "-89.96976423007963",
    "latitude": "30.02126497018891",
    "geocoded_column": {
      "latitude": "30.02126497018891",
      "longitude": "-89.96976423007963"
    }
  },
  {
    "service_request": "2024-1143486",
    "request_type": "Trash/Recycling",
    "request_reason": "Request a Large Item Pick Up",
    "date_created": "2024-10-23T15:28:48.000",
    "date_modified": "2024-10-23T15:28:50.000",
    "request_status": "Pending",
    "responsible_agency": "Department of Sanitation",
    "final_address": "7721 Lafourche St",
    "address_councildis": "E",
    "status": "Assigned to Contractor",
    "contractor": "Waste Pro",
    "rowid": "1143486",
    "final_x": "3709955.69323",
    "final_y": "566019.280227",
    "longitude": "-89.9769288153541",
    "latitude": "30.049460836942078",
    "geocoded_column": {
      "latitude": "30.049460836942078",
      "longitude": "-89.9769288153541"
    }
  },
  {
    "service_request": "2024-1143485",
    "request_type": "Abandoned Vehicles",
    "request_reason": "Abandoned/Junk Vehicles",
    "date_created": "2024-10-23T15:22:54.000",
    "date_modified": "2024-10-23T15:22:54.000",
    "request_status": "Pending",
    "responsible_agency": "Department of Public Works",
    "final_address": "86 Spanish Fort Blvd",
    "address_councildis": "D",
    "status": "Pending",
    "rowid": "1143485",
    "final_x": "3674232.53768",
    "final_y": "555784.732057",
    "longitude": "-90.09018712418828",
    "latitude": "30.02243394359445",
    "geocoded_column": {
      "latitude": "30.02243394359445",
      "longitude": "-90.09018712418828"
    }
  },
  {
    "service_request": "2024-1143484",
    "request_type": "Streetlights",
    "request_reason": "Streetlight Outage/Malfunction",
    "date_created": "2024-10-23T15:21:09.000",
    "date_modified": "2024-10-23T15:21:11.000",
    "request_status": "Pending",
    "responsible_agency": "Department of Public Works",
    "final_address": "2914 Grand-Route St John St",
    "address_councildis": "A",
    "status": "Pending",
    "contractor": "Legacy Professional Services",
    "rowid": "1143484",
    "final_x": "3677567.41506",
    "final_y": "540245.776331",
    "longitude": "-90.08018668300417",
    "latitude": "29.979607413096005",
    "geocoded_column": {
      "latitude": "29.979607413096005",
      "longitude": "-90.08018668300417"
    }
  },
  {
    "service_request": "2024-1143483",
    "request_type": "Healthy Homes",
    "request_reason": "Healthy Homes",
    "date_created": "2024-10-23T15:18:05.000",
    "date_modified": "2024-10-23T15:26:06.000",
    "case_close_date": "2024-10-23T10:26:06.000",
    "request_status": "Closed",
    "responsible_agency": "Department of Code Enforcement",
    "final_address": "3703 Garden Oaks Dr Apt 183",
    "address_councildis": "C",
    "status": "Referred to Code Enforcement",
    "rowid": "1143483",
    "final_x": "3695964.30736",
    "final_y": "518155.01983",
    "longitude": "-90.02288012525405",
    "latitude": "29.918299492821642",
    "geocoded_column": {
      "latitude": "29.918299492821642",
      "longitude": "-90.02288012525405"
    }
  },
  {
    "service_request": "2024-1143482",
    "request_type": "Drainage",
    "request_reason": "Ditch and Culvert Maintenance",
    "date_created": "2024-10-23T15:12:09.000",
    "date_modified": "2024-10-23T15:12:12.000",
    "request_status": "Pending",
    "responsible_agency": "Department of Public Works",
    "final_address": "3703 Garden Oaks Dr Apt 183",
    "address_councildis": "C",
    "status": "Pending",
    "rowid": "1143482",
    "final_x": "3695964.30736",
    "final_y": "518155.01983",
    "longitude": "-90.02288012525405",
    "latitude": "29.918299492821642",
    "geocoded_column": {
      "latitude": "29.918299492821642",
      "longitude": "-90.02288012525405"
    }
  },
  {
    "service_request": "2024-1143481",
    "request_type": "Trash/Recycling",
    "request_reason": "Request a Large Item Pick Up",
    "date_created": "2024-10-23T15:11:37.000",
    "date_modified": "2024-10-23T15:11:38.000",
    "request_status": "Pending",
    "responsible_agency": "Department of Sanitation",
    "final_address": "2318 Ap Tureaud Ave A",
    "address_councildis": "D",
    "status": "Assigned to Contractor",
    "contractor": "IV Waste",
    "rowid": "1143481",
    "final_x": "3681559.56623",
    "final_y": "540660.639691",
    "longitude": "-90.06756339525366",
    "latitude": "29.980627488539604",
    "geocoded_column": {
      "latitude": "29.980627488539604",
      "longitude": "-90.06756339525366"
    }
  },
  {
    "service_request": "2024-1143480",
    "request_type": "Trash/Recycling",
    "request_reason": "Illegal Dumping",
    "date_created": "2024-10-23T15:11:03.000",
    "date_modified": "2024-10-23T15:11:04.000",
    "request_status": "Pending",
    "responsible_agency": "Department of Sanitation",
    "final_address": "DWYER RD & CAMELIA ST",
    "address_councildis": "E",
    "status": "Pending",
    "rowid": "1143480",
    "final_x": "3701393.2",
    "final_y": "555776.68",
    "longitude": "-90.00436684786617",
    "latitude": "30.021573596991846",
    "geocoded_column": {
      "latitude": "30.021573596991846",
      "longitude": "-90.00436684786617"
    }
  },
  {
    "service_request": "2024-1143479",
    "request_type": "Trash/Recycling",
    "request_reason": "Illegal Dumping",
    "date_created": "2024-10-23T15:09:19.000",
    "date_modified": "2024-10-23T15:09:21.000",
    "request_status": "Pending",
    "responsible_agency": "Department of Sanitation",
    "final_address": "1117 Eighth St",
    "address_councildis": "B",
    "status": "Pending",
    "rowid": "1143479",
    "final_x": "3676060.2891",
    "final_y": "520354.601976",
    "longitude": "-90.08563089175246",
    "latitude": "29.92495855181211",
    "geocoded_column": {
      "latitude": "29.92495855181211",
      "longitude": "-90.08563089175246"
    }
  },
  {
    "service_request": "2024-1143478",
    "request_type": "Road Striping",
    "request_reason": "Lane Striping or other Pavement Markings",
    "date_created": "2024-10-23T15:08:43.000",
    "date_modified": "2024-10-23T15:08:45.000",
    "request_status": "Pending",
    "responsible_agency": "Department of Public Works",
    "final_address": "Interstate 10 & South Claiborne Avenue",
    "address_councildis": "B",
    "status": "Pending",
    "rowid": "1143478",
    "final_x": "3677266.60392",
    "final_y": "531421.213251",
    "longitude": "-90.0814412778146",
    "latitude": "29.95535190945546",
    "geocoded_column": {
      "latitude": "29.95535190945546",
      "longitude": "-90.0814412778146"
    }
  },
  {
    "service_request": "2024-1143477",
    "request_type": "Roads and Streets",
    "request_reason": "Pothole",
    "date_created": "2024-10-23T15:07:55.000",
    "date_modified": "2024-10-23T15:07:56.000",
    "request_status": "Pending",
    "responsible_agency": "Department of Public Works",
    "final_address": "1430 Strand Ct",
    "address_councildis": "E",
    "status": "Pending",
    "rowid": "1143477",
    "final_x": "3699820.10135",
    "final_y": "534676.384326",
    "longitude": "-90.0101073105344",
    "latitude": "29.963605658001395",
    "geocoded_column": {
      "latitude": "29.963605658001395",
      "longitude": "-90.0101073105344"
    }
  },
  {
    "service_request": "2024-1143476",
    "request_type": "Trash/Recycling",
    "request_reason": "Missed Trash Pick-Up",
    "date_created": "2024-10-23T15:07:20.000",
    "date_modified": "2024-10-23T15:24:02.000",
    "case_close_date": "2024-10-23T10:24:02.000",
    "request_status": "Closed",
    "responsible_agency": "Department of Sanitation",
    "final_address": "6058 Laurel St",
    "address_councildis": "A",
    "status": "Invalid Request",
    "contractor": "IV Waste",
    "contractor_action": "Invalid",
    "rowid": "1143476",
    "final_x": "3663896.0272",
    "final_y": "518327.180214",
    "longitude": "-90.12409721600534",
    "latitude": "29.919742383126607",
    "geocoded_column": {
      "latitude": "29.919742383126607",
      "longitude": "-90.12409721600534"
    }
  },
  {
    "service_request": "2024-1143475",
    "request_type": "Trash/Recycling",
    "request_reason": "Return Recycling Cart",
    "date_created": "2024-10-23T15:04:47.000",
    "date_modified": "2024-10-23T15:04:49.000",
    "request_status": "Pending",
    "responsible_agency": "Department of Sanitation",
    "final_address": "4426 De Montluzin St",
    "address_councildis": "D",
    "status": "Pending",
    "rowid": "1143475",
    "final_x": "3687189.82358",
    "final_y": "549176.831507",
    "longitude": "-90.04947925960406",
    "latitude": "30.00387174561515",
    "geocoded_column": {
      "latitude": "30.00387174561515",
      "longitude": "-90.04947925960406"
    }
  },
  {
    "service_request": "2024-1143473",
    "request_type": "Abandoned Vehicles",
    "request_reason": "Abandoned/Junk Vehicles",
    "date_created": "2024-10-23T15:02:23.000",
    "date_modified": "2024-10-23T15:02:24.000",
    "request_status": "Pending",
    "responsible_agency": "Department of Public Works",
    "final_address": "6351 Essex Ct",
    "address_councildis": "C",
    "status": "Pending",
    "rowid": "1143473",
    "final_x": "3707500.78353",
    "final_y": "517475.604278",
    "longitude": "-89.98649118954108",
    "latitude": "29.916063509118946",
    "geocoded_column": {
      "latitude": "29.916063509118946",
      "longitude": "-89.98649118954108"
    }
  },
  {
    "service_request": "2024-1143474",
    "request_type": "Drainage",
    "request_reason": "Street Flooding",
    "date_created": "2024-10-23T15:02:23.000",
    "date_modified": "2024-10-23T15:02:23.000",
    "request_status": "Pending",
    "responsible_agency": "Department of Public Works",
    "final_address": "7120 Panola St",
    "address_councildis": "A",
    "status": "Pending",
    "rowid": "1143474",
    "final_x": "3666037.23418",
    "final_y": "529043.494592",
    "longitude": "-90.11697937254044",
    "latitude": "29.94914652672726",
    "geocoded_column": {
      "latitude": "29.94914652672726",
      "longitude": "-90.11697937254044"
    }
  },
  {
    "service_request": "2024-1143472",
    "request_type": "Trash/Recycling",
    "request_reason": "Request a Large Item Pick Up",
    "date_created": "2024-10-23T14:59:45.000",
    "date_modified": "2024-10-23T15:00:27.000",
    "request_status": "Pending",
    "responsible_agency": "Department of Sanitation",
    "final_address": "11429 N St Andrews Cir",
    "address_councildis": "E",
    "status": "Assigned to Contractor",
    "contractor": "Waste Pro",
    "rowid": "1143472",
    "final_x": "3719160.18482",
    "final_y": "560393.763166",
    "longitude": "-89.94805227635207",
    "latitude": "30.03369015213004",
    "geocoded_column": {
      "latitude": "30.03369015213004",
      "longitude": "-89.94805227635207"
    }
  },
  {
    "service_request": "2024-1143471",
    "request_type": "Health Related Request",
    "request_reason": "Homeless Encampment Complaint",
    "date_created": "2024-10-23T14:58:53.000",
    "date_modified": "2024-10-23T14:58:53.000",
    "request_status": "Pending",
    "responsible_agency": "Health Department",
    "final_address": "1118 Gaiennie St",
    "address_councildis": "B",
    "status": "Pending",
    "rowid": "1143471",
    "final_x": "3680491.17211",
    "final_y": "525878.857981",
    "longitude": "-90.07145200165375",
    "latitude": "29.94001502565708",
    "geocoded_column": {
      "latitude": "29.94001502565708",
      "longitude": "-90.07145200165375"
    }
  },
  {
    "service_request": "2024-1143470",
    "request_type": "Trash/Recycling",
    "request_reason": "Repair Recycling Cart",
    "date_created": "2024-10-23T14:58:21.000",
    "date_modified": "2024-10-23T14:58:22.000",
    "request_status": "Pending",
    "responsible_agency": "Department of Sanitation",
    "final_address": "2305 Freret St",
    "address_councildis": "B",
    "status": "Pending",
    "rowid": "1143470",
    "final_x": "3675257.58773",
    "final_y": "526083.164158",
    "longitude": "-90.08796822254558",
    "latitude": "29.9407342428391",
    "geocoded_column": {
      "latitude": "29.9407342428391",
      "longitude": "-90.08796822254558"
    }
  },
  {
    "service_request": "2024-1143469",
    "request_type": "Trash/Recycling",
    "request_reason": "Illegal Dumping",
    "date_created": "2024-10-23T14:55:56.000",
    "date_modified": "2024-10-23T14:55:58.000",
    "request_status": "Pending",
    "responsible_agency": "Department of Sanitation",
    "final_address": "WALES ST & POMPANO ST",
    "address_councildis": "E",
    "status": "Pending",
    "rowid": "1143469",
    "final_x": "3700254.1",
    "final_y": "561422.78",
    "longitude": "-90.00775969029029",
    "latitude": "30.03713447132799",
    "geocoded_column": {
      "latitude": "30.03713447132799",
      "longitude": "-90.00775969029029"
    }
  },
  {
    "service_request": "2024-1143468",
    "request_type": "Streetlights",
    "request_reason": "Streetlight Outage/Malfunction",
    "date_created": "2024-10-23T14:50:54.000",
    "date_modified": "2024-10-23T14:50:55.000",
    "request_status": "Pending",
    "responsible_agency": "Department of Public Works",
    "final_address": "6114 Delord St",
    "address_councildis": "A",
    "status": "Pending",
    "contractor": "Legacy Professional Services",
    "rowid": "1143468",
    "final_x": "3666774.99271",
    "final_y": "526091.033214",
    "longitude": "-90.11474907683305",
    "latitude": "29.94100665679601",
    "geocoded_column": {
      "latitude": "29.94100665679601",
      "longitude": "-90.11474907683305"
    }
  },
  {
    "service_request": "2024-1143467",
    "request_type": "Trash/Recycling",
    "request_reason": "Dead Animal Pick Up",
    "date_created": "2024-10-23T14:47:38.000",
    "date_modified": "2024-10-23T14:47:40.000",
    "request_status": "Pending",
    "responsible_agency": "Department of Sanitation",
    "final_address": "5900 BLK Elysian Fields Ave",
    "address_councildis": "D",
    "status": "Assigned to Contractor",
    "contractor": "IV Waste",
    "rowid": "1143467",
    "final_x": "3683444.05565",
    "final_y": "554858.591186",
    "longitude": "-90.0611134729006",
    "latitude": "30.01960938752729",
    "geocoded_column": {
      "latitude": "30.01960938752729",
      "longitude": "-90.0611134729006"
    }
  },
  {
    "service_request": "2024-1143466",
    "request_type": "Streetlights",
    "request_reason": "Streetlight Outage/Malfunction",
    "date_created": "2024-10-23T14:47:07.000",
    "date_modified": "2024-10-23T14:47:09.000",
    "request_status": "Pending",
    "responsible_agency": "Department of Public Works",
    "final_address": "1300 BLK Madrid St",
    "address_councildis": "D",
    "status": "Pending",
    "contractor": "Legacy Professional Services",
    "rowid": "1143466",
    "final_x": "3677159.76474",
    "final_y": "554673.053827",
    "longitude": "-90.08097617709225",
    "latitude": "30.019289583143877",
    "geocoded_column": {
      "latitude": "30.019289583143877",
      "longitude": "-90.08097617709225"
    }
  },
  {
    "service_request": "2024-1143465",
    "request_type": "Trash/Recycling",
    "request_reason": "Repair Trash Cart",
    "date_created": "2024-10-23T14:37:47.000",
    "date_modified": "2024-10-23T14:37:48.000",
    "request_status": "Pending",
    "responsible_agency": "Department of Sanitation",
    "final_address": "7822 Hickman St",
    "address_councildis": "E",
    "status": "Assigned to Contractor",
    "contractor": "Waste Pro",
    "rowid": "1143465",
    "final_x": "3705763.85092",
    "final_y": "563853.198497",
    "longitude": "-89.99025775434757",
    "latitude": "30.043640748992516",
    "geocoded_column": {
      "latitude": "30.043640748992516",
      "longitude": "-89.99025775434757"
    }
  },
  {
    "service_request": "2024-1143464",
    "request_type": "Streetlights",
    "request_reason": "Streetlight Outage/Malfunction",
    "date_created": "2024-10-23T14:35:19.000",
    "date_modified": "2024-10-23T14:35:20.000",
    "request_status": "Pending",
    "responsible_agency": "Department of Public Works",
    "final_address": "1523 St Philip St",
    "address_councildis": "C",
    "status": "Pending",
    "contractor": "Legacy Professional Services",
    "rowid": "1143464",
    "final_x": "3680858.64847",
    "final_y": "535207.564358",
    "longitude": "-90.0699670947671",
    "latitude": "29.965654686514736",
    "geocoded_column": {
      "latitude": "29.965654686514736",
      "longitude": "-90.0699670947671"
    }
  },
  {
    "service_request": "2024-1143463",
    "request_type": "Parks & Parkways",
    "request_reason": "Request Tree Service (Right of Way/Public Property)",
    "date_created": "2024-10-23T14:33:58.000",
    "date_modified": "2024-10-23T14:33:58.000",
    "request_status": "Pending",
    "responsible_agency": "Department of Parks & Parkway",
    "final_address": "4526 Owens Blvd",
    "address_councildis": "D",
    "status": "Pending",
    "rowid": "1143463",
    "final_x": "3676501.8548",
    "final_y": "548837.687187",
    "longitude": "-90.08325610094187",
    "latitude": "30.00326416711036",
    "geocoded_column": {
      "latitude": "30.00326416711036",
      "longitude": "-90.08325610094187"
    }
  },
  {
    "service_request": "2024-1143462",
    "request_type": "Parks & Parkways",
    "request_reason": "Request Tree Service (Right of Way/Public Property)",
    "date_created": "2024-10-23T14:32:08.000",
    "date_modified": "2024-10-23T14:32:09.000",
    "request_status": "Pending",
    "responsible_agency": "Department of Parks & Parkway",
    "final_address": "OWENS BLVD & ST BERNARD AVE",
    "address_councildis": "D",
    "status": "Pending",
    "rowid": "1143462",
    "final_x": "3676778.1",
    "final_y": "548856.08",
    "longitude": "-90.08238276534604",
    "latitude": "30.00330645119",
    "geocoded_column": {
      "latitude": "30.00330645119",
      "longitude": "-90.08238276534604"
    }
  },
  {
    "service_request": "2024-1143461",
    "request_type": "Trash/Recycling",
    "request_reason": "Repair Recycling Cart",
    "date_created": "2024-10-23T14:29:50.000",
    "date_modified": "2024-10-23T14:29:51.000",
    "request_status": "Pending",
    "responsible_agency": "Department of Sanitation",
    "final_address": "11219 Asphodel Dr",
    "address_councildis": "E",
    "status": "Pending",
    "rowid": "1143461",
    "final_x": "3717465.28159",
    "final_y": "559626.121757",
    "longitude": "-89.95343751550871",
    "latitude": "30.03163568029976",
    "geocoded_column": {
      "latitude": "30.03163568029976",
      "longitude": "-89.95343751550871"
    }
  },
  {
    "service_request": "2024-1143460",
    "request_type": "Trash/Recycling",
    "request_reason": "Order Recycling Cart",
    "date_created": "2024-10-23T14:28:27.000",
    "date_modified": "2024-10-23T14:28:27.000",
    "request_status": "Pending",
    "responsible_agency": "Department of Sanitation",
    "final_address": "248 Elmira Ave",
    "address_councildis": "C",
    "status": "Pending",
    "rowid": "1143460",
    "final_x": "3688302.77647",
    "final_y": "531008.080322",
    "longitude": "-90.0466078148132",
    "latitude": "29.95387977821102",
    "geocoded_column": {
      "latitude": "29.95387977821102",
      "longitude": "-90.0466078148132"
    }
  },
  {
    "service_request": "2024-1143459",
    "request_type": "Parks & Parkways",
    "request_reason": "Request Tree Service (Right of Way/Public Property)",
    "date_created": "2024-10-23T14:27:54.000",
    "date_modified": "2024-10-23T14:27:55.000",
    "request_status": "Pending",
    "responsible_agency": "Department of Parks & Parkway",
    "final_address": "8437 Edinburgh St",
    "address_councildis": "A",
    "status": "Pending",
    "rowid": "1143459",
    "final_x": "3666508.75924",
    "final_y": "535379.017478",
    "longitude": "-90.11527790753001",
    "latitude": "29.966553366943838",
    "geocoded_column": {
      "latitude": "29.966553366943838",
      "longitude": "-90.11527790753001"
    }
  },
  {
    "service_request": "2024-1143458",
    "request_type": "Drainage",
    "request_reason": "Drainage Manhole Cover Missing or Damaged",
    "date_created": "2024-10-23T14:25:33.000",
    "date_modified": "2024-10-23T14:25:34.000",
    "request_status": "Pending",
    "responsible_agency": "Department of Public Works",
    "final_address": "ST CHARLES AVE & WALNUT ST",
    "address_councildis": "A",
    "status": "Pending",
    "rowid": "1143458",
    "final_x": "3663402.6",
    "final_y": "524303.18",
    "longitude": "-90.12545588462676",
    "latitude": "29.9361888147703",
    "geocoded_column": {
      "latitude": "29.9361888147703",
      "longitude": "-90.12545588462676"
    }
  },
  {
    "service_request": "2024-1143457",
    "request_type": "Trash/Recycling",
    "request_reason": "Request a Large Item Pick Up",
    "date_created": "2024-10-23T14:22:31.000",
    "date_modified": "2024-10-23T14:22:32.000",
    "request_status": "Pending",
    "responsible_agency": "Department of Sanitation",
    "final_address": "4621 Viola St",
    "address_councildis": "E",
    "status": "Assigned to Contractor",
    "contractor": "Waste Pro",
    "rowid": "1143457",
    "final_x": "3704110.26532",
    "final_y": "554454.016216",
    "longitude": "-89.99583049925306",
    "latitude": "30.01784985168272",
    "geocoded_column": {
      "latitude": "30.01784985168272",
      "longitude": "-89.99583049925306"
    }
  },
  {
    "service_request": "2024-1143456",
    "request_type": "Trash/Recycling",
    "request_reason": "Request a Large Item Pick Up",
    "date_created": "2024-10-23T14:22:25.000",
    "date_modified": "2024-10-23T14:22:26.000",
    "request_status": "Pending",
    "responsible_agency": "Department of Sanitation",
    "final_address": "2523 DAbadie St",
    "address_councildis": "D",
    "status": "Assigned to Contractor",
    "contractor": "IV Waste",
    "rowid": "1143456",
    "final_x": "3679846.70619",
    "final_y": "540556.548107",
    "longitude": "-90.07297696805861",
    "latitude": "29.980393188862376",
    "geocoded_column": {
      "latitude": "29.980393188862376",
      "longitude": "-90.07297696805861"
    }
  },
  {
    "service_request": "2024-1143455",
    "request_type": "Trash/Recycling",
    "request_reason": "Missed Trash Pick-Up",
    "date_created": "2024-10-23T14:17:58.000",
    "date_modified": "2024-10-23T14:18:26.000",
    "request_status": "Pending",
    "responsible_agency": "Department of Sanitation",
    "final_address": "9861 E Wheaton Cir",
    "address_councildis": "E",
    "status": "Assigned to Contractor",
    "contractor": "Waste Pro",
    "rowid": "1143455",
    "final_x": "3708942.89649",
    "final_y": "562620.886176",
    "longitude": "-89.98025668288099",
    "latitude": "30.040149540816614",
    "geocoded_column": {
      "latitude": "30.040149540816614",
      "longitude": "-89.98025668288099"
    }
  },
  {
    "service_request": "2024-1143454",
    "request_type": "Trash/Recycling",
    "request_reason": "Repair Trash Cart",
    "date_created": "2024-10-23T14:15:14.000",
    "date_modified": "2024-10-23T14:15:15.000",
    "request_status": "Pending",
    "responsible_agency": "Department of Sanitation",
    "final_address": "5500 Glouster Rd",
    "address_councildis": "E",
    "status": "Assigned to Contractor",
    "contractor": "Waste Pro",
    "rowid": "1143454",
    "final_x": "3707433.02264",
    "final_y": "557938.945307",
    "longitude": "-89.98520241229119",
    "latitude": "30.027324986431587",
    "geocoded_column": {
      "latitude": "30.027324986431587",
      "longitude": "-89.98520241229119"
    }
  },
  {
    "service_request": "2024-1143453",
    "request_type": "Abandoned Vehicles",
    "request_reason": "Abandoned/Junk Vehicles",
    "date_created": "2024-10-23T14:13:54.000",
    "date_modified": "2024-10-23T14:15:12.000",
    "request_status": "Pending",
    "responsible_agency": "Department of Public Works",
    "final_address": "4779 Camelot Dr",
    "address_councildis": "E",
    "status": "Pending",
    "rowid": "1143453",
    "final_x": "3708413.18206",
    "final_y": "555930.389593",
    "longitude": "-89.98218006169371",
    "latitude": "30.021770498171605",
    "geocoded_column": {
      "latitude": "30.021770498171605",
      "longitude": "-89.98218006169371"
    }
  },
  {
    "service_request": "2024-1143452",
    "request_type": "Roads and Streets",
    "request_reason": "Pothole",
    "date_created": "2024-10-23T14:09:19.000",
    "date_modified": "2024-10-23T14:09:43.000",
    "case_close_date": "2024-10-23T09:09:43.000",
    "request_status": "Closed",
    "responsible_agency": "Department of Public Works",
    "final_address": "600 BLK Milan St",
    "address_councildis": "B",
    "status": "Resolved",
    "rowid": "1143452",
    "final_x": "3671892.05677",
    "final_y": "517975.094743",
    "longitude": "-90.09886959407152",
    "latitude": "29.918539808868523",
    "geocoded_column": {
      "latitude": "29.918539808868523",
      "longitude": "-90.09886959407152"
    }
  },
  {
    "service_request": "2024-1143451",
    "request_type": "Safety & Permits",
    "request_reason": "Licenses & Permits",
    "date_created": "2024-10-23T14:05:51.000",
    "date_modified": "2024-10-23T14:16:08.000",
    "request_status": "Pending",
    "responsible_agency": "Safety and Permits",
    "final_address": "638 Port St",
    "address_councildis": "C",
    "rowid": "1143451",
    "final_x": "3687006.54146",
    "final_y": "534868.168454",
    "longitude": "-90.05056433111247",
    "latitude": "29.96453364895112",
    "geocoded_column": {
      "latitude": "29.96453364895112",
      "longitude": "-90.05056433111247"
    }
  },
  {
    "service_request": "2024-1143450",
    "request_type": "Street and Traffic Signs",
    "request_reason": "Street Name Sign Damaged or Missing",
    "date_created": "2024-10-23T14:00:51.000",
    "date_modified": "2024-10-23T14:00:52.000",
    "request_status": "Pending",
    "responsible_agency": "Department of Public Works",
    "final_address": "MORRISON RD & HEATHER CT",
    "address_councildis": "E",
    "status": "Pending",
    "rowid": "1143450",
    "final_x": "3705708.4",
    "final_y": "561931.38",
    "longitude": "-89.99050418109748",
    "latitude": "30.038358295863592",
    "geocoded_column": {
      "latitude": "30.038358295863592",
      "longitude": "-89.99050418109748"
    }
  },
  {
    "service_request": "2024-1143449",
    "request_type": "Abandoned Vehicles",
    "request_reason": "Abandoned/Junk Vehicles",
    "date_created": "2024-10-23T13:58:57.000",
    "date_modified": "2024-10-23T13:59:44.000",
    "request_status": "Pending",
    "responsible_agency": "Department of Public Works",
    "final_address": "N DERBIGNY ST & ST FERDINAND ST",
    "address_councildis": "D",
    "status": "Pending",
    "rowid": "1143449",
    "final_x": "3688285.8",
    "final_y": "538562.18",
    "longitude": "-90.0463935198431",
    "latitude": "29.974651446036663",
    "geocoded_column": {
      "latitude": "29.974651446036663",
      "longitude": "-90.0463935198431"
    }
  },
  {
    "service_request": "2024-1143448",
    "request_type": "Trash/Recycling",
    "request_reason": "Request a Large Item Pick Up",
    "date_created": "2024-10-23T13:58:05.000",
    "date_modified": "2024-10-23T13:58:06.000",
    "request_status": "Pending",
    "responsible_agency": "Department of Sanitation",
    "final_address": "4926 Eastview Dr",
    "address_councildis": "E",
    "status": "Assigned to Contractor",
    "contractor": "Waste Pro",
    "rowid": "1143448",
    "final_x": "3704970.30039",
    "final_y": "556244.130714",
    "longitude": "-89.99304698350736",
    "latitude": "30.022744344373454",
    "geocoded_column": {
      "latitude": "30.022744344373454",
      "longitude": "-89.99304698350736"
    }
  },
  {
    "service_request": "2024-1143447",
    "request_type": "Mosquito, Termite & Rodent Control",
    "request_reason": "Rodent Complaint (Rats)",
    "date_created": "2024-10-23T13:53:57.000",
    "date_modified": "2024-10-23T13:53:58.000",
    "request_status": "Pending",
    "responsible_agency": "Mosquito, Termite & Rodent Control Board",
    "final_address": "3620 General Ogden St",
    "address_councildis": "A",
    "status": "Pending",
    "rowid": "1143447",
    "final_x": "3665728.95597",
    "final_y": "536763.675528",
    "longitude": "-90.11769413711086",
    "latitude": "29.970383488261103",
    "geocoded_column": {
      "latitude": "29.970383488261103",
      "longitude": "-90.11769413711086"
    }
  },
  {
    "service_request": "2024-1143446",
    "request_type": "Property Maintenance",
    "request_reason": "Property Maintenance",
    "date_created": "2024-10-23T13:48:46.000",
    "date_modified": "2024-10-23T13:48:47.000",
    "request_status": "Pending",
    "responsible_agency": "Department of Code Enforcement",
    "final_address": "3624 General Ogden St",
    "address_councildis": "A",
    "status": "Pending",
    "rowid": "1143446",
    "final_x": "3665745.48237",
    "final_y": "536780.169928",
    "longitude": "-90.1176413920281",
    "latitude": "29.9704283602744",
    "geocoded_column": {
      "latitude": "29.9704283602744",
      "longitude": "-90.1176413920281"
    }
  },
  {
    "service_request": "2024-1143445",
    "request_type": "Abandoned Vehicles",
    "request_reason": "Vehicle Blocking Your Driveway",
    "date_created": "2024-10-23T13:46:15.000",
    "date_modified": "2024-10-23T13:46:15.000",
    "request_status": "Pending",
    "responsible_agency": "Department of Public Works",
    "final_address": "3322 Dryades St",
    "address_councildis": "B",
    "status": "Pending",
    "rowid": "1143445",
    "final_x": "3673958.36744",
    "final_y": "522595.22041",
    "longitude": "-90.09218937172366",
    "latitude": "29.931182296150354",
    "geocoded_column": {
      "latitude": "29.931182296150354",
      "longitude": "-90.09218937172366"
    }
  },
  {
    "service_request": "2024-1143444",
    "request_type": "Trash/Recycling",
    "request_reason": "Repair Trash Cart",
    "date_created": "2024-10-23T13:45:09.000",
    "date_modified": "2024-10-23T13:45:10.000",
    "request_status": "Pending",
    "responsible_agency": "Department of Sanitation",
    "final_address": "3501 Plymouth Pl",
    "address_councildis": "C",
    "status": "Assigned to Contractor",
    "contractor": "Richards Disposal",
    "rowid": "1143444",
    "final_x": "3702719.80516",
    "final_y": "518154.325878",
    "longitude": "-90.00155682501382",
    "latitude": "29.91808341674454",
    "geocoded_column": {
      "latitude": "29.91808341674454",
      "longitude": "-90.00155682501382"
    }
  },
  {
    "service_request": "2024-1143443",
    "request_type": "Trash/Recycling",
    "request_reason": "Request a Large Item Pick Up",
    "date_created": "2024-10-23T13:44:27.000",
    "date_modified": "2024-10-23T13:44:29.000",
    "request_status": "Pending",
    "responsible_agency": "Department of Sanitation",
    "final_address": "1526 Arts St",
    "address_councildis": "C",
    "status": "Assigned to Contractor",
    "contractor": "IV Waste",
    "rowid": "1143443",
    "final_x": "3687038.48822",
    "final_y": "538184.272713",
    "longitude": "-90.05034619178805",
    "latitude": "29.973650794771697",
    "geocoded_column": {
      "latitude": "29.973650794771697",
      "longitude": "-90.05034619178805"
    }
  },
  {
    "service_request": "2024-1143442",
    "request_type": "Abandoned Vehicles",
    "request_reason": "Abandoned/Junk Vehicles",
    "date_created": "2024-10-23T13:40:59.000",
    "date_modified": "2024-10-23T13:41:01.000",
    "request_status": "Pending",
    "responsible_agency": "Department of Public Works",
    "final_address": "3300 BLK Dryades St",
    "address_councildis": "B",
    "status": "Pending",
    "rowid": "1143442",
    "final_x": "3673961.44699",
    "final_y": "522633.657604",
    "longitude": "-90.09217833561833",
    "latitude": "29.931287894267598",
    "geocoded_column": {
      "latitude": "29.931287894267598",
      "longitude": "-90.09217833561833"
    }
  },
  {
    "service_request": "2024-1143441",
    "request_type": "Roads and Streets",
    "request_reason": "Pothole",
    "date_created": "2024-10-23T13:40:02.000",
    "date_modified": "2024-10-23T13:53:42.000",
    "case_close_date": "2024-10-23T08:53:42.000",
    "request_status": "Closed",
    "responsible_agency": "Department of Public Works",
    "final_address": "800 BLK Constantinople St",
    "address_councildis": "B",
    "status": "Resolved",
    "rowid": "1143441",
    "final_x": "3672539.81368",
    "final_y": "518746.965903",
    "longitude": "-90.09679867175369",
    "latitude": "29.920643004050355",
    "geocoded_column": {
      "latitude": "29.920643004050355",
      "longitude": "-90.09679867175369"
    }
  },
  {
    "service_request": "2024-1143440",
    "request_type": "Trash/Recycling",
    "request_reason": "Return Trash Cart",
    "date_created": "2024-10-23T13:37:10.000",
    "date_modified": "2024-10-23T13:45:42.000",
    "request_status": "Pending",
    "responsible_agency": "Department of Sanitation",
    "final_address": "4416 Painters St",
    "address_councildis": "D",
    "contractor": "IV Waste",
    "rowid": "1143440",
    "final_x": "3686254.20118",
    "final_y": "549057.717139",
    "longitude": "-90.05243925124354",
    "latitude": "30.003573016030437",
    "geocoded_column": {
      "latitude": "30.003573016030437",
      "longitude": "-90.05243925124354"
    }
  },
  {
    "service_request": "2024-1143439",
    "request_type": "Trash/Recycling",
    "request_reason": "Request a Large Item Pick Up",
    "date_created": "2024-10-23T13:36:45.000",
    "date_modified": "2024-10-23T17:31:32.000",
    "case_close_date": "2024-10-23T12:31:32.000",
    "request_status": "Closed",
    "responsible_agency": "Department of Sanitation",
    "final_address": "4910 Eunice Dr",
    "address_councildis": "E",
    "status": "Invalid Request",
    "contractor": "Waste Pro",
    "contractor_action": "Invalid Request",
    "rowid": "1143439",
    "final_x": "3710368.10353",
    "final_y": "556794.792346",
    "longitude": "-89.97597072732894",
    "latitude": "30.02408373753857",
    "geocoded_column": {
      "latitude": "30.02408373753857",
      "longitude": "-89.97597072732894"
    }
  },
  {
    "service_request": "2024-1143438",
    "request_type": "Abandoned Vehicles",
    "request_reason": "Abandoned/Junk Vehicles",
    "date_created": "2024-10-23T13:26:30.000",
    "date_modified": "2024-10-23T13:26:30.000",
    "request_status": "Pending",
    "responsible_agency": "Department of Public Works",
    "final_address": "6200 E Sixth St",
    "address_councildis": "C",
    "status": "Inspected",
    "rowid": "1143438",
    "final_x": "3712658.84421",
    "final_y": "514820.071347",
    "longitude": "-89.9703102014846",
    "latitude": "29.90859400725483",
    "geocoded_column": {
      "latitude": "29.90859400725483",
      "longitude": "-89.9703102014846"
    }
  },
  {
    "service_request": "2024-1143437",
    "request_type": "Property Maintenance",
    "request_reason": "Property Maintenance",
    "date_created": "2024-10-23T13:20:42.000",
    "date_modified": "2024-10-23T15:55:46.000",
    "case_close_date": "2024-10-23T10:55:46.000",
    "request_status": "Closed",
    "responsible_agency": "Department of Code Enforcement",
    "final_address": "3670 Gentilly Blvd",
    "address_councildis": "D",
    "status": "Referred to Code Enforcement",
    "rowid": "1143437",
    "final_x": "3686874.17289",
    "final_y": "548700.399955",
    "longitude": "-90.050493302721",
    "latitude": "30.002571452607057",
    "geocoded_column": {
      "latitude": "30.002571452607057",
      "longitude": "-90.050493302721"
    }
  },
  {
    "service_request": "2024-1143436",
    "request_type": "Trash/Recycling",
    "request_reason": "Request a Large Item Pick Up",
    "date_created": "2024-10-23T13:19:23.000",
    "date_modified": "2024-10-23T13:19:24.000",
    "request_status": "Pending",
    "responsible_agency": "Department of Sanitation",
    "final_address": "4610 Francis Dr",
    "address_councildis": "D",
    "status": "Assigned to Contractor",
    "contractor": "Waste Pro",
    "rowid": "1143436",
    "final_x": "3698260.39184",
    "final_y": "553600.382679",
    "longitude": "-90.01434477999463",
    "latitude": "30.015689140240433",
    "geocoded_column": {
      "latitude": "30.015689140240433",
      "longitude": "-90.01434477999463"
    }
  },
  {
    "service_request": "2024-1143435",
    "request_type": "Property Maintenance",
    "request_reason": "Property Maintenance",
    "date_created": "2024-10-23T13:17:52.000",
    "date_modified": "2024-10-23T13:17:52.000",
    "request_status": "Pending",
    "responsible_agency": "Department of Code Enforcement",
    "final_address": "3670 Gentilly Blvd",
    "address_councildis": "D",
    "status": "Pending",
    "rowid": "1143435",
    "final_x": "3686874.17289",
    "final_y": "548700.399955",
    "longitude": "-90.050493302721",
    "latitude": "30.002571452607057",
    "geocoded_column": {
      "latitude": "30.002571452607057",
      "longitude": "-90.050493302721"
    }
  },
  {
    "service_request": "2024-1143434",
    "request_type": "Trash/Recycling",
    "request_reason": "Request a Large Item Pick Up",
    "date_created": "2024-10-23T13:15:23.000",
    "date_modified": "2024-10-23T13:15:24.000",
    "request_status": "Pending",
    "responsible_agency": "Department of Sanitation",
    "final_address": "1637 Seventh St",
    "address_councildis": "B",
    "status": "Assigned to Contractor",
    "contractor": "IV Waste",
    "rowid": "1143434",
    "final_x": "3675086.31835",
    "final_y": "522376.093562",
    "longitude": "-90.08863608639302",
    "latitude": "29.930546125664993",
    "geocoded_column": {
      "latitude": "29.930546125664993",
      "longitude": "-90.08863608639302"
    }
  },
  {
    "service_request": "2024-1143433",
    "request_type": "Trash/Recycling",
    "request_reason": "Missed Trash Pick-Up",
    "date_created": "2024-10-23T13:15:04.000",
    "date_modified": "2024-10-23T13:15:05.000",
    "request_status": "Pending",
    "responsible_agency": "Department of Sanitation",
    "final_address": "4743 Gawain Dr",
    "address_councildis": "E",
    "status": "Assigned to Contractor",
    "contractor": "Waste Pro",
    "rowid": "1143433",
    "final_x": "3707043.85451",
    "final_y": "555452.809753",
    "longitude": "-89.98652447755545",
    "latitude": "30.020501665718974",
    "geocoded_column": {
      "latitude": "30.020501665718974",
      "longitude": "-89.98652447755545"
    }
  },