[
  {
    "service_request": "2026-1281233",
    "request_type": "Streetlights",
    "request_reason": "Streetlight Outage/Malfunction",
    "date_created": "2026-05-13T23:12:13.000",
    "date_modified": "2026-05-13T23:12:13.000",
    "request_status": "Pending",
    "responsible_agency": "Department of Public Works",
    "final_address": "613 S Rocheblave St",
    "address_councildis": "B",
    "rowid": "1281233",
    "final_x": "3674822.26664",
    "final_y": "532833.961028",
    "longitude": "-90.08911117416895",
    "latitude": "29.959309698929573",
    "geocoded_column": {
      "latitude": "29.959309698929573",
      "longitude": "-90.08911117416895"
    }
  },
  {
    "service_request": "2026-1281232",
    "request_type": "Streetlights",
    "request_reason": "New Streetlight Request",
    "date_created": "2026-05-13T23:11:18.000",
    "date_modified": "2026-05-13T23:11:18.000",
    "request_status": "Pending",
    "responsible_agency": "Department of Public Works",
    "final_address": "613 S Rocheblave St",
    "address_councildis": "B",
    "rowid": "1281232",
    "final_x": "3674822.26664",
    "final_y": "532833.961028",
    "longitude": "-90.08911117416895",
    "latitude": "29.959309698929573",
    "geocoded_column": {
      "latitude": "29.959309698929573",
      "longitude": "-90.08911117416895"
    }
  },
  {
    "service_request": "2026-1281231",
    "request_type": "Trash/Recycling",
    "request_reason": "Request a Large Item Pick Up",
    "date_created": "2026-05-13T22:57:24.000",
    "date_modified": "2026-05-13T22:57:24.000",
    "request_status": "Pending",
    "responsible_agency": "Department of Sanitation",
    "final_address": "7915 Drum St",
    "address_councildis": "E",
    "rowid": "1281231",
    "final_x": "3700045.26736",
    "final_y": "561485.215647",
    "longitude": "-90.00841736271329",
    "latitude": "30.037312786209515",
    "geocoded_column": {
      "latitude": "30.037312786209515",
      "longitude": "-90.00841736271329"
    }
  },
  {
    "service_request": "2026-1281230",
    "request_type": "Trash/Recycling",
    "request_reason": "Replace Trash Cart",
    "date_created": "2026-05-13T22:39:12.000",
    "date_modified": "2026-05-13T22:39:15.000",
    "request_status": "Pending",
    "responsible_agency": "Department of Sanitation",
    "final_address": "1231 S Clark St",
    "address_councildis": "B",
    "status": "Assigned to Contractor",
    "contractor": "IV Waste",
    "rowid": "1281230",
    "final_x": "3669589.36577",
    "final_y": "532431.897795",
    "longitude": "-90.10564907291828",
    "latitude": "29.958359361727545",
    "geocoded_column": {
      "latitude": "29.958359361727545",
      "longitude": "-90.10564907291828"
    }
  },
  {
    "service_request": "2026-1281229",
    "request_type": "Mosquito, Termite & Rodent Control",
    "request_reason": "Mosquito Complaint",
    "date_created": "2026-05-13T22:23:12.000",
    "date_modified": "2026-05-13T22:23:14.000",
    "request_status": "Pending",
    "responsible_agency": "Mosquito, Termite & Rodent Control Board",
    "final_address": "805 Louisa St Ste 101",
    "address_councildis": "C",
    "status": "Pending",
    "rowid": "1281229",
    "final_x": "3689335.5023",
    "final_y": "534769.111558",
    "longitude": "-90.0432131902079",
    "latitude": "29.9641893804949",
    "geocoded_column": {
      "latitude": "29.9641893804949",
      "longitude": "-90.0432131902079"
    }
  },
  {
    "service_request": "2026-1281228",
    "request_type": "Mosquito, Termite & Rodent Control",
    "request_reason": "Mosquito Complaint",
    "date_created": "2026-05-13T22:19:34.000",
    "date_modified": "2026-05-13T22:19:35.000",
    "request_status": "Pending",
    "responsible_agency": "Mosquito, Termite & Rodent Control Board",
    "final_address": "805 Louisa St",
    "address_councildis": "C",
    "status": "Pending",
    "rowid": "1281228",
    "final_x": "3689319.47887",
    "final_y": "534777.04615",
    "longitude": "-90.04326350857419",
    "latitude": "29.964211693910105",
    "geocoded_column": {
      "latitude": "29.964211693910105",
      "longitude": "-90.04326350857419"
    }
  },
  {
    "service_request": "2026-1281227",
    "request_type": "Healthy Homes",
    "request_reason": "Healthy Homes",
    "date_created": "2026-05-13T22:18:39.000",
    "date_modified": "2026-05-13T22:18:40.000",
    "request_status": "Pending",
    "responsible_agency": "Department of Code Enforcement",
    "final_address": "3131 Mansfield Ave",
    "address_councildis": "C",
    "status": "Pending",
    "rowid": "1281227",
    "final_x": "3709061.38737",
    "final_y": "518702.694583",
    "longitude": "-89.98151966312746",
    "latitude": "29.919387048023438",
    "geocoded_column": {
      "latitude": "29.919387048023438",
      "longitude": "-89.98151966312746"
    }
  },
  {
    "service_request": "2026-1281226",
    "request_type": "Parks & Grass Service",
    "request_reason": "Park Maintenance/Clean Up",
    "date_created": "2026-05-13T22:17:35.000",
    "date_modified": "2026-05-13T22:17:47.000",
    "request_status": "Pending",
    "responsible_agency": "Department of Parks & Parkways",
    "final_address": "3131 Mansfield Ave",
    "address_councildis": "C",
    "status": "Pending",
    "rowid": "1281226",
    "final_x": "3709061.38737",
    "final_y": "518702.694583",
    "longitude": "-89.98151966312746",
    "latitude": "29.919387048023438",
    "geocoded_column": {
      "latitude": "29.919387048023438",
      "longitude": "-89.98151966312746"
    }
  },
  {
    "service_request": "2026-1281225",
    "request_type": "Parks & Grass Service",
    "request_reason": "Park Maintenance/Clean Up",
    "date_created": "2026-05-13T22:04:21.000",
    "date_modified": "2026-05-13T22:04:22.000",
    "request_status": "Pending",
    "responsible_agency": "Department of Parks & Parkways",
    "final_address": "1000 BLK N Galvez St",
    "address_councildis": "C",
    "status": "Pending",
    "rowid": "1281225",
    "final_x": "3679146.07934",
    "final_y": "536721.895832",
    "longitude": "-90.07532281855052",
    "latitude": "29.969870388881372",
    "geocoded_column": {
      "latitude": "29.969870388881372",
      "longitude": "-90.07532281855052"
    }
  },
  {
    "service_request": "2026-1281224",
    "request_type": "Streetlights",
    "request_reason": "Streetlight Outage/Malfunction",
    "date_created": "2026-05-13T21:55:15.000",
    "date_modified": "2026-05-13T21:55:17.000",
    "request_status": "Pending",
    "responsible_agency": "Department of Public Works",
    "final_address": "6836 Bundy Rd",
    "address_councildis": "E",
    "status": "Pending",
    "rowid": "1281224",
    "final_x": "3707497.60196",
    "final_y": "559565.073501",
    "longitude": "-89.98493788149602",
    "latitude": "30.03179411175419",
    "geocoded_column": {
      "latitude": "30.03179411175419",
      "longitude": "-89.98493788149602"
    }
  },
  {
    "service_request": "2026-1281223",
    "request_type": "Trash/Recycling",
    "request_reason": "Order Recycling Cart",
    "date_created": "2026-05-13T21:50:08.000",
    "date_modified": "2026-05-13T21:50:11.000",
    "request_status": "Pending",
    "responsible_agency": "Department of Sanitation",
    "final_address": "1326 Spain St",
    "address_councildis": "C",
    "status": "Pending",
    "rowid": "1281223",
    "final_x": "3686024.10338",
    "final_y": "537348.908104",
    "longitude": "-90.0535792958952",
    "latitude": "29.97138502559746",
    "geocoded_column": {
      "latitude": "29.97138502559746",
      "longitude": "-90.0535792958952"
    }
  },
  {
    "service_request": "2026-1281222",
    "request_type": "Streetlights",
    "request_reason": "Streetlight Outage/Malfunction",
    "date_created": "2026-05-13T21:23:58.000",
    "date_modified": "2026-05-13T21:23:59.000",
    "request_status": "Pending",
    "responsible_agency": "Department of Public Works",
    "final_address": "13049 Cherbourg St",
    "address_councildis": "E",
    "status": "Pending",
    "rowid": "1281222",
    "final_x": "3724121.02425",
    "final_y": "561095.608478",
    "longitude": "-89.93234855600697",
    "latitude": "30.035454098333595",
    "geocoded_column": {
      "latitude": "30.035454098333595",
      "longitude": "-89.93234855600697"
    }
  },
  {
    "service_request": "2026-1281221",
    "request_type": "Abandoned Vehicles",
    "request_reason": "Abandoned/Junk Vehicles",
    "date_created": "2026-05-13T21:23:55.000",
    "date_modified": "2026-05-13T21:23:57.000",
    "request_status": "Pending",
    "responsible_agency": "Department of Public Works",
    "final_address": "5638 Catina St",
    "address_councildis": "A",
    "status": "Pending",
    "rowid": "1281221",
    "final_x": "3666601.20692",
    "final_y": "545040.140623",
    "longitude": "-90.11466146746379",
    "latitude": "29.993115502663088",
    "geocoded_column": {
      "latitude": "29.993115502663088",
      "longitude": "-90.11466146746379"
    }
  },
  {
    "service_request": "2026-1281220",
    "request_type": "Trash/Recycling",
    "request_reason": "Request a Large Item Pick Up",
    "date_created": "2026-05-13T21:16:03.000",
    "date_modified": "2026-05-13T21:16:04.000",
    "request_status": "Pending",
    "responsible_agency": "Department of Sanitation",
    "final_address": "933 N Lopez St",
    "address_councildis": "A",
    "status": "Assigned to Contractor",
    "contractor": "IV Waste",
    "rowid": "1281220",
    "final_x": "3675835.74357",
    "final_y": "538873.807817",
    "longitude": "-90.08570318672638",
    "latitude": "29.975886930838826",
    "geocoded_column": {
      "latitude": "29.975886930838826",
      "longitude": "-90.08570318672638"
    }
  },
  {
    "service_request": "2026-1281219",
    "request_type": "Health Related Request",
    "request_reason": "Noise Ordinance Complaint",
    "date_created": "2026-05-13T21:15:21.000",
    "date_modified": "2026-05-13T21:15:23.000",
    "request_status": "Pending",
    "responsible_agency": "Health Department",
    "final_address": "316 N Villere St Apt R",
    "address_councildis": "C",
    "status": "Pending",
    "rowid": "1281219",
    "final_x": "3679615.1149",
    "final_y": "533185.384516",
    "longitude": "-90.07396431208856",
    "latitude": "29.96013202165831",
    "geocoded_column": {
      "latitude": "29.96013202165831",
      "longitude": "-90.07396431208856"
    }
  },
  {
    "service_request": "2026-1281218",
    "request_type": "Trash/Recycling",
    "request_reason": "Request a Large Item Pick Up",
    "date_created": "2026-05-13T21:13:09.000",
    "date_modified": "2026-05-13T21:13:12.000",
    "request_status": "Pending",
    "responsible_agency": "Department of Sanitation",
    "final_address": "933 N Lopez St",
    "address_councildis": "A",
    "status": "Assigned to Contractor",
    "contractor": "IV Waste",
    "rowid": "1281218",
    "final_x": "3675835.74357",
    "final_y": "538873.807817",
    "longitude": "-90.08570318672638",
    "latitude": "29.975886930838826",
    "geocoded_column": {
      "latitude": "29.975886930838826",
      "longitude": "-90.08570318672638"
    }
  },
  {
    "service_request": "2026-1281217",
    "request_type": "Trash/Recycling",
    "request_reason": "Order Trash Cart",
    "date_created": "2026-05-13T20:37:14.000",
    "date_modified": "2026-05-13T20:37:16.000",
    "request_status": "Pending",
    "responsible_agency": "Department of Sanitation",
    "final_address": "3000 BLK Saint Ann St",
    "address_councildis": "A",
    "status": "Assigned to Contractor",
    "contractor": "IV Waste",
    "rowid": "1281217",
    "final_x": "3675804.7412",
    "final_y": "538067.645765",
    "longitude": "-90.085828821065",
    "latitude": "29.973671188967813",
    "geocoded_column": {
      "latitude": "29.973671188967813",
      "longitude": "-90.085828821065"
    }
  },
  {
    "service_request": "2026-1281216",
    "request_type": "Abandoned Vehicles",
    "request_reason": "Abandoned/Junk Vehicles",
    "date_created": "2026-05-13T20:28:59.000",
    "date_modified": "2026-05-13T20:29:01.000",
    "request_status": "Pending",
    "responsible_agency": "Department of Public Works",
    "final_address": "5359 Cameron Blvd",
    "address_councildis": "D",
    "status": "Pending",
    "rowid": "1281216",
    "final_x": "3682628.11912",
    "final_y": "552907.741399",
    "longitude": "-90.06375985688244",
    "latitude": "30.014270147526954",
    "geocoded_column": {
      "latitude": "30.014270147526954",
      "longitude": "-90.06375985688244"
    }
  },
  {
    "service_request": "2026-1281215",
    "request_type": "Abandoned Vehicles",
    "request_reason": "Abandoned/Junk Vehicles",
    "date_created": "2026-05-13T20:25:33.000",
    "date_modified": "2026-05-13T20:25:37.000",
    "request_status": "Pending",
    "responsible_agency": "Department of Public Works",
    "final_address": "5359 Cameron Blvd",
    "address_councildis": "D",
    "status": "Pending",
    "rowid": "1281215",
    "final_x": "3682628.11912",
    "final_y": "552907.741399",
    "longitude": "-90.06375985688244",
    "latitude": "30.014270147526954",
    "geocoded_column": {
      "latitude": "30.014270147526954",
      "longitude": "-90.06375985688244"
    }
  },
  {
    "service_request": "2026-1281214",
    "request_type": "Abandoned Vehicles",
    "request_reason": "Abandoned/Junk Vehicles",
    "date_created": "2026-05-13T20:23:26.000",
    "date_modified": "2026-05-13T20:23:27.000",
    "request_status": "Pending",
    "responsible_agency": "Department of Public Works",
    "final_address": "5359 Cameron Blvd",
    "address_councildis": "D",
    "status": "Pending",
    "rowid": "1281214",
    "final_x": "3682628.11912",
    "final_y": "552907.741399",
    "longitude": "-90.06375985688244",
    "latitude": "30.014270147526954",
    "geocoded_column": {
      "latitude": "30.014270147526954",
      "longitude": "-90.06375985688244"
    }
  },
  {
    "service_request": "2026-1281213",
    "request_type": "Abandoned Vehicles",
    "request_reason": "Abandoned/Junk Vehicles",
    "date_created": "2026-05-13T20:21:24.000",
    "date_modified": "2026-05-13T20:21:26.000",
    "request_status": "Pending",
    "responsible_agency": "Department of Public Works",
    "final_address": "5359 Cameron Blvd",
    "address_councildis": "D",
    "status": "Pending",
    "rowid": "1281213",
    "final_x": "3682628.11912",
    "final_y": "552907.741399",
    "longitude": "-90.06375985688244",
    "latitude": "30.014270147526954",
    "geocoded_column": {
      "latitude": "30.014270147526954",
      "longitude": "-90.06375985688244"
    }
  },
  {
    "service_request": "2026-1281212",
    "request_type": "Trash/Recycling",
    "request_reason": "Order Recycling Cart",
    "date_created": "2026-05-13T19:46:27.000",
    "date_modified": "2026-05-13T19:46:30.000",
    "request_status": "Pending",
    "responsible_agency": "Department of Sanitation",
    "final_address": "2533 Amelia St",
    "address_councildis": "B",
    "status": "Pending",
    "rowid": "1281212",
    "final_x": "3672330.01275",
    "final_y": "524562.031804",
    "longitude": "-90.09726290860866",
    "latitude": "29.93663878939961",
    "geocoded_column": {
      "latitude": "29.93663878939961",
      "longitude": "-90.09726290860866"
    }
  },
  {
    "service_request": "2026-1281211",
    "request_type": "Trash/Recycling",
    "request_reason": "Order Trash Cart",
    "date_created": "2026-05-13T19:31:05.000",
    "date_modified": "2026-05-13T19:31:06.000",
    "request_status": "Pending",
    "responsible_agency": "Department of Sanitation",
    "final_address": "602 Huntlee Dr",
    "address_councildis": "C",
    "status": "Assigned to Contractor",
    "contractor": "Richards Disposal",
    "rowid": "1281211",
    "final_x": "3701868.82589",
    "final_y": "520798.045561",
    "longitude": "-90.00414608498852",
    "latitude": "29.925379904866503",
    "geocoded_column": {
      "latitude": "29.925379904866503",
      "longitude": "-90.00414608498852"
    }
  },
  {
    "service_request": "2026-1281210",
    "request_type": "Trash/Recycling",
    "request_reason": "Missed Trash Pick-Up",
    "date_created": "2026-05-13T19:27:55.000",
    "date_modified": "2026-05-13T19:27:57.000",
    "request_status": "Pending",
    "responsible_agency": "Department of Sanitation",
    "final_address": "908 Cherokee St",
    "address_councildis": "A",
    "status": "Assigned to Contractor",
    "contractor": "IV Waste",
    "rowid": "1281210",
    "final_x": "3662866.02253",
    "final_y": "526258.865086",
    "longitude": "-90.12708488689313",
    "latitude": "29.94158186964132",
    "geocoded_column": {
      "latitude": "29.94158186964132",
      "longitude": "-90.12708488689313"
    }
  },
  {
    "service_request": "2026-1281209",
    "request_type": "Mosquito, Termite & Rodent Control",
    "request_reason": "Termite Complaint",
    "date_created": "2026-05-13T19:01:39.000",
    "date_modified": "2026-05-13T19:01:41.000",
    "request_status": "Pending",
    "responsible_agency": "Mosquito, Termite & Rodent Control Board",
    "final_address": "AVALON WAY & HERITAGE DR",
    "address_councildis": "E",
    "status": "Pending",
    "rowid": "1281209",
    "final_x": "3709324.6",
    "final_y": "564155.28",
    "longitude": "-89.97899307353642",
    "latitude": "30.044356111535933",
    "geocoded_column": {
      "latitude": "30.044356111535933",
      "longitude": "-89.97899307353642"
    }
  },
  {
    "service_request": "2026-1281208",
    "request_type": "Property Maintenance",
    "request_reason": "Property Maintenance",
    "date_created": "2026-05-13T18:59:00.000",
    "date_modified": "2026-05-13T18:59:01.000",
    "request_status": "Pending",
    "responsible_agency": "Department of Code Enforcement",
    "final_address": "3380 State Street Dr",
    "address_councildis": "A",
    "status": "Pending",
    "rowid": "1281208",
    "final_x": "3667801.35137",
    "final_y": "528940.208576",
    "longitude": "-90.11141273887227",
    "latitude": "29.948810913428446",
    "geocoded_column": {
      "latitude": "29.948810913428446",
      "longitude": "-90.11141273887227"
    }
  },
  {
    "service_request": "2026-1281207",
    "request_type": "Mosquito, Termite & Rodent Control",
    "request_reason": "Termite Complaint",
    "date_created": "2026-05-13T18:58:06.000",
    "date_modified": "2026-05-13T18:58:08.000",
    "request_status": "Pending",
    "responsible_agency": "Mosquito, Termite & Rodent Control Board",
    "final_address": "AVALON WAY & HERITAGE DR",
    "address_councildis": "E",
    "status": "Pending",
    "rowid": "1281207",
    "final_x": "3709324.6",
    "final_y": "564155.28",
    "longitude": "-89.97899307353642",
    "latitude": "30.044356111535933",
    "geocoded_column": {
      "latitude": "30.044356111535933",
      "longitude": "-89.97899307353642"
    }
  },
  {
    "service_request": "2026-1281206",
    "request_type": "Utility Poles",
    "request_reason": "Wires Sagging/Hanging Low",
    "date_created": "2026-05-13T18:49:50.000",
    "date_modified": "2026-05-13T18:49:53.000",
    "request_status": "Pending",
    "responsible_agency": "Utility Company Collective",
    "final_address": "435 Fairway Dr",
    "address_councildis": "A",
    "status": "Pending",
    "rowid": "1281206",
    "final_x": "3664355.15258",
    "final_y": "542571.825805",
    "longitude": "-90.12183884170813",
    "latitude": "29.98639396580439",
    "geocoded_column": {
      "latitude": "29.98639396580439",
      "longitude": "-90.12183884170813"
    }
  },
  {
    "service_request": "2026-1281205",
    "request_type": "Parks & Grass Service",
    "request_reason": "Park Maintenance/Clean Up",
    "date_created": "2026-05-13T18:42:08.000",
    "date_modified": "2026-05-13T18:42:09.000",
    "request_status": "Pending",
    "responsible_agency": "Department of Parks & Parkways",
    "final_address": "4842 Corsica Pl",
    "address_councildis": "E",
    "status": "Pending",
    "rowid": "1281205",
    "final_x": "3727285.69517",
    "final_y": "561807.190047",
    "longitude": "-89.92232011527848",
    "latitude": "30.037303881545256",
    "geocoded_column": {
      "latitude": "30.037303881545256",
      "longitude": "-89.92232011527848"
    }
  },
  {
    "service_request": "2026-1281204",
    "request_type": "Drainage",
    "request_reason": "Catch Basin Frame and Cover Missing or Damaged",
    "date_created": "2026-05-13T18:41:48.000",
    "date_modified": "2026-05-13T18:41:50.000",
    "request_status": "Pending",
    "responsible_agency": "Sewerage & Water Board",
    "final_address": "7300 Lake Barrington Dr",
    "address_councildis": "E",
    "status": "Pending",
    "rowid": "1281204",
    "final_x": "3712082.15973",
    "final_y": "564786.710818",
    "longitude": "-89.97025428366472",
    "latitude": "30.046002384076715",
    "geocoded_column": {
      "latitude": "30.046002384076715",
      "longitude": "-89.97025428366472"
    }
  },
  {
    "service_request": "2026-1281203",
    "request_type": "Trash/Recycling",
    "request_reason": "Request a Large Item Pick Up",
    "date_created": "2026-05-13T18:33:07.000",
    "date_modified": "2026-05-13T18:33:10.000",
    "request_status": "Pending",
    "responsible_agency": "Department of Sanitation",
    "final_address": "420 Delery St",
    "address_councildis": "E",
    "status": "Assigned to Contractor",
    "contractor": "Waste Pro",
    "rowid": "1281203",
    "final_x": "3699517.16925",
    "final_y": "530761.234626",
    "longitude": "-90.01120659014201",
    "latitude": "29.952850003967722",
    "geocoded_column": {
      "latitude": "29.952850003967722",
      "longitude": "-90.01120659014201"
    }
  },
  {
    "service_request": "2026-1281202",
    "request_type": "Trash/Recycling",
    "request_reason": "Return Recycling Cart",
    "date_created": "2026-05-13T18:28:55.000",
    "date_modified": "2026-05-13T18:28:58.000",
    "request_status": "Pending",
    "responsible_agency": "Department of Sanitation",
    "final_address": "6410 Argonne Blvd",
    "address_councildis": "A",
    "status": "Pending",
    "rowid": "1281202",
    "final_x": "3670339.01524",
    "final_y": "550082.061396",
    "longitude": "-90.10268327868441",
    "latitude": "30.006869192695486",
    "geocoded_column": {
      "latitude": "30.006869192695486",
      "longitude": "-90.10268327868441"
    }
  },
  {
    "service_request": "2026-1281201",
    "request_type": "Alley Ways",
    "request_reason": "Alley Way Issues",
    "date_created": "2026-05-13T18:22:06.000",
    "date_modified": "2026-05-13T18:22:09.000",
    "request_status": "Pending",
    "responsible_agency": "Department of Public Works",
    "final_address": "6334 Louisville St",
    "address_councildis": "A",
    "status": "Pending",
    "rowid": "1281201",
    "final_x": "3667864.22567",
    "final_y": "549687.340628",
    "longitude": "-90.11051513241343",
    "latitude": "30.00585670046995",
    "geocoded_column": {
      "latitude": "30.00585670046995",
      "longitude": "-90.11051513241343"
    }
  },
  {
    "service_request": "2026-1281200",
    "request_type": "Trash/Recycling",
    "request_reason": "Replace Trash Cart",
    "date_created": "2026-05-13T18:19:35.000",
    "date_modified": "2026-05-13T18:19:36.000",
    "request_status": "Pending",
    "responsible_agency": "Department of Sanitation",
    "final_address": "3142 State Street Dr",
    "address_councildis": "A",
    "status": "Assigned to Contractor",
    "contractor": "IV Waste",
    "rowid": "1281200",
    "final_x": "3667466.51156",
    "final_y": "527915.746623",
    "longitude": "-90.11250443888937",
    "latitude": "29.94600378952235",
    "geocoded_column": {
      "latitude": "29.94600378952235",
      "longitude": "-90.11250443888937"
    }
  },
  {
    "service_request": "2026-1281199",
    "request_type": "Trash/Recycling",
    "request_reason": "Order Second Trash Cart",
    "date_created": "2026-05-13T18:19:22.000",
    "date_modified": "2026-05-13T18:19:23.000",
    "request_status": "Pending",
    "responsible_agency": "Department of Sanitation",
    "final_address": "2206 Pauger St",
    "address_councildis": "C",
    "status": "Assigned to Contractor",
    "contractor": "IV Waste",
    "rowid": "1281199",
    "final_x": "3683672.79561",
    "final_y": "537749.172232",
    "longitude": "-90.06099101487705",
    "latitude": "29.97255761221038",
    "geocoded_column": {
      "latitude": "29.97255761221038",
      "longitude": "-90.06099101487705"
    }
  },
  {
    "service_request": "2026-1281198",
    "request_type": "Drainage",
    "request_reason": "Catch Basin Not Draining",
    "date_created": "2026-05-13T18:19:02.000",
    "date_modified": "2026-05-13T18:19:03.000",
    "request_status": "Pending",
    "responsible_agency": "Sewerage & Water Board",
    "final_address": "6334 Louisville St",
    "address_councildis": "A",
    "status": "Pending",
    "rowid": "1281198",
    "final_x": "3667864.22567",
    "final_y": "549687.340628",
    "longitude": "-90.11051513241343",
    "latitude": "30.00585670046995",
    "geocoded_column": {
      "latitude": "30.00585670046995",
      "longitude": "-90.11051513241343"
    }
  },
  {
    "service_request": "2026-1281197",
    "request_type": "Tree Service",
    "request_reason": "Street or Sidewalk Blocked",
    "date_created": "2026-05-13T18:16:52.000",
    "date_modified": "2026-05-13T18:16:53.000",
    "request_status": "Pending",
    "responsible_agency": "Department of Parks & Parkways",
    "final_address": "6334 Louisville St",
    "address_councildis": "A",
    "status": "Pending",
    "rowid": "1281197",
    "final_x": "3667864.22567",
    "final_y": "549687.340628",
    "longitude": "-90.11051513241343",
    "latitude": "30.00585670046995",
    "geocoded_column": {
      "latitude": "30.00585670046995",
      "longitude": "-90.11051513241343"
    }
  },
  {
    "service_request": "2026-1281196",
    "request_type": "Tree Service",
    "request_reason": "Street or Sidewalk Blocked",
    "date_created": "2026-05-13T18:10:32.000",
    "date_modified": "2026-05-13T18:10:33.000",
    "request_status": "Pending",
    "responsible_agency": "Department of Parks & Parkways",
    "final_address": "6334 Louisville St",
    "address_councildis": "A",
    "status": "Pending",
    "rowid": "1281196",
    "final_x": "3667864.22567",
    "final_y": "549687.340628",
    "longitude": "-90.11051513241343",
    "latitude": "30.00585670046995",
    "geocoded_column": {
      "latitude": "30.00585670046995",
      "longitude": "-90.11051513241343"
    }
  },
  {
    "service_request": "2026-1281195",
    "request_type": "Trash/Recycling",
    "request_reason": "Order Trash Cart",
    "date_created": "2026-05-13T17:50:50.000",
    "date_modified": "2026-05-13T17:50:51.000",
    "request_status": "Pending",
    "responsible_agency": "Department of Sanitation",
    "final_address": "4837 Bonita Dr",
    "address_councildis": "E",
    "status": "Assigned to Contractor",
    "contractor": "Waste Pro",
    "rowid": "1281195",
    "final_x": "3704508.43921",
    "final_y": "555905.868441",
    "longitude": "-89.99451883500343",
    "latitude": "30.021829100264526",
    "geocoded_column": {
      "latitude": "30.021829100264526",
      "longitude": "-89.99451883500343"
    }
  },
  {
    "service_request": "2026-1281194",
    "request_type": "Property Maintenance",
    "request_reason": "Property Maintenance",
    "date_created": "2026-05-13T17:47:21.000",
    "date_modified": "2026-05-13T17:47:23.000",
    "request_status": "Pending",
    "responsible_agency": "Department of Code Enforcement",
    "final_address": "5359 Cameron Blvd",
    "address_councildis": "D",
    "status": "Pending",
    "rowid": "1281194",
    "final_x": "3682628.11912",
    "final_y": "552907.741399",
    "longitude": "-90.06375985688244",
    "latitude": "30.014270147526954",
    "geocoded_column": {
      "latitude": "30.014270147526954",
      "longitude": "-90.06375985688244"
    }
  },
  {
    "service_request": "2026-1281193",
    "request_type": "Healthy Homes",
    "request_reason": "Healthy Homes",
    "date_created": "2026-05-13T17:37:30.000",
    "date_modified": "2026-05-13T17:37:32.000",
    "request_status": "Pending",
    "responsible_agency": "Department of Code Enforcement",
    "final_address": "5359 Cameron Blvd",
    "address_councildis": "D",
    "status": "Pending",
    "rowid": "1281193",
    "final_x": "3682628.11912",
    "final_y": "552907.741399",
    "longitude": "-90.06375985688244",
    "latitude": "30.014270147526954",
    "geocoded_column": {
      "latitude": "30.014270147526954",
      "longitude": "-90.06375985688244"
    }
  },
  {
    "service_request": "2026-1281192",
    "request_type": "Drainage",
    "request_reason": "Catch Basin Not Draining",
    "date_created": "2026-05-13T17:36:19.000",
    "date_modified": "2026-05-13T17:36:21.000",
    "request_status": "Pending",
    "responsible_agency": "Sewerage & Water Board",
    "final_address": "6014 St Anthony Ave",
    "address_councildis": "D",
    "status": "Pending",
    "rowid": "1281192",
    "final_x": "3681937.1734",
    "final_y": "554839.377368",
    "longitude": "-90.06587539088027",
    "latitude": "30.01960247414256",
    "geocoded_column": {
      "latitude": "30.01960247414256",
      "longitude": "-90.06587539088027"
    }
  },
  {
    "service_request": "2026-1281191",
    "request_type": "Trash/Recycling",
    "request_reason": "Replace Trash Cart",
    "date_created": "2026-05-13T17:22:24.000",
    "date_modified": "2026-05-13T17:22:26.000",
    "request_status": "Pending",
    "responsible_agency": "Department of Sanitation",
    "final_address": "4929 S Tonti St",
    "address_councildis": "B",
    "status": "Assigned to Contractor",
    "contractor": "IV Waste",
    "rowid": "1281191",
    "final_x": "3669037.80807",
    "final_y": "528078.675263",
    "longitude": "-90.10753780396585",
    "latitude": "29.946405663751957",
    "geocoded_column": {
      "latitude": "29.946405663751957",
      "longitude": "-90.10753780396585"
    }
  },
  {
    "service_request": "2026-1281190",
    "request_type": "Trash/Recycling",
    "request_reason": "Order Second Trash Cart",
    "date_created": "2026-05-13T17:16:36.000",
    "date_modified": "2026-05-13T17:16:38.000",
    "request_status": "Pending",
    "responsible_agency": "Department of Sanitation",
    "final_address": "741 Esplanade Ave Unit 4",
    "address_councildis": "C",
    "status": "Assigned to Contractor",
    "contractor": "IV Waste",
    "rowid": "1281190",
    "final_x": "3683845.47445",
    "final_y": "534695.65799",
    "longitude": "-90.06055278367866",
    "latitude": "29.96415623132036",
    "geocoded_column": {
      "latitude": "29.96415623132036",
      "longitude": "-90.06055278367866"
    }
  },
  {
    "service_request": "2026-1281189",
    "request_type": "Safety & Permits",
    "request_reason": "Construction permit",
    "date_created": "2026-05-13T17:13:21.000",
    "date_modified": "2026-05-13T17:13:24.000",
    "request_status": "Pending",
    "responsible_agency": "Safety and Permits",
    "final_address": "2512 Bienville Ave",
    "address_councildis": "B",
    "status": "Pending",
    "rowid": "1281189",
    "final_x": "3676467.62472",
    "final_y": "535153.468166",
    "longitude": "-90.08383565253618",
    "latitude": "29.965638331716494",
    "geocoded_column": {
      "latitude": "29.965638331716494",
      "longitude": "-90.08383565253618"
    }
  },
  {
    "service_request": "2026-1281188",
    "request_type": "Trash/Recycling",
    "request_reason": "Replace Trash Cart",
    "date_created": "2026-05-13T16:58:11.000",
    "date_modified": "2026-05-13T16:58:12.000",
    "request_status": "Pending",
    "responsible_agency": "Department of Sanitation",
    "final_address": "0 BLK Brownlee Ct",
    "address_councildis": "E",
    "status": "Assigned to Contractor",
    "contractor": "Waste Pro",
    "rowid": "1281188",
    "final_x": "3712627.45102",
    "final_y": "567256.93778",
    "longitude": "-89.96843790870709",
    "latitude": "30.05277665832809",
    "geocoded_column": {
      "latitude": "30.05277665832809",
      "longitude": "-89.96843790870709"
    }
  },
  {
    "service_request": "2026-1281187",
    "request_type": "Parks & Grass Service",
    "request_reason": "Request Grass Cutting Service (City Owned Property)",
    "date_created": "2026-05-13T16:56:21.000",
    "date_modified": "2026-05-13T16:56:23.000",
    "request_status": "Pending",
    "responsible_agency": "Department of Parks & Parkways",
    "final_address": "1728 Hendee St",
    "address_councildis": "C",
    "status": "Pending",
    "rowid": "1281187",
    "final_x": "3690673.24502",
    "final_y": "524426.55206",
    "longitude": "-90.03935756027201",
    "latitude": "29.93570942474972",
    "geocoded_column": {
      "latitude": "29.93570942474972",
      "longitude": "-90.03935756027201"
    }
  },
  {
    "service_request": "2026-1281186",
    "request_type": "Trash/Recycling",
    "request_reason": "Request a Large Item Pick Up",
    "date_created": "2026-05-13T16:55:34.000",
    "date_modified": "2026-05-13T16:55:46.000",
    "request_status": "Pending",
    "responsible_agency": "Department of Sanitation",
    "final_address": "1905 Arts St",
    "address_councildis": "D",
    "status": "Assigned to Contractor",
    "contractor": "IV Waste",
    "rowid": "1281186",
    "final_x": "3687002.58882",
    "final_y": "539494.43009",
    "longitude": "-90.0504132418796",
    "latitude": "29.97725437219955",
    "geocoded_column": {
      "latitude": "29.97725437219955",
      "longitude": "-90.0504132418796"
    }
  },
  {
    "service_request": "2026-1281185",
    "request_type": "Trash/Recycling",
    "request_reason": "Request a Large Item Pick Up",
    "date_created": "2026-05-13T16:51:41.000",
    "date_modified": "2026-05-13T16:51:43.000",
    "request_status": "Pending",
    "responsible_agency": "Department of Sanitation",
    "final_address": "4719 Virgilian St",
    "address_councildis": "D",
    "status": "Assigned to Contractor",
    "contractor": "Waste Pro",
    "rowid": "1281185",
    "final_x": "3697573.29437",
    "final_y": "553614.334103",
    "longitude": "-90.0165151768813",
    "latitude": "30.01574923102479",
    "geocoded_column": {
      "latitude": "30.01574923102479",
      "longitude": "-90.0165151768813"
    }
  },
  {
    "service_request": "2026-1281184",
    "request_type": "Trash/Recycling",
    "request_reason": "Replace Trash Cart",
    "date_created": "2026-05-13T16:45:08.000",
    "date_modified": "2026-05-13T16:45:10.000",
    "request_status": "Pending",
    "responsible_agency": "Department of Sanitation",
    "final_address": "6401 Caldwell Dr",
    "address_councildis": "D",
    "status": "Assigned to Contractor",
    "contractor": "IV Waste",
    "rowid": "1281184",
    "final_x": "3678575.55061",
    "final_y": "557270.163803",
    "longitude": "-90.07641275980748",
    "latitude": "30.026388065541468",
    "geocoded_column": {
      "latitude": "30.026388065541468",
      "longitude": "-90.07641275980748"
    }
  },
  {
    "service_request": "2026-1281183",
    "request_type": "Trash/Recycling",
    "request_reason": "Request a Large Item Pick Up",
    "date_created": "2026-05-13T16:40:55.000",
    "date_modified": "2026-05-13T16:40:57.000",
    "request_status": "Pending",
    "responsible_agency": "Department of Sanitation",
    "final_address": "2525 Marengo St",
    "address_councildis": "B",
    "status": "Assigned to Contractor",
    "contractor": "IV Waste",
    "rowid": "1281183",
    "final_x": "3671667.62215",
    "final_y": "524361.476732",
    "longitude": "-90.09936092778838",
    "latitude": "29.93610695907553",
    "geocoded_column": {
      "latitude": "29.93610695907553",
      "longitude": "-90.09936092778838"
    }
  },
  {
    "service_request": "2026-1281182",
    "request_type": "Property Maintenance",
    "request_reason": "Property Maintenance",
    "date_created": "2026-05-13T16:38:24.000",
    "date_modified": "2026-05-13T16:38:26.000",
    "request_status": "Pending",
    "responsible_agency": "Department of Code Enforcement",
    "final_address": "1537 Louisa St",
    "address_councildis": "D",
    "status": "Pending",
    "rowid": "1281182",
    "final_x": "3690037.8719",
    "final_y": "537643.565576",
    "longitude": "-90.04089278782799",
    "latitude": "29.972071356276718",
    "geocoded_column": {
      "latitude": "29.972071356276718",
      "longitude": "-90.04089278782799"
    }
  },
  {
    "service_request": "2026-1281181",
    "request_type": "Abandoned Vehicles",
    "request_reason": "Abandoned/Junk Vehicles",
    "date_created": "2026-05-13T16:27:40.000",
    "date_modified": "2026-05-13T16:27:41.000",
    "request_status": "Pending",
    "responsible_agency": "Department of Public Works",
    "final_address": "622 Clouet St",
    "address_councildis": "C",
    "status": "Pending",
    "rowid": "1281181",
    "final_x": "3688553.46294",
    "final_y": "534347.467781",
    "longitude": "-90.04569775982857",
    "latitude": "29.963054194764887",
    "geocoded_column": {
      "latitude": "29.963054194764887",
      "longitude": "-90.04569775982857"
    }
  },
  {
    "service_request": "2026-1281180",
    "request_type": "Trash/Recycling",
    "request_reason": "Request a Large Item Pick Up",
    "date_created": "2026-05-13T16:25:53.000",
    "date_modified": "2026-05-13T16:25:55.000",
    "request_status": "Pending",
    "responsible_agency": "Department of Sanitation",
    "final_address": "6050 Argonne Blvd",
    "address_councildis": "A",
    "status": "Assigned to Contractor",
    "contractor": "IV Waste",
    "rowid": "1281180",
    "final_x": "3670131.75054",
    "final_y": "547505.855826",
    "longitude": "-90.10342544543794",
    "latitude": "29.999791645685274",
    "geocoded_column": {
      "latitude": "29.999791645685274",
      "longitude": "-90.10342544543794"
    }
  },
  {
    "service_request": "2026-1281179",
    "request_type": "Trash/Recycling",
    "request_reason": "Illegal Dumping",
    "date_created": "2026-05-13T16:24:15.000",
    "date_modified": "2026-05-13T16:24:16.000",
    "request_status": "Pending",
    "responsible_agency": "Department of Sanitation",
    "final_address": "1939 Fern St",
    "address_councildis": "A",
    "status": "Pending",
    "rowid": "1281179",
    "final_x": "3664428.62644",
    "final_y": "529872.842049",
    "longitude": "-90.12203079346006",
    "latitude": "29.95147381954102",
    "geocoded_column": {
      "latitude": "29.95147381954102",
      "longitude": "-90.12203079346006"
    }
  },
  {
    "service_request": "2026-1281178",
    "request_type": "Trash/Recycling",
    "request_reason": "Request a Large Item Pick Up",
    "date_created": "2026-05-13T16:22:44.000",
    "date_modified": "2026-05-13T16:22:46.000",
    "request_status": "Pending",
    "responsible_agency": "Department of Sanitation",
    "final_address": "3610 Blair St",
    "address_councildis": "C",
    "status": "Assigned to Contractor",
    "contractor": "Richards Disposal",
    "rowid": "1281178",
    "final_x": "3709359.50033",
    "final_y": "517511.029302",
    "longitude": "-89.98062308485541",
    "latitude": "29.91610071079664",
    "geocoded_column": {
      "latitude": "29.91610071079664",
      "longitude": "-89.98062308485541"
    }
  },
  {
    "service_request": "2026-1281177",
    "request_type": "Safety & Permits",
    "request_reason": "Licenses & Permits",
    "date_created": "2026-05-13T16:21:32.000",
    "date_modified": "2026-05-13T16:25:15.000",
    "request_status": "Pending",
    "responsible_agency": "Safety and Permits",
    "final_address": "7904 Sycamore St",
    "address_councildis": "A",
    "status": "Pending",
    "rowid": "1281177",
    "final_x": "3664829.7321",
    "final_y": "530466.127042",
    "longitude": "-90.12074446752874",
    "latitude": "29.953093495668554",
    "geocoded_column": {
      "latitude": "29.953093495668554",
      "longitude": "-90.12074446752874"
    }
  },
  {
    "service_request": "2026-1281176",
    "request_type": "Trash/Recycling",
    "request_reason": "Request a Large Item Pick Up",
    "date_created": "2026-05-13T16:21:03.000",
    "date_modified": "2026-05-13T16:21:04.000",
    "request_status": "Pending",
    "responsible_agency": "Department of Sanitation",
    "final_address": "8827 Plum St",
    "address_councildis": "A",
    "status": "Assigned to Contractor",
    "contractor": "IV Waste",
    "rowid": "1281176",
    "final_x": "3660211.39117",
    "final_y": "530491.026882",
    "longitude": "-90.13532643392307",
    "latitude": "29.953295540681772",
    "geocoded_column": {
      "latitude": "29.953295540681772",
      "longitude": "-90.13532643392307"
    }
  },
  {
    "service_request": "2026-1281175",
    "request_type": "Trash/Recycling",
    "request_reason": "Dead Animal Pick Up",
    "date_created": "2026-05-13T16:13:54.000",
    "date_modified": "2026-05-13T16:13:56.000",
    "request_status": "Pending",
    "responsible_agency": "Department of Sanitation",
    "final_address": "4627 Tchoupitoulas St",
    "address_councildis": "B",
    "status": "Assigned to Contractor",
    "contractor": "IV Waste",
    "rowid": "1281175",
    "final_x": "3670205.2562",
    "final_y": "517395.468085",
    "longitude": "-90.10421357100282",
    "latitude": "29.91699587982081",
    "geocoded_column": {
      "latitude": "29.91699587982081",
      "longitude": "-90.10421357100282"
    }
  },
  {
    "service_request": "2026-1281174",
    "request_type": "Property Maintenance",
    "request_reason": "Property Maintenance",
    "date_created": "2026-05-13T16:12:44.000",
    "date_modified": "2026-05-13T16:12:46.000",
    "request_status": "Pending",
    "responsible_agency": "Department of Code Enforcement",
    "final_address": "323 32Nd St",
    "address_councildis": "A",
    "status": "Pending",
    "rowid": "1281174",
    "final_x": "3665088.41223",
    "final_y": "550796.076949",
    "longitude": "-90.11924750010266",
    "latitude": "30.008986501490984",
    "geocoded_column": {
      "latitude": "30.008986501490984",
      "longitude": "-90.11924750010266"
    }
  },
  {
    "service_request": "2026-1281173",
    "request_type": "Trash/Recycling",
    "request_reason": "Replace Trash Cart",
    "date_created": "2026-05-13T16:09:37.000",
    "date_modified": "2026-05-13T16:09:44.000",
    "request_status": "Pending",
    "responsible_agency": "Department of Sanitation",
    "final_address": "717 Exposition Blvd",
    "address_councildis": "A",
    "status": "Assigned to Contractor",
    "contractor": "IV Waste",
    "rowid": "1281173",
    "final_x": "3663089.17517",
    "final_y": "519677.545464",
    "longitude": "-90.12659917420623",
    "latitude": "29.923478855535198",
    "geocoded_column": {
      "latitude": "29.923478855535198",
      "longitude": "-90.12659917420623"
    }
  },
  {
    "service_request": "2026-1281172",
    "request_type": "Roads and Streets",
    "request_reason": "Pothole",
    "date_created": "2026-05-13T16:05:40.000",
    "date_modified": "2026-05-13T16:05:41.000",
    "request_status": "Pending",
    "responsible_agency": "Department of Public Works",
    "final_address": "7612 Freret St",
    "address_councildis": "A",
    "status": "Pending",
    "rowid": "1281172",
    "final_x": "3662707.37658",
    "final_y": "526705.603454",
    "longitude": "-90.12757092424849",
    "latitude": "29.942814849039493",
    "geocoded_column": {
      "latitude": "29.942814849039493",
      "longitude": "-90.12757092424849"
    }
  },
  {
    "service_request": "2026-1281171",
    "request_type": "Trash/Recycling",
    "request_reason": "Request a Large Item Pick Up",
    "date_created": "2026-05-13T16:05:26.000",
    "date_modified": "2026-05-13T16:05:29.000",
    "request_status": "Pending",
    "responsible_agency": "Department of Sanitation",
    "final_address": "1034 Bartholomew St",
    "address_councildis": "C",
    "status": "Assigned to Contractor",
    "contractor": "IV Waste",
    "rowid": "1281171",
    "final_x": "3691732.74352",
    "final_y": "535153.542982",
    "longitude": "-90.03562918637327",
    "latitude": "29.965171998355768",
    "geocoded_column": {
      "latitude": "29.965171998355768",
      "longitude": "-90.03562918637327"
    }
  },
  {
    "service_request": "2026-1281170",
    "request_type": "Abandoned Vehicles",
    "request_reason": "Abandoned/Junk Vehicles",
    "date_created": "2026-05-13T16:02:10.000",
    "date_modified": "2026-05-13T16:02:14.000",
    "request_status": "Pending",
    "responsible_agency": "Department of Public Works",
    "final_address": "1410 Gallier St",
    "address_councildis": "C",
    "status": "Pending",
    "rowid": "1281170",
    "final_x": "3690730.80457",
    "final_y": "536849.39476",
    "longitude": "-90.0387327376208",
    "latitude": "29.969866157680997",
    "geocoded_column": {
      "latitude": "29.969866157680997",
      "longitude": "-90.0387327376208"
    }
  },
  {
    "service_request": "2026-1281169",
    "request_type": "Trash/Recycling",
    "request_reason": "Request a Large Item Pick Up",
    "date_created": "2026-05-13T16:01:44.000",
    "date_modified": "2026-05-13T16:01:48.000",
    "request_status": "Pending",
    "responsible_agency": "Department of Sanitation",
    "final_address": "7048 E Tamaron Blvd",
    "address_councildis": "E",
    "status": "Assigned to Contractor",
    "contractor": "Waste Pro",
    "rowid": "1281169",
    "final_x": "3718839.64863",
    "final_y": "568457.004517",
    "longitude": "-89.94875729945683",
    "latitude": "30.05587141583325",
    "geocoded_column": {
      "latitude": "30.05587141583325",
      "longitude": "-89.94875729945683"
    }
  },
  {
    "service_request": "2026-1281168",
    "request_type": "Trash/Recycling",
    "request_reason": "Return Recycling Cart",
    "date_created": "2026-05-13T15:57:22.000",
    "date_modified": "2026-05-13T15:57:24.000",
    "request_status": "Pending",
    "responsible_agency": "Department of Sanitation",
    "final_address": "6633 Elysian Fields Ave",
    "address_councildis": "D",
    "status": "Pending",
    "rowid": "1281168",
    "final_x": "3683413.43714",
    "final_y": "558080.720731",
    "longitude": "-90.06109717820851",
    "latitude": "30.028469989729516",
    "geocoded_column": {
      "latitude": "30.028469989729516",
      "longitude": "-90.06109717820851"
    }
  },
  {
    "service_request": "2026-1281167",
    "request_type": "Trash/Recycling",
    "request_reason": "Dead Animal Pick Up",
    "date_created": "2026-05-13T15:55:47.000",
    "date_modified": "2026-05-13T15:55:48.000",
    "request_status": "Pending",
    "responsible_agency": "Department of Sanitation",
    "final_address": "4215 Erato St",
    "address_councildis": "B",
    "status": "Assigned to Contractor",
    "contractor": "IV Waste",
    "rowid": "1281167",
    "final_x": "3671046.98926",
    "final_y": "531430.100483",
    "longitude": "-90.10108029922608",
    "latitude": "29.955561727695834",
    "geocoded_column": {
      "latitude": "29.955561727695834",
      "longitude": "-90.10108029922608"
    }
  },
  {
    "service_request": "2026-1281166",
    "request_type": "Trash/Recycling",
    "request_reason": "Request a Large Item Pick Up",
    "date_created": "2026-05-13T15:53:54.000",
    "date_modified": "2026-05-13T15:53:56.000",
    "request_status": "Pending",
    "responsible_agency": "Department of Sanitation",
    "final_address": "4421 Jeanne Marie Pl",
    "address_councildis": "D",
    "status": "Assigned to Contractor",
    "contractor": "IV Waste",
    "rowid": "1281166",
    "final_x": "3678598.1076",
    "final_y": "548758.849171",
    "longitude": "-90.07663644990112",
    "latitude": "30.00298434111791",
    "geocoded_column": {
      "latitude": "30.00298434111791",
      "longitude": "-90.07663644990112"
    }
  },
  {
    "service_request": "2026-1281165",
    "request_type": "Trash/Recycling",
    "request_reason": "Request a Large Item Pick Up",
    "date_created": "2026-05-13T15:53:02.000",
    "date_modified": "2026-05-13T15:53:03.000",
    "request_status": "Pending",
    "responsible_agency": "Department of Sanitation",
    "final_address": "1329 St Mary St",
    "address_councildis": "B",
    "status": "Assigned to Contractor",
    "contractor": "IV Waste",
    "rowid": "1281165",
    "final_x": "3679137.14562",
    "final_y": "523566.820347",
    "longitude": "-90.07580697604008",
    "latitude": "29.933698617667677",
    "geocoded_column": {
      "latitude": "29.933698617667677",
      "longitude": "-90.07580697604008"
    }
  },
  {
    "service_request": "2026-1281164",
    "request_type": "Trash/Recycling",
    "request_reason": "Order Second Trash Cart",
    "date_created": "2026-05-13T15:43:24.000",
    "date_modified": "2026-05-13T15:43:26.000",
    "request_status": "Pending",
    "responsible_agency": "Department of Sanitation",
    "final_address": "7523 Garnet St",
    "address_councildis": "D",
    "status": "Assigned to Contractor",
    "contractor": "IV Waste",
    "rowid": "1281164",
    "final_x": "3667495.46573",
    "final_y": "556600.97961",
    "longitude": "-90.11144722146112",
    "latitude": "30.024877589530465",
    "geocoded_column": {
      "latitude": "30.024877589530465",
      "longitude": "-90.11144722146112"
    }
  },
  {
    "service_request": "2026-1281163",
    "request_type": "Trash/Recycling",
    "request_reason": "Request a Large Item Pick Up",
    "date_created": "2026-05-13T15:43:01.000",
    "date_modified": "2026-05-13T15:43:03.000",
    "request_status": "Pending",
    "responsible_agency": "Department of Sanitation",
    "final_address": "7136 Deanne St",
    "address_councildis": "D",
    "status": "Assigned to Contractor",
    "contractor": "Waste Pro",
    "rowid": "1281163",
    "final_x": "3695424.8616",
    "final_y": "556817.892314",
    "longitude": "-90.02318748657926",
    "latitude": "30.024625520523735",
    "geocoded_column": {
      "latitude": "30.024625520523735",
      "longitude": "-90.02318748657926"
    }
  },
  {
    "service_request": "2026-1281162",
    "request_type": "Trash/Recycling",
    "request_reason": "Replace Trash Cart",
    "date_created": "2026-05-13T15:42:25.000",
    "date_modified": "2026-05-13T15:42:27.000",
    "request_status": "Pending",
    "responsible_agency": "Department of Sanitation",
    "final_address": "5050 Michoud Blvd",
    "address_councildis": "E",
    "status": "Assigned to Contractor",
    "contractor": "Waste Pro",
    "rowid": "1281162",
    "final_x": "3724727.00812",
    "final_y": "562035.616031",
    "longitude": "-89.93039719986253",
    "latitude": "30.038018346263108",
    "geocoded_column": {
      "latitude": "30.038018346263108",
      "longitude": "-89.93039719986253"
    }
  },
  {
    "service_request": "2026-1281161",
    "request_type": "Trash/Recycling",
    "request_reason": "Order Trash Cart",
    "date_created": "2026-05-13T15:38:24.000",
    "date_modified": "2026-05-13T15:38:25.000",
    "request_status": "Pending",
    "responsible_agency": "Department of Sanitation",
    "final_address": "7523 Garnet St",
    "address_councildis": "D",
    "status": "Assigned to Contractor",
    "contractor": "IV Waste",
    "rowid": "1281161",
    "final_x": "3667495.46573",
    "final_y": "556600.97961",
    "longitude": "-90.11144722146112",
    "latitude": "30.024877589530465",
    "geocoded_column": {
      "latitude": "30.024877589530465",
      "longitude": "-90.11144722146112"
    }
  },
  {
    "service_request": "2026-1281160",
    "request_type": "Trash/Recycling",
    "request_reason": "Request a Large Item Pick Up",
    "date_created": "2026-05-13T15:37:53.000",
    "date_modified": "2026-05-13T15:37:55.000",
    "request_status": "Pending",
    "responsible_agency": "Department of Sanitation",
    "final_address": "6944 Cove Dr",
    "address_councildis": "E",
    "status": "Assigned to Contractor",
    "contractor": "Waste Pro",
    "rowid": "1281160",
    "final_x": "3700369.19677",
    "final_y": "558090.628827",
    "longitude": "-90.00751780401639",
    "latitude": "30.02796868450283",
    "geocoded_column": {
      "latitude": "30.02796868450283",
      "longitude": "-90.00751780401639"
    }
  },
  {
    "service_request": "2026-1281159",
    "request_type": "Streetlights",
    "request_reason": "Streetlight Outage/Malfunction",
    "date_created": "2026-05-13T15:34:12.000",
    "date_modified": "2026-05-13T15:35:01.000",
    "request_status": "Pending",
    "responsible_agency": "Department of Public Works",
    "final_address": "749 Louisiana Ave",
    "address_councildis": "B",
    "status": "Pending",
    "rowid": "1281159",
    "final_x": "3675664.87477",
    "final_y": "518597.868919",
    "longitude": "-90.08693940797401",
    "latitude": "29.920139934928475",
    "geocoded_column": {
      "latitude": "29.920139934928475",
      "longitude": "-90.08693940797401"
    }
  },
  {
    "service_request": "2026-1281158",
    "request_type": "Trash/Recycling",
    "request_reason": "Request a Large Item Pick Up",
    "date_created": "2026-05-13T15:33:22.000",
    "date_modified": "2026-05-13T15:33:23.000",
    "request_status": "Pending",
    "responsible_agency": "Department of Sanitation",
    "final_address": "416 Pacific Ave",
    "address_councildis": "C",
    "status": "Assigned to Contractor",
    "contractor": "Richards Disposal",
    "rowid": "1281158",
    "final_x": "3688568.20207",
    "final_y": "530148.062913",
    "longitude": "-90.04580022614276",
    "latitude": "29.951506827836663",
    "geocoded_column": {
      "latitude": "29.951506827836663",
      "longitude": "-90.04580022614276"
    }
  },
  {
    "service_request": "2026-1281157",
    "request_type": "General Services",
    "request_reason": "General Service Request",
    "date_created": "2026-05-13T15:32:55.000",
    "date_modified": "2026-05-13T15:53:24.000",
    "case_close_date": "2026-05-13T10:53:22.000",
    "request_status": "Closed",
    "responsible_agency": "Orleans Parish Communication District",
    "final_address": "6060 General Diaz St",
    "address_councildis": "A",
    "status": "Referred to External Agency",
    "rowid": "1281157",
    "final_x": "3669458.41582",
    "final_y": "547663.454802",
    "longitude": "-90.10554720969489",
    "latitude": "30.000244843672473",
    "geocoded_column": {
      "latitude": "30.000244843672473",
      "longitude": "-90.10554720969489"
    }
  },
  {
    "service_request": "2026-1281156",
    "request_type": "Trash/Recycling",
    "request_reason": "Illegal Dumping",
    "date_created": "2026-05-13T15:30:05.000",
    "date_modified": "2026-05-13T15:30:07.000",
    "request_status": "Pending",
    "responsible_agency": "Department of Sanitation",
    "final_address": "923 Nunez St",
    "address_councildis": "C",
    "status": "Pending",
    "rowid": "1281156",
    "final_x": "3686903.88738",
    "final_y": "528062.896063",
    "longitude": "-90.05112898502138",
    "latitude": "29.945824647201132",
    "geocoded_column": {
      "latitude": "29.945824647201132",
      "longitude": "-90.05112898502138"
    }
  },
  {
    "service_request": "2026-1281155",
    "request_type": "Trash/Recycling",
    "request_reason": "Illegal Dumping",
    "date_created": "2026-05-13T15:07:59.000",
    "date_modified": "2026-05-13T15:08:00.000",
    "request_status": "Pending",
    "responsible_agency": "Department of Sanitation",
    "final_address": "ABUNDANCE ST & EADS ST",
    "address_councildis": "D",
    "status": "Pending",
    "rowid": "1281155",
    "final_x": "3687686.8",
    "final_y": "543929.58",
    "longitude": "-90.0480951662873",
    "latitude": "29.989428376781262",
    "geocoded_column": {
      "latitude": "29.989428376781262",
      "longitude": "-90.0480951662873"
    }
  },
  {
    "service_request": "2026-1281154",
    "request_type": "Trash/Recycling",
    "request_reason": "Replace Trash Cart",
    "date_created": "2026-05-13T15:07:51.000",
    "date_modified": "2026-05-13T15:07:52.000",
    "request_status": "Pending",
    "responsible_agency": "Department of Sanitation",
    "final_address": "1335 Elysian Fields Ave",
    "address_councildis": "C",
    "status": "Assigned to Contractor",
    "contractor": "IV Waste",
    "rowid": "1281154",
    "final_x": "3685058.5645",
    "final_y": "537322.21236",
    "longitude": "-90.05662953943244",
    "latitude": "29.97134123802114",
    "geocoded_column": {
      "latitude": "29.97134123802114",
      "longitude": "-90.05662953943244"
    }
  },
  {
    "service_request": "2026-1281153",
    "request_type": "Tree Service",
    "request_reason": "Tree Trim",
    "date_created": "2026-05-13T15:07:47.000",
    "date_modified": "2026-05-13T15:07:48.000",
    "request_status": "Pending",
    "responsible_agency": "Department of Parks & Parkways",
    "final_address": "9121 S Claiborne Ave",
    "address_councildis": "A",
    "status": "Pending",
    "rowid": "1281153",
    "final_x": "3662054.6297",
    "final_y": "534103.914117",
    "longitude": "-90.12938638450127",
    "latitude": "29.96317668999553",
    "geocoded_column": {
      "latitude": "29.96317668999553",
      "longitude": "-90.12938638450127"
    }
  },
  {
    "service_request": "2026-1281152",
    "request_type": "Trash/Recycling",
    "request_reason": "Request a Large Item Pick Up",
    "date_created": "2026-05-13T15:07:39.000",
    "date_modified": "2026-05-13T15:07:40.000",
    "request_status": "Pending",
    "responsible_agency": "Department of Sanitation",
    "final_address": "7301 Edward St",
    "address_councildis": "E",
    "status": "Assigned to Contractor",
    "contractor": "Waste Pro",
    "rowid": "1281152",
    "final_x": "3701471.24055",
    "final_y": "559947.994717",
    "longitude": "-90.00396734997452",
    "latitude": "30.033040613632416",
    "geocoded_column": {
      "latitude": "30.033040613632416",
      "longitude": "-90.00396734997452"
    }
  },
  {
    "service_request": "2026-1281151",
    "request_type": "Trash/Recycling",
    "request_reason": "Repair Trash Cart",
    "date_created": "2026-05-13T15:06:05.000",
    "date_modified": "2026-05-13T15:06:06.000",
    "request_status": "Pending",
    "responsible_agency": "Department of Sanitation",
    "final_address": "5715 Magazine St",
    "address_councildis": "A",
    "status": "Assigned to Contractor",
    "contractor": "IV Waste",
    "rowid": "1281151",
    "final_x": "3665698.22804",
    "final_y": "519001.457015",
    "longitude": "-90.11838596266655",
    "latitude": "29.921544013628047",
    "geocoded_column": {
      "latitude": "29.921544013628047",
      "longitude": "-90.11838596266655"
    }
  },
  {
    "service_request": "2026-1281150",
    "request_type": "Trash/Recycling",
    "request_reason": "Return Trash Cart",
    "date_created": "2026-05-13T15:06:00.000",
    "date_modified": "2026-05-13T15:06:02.000",
    "request_status": "Pending",
    "responsible_agency": "Department of Sanitation",
    "final_address": "5020 N Robertson St",
    "address_councildis": "E",
    "status": "Assigned to Contractor",
    "contractor": "Waste Pro",
    "rowid": "1281150",
    "final_x": "3696495.05815",
    "final_y": "535690.174407",
    "longitude": "-90.02057071863108",
    "latitude": "29.966498382206467",
    "geocoded_column": {
      "latitude": "29.966498382206467",
      "longitude": "-90.02057071863108"
    }
  },
  {
    "service_request": "2026-1281149",
    "request_type": "Property Maintenance",
    "request_reason": "Property Maintenance",
    "date_created": "2026-05-13T14:58:27.000",
    "date_modified": "2026-05-13T15:11:29.000",
    "case_close_date": "2026-05-13T10:11:28.000",
    "request_status": "Closed",
    "responsible_agency": "Department of Code Enforcement",
    "final_address": "1900 Bayou Rd",
    "address_councildis": "C",
    "status": "Referred to Code Enforcement",
    "rowid": "1281149",
    "final_x": "3680451.04111",
    "final_y": "536757.633672",
    "longitude": "-90.07120038394656",
    "latitude": "29.969929196549963",
    "geocoded_column": {
      "latitude": "29.969929196549963",
      "longitude": "-90.07120038394656"
    }
  },
  {
    "service_request": "2026-1281148",
    "request_type": "Streetlights",
    "request_reason": "Streetlight Outage/Malfunction",
    "date_created": "2026-05-13T14:58:25.000",
    "date_modified": "2026-05-13T15:07:04.000",
    "request_status": "Pending",
    "responsible_agency": "Department of Public Works",
    "final_address": "16080 Chef Menteur Hwy",
    "address_councildis": "E",
    "status": "Pending",
    "rowid": "1281148",
    "final_x": "3737258.72641",
    "final_y": "564923.07133",
    "longitude": "-89.89067965707169",
    "latitude": "30.045529779210423",
    "geocoded_column": {
      "latitude": "30.045529779210423",
      "longitude": "-89.89067965707169"
    }
  },
  {
    "service_request": "2026-1281147",
    "request_type": "Streetlights",
    "request_reason": "Streetlight Outage/Malfunction",
    "date_created": "2026-05-13T14:55:39.000",
    "date_modified": "2026-05-13T15:06:54.000",
    "request_status": "Pending",
    "responsible_agency": "Department of Public Works",
    "final_address": "CADIZ ST & S SARATOGA ST",
    "address_councildis": "B",
    "status": "Pending",
    "rowid": "1281147",
    "final_x": "3669920.7",
    "final_y": "522575.28",
    "longitude": "-90.1049364763603",
    "latitude": "29.931247105723827",
    "geocoded_column": {
      "latitude": "29.931247105723827",
      "longitude": "-90.1049364763603"
    }
  },
  {
    "service_request": "2026-1281146",
    "request_type": "Trash/Recycling",
    "request_reason": "Request a Large Item Pick Up",
    "date_created": "2026-05-13T14:55:00.000",
    "date_modified": "2026-05-13T14:55:02.000",
    "request_status": "Pending",
    "responsible_agency": "Department of Sanitation",
    "final_address": "4752 Stemway Dr",
    "address_councildis": "D",
    "status": "Assigned to Contractor",
    "contractor": "Waste Pro",
    "rowid": "1281146",
    "final_x": "3696832.91613",
    "final_y": "554325.992728",
    "longitude": "-90.01882862946282",
    "latitude": "30.017729398383715",
    "geocoded_column": {
      "latitude": "30.017729398383715",
      "longitude": "-90.01882862946282"
    }
  },
  {
    "service_request": "2026-1281145",
    "request_type": "Trash/Recycling",
    "request_reason": "Repair Recycling Cart",
    "date_created": "2026-05-13T14:51:47.000",
    "date_modified": "2026-05-13T14:51:48.000",
    "request_status": "Pending",
    "responsible_agency": "Department of Sanitation",
    "final_address": "7126 Tudor Ct",
    "address_councildis": "E",
    "status": "Pending",
    "rowid": "1281145",
    "final_x": "3703643.1107",
    "final_y": "559711.353629",
    "longitude": "-89.99711280595065",
    "latitude": "30.03232048099165",
    "geocoded_column": {
      "latitude": "30.03232048099165",
      "longitude": "-89.99711280595065"
    }
  },
  {
    "service_request": "2026-1281144",
    "request_type": "Abandoned Vehicles",
    "request_reason": "Abandoned/Junk Vehicles",
    "date_created": "2026-05-13T14:50:44.000",
    "date_modified": "2026-05-13T14:50:45.000",
    "request_status": "Pending",
    "responsible_agency": "Department of Public Works",
    "final_address": "13692 N Lemans St",
    "address_councildis": "E",
    "status": "Pending",
    "rowid": "1281144",
    "final_x": "3726483.23488",
    "final_y": "563515.128352",
    "longitude": "-89.92478968720184",
    "latitude": "30.042027150922536",
    "geocoded_column": {
      "latitude": "30.042027150922536",
      "longitude": "-89.92478968720184"
    }
  },
  {
    "service_request": "2026-1281143",
    "request_type": "Trash/Recycling",
    "request_reason": "Order Trash Cart",
    "date_created": "2026-05-13T14:49:47.000",
    "date_modified": "2026-05-13T14:49:50.000",
    "request_status": "Pending",
    "responsible_agency": "Department of Sanitation",
    "final_address": "2659 Abundance St",
    "address_councildis": "D",
    "status": "Assigned to Contractor",
    "contractor": "IV Waste",
    "rowid": "1281143",
    "final_x": "3687903.42102",
    "final_y": "543988.602638",
    "longitude": "-90.04740883199392",
    "latitude": "29.98958398519573",
    "geocoded_column": {
      "latitude": "29.98958398519573",
      "longitude": "-90.04740883199392"
    }
  },
  {
    "service_request": "2026-1281142",
    "request_type": "Trash/Recycling",
    "request_reason": "Request a Large Item Pick Up",
    "date_created": "2026-05-13T14:47:20.000",
    "date_modified": "2026-05-13T14:47:25.000",
    "request_status": "Pending",
    "responsible_agency": "Department of Sanitation",
    "final_address": "5863 W Deer Park Blvd",
    "address_councildis": "E",
    "status": "Assigned to Contractor",
    "contractor": "Waste Pro",
    "rowid": "1281142",
    "final_x": "3712158.8709",
    "final_y": "561075.370206",
    "longitude": "-89.97015138549567",
    "latitude": "30.035795178363028",
    "geocoded_column": {
      "latitude": "30.035795178363028",
      "longitude": "-89.97015138549567"
    }
  },
  {
    "service_request": "2026-1281141",
    "request_type": "Abandoned Vehicles",
    "request_reason": "Abandoned/Junk Vehicles",
    "date_created": "2026-05-13T14:46:39.000",
    "date_modified": "2026-05-13T14:46:44.000",
    "request_status": "Pending",
    "responsible_agency": "Department of Public Works",
    "final_address": "10711 Roger Dr",
    "address_councildis": "E",
    "status": "Pending",
    "rowid": "1281141",
    "final_x": "3711499.38949",
    "final_y": "563015.309152",
    "longitude": "-89.97216261988419",
    "latitude": "30.0411507909693",
    "geocoded_column": {
      "latitude": "30.0411507909693",
      "longitude": "-89.97216261988419"
    }
  },
  {
    "service_request": "2026-1281140",
    "request_type": "Trash/Recycling",
    "request_reason": "Request a Large Item Pick Up",
    "date_created": "2026-05-13T14:43:56.000",
    "date_modified": "2026-05-13T14:44:01.000",
    "request_status": "Pending",
    "responsible_agency": "Department of Sanitation",
    "final_address": "10 Grand Cypress Ct",
    "address_councildis": "C",
    "status": "Assigned to Contractor",
    "contractor": "Richards Disposal",
    "rowid": "1281140",
    "final_x": "3721914.86028",
    "final_y": "513458.563442",
    "longitude": "-89.94114937180443",
    "latitude": "29.9045443523398",
    "geocoded_column": {
      "latitude": "29.9045443523398",
      "longitude": "-89.94114937180443"
    }
  },
  {
    "service_request": "2026-1281139",
    "request_type": "Trash/Recycling",
    "request_reason": "Order Trash Cart",
    "date_created": "2026-05-13T14:38:09.000",
    "date_modified": "2026-05-13T14:38:11.000",
    "request_status": "Pending",
    "responsible_agency": "Department of Sanitation",
    "final_address": "5908 Dauphine St",
    "address_councildis": "E",
    "status": "Assigned to Contractor",
    "contractor": "Waste Pro",
    "rowid": "1281139",
    "final_x": "3698666.5361",
    "final_y": "532342.435587",
    "longitude": "-90.01383500196762",
    "latitude": "29.95722470806339",
    "geocoded_column": {
      "latitude": "29.95722470806339",
      "longitude": "-90.01383500196762"
    }
  },
  {
    "service_request": "2026-1281138",
    "request_type": "Traffic Signals",
    "request_reason": "Traffic Signal Malfunctioning or Damaged",
    "date_created": "2026-05-13T14:31:17.000",
    "date_modified": "2026-05-13T14:31:18.000",
    "request_status": "Pending",
    "responsible_agency": "Department of Public Works",
    "final_address": "HOWARD AVE & CARONDELET ST",
    "address_councildis": "B",
    "status": "Pending",
    "rowid": "1281138",
    "final_x": "3679806.8",
    "final_y": "527370.68",
    "longitude": "-90.07356088460058",
    "latitude": "29.944137745964156",
    "geocoded_column": {
      "latitude": "29.944137745964156",
      "longitude": "-90.07356088460058"
    }
  },
  {
    "service_request": "2026-1281137",
    "request_type": "Abandoned Vehicles",
    "request_reason": "Abandoned/Junk Vehicles",
    "date_created": "2026-05-13T14:29:18.000",
    "date_modified": "2026-05-13T14:29:20.000",
    "request_status": "Pending",
    "responsible_agency": "Department of Public Works",
    "final_address": "228 N Alexander St",
    "address_councildis": "A",
    "status": "Pending",
    "rowid": "1281137",
    "final_x": "3670438.55406",
    "final_y": "539679.839242",
    "longitude": "-90.10272175529498",
    "latitude": "29.978263728124162",
    "geocoded_column": {
      "latitude": "29.978263728124162",
      "longitude": "-90.10272175529498"
    }
  },
  {
    "service_request": "2026-1281136",
    "request_type": "Trash/Recycling",
    "request_reason": "Repair Trash Cart",
    "date_created": "2026-05-13T14:21:50.000",
    "date_modified": "2026-05-13T14:21:52.000",
    "request_status": "Pending",
    "responsible_agency": "Department of Sanitation",
    "final_address": "6001 Marigny St, New Orleans, Louisiana, 70122",
    "address_councildis": "D",
    "status": "Assigned to Contractor",
    "contractor": "IV Waste",
    "rowid": "1281136",
    "final_x": "3683950.51241",
    "final_y": "555032.425497",
    "longitude": "-90.0595071329762",
    "latitude": "30.02007189662954",
    "geocoded_column": {
      "latitude": "30.02007189662954",
      "longitude": "-90.0595071329762"
    }
  },
  {
    "service_request": "2026-1281135",
    "request_type": "Trash/Recycling",
    "request_reason": "Request a Large Item Pick Up",
    "date_created": "2026-05-13T14:14:24.000",
    "date_modified": "2026-05-13T14:14:27.000",
    "request_status": "Pending",
    "responsible_agency": "Department of Sanitation",
    "final_address": "4827 Friar Tuck Dr",
    "address_councildis": "E",
    "status": "Assigned to Contractor",
    "contractor": "Waste Pro",
    "rowid": "1281135",
    "final_x": "3717786.22969",
    "final_y": "557399.841179",
    "longitude": "-89.95250809430375",
    "latitude": "30.025503670340008",
    "geocoded_column": {
      "latitude": "30.025503670340008",
      "longitude": "-89.95250809430375"
    }
  },
  {
    "service_request": "2026-1281134",
    "request_type": "Drainage",
    "request_reason": "Drainage Manhole Cover Missing or Damaged",
    "date_created": "2026-05-13T14:09:55.000",
    "date_modified": "2026-05-13T14:09:57.000",
    "request_status": "Pending",
    "responsible_agency": "Sewerage & Water Board",
    "final_address": "1706 Thayer St",
    "address_councildis": "C",
    "status": "Pending",
    "rowid": "1281134",
    "final_x": "3689386.19299",
    "final_y": "525244.191933",
    "longitude": "-90.04339172960097",
    "latitude": "29.937997559529084",
    "geocoded_column": {
      "latitude": "29.937997559529084",
      "longitude": "-90.04339172960097"
    }
  },
  {
    "service_request": "2026-1281133",
    "request_type": "Property Maintenance",
    "request_reason": "Property Maintenance",
    "date_created": "2026-05-13T14:08:35.000",
    "date_modified": "2026-05-13T14:22:21.000",
    "case_close_date": "2026-05-13T09:22:20.000",
    "request_status": "Closed",
    "responsible_agency": "Department of Code Enforcement",
    "final_address": "3423 Johnny Jackson Jr Blvd",
    "address_councildis": "D",
    "status": "Referred to Code Enforcement",
    "rowid": "1281133",
    "final_x": "3691982.86755",
    "final_y": "545117.837775",
    "longitude": "-90.03448262552529",
    "latitude": "29.99256245852003",
    "geocoded_column": {
      "latitude": "29.99256245852003",
      "longitude": "-90.03448262552529"
    }
  },
  {
    "service_request": "2026-1281132",
    "request_type": "Streetlights",
    "request_reason": "Streetlight Outage/Malfunction",
    "date_created": "2026-05-13T14:08:34.000",
    "date_modified": "2026-05-13T14:08:35.000",
    "request_status": "Pending",
    "responsible_agency": "Department of Public Works",
    "final_address": "1869 N Miro St",
    "address_councildis": "D",
    "status": "Pending",
    "rowid": "1281132",
    "final_x": "3682305.43324",
    "final_y": "540216.509003",
    "longitude": "-90.06522314919813",
    "latitude": "29.9793836079451",
    "geocoded_column": {
      "latitude": "29.9793836079451",
      "longitude": "-90.06522314919813"
    }
  },
  {
    "service_request": "2026-1281131",
    "request_type": "Tree Service",
    "request_reason": "Dead or Dying Tree",
    "date_created": "2026-05-13T14:07:25.000",
    "date_modified": "2026-05-13T14:07:28.000",
    "request_status": "Pending",
    "responsible_agency": "Department of Parks & Parkways",
    "final_address": "3434 Somerset Dr",
    "address_councildis": "C",
    "status": "Pending",
    "rowid": "1281131",
    "final_x": "3702579.13572",
    "final_y": "518415.001206",
    "longitude": "-90.00199127862487",
    "latitude": "29.918804679190607",
    "geocoded_column": {
      "latitude": "29.918804679190607",
      "longitude": "-90.00199127862487"
    }
  },
  {
    "service_request": "2026-1281130",
    "request_type": "Trash/Recycling",
    "request_reason": "Missed Trash Pick-Up",
    "date_created": "2026-05-13T14:02:53.000",
    "date_modified": "2026-05-13T15:00:02.000",
    "case_close_date": "2026-05-13T10:00:00.000",
    "request_status": "Closed",
    "responsible_agency": "Department of Sanitation",
    "final_address": "1520 Josephine St",
    "address_councildis": "B",
    "status": "Invalid Request",
    "contractor": "IV Waste",
    "contractor_action": "Invalid Request",
    "rowid": "1281130",
    "final_x": "3678097.50165",
    "final_y": "523637.610043",
    "longitude": "-90.07908663532646",
    "latitude": "29.93392459832568",
    "geocoded_column": {
      "latitude": "29.93392459832568",
      "longitude": "-90.07908663532646"
    }
  },
  {
    "service_request": "2026-1281129",
    "request_type": "Trash/Recycling",
    "request_reason": "Request a Large Item Pick Up",
    "date_created": "2026-05-13T13:58:29.000",
    "date_modified": "2026-05-13T13:58:31.000",
    "request_status": "Pending",
    "responsible_agency": "Department of Sanitation",
    "final_address": "11449 Curran Rd",
    "address_councildis": "E",
    "status": "Assigned to Contractor",
    "contractor": "Waste Pro",
    "rowid": "1281129",
    "final_x": "3711684.85419",
    "final_y": "566967.995556",
    "longitude": "-89.97142801849492",
    "latitude": "30.052013023515222",
    "geocoded_column": {
      "latitude": "30.052013023515222",
      "longitude": "-89.97142801849492"
    }
  },
  {
    "service_request": "2026-1281128",
    "request_type": "Trash/Recycling",
    "request_reason": "Request a Large Item Pick Up",
    "date_created": "2026-05-13T13:55:21.000",
    "date_modified": "2026-05-13T13:55:22.000",
    "request_status": "Pending",
    "responsible_agency": "Department of Sanitation",
    "final_address": "2036 Broadway St",
    "address_councildis": "A",
    "status": "Assigned to Contractor",
    "contractor": "IV Waste",
    "rowid": "1281128",
    "final_x": "3665879.02426",
    "final_y": "529143.662848",
    "longitude": "-90.11747555667735",
    "latitude": "29.94942657399547",
    "geocoded_column": {
      "latitude": "29.94942657399547",
      "longitude": "-90.11747555667735"
    }
  },
  {
    "service_request": "2026-1281127",
    "request_type": "Trash/Recycling",
    "request_reason": "Start Trash Service",
    "date_created": "2026-05-13T13:53:06.000",
    "date_modified": "2026-05-13T13:53:08.000",
    "request_status": "Pending",
    "responsible_agency": "Department of Sanitation",
    "final_address": "7001 Magazine St",
    "address_councildis": "A",
    "status": "Assigned to Contractor",
    "contractor": "IV Waste",
    "rowid": "1281127",
    "final_x": "3661318.88512",
    "final_y": "520943.239417",
    "longitude": "-90.13214546625176",
    "latitude": "29.92701026519963",
    "geocoded_column": {
      "latitude": "29.92701026519963",
      "longitude": "-90.13214546625176"
    }
  },
  {
    "service_request": "2026-1281126",
    "request_type": "Trash/Recycling",
    "request_reason": "Request a Large Item Pick Up",
    "date_created": "2026-05-13T13:52:02.000",
    "date_modified": "2026-05-13T13:52:04.000",
    "request_status": "Pending",
    "responsible_agency": "Department of Sanitation",
    "final_address": "5 Admiralty Ct",
    "address_councildis": "C",
    "status": "Assigned to Contractor",
    "contractor": "Richards Disposal",
    "rowid": "1281126",
    "final_x": "3703892.78468",
    "final_y": "522627.972986",
    "longitude": "-89.99768979578106",
    "latitude": "29.93034685615282",
    "geocoded_column": {
      "latitude": "29.93034685615282",
      "longitude": "-89.99768979578106"
    }
  },
  {
    "service_request": "2026-1281125",
    "request_type": "Trash/Recycling",
    "request_reason": "Request a Large Item Pick Up",
    "date_created": "2026-05-13T13:50:03.000",
    "date_modified": "2026-05-13T13:50:04.000",
    "request_status": "Pending",
    "responsible_agency": "Department of Sanitation",
    "final_address": "2668 Hudson Pl",
    "address_councildis": "C",
    "status": "Assigned to Contractor",
    "contractor": "Richards Disposal",
    "rowid": "1281125",
    "final_x": "3703445.19575",
    "final_y": "520970.550137",
    "longitude": "-89.99916367544786",
    "latitude": "29.925803857921778",
    "geocoded_column": {
      "latitude": "29.925803857921778",
      "longitude": "-89.99916367544786"
    }
  },
  {
    "service_request": "2026-1281124",
    "request_type": "Trash/Recycling",
    "request_reason": "Damaged Caused By Contractor",
    "date_created": "2026-05-13T13:49:14.000",
    "date_modified": "2026-05-13T13:49:16.000",
    "request_status": "Pending",
    "responsible_agency": "Department of Sanitation",
    "final_address": "207 Norland Ave",
    "address_councildis": "C",
    "status": "Assigned to Contractor",
    "contractor": "Richards Disposal",
    "rowid": "1281124",
    "final_x": "3706368.79063",
    "final_y": "520328.73708",
    "longitude": "-89.9899585925437",
    "latitude": "29.923945170599215",
    "geocoded_column": {
      "latitude": "29.923945170599215",
      "longitude": "-89.9899585925437"
    }
  },
  {
    "service_request": "2026-1281123",
    "request_type": "General Services",
    "request_reason": "General Service Request",
    "date_created": "2026-05-13T13:46:56.000",
    "date_modified": "2026-05-13T13:48:43.000",
    "case_close_date": "2026-05-13T08:48:42.000",
    "request_status": "Closed",
    "responsible_agency": "Orleans Parish Communication District",
    "final_address": "1902 St Bernard Ave",
    "address_councildis": "D",
    "status": "Referred to External Agency",
    "rowid": "1281123",
    "final_x": "3681524.95215",
    "final_y": "538843.166921",
    "longitude": "-90.06773612470646",
    "latitude": "29.975631122228073",
    "geocoded_column": {
      "latitude": "29.975631122228073",
      "longitude": "-90.06773612470646"
    }
  },
  {
    "service_request": "2026-1281122",
    "request_type": "Trash/Recycling",
    "request_reason": "Request a Large Item Pick Up",
    "date_created": "2026-05-13T13:43:12.000",
    "date_modified": "2026-05-13T13:53:21.000",
    "request_status": "Pending",
    "responsible_agency": "Department of Sanitation",
    "final_address": "2518 S Galvez St",
    "address_councildis": "B",
    "status": "Assigned to Contractor",
    "contractor": "IV Waste",
    "rowid": "1281122",
    "final_x": "3672891.36417",
    "final_y": "528501.233472",
    "longitude": "-90.09535633219392",
    "latitude": "29.947453643618978",
    "geocoded_column": {
      "latitude": "29.947453643618978",
      "longitude": "-90.09535633219392"
    }
  },
  {
    "service_request": "2026-1281121",
    "request_type": "Streetlights",
    "request_reason": "Streetlight Outage/Malfunction",
    "date_created": "2026-05-13T13:42:20.000",
    "date_modified": "2026-05-13T13:42:22.000",
    "request_status": "Pending",
    "responsible_agency": "Department of Public Works",
    "final_address": "2234 S Liberty St",
    "address_councildis": "B",
    "status": "Pending",
    "rowid": "1281121",
    "final_x": "3675812.47848",
    "final_y": "525586.703805",
    "longitude": "-90.08623339397248",
    "latitude": "29.939352545407385",
    "geocoded_column": {
      "latitude": "29.939352545407385",
      "longitude": "-90.08623339397248"
    }
  },
  {
    "service_request": "2026-1281120",
    "request_type": "Roads and Streets",
    "request_reason": "Pothole",
    "date_created": "2026-05-13T13:39:41.000",
    "date_modified": "2026-05-13T13:39:43.000",
    "request_status": "Pending",
    "responsible_agency": "Department of Public Works",
    "final_address": "4517 Walmsley Ave",
    "address_councildis": "B",
    "status": "Pending",
    "rowid": "1281120",
    "final_x": "3669219.16814",
    "final_y": "530349.47501",
    "longitude": "-90.10688844384929",
    "latitude": "29.952644285187354",
    "geocoded_column": {
      "latitude": "29.952644285187354",
      "longitude": "-90.10688844384929"
    }
  },
  {
    "service_request": "2026-1281119",
    "request_type": "Trash/Recycling",
    "request_reason": "Damaged Caused By Contractor",
    "date_created": "2026-05-13T13:39:12.000",
    "date_modified": "2026-05-13T13:39:14.000",
    "request_status": "Pending",
    "responsible_agency": "Department of Sanitation",
    "final_address": "1641 Pace Blvd",
    "address_councildis": "C",
    "status": "Assigned to Contractor",
    "contractor": "Richards Disposal",
    "rowid": "1281119",
    "final_x": "3694277.49059",
    "final_y": "525046.373245",
    "longitude": "-90.02795666727418",
    "latitude": "29.937301311382637",
    "geocoded_column": {
      "latitude": "29.937301311382637",
      "longitude": "-90.02795666727418"
    }
  },
  {
    "service_request": "2026-1281118",
    "request_type": "Trash/Recycling",
    "request_reason": "Request a Large Item Pick Up",
    "date_created": "2026-05-13T13:35:02.000",
    "date_modified": "2026-05-13T13:35:04.000",
    "request_status": "Pending",
    "responsible_agency": "Department of Sanitation",
    "final_address": "8000 Sycamore St",
    "address_councildis": "A",
    "status": "Assigned to Contractor",
    "contractor": "IV Waste",
    "rowid": "1281118",
    "final_x": "3664607.50567",
    "final_y": "530664.58669",
    "longitude": "-90.12143953698366",
    "latitude": "29.95364565988401",
    "geocoded_column": {
      "latitude": "29.95364565988401",
      "longitude": "-90.12143953698366"
    }
  },
  {
    "service_request": "2026-1281117",
    "request_type": "Trash/Recycling",
    "request_reason": "Replace Trash Cart",
    "date_created": "2026-05-13T13:34:10.000",
    "date_modified": "2026-05-13T13:34:12.000",
    "request_status": "Pending",
    "responsible_agency": "Department of Sanitation",
    "final_address": "6821 West End Blvd",
    "address_councildis": "A",
    "status": "Assigned to Contractor",
    "contractor": "IV Waste",
    "rowid": "1281117",
    "final_x": "3666806.42145",
    "final_y": "552926.036247",
    "longitude": "-90.11374809282636",
    "latitude": "30.014792979639804",
    "geocoded_column": {
      "latitude": "30.014792979639804",
      "longitude": "-90.11374809282636"
    }
  },
  {
    "service_request": "2026-1281116",
    "request_type": "Trash/Recycling",
    "request_reason": "MIssed Recycling Pick-Up",
    "date_created": "2026-05-13T13:32:25.000",
    "date_modified": "2026-05-13T13:32:27.000",
    "request_status": "Pending",
    "responsible_agency": "Department of Sanitation",
    "final_address": "4666 Wright Rd",
    "address_councildis": "E",
    "status": "Assigned to Contractor",
    "contractor": "Waste Pro",
    "rowid": "1281116",
    "final_x": "3716642.70572",
    "final_y": "556596.133658",
    "longitude": "-89.95615194640757",
    "latitude": "30.023331635882133",
    "geocoded_column": {
      "latitude": "30.023331635882133",
      "longitude": "-89.95615194640757"
    }
  },
  {
    "service_request": "2026-1281115",
    "request_type": "Trash/Recycling",
    "request_reason": "Request a Large Item Pick Up",
    "date_created": "2026-05-13T13:32:23.000",
    "date_modified": "2026-05-13T13:32:25.000",
    "request_status": "Pending",
    "responsible_agency": "Department of Sanitation",
    "final_address": "5100 Toulon St",
    "address_councildis": "E",
    "status": "Assigned to Contractor",
    "contractor": "Waste Pro",
    "rowid": "1281115",
    "final_x": "3723573.53273",
    "final_y": "561740.679775",
    "longitude": "-89.9340538046524",
    "latitude": "30.037246174569287",
    "geocoded_column": {
      "latitude": "30.037246174569287",
      "longitude": "-89.9340538046524"
    }
  },
  {
    "service_request": "2026-1281114",
    "request_type": "Health Related Request",
    "request_reason": "Homeless Encampment Complaint",
    "date_created": "2026-05-13T13:31:19.000",
    "date_modified": "2026-05-13T13:31:21.000",
    "request_status": "Pending",
    "responsible_agency": "Office Of Homeless Services And Strategy",
    "final_address": "727 S Broad St",
    "address_councildis": "B",
    "status": "Pending",
    "rowid": "1281114",
    "final_x": "3673680.99496",
    "final_y": "533085.409412",
    "longitude": "-90.09270644590943",
    "latitude": "29.96003512409825",
    "geocoded_column": {
      "latitude": "29.96003512409825",
      "longitude": "-90.09270644590943"
    }
  },
  {
    "service_request": "2026-1281113",
    "request_type": "Abandoned Vehicles",
    "request_reason": "Abandoned/Junk Vehicles",
    "date_created": "2026-05-13T13:29:52.000",
    "date_modified": "2026-05-13T13:30:25.000",
    "request_status": "Pending",
    "responsible_agency": "Department of Public Works",
    "final_address": "207 Leboeuf St",
    "address_councildis": "C",
    "status": "Pending",
    "rowid": "1281113",
    "final_x": "3689860.91958",
    "final_y": "531070.234114",
    "longitude": "-90.04168564340294",
    "latitude": "29.954002476258694",
    "geocoded_column": {
      "latitude": "29.954002476258694",
      "longitude": "-90.04168564340294"
    }
  },
  {
    "service_request": "2026-1281112",
    "request_type": "Trash/Recycling",
    "request_reason": "Return Recycling Cart",
    "date_created": "2026-05-13T13:26:40.000",
    "date_modified": "2026-05-13T13:26:43.000",
    "request_status": "Pending",
    "responsible_agency": "Department of Sanitation",
    "final_address": "2736 Lavender St",
    "address_councildis": "D",
    "status": "Pending",
    "rowid": "1281112",
    "final_x": "3688133.74556",
    "final_y": "546957.296081",
    "longitude": "-90.0465759986555",
    "latitude": "29.99773971428964",
    "geocoded_column": {
      "latitude": "29.99773971428964",
      "longitude": "-90.0465759986555"
    }
  },
  {
    "service_request": "2026-1281111",
    "request_type": "Trash/Recycling",
    "request_reason": "Order Trash Cart",
    "date_created": "2026-05-13T13:24:51.000",
    "date_modified": "2026-05-13T13:26:15.000",
    "request_status": "Pending",
    "responsible_agency": "Department of Sanitation",
    "final_address": "1715 Alvar St",
    "address_councildis": "D",
    "status": "Assigned to Contractor",
    "contractor": "IV Waste",
    "rowid": "1281111",
    "final_x": "3692116.90345",
    "final_y": "537742.697544",
    "longitude": "-90.03432334109878",
    "latitude": "29.972279290196568",
    "geocoded_column": {
      "latitude": "29.972279290196568",
      "longitude": "-90.03432334109878"
    }
  },
  {
    "service_request": "2026-1281110",
    "request_type": "Streetlights",
    "request_reason": "Streetlight Outage/Malfunction",
    "date_created": "2026-05-13T13:16:18.000",
    "date_modified": "2026-05-13T13:16:20.000",
    "request_status": "Pending",
    "responsible_agency": "Department of Public Works",
    "final_address": "4943 Michoud Blvd",
    "address_councildis": "E",
    "status": "Pending",
    "rowid": "1281110",
    "final_x": "3725023.23865",
    "final_y": "561449.183902",
    "longitude": "-89.92948375578219",
    "latitude": "30.03639592323206",
    "geocoded_column": {
      "latitude": "30.03639592323206",
      "longitude": "-89.92948375578219"
    }
  },
  {
    "service_request": "2026-1281109",
    "request_type": "Trash/Recycling",
    "request_reason": "Request a Large Item Pick Up",
    "date_created": "2026-05-13T13:14:25.000",
    "date_modified": "2026-05-13T13:14:27.000",
    "request_status": "Pending",
    "responsible_agency": "Department of Sanitation",
    "final_address": "2530 Robert St",
    "address_councildis": "B",
    "status": "Assigned to Contractor",
    "contractor": "IV Waste",
    "rowid": "1281109",
    "final_x": "3668800.40513",
    "final_y": "524874.526268",
    "longitude": "-90.10839552091215",
    "latitude": "29.937602271832816",
    "geocoded_column": {
      "latitude": "29.937602271832816",
      "longitude": "-90.10839552091215"
    }
  },
  {
    "service_request": "2026-1281108",
    "request_type": "Roads and Streets",
    "request_reason": "Pothole",
    "date_created": "2026-05-13T13:11:26.000",
    "date_modified": "2026-05-13T13:11:28.000",
    "request_status": "Pending",
    "responsible_agency": "Department of Public Works",
    "final_address": "923 Piety St",
    "address_councildis": "C",
    "status": "Pending",
    "rowid": "1281108",
    "final_x": "3689713.32598",
    "final_y": "535178.838214",
    "longitude": "-90.04200547733988",
    "latitude": "29.965304283170802",
    "geocoded_column": {
      "latitude": "29.965304283170802",
      "longitude": "-90.04200547733988"
    }
  },
  {
    "service_request": "2026-1281107",
    "request_type": "Trash/Recycling",
    "request_reason": "Order Trash Cart",
    "date_created": "2026-05-13T13:10:01.000",
    "date_modified": "2026-05-13T13:10:03.000",
    "request_status": "Pending",
    "responsible_agency": "Department of Sanitation",
    "final_address": "6841 Colbert St",
    "address_councildis": "A",
    "status": "Assigned to Contractor",
    "contractor": "IV Waste",
    "rowid": "1281107",
    "final_x": "3668008.37441",
    "final_y": "553123.361495",
    "longitude": "-90.10994383253022",
    "latitude": "30.015300323372802",
    "geocoded_column": {
      "latitude": "30.015300323372802",
      "longitude": "-90.10994383253022"
    }
  },
  {
    "service_request": "2026-1281106",
    "request_type": "Trash/Recycling",
    "request_reason": "Damaged Caused By Contractor",
    "date_created": "2026-05-13T12:53:53.000",
    "date_modified": "2026-05-13T12:53:55.000",
    "request_status": "Pending",
    "responsible_agency": "Department of Sanitation",
    "final_address": "1461 Magazine St",
    "address_councildis": "B",
    "status": "Assigned to Contractor",
    "contractor": "IV Waste",
    "rowid": "1281106",
    "final_x": "3680202.78491",
    "final_y": "524023.150652",
    "longitude": "-90.0724269539209",
    "latitude": "29.934921174757065",
    "geocoded_column": {
      "latitude": "29.934921174757065",
      "longitude": "-90.0724269539209"
    }
  },
  {
    "service_request": "2026-1281105",
    "request_type": "Street and Traffic Signs",
    "request_reason": "Stop Sign Missing or Damaged",
    "date_created": "2026-05-13T12:53:40.000",
    "date_modified": "2026-05-13T12:53:41.000",
    "request_status": "Pending",
    "responsible_agency": "Department of Public Works",
    "final_address": "BIENVILLE ST & ROYAL ST",
    "address_councildis": "C",
    "status": "Pending",
    "rowid": "1281105",
    "final_x": "3681664.8",
    "final_y": "531302.78",
    "longitude": "-90.06755751983562",
    "latitude": "29.954893396707345",
    "geocoded_column": {
      "latitude": "29.954893396707345",
      "longitude": "-90.06755751983562"
    }
  },
  {
    "service_request": "2026-1281104",
    "request_type": "Trash/Recycling",
    "request_reason": "Return Recycling Cart",
    "date_created": "2026-05-13T12:51:13.000",
    "date_modified": "2026-05-13T12:51:15.000",
    "request_status": "Pending",
    "responsible_agency": "Department of Sanitation",
    "final_address": "3007 Royal St",
    "address_councildis": "C",
    "status": "Pending",
    "rowid": "1281104",
    "final_x": "3688146.38582",
    "final_y": "534651.953222",
    "longitude": "-90.04697246218628",
    "latitude": "29.963903995917097",
    "geocoded_column": {
      "latitude": "29.963903995917097",
      "longitude": "-90.04697246218628"
    }
  },
  {
    "service_request": "2026-1281103",
    "request_type": "Trash/Recycling",
    "request_reason": "Request a Large Item Pick Up",
    "date_created": "2026-05-13T12:37:58.000",
    "date_modified": "2026-05-13T12:38:00.000",
    "request_status": "Pending",
    "responsible_agency": "Department of Sanitation",
    "final_address": "6761 Manchester St",
    "address_councildis": "E",
    "status": "Assigned to Contractor",
    "contractor": "Waste Pro",
    "rowid": "1281103",
    "final_x": "3698244.13706",
    "final_y": "559930.040349",
    "longitude": "-90.01416589793575",
    "latitude": "30.033093796537447",
    "geocoded_column": {
      "latitude": "30.033093796537447",
      "longitude": "-90.01416589793575"
    }
  },
  {
    "service_request": "2026-1281102",
    "request_type": "Trash/Recycling",
    "request_reason": "Repair Recycling Cart",
    "date_created": "2026-05-13T12:35:19.000",
    "date_modified": "2026-05-13T12:35:21.000",
    "request_status": "Pending",
    "responsible_agency": "Department of Sanitation",
    "final_address": "5421 Atlanta St",
    "address_councildis": "A",
    "status": "Pending",
    "rowid": "1281102",
    "final_x": "3667057.83297",
    "final_y": "520942.398905",
    "longitude": "-90.11402906923749",
    "latitude": "29.92684128170721",
    "geocoded_column": {
      "latitude": "29.92684128170721",
      "longitude": "-90.11402906923749"
    }
  },
  {
    "service_request": "2026-1281101",
    "request_type": "Streetlights",
    "request_reason": "Streetlight Outage/Malfunction",
    "date_created": "2026-05-13T12:33:36.000",
    "date_modified": "2026-05-13T12:33:37.000",
    "request_status": "Pending",
    "responsible_agency": "Department of Public Works",
    "final_address": "2801 Banks St",
    "address_councildis": "B",
    "status": "Pending",
    "rowid": "1281101",
    "final_x": "3674160.12059",
    "final_y": "534574.613253",
    "longitude": "-90.09114248846855",
    "latitude": "29.964115662138898",
    "geocoded_column": {
      "latitude": "29.964115662138898",
      "longitude": "-90.09114248846855"
    }
  },
  {
    "service_request": "2026-1281100",
    "request_type": "Trash/Recycling",
    "request_reason": "Replace Trash Cart",
    "date_created": "2026-05-13T12:33:15.000",
    "date_modified": "2026-05-13T12:33:16.000",
    "request_status": "Pending",
    "responsible_agency": "Department of Sanitation",
    "final_address": "4737 Majestic Oaks Dr",
    "address_councildis": "D",
    "status": "Assigned to Contractor",
    "contractor": "Waste Pro",
    "rowid": "1281100",
    "final_x": "3697824.18423",
    "final_y": "554491.997592",
    "longitude": "-90.0156905951382",
    "latitude": "30.018154543396832",
    "geocoded_column": {
      "latitude": "30.018154543396832",
      "longitude": "-90.0156905951382"
    }
  },
  {
    "service_request": "2026-1281099",
    "request_type": "Trash/Recycling",
    "request_reason": "Order Recycling Cart",
    "date_created": "2026-05-13T12:28:00.000",
    "date_modified": "2026-05-13T12:28:01.000",
    "request_status": "Pending",
    "responsible_agency": "Department of Sanitation",
    "final_address": "1811 Jackson Ave",
    "address_councildis": "B",
    "status": "Pending",
    "rowid": "1281099",
    "final_x": "3676980.29218",
    "final_y": "524602.770108",
    "longitude": "-90.08258036102853",
    "latitude": "29.936612050817676",
    "geocoded_column": {
      "latitude": "29.936612050817676",
      "longitude": "-90.08258036102853"
    }
  },
  {
    "service_request": "2026-1281098",
    "request_type": "Trash/Recycling",
    "request_reason": "Illegal Dumping",
    "date_created": "2026-05-13T12:27:43.000",
    "date_modified": "2026-05-13T12:27:44.000",
    "request_status": "Pending",
    "responsible_agency": "Department of Sanitation",
    "final_address": "3400 Erato St",
    "address_councildis": "B",
    "status": "Pending",
    "rowid": "1281098",
    "final_x": "3673724.32673",
    "final_y": "529637.143425",
    "longitude": "-90.09268751148956",
    "latitude": "29.95055224929113",
    "geocoded_column": {
      "latitude": "29.95055224929113",
      "longitude": "-90.09268751148956"
    }
  },
  {
    "service_request": "2026-1281097",
    "request_type": "Trash/Recycling",
    "request_reason": "Illegal Dumping",
    "date_created": "2026-05-13T12:26:14.000",
    "date_modified": "2026-05-13T12:26:15.000",
    "request_status": "Pending",
    "responsible_agency": "Department of Sanitation",
    "final_address": "3400 Erato St",
    "address_councildis": "B",
    "status": "Pending",
    "rowid": "1281097",
    "final_x": "3673724.32673",
    "final_y": "529637.143425",
    "longitude": "-90.09268751148956",
    "latitude": "29.95055224929113",
    "geocoded_column": {
      "latitude": "29.95055224929113",
      "longitude": "-90.09268751148956"
    }
  },
  {
    "service_request": "2026-1281096",
    "request_type": "Trash/Recycling",
    "request_reason": "Request a Large Item Pick Up",
    "date_created": "2026-05-13T12:25:58.000",
    "date_modified": "2026-05-13T12:25:59.000",
    "request_status": "Pending",
    "responsible_agency": "Department of Sanitation",
    "final_address": "5711 Durbridge Dr",
    "address_councildis": "C",
    "status": "Assigned to Contractor",
    "contractor": "Richards Disposal",
    "rowid": "1281096",
    "final_x": "3704801.47831",
    "final_y": "521611.103737",
    "longitude": "-89.99485871189064",
    "latitude": "29.92752166473359",
    "geocoded_column": {
      "latitude": "29.92752166473359",
      "longitude": "-89.99485871189064"
    }
  },
  {
    "service_request": "2026-1281095",
    "request_type": "Streetlights",
    "request_reason": "Streetlight Outage/Malfunction",
    "date_created": "2026-05-13T12:22:16.000",
    "date_modified": "2026-05-13T12:22:19.000",
    "request_status": "Pending",
    "responsible_agency": "Department of Public Works",
    "final_address": "7620 Shubrick Ave",
    "address_councildis": "E",
    "status": "Pending",
    "rowid": "1281095",
    "final_x": "3706771.16561",
    "final_y": "563583.48816",
    "longitude": "-89.98708424773518",
    "latitude": "30.04286664949597",
    "geocoded_column": {
      "latitude": "30.04286664949597",
      "longitude": "-89.98708424773518"
    }
  },