[
  {
    "service_request": "2024-1133657",
    "request_type": "Safety & Permits",
    "request_reason": "Licenses & Permits",
    "date_created": "2024-09-19T23:49:56.000",
    "date_modified": "2024-09-19T23:49:56.000",
    "request_status": "Pending",
    "responsible_agency": "Safety and Permits",
    "final_address": "3613 General Meyer Ave",
    "address_councildis": "C",
    "status": "Pending",
    "rowid": "1133657",
    "final_x": "3697353.56874",
    "final_y": "525472.805309",
    "longitude": "-90.01822989382259",
    "latitude": "29.93837713537272",
    "geocoded_column": {
      "latitude": "29.93837713537272",
      "longitude": "-90.01822989382259"
    }
  },
  {
    "service_request": "2024-1133656",
    "request_type": "Streetlights",
    "request_reason": "Streetlight Outage/Malfunction",
    "date_created": "2024-09-19T23:11:30.000",
    "date_modified": "2024-09-19T23:11:31.000",
    "request_status": "Pending",
    "responsible_agency": "Department of Public Works",
    "final_address": "211 W Brooks St",
    "address_councildis": "A",
    "status": "Pending",
    "contractor": "Legacy Professional Services",
    "rowid": "1133656",
    "final_x": "3665502.09261",
    "final_y": "546650.909265",
    "longitude": "-90.11807943375858",
    "latitude": "29.997576662679382",
    "geocoded_column": {
      "latitude": "29.997576662679382",
      "longitude": "-90.11807943375858"
    }
  },
  {
    "service_request": "2024-1133655",
    "request_type": "Parks & Parkways",
    "request_reason": "Request Grass Cutting Service (City Owned Property)",
    "date_created": "2024-09-19T23:04:55.000",
    "date_modified": "2024-09-19T23:04:55.000",
    "request_status": "Pending",
    "responsible_agency": "Department of Parks & Parkway",
    "final_address": "W BROOKS ST & VETERANS HWY",
    "address_councildis": "A",
    "status": "Pending",
    "rowid": "1133655",
    "final_x": "3665991.8",
    "final_y": "546595.58",
    "longitude": "-90.11653431183589",
    "latitude": "29.997410236155517",
    "geocoded_column": {
      "latitude": "29.997410236155517",
      "longitude": "-90.11653431183589"
    }
  },
  {
    "service_request": "2024-1133654",
    "request_type": "Trash/Recycling",
    "request_reason": "Replace Recycling Cart",
    "date_created": "2024-09-19T22:14:25.000",
    "date_modified": "2024-09-19T22:14:25.000",
    "request_status": "Pending",
    "responsible_agency": "Department of Sanitation",
    "final_address": "1022 Louisa St",
    "address_councildis": "C",
    "status": "Pending",
    "rowid": "1133654",
    "final_x": "3689465.54313",
    "final_y": "535622.197126",
    "longitude": "-90.04277219141674",
    "latitude": "29.966531040986236",
    "geocoded_column": {
      "latitude": "29.966531040986236",
      "longitude": "-90.04277219141674"
    }
  },
  {
    "service_request": "2024-1133653",
    "request_type": "Trash/Recycling",
    "request_reason": "MIssed Recycling Pick-Up",
    "date_created": "2024-09-19T22:03:58.000",
    "date_modified": "2024-09-19T22:03:59.000",
    "request_status": "Pending",
    "responsible_agency": "Department of Sanitation",
    "final_address": "1432 Touro St",
    "address_councildis": "C",
    "status": "Assigned to Contractor",
    "contractor": "IV Waste",
    "rowid": "1133653",
    "final_x": "3684097.95157",
    "final_y": "537611.196104",
    "longitude": "-90.05965314158549",
    "latitude": "29.972165238059002",
    "geocoded_column": {
      "latitude": "29.972165238059002",
      "longitude": "-90.05965314158549"
    }
  },
  {
    "service_request": "2024-1133652",
    "request_type": "Parks & Parkways",
    "request_reason": "Request Tree Service (Right of Way/Public Property)",
    "date_created": "2024-09-19T21:49:26.000",
    "date_modified": "2024-09-19T21:49:26.000",
    "request_status": "Pending",
    "responsible_agency": "Department of Parks & Parkway",
    "final_address": "4867 Piety Dr",
    "address_councildis": "D",
    "status": "Pending",
    "rowid": "1133652",
    "final_x": "3691579.07446",
    "final_y": "551747.227797",
    "longitude": "-90.03552094393538",
    "latitude": "30.010803432440564",
    "geocoded_column": {
      "latitude": "30.010803432440564",
      "longitude": "-90.03552094393538"
    }
  },
  {
    "service_request": "2024-1133651",
    "request_type": "Property Maintenance",
    "request_reason": "Property Maintenance",
    "date_created": "2024-09-19T21:27:00.000",
    "date_modified": "2024-09-19T21:27:00.000",
    "request_status": "Pending",
    "responsible_agency": "Department of Code Enforcement",
    "final_address": "4317 Pitt St",
    "address_councildis": "B",
    "status": "Pending",
    "rowid": "1133651",
    "final_x": "3671120.08897",
    "final_y": "520646.202425",
    "longitude": "-90.10121563270611",
    "latitude": "29.925907350759477",
    "geocoded_column": {
      "latitude": "29.925907350759477",
      "longitude": "-90.10121563270611"
    }
  },
  {
    "service_request": "2024-1133649",
    "request_type": "Trash/Recycling",
    "request_reason": "Missed Trash Pick-Up",
    "date_created": "2024-09-19T21:08:14.000",
    "date_modified": "2024-09-19T21:08:15.000",
    "request_status": "Pending",
    "responsible_agency": "Department of Sanitation",
    "final_address": "2900 BLK Aubry St",
    "address_councildis": "D",
    "status": "Assigned to Contractor",
    "contractor": "IV Waste",
    "rowid": "1133649",
    "final_x": "3678789.94881",
    "final_y": "541797.447361",
    "longitude": "-90.07627166326344",
    "latitude": "29.98383714964273",
    "geocoded_column": {
      "latitude": "29.98383714964273",
      "longitude": "-90.07627166326344"
    }
  },
  {
    "service_request": "2024-1133648",
    "request_type": "Trash/Recycling",
    "request_reason": "Missed Trash Pick-Up",
    "date_created": "2024-09-19T21:06:47.000",
    "date_modified": "2024-09-19T21:06:48.000",
    "request_status": "Pending",
    "responsible_agency": "Department of Sanitation",
    "final_address": "2900 BLK Aubry St",
    "address_councildis": "D",
    "status": "Assigned to Contractor",
    "contractor": "IV Waste",
    "rowid": "1133648",
    "final_x": "3678789.94881",
    "final_y": "541797.447361",
    "longitude": "-90.07627166326344",
    "latitude": "29.98383714964273",
    "geocoded_column": {
      "latitude": "29.98383714964273",
      "longitude": "-90.07627166326344"
    }
  },
  {
    "service_request": "2024-1133647",
    "request_type": "Property Maintenance",
    "request_reason": "Property Maintenance",
    "date_created": "2024-09-19T21:00:02.000",
    "date_modified": "2024-09-19T21:00:02.000",
    "request_status": "Pending",
    "responsible_agency": "Department of Code Enforcement",
    "final_address": "4323 Perlita St",
    "address_councildis": "D",
    "status": "Pending",
    "rowid": "1133647",
    "final_x": "3678905.05582",
    "final_y": "548277.906514",
    "longitude": "-90.0756834326688",
    "latitude": "30.001652659825176",
    "geocoded_column": {
      "latitude": "30.001652659825176",
      "longitude": "-90.0756834326688"
    }
  },
  {
    "service_request": "2024-1133646",
    "request_type": "Trash/Recycling",
    "request_reason": "Request a Large Item Pick Up",
    "date_created": "2024-09-19T20:47:02.000",
    "date_modified": "2024-09-19T20:47:03.000",
    "request_status": "Pending",
    "responsible_agency": "Department of Sanitation",
    "final_address": "6023 Marais St",
    "address_councildis": "E",
    "status": "Assigned to Contractor",
    "contractor": "Waste Pro",
    "rowid": "1133646",
    "final_x": "3699488.0986",
    "final_y": "533808.710981",
    "longitude": "-90.01118735038557",
    "latitude": "29.961230404174316",
    "geocoded_column": {
      "latitude": "29.961230404174316",
      "longitude": "-90.01118735038557"
    }
  },
  {
    "service_request": "2024-1133645",
    "request_type": "Roads and Streets",
    "request_reason": "Push-up/Pavement Expansion",
    "date_created": "2024-09-19T20:28:50.000",
    "date_modified": "2024-09-19T20:28:50.000",
    "request_status": "Pending",
    "responsible_agency": "Department of Public Works",
    "final_address": "TOLEDANO ST & COLISEUM ST",
    "address_councildis": "B",
    "status": "Pending",
    "rowid": "1133645",
    "final_x": "3674981.4",
    "final_y": "520752.98",
    "longitude": "-90.08902294101439",
    "latitude": "29.926086221949046",
    "geocoded_column": {
      "latitude": "29.926086221949046",
      "longitude": "-90.08902294101439"
    }
  },
  {
    "service_request": "2024-1133644",
    "request_type": "Abandoned Vehicles",
    "request_reason": "Abandoned/Junk Vehicles",
    "date_created": "2024-09-19T20:10:26.000",
    "date_modified": "2024-09-19T20:10:26.000",
    "request_status": "Pending",
    "responsible_agency": "Department of Public Works",
    "final_address": "2007 Bodenger Blvd",
    "address_councildis": "C",
    "status": "Pending",
    "rowid": "1133644",
    "final_x": "3688363.10819",
    "final_y": "524433.247036",
    "longitude": "-90.04665043673988",
    "latitude": "29.935799364662742",
    "geocoded_column": {
      "latitude": "29.935799364662742",
      "longitude": "-90.04665043673988"
    }
  },
  {
    "service_request": "2024-1133643",
    "request_type": "Abandoned Vehicles",
    "request_reason": "Abandoned/Junk Vehicles",
    "date_created": "2024-09-19T20:09:19.000",
    "date_modified": "2024-09-19T20:09:19.000",
    "request_status": "Pending",
    "responsible_agency": "Department of Public Works",
    "final_address": "2007 Bodenger Blvd",
    "address_councildis": "C",
    "status": "Pending",
    "rowid": "1133643",
    "final_x": "3688363.10819",
    "final_y": "524433.247036",
    "longitude": "-90.04665043673988",
    "latitude": "29.935799364662742",
    "geocoded_column": {
      "latitude": "29.935799364662742",
      "longitude": "-90.04665043673988"
    }
  },
  {
    "service_request": "2024-1133642",
    "request_type": "Property Maintenance",
    "request_reason": "Property Maintenance",
    "date_created": "2024-09-19T20:07:51.000",
    "date_modified": "2024-09-19T20:07:51.000",
    "request_status": "Pending",
    "responsible_agency": "Department of Code Enforcement",
    "final_address": "1906 Bodenger Blvd",
    "address_councildis": "C",
    "status": "Pending",
    "rowid": "1133642",
    "final_x": "3688508.19811",
    "final_y": "524852.19878",
    "longitude": "-90.04617752916961",
    "latitude": "29.936946859767637",
    "geocoded_column": {
      "latitude": "29.936946859767637",
      "longitude": "-90.04617752916961"
    }
  },
  {
    "service_request": "2024-1133641",
    "request_type": "Trash/Recycling",
    "request_reason": "Replace Recycling Cart",
    "date_created": "2024-09-19T20:04:05.000",
    "date_modified": "2024-09-19T20:04:05.000",
    "request_status": "Pending",
    "responsible_agency": "Department of Sanitation",
    "final_address": "2723 Constance St",
    "address_councildis": "B",
    "status": "Pending",
    "rowid": "1133641",
    "final_x": "3677355.7741",
    "final_y": "520612.399992",
    "longitude": "-90.0815325753132",
    "latitude": "29.925628560865995",
    "geocoded_column": {
      "latitude": "29.925628560865995",
      "longitude": "-90.0815325753132"
    }
  },
  {
    "service_request": "2024-1133640",
    "request_type": "Trash/Recycling",
    "request_reason": "Storm Debris Collection",
    "date_created": "2024-09-19T19:41:32.000",
    "date_modified": "2024-09-19T19:41:32.000",
    "request_status": "Pending",
    "responsible_agency": "Department of Sanitation",
    "final_address": "3230 Calhoun St",
    "address_councildis": "A",
    "status": "Pending",
    "rowid": "1133640",
    "final_x": "3667307.96205",
    "final_y": "528664.953728",
    "longitude": "-90.11297984200158",
    "latitude": "29.948068510107234",
    "geocoded_column": {
      "latitude": "29.948068510107234",
      "longitude": "-90.11297984200158"
    }
  },
  {
    "service_request": "2024-1133639",
    "request_type": "Trash/Recycling",
    "request_reason": "Storm Debris Collection",
    "date_created": "2024-09-19T19:39:31.000",
    "date_modified": "2024-09-19T19:39:31.000",
    "request_status": "Pending",
    "responsible_agency": "Department of Sanitation",
    "final_address": "3230 Calhoun St",
    "address_councildis": "A",
    "status": "Pending",
    "rowid": "1133639",
    "final_x": "3667307.96205",
    "final_y": "528664.953728",
    "longitude": "-90.11297984200158",
    "latitude": "29.948068510107234",
    "geocoded_column": {
      "latitude": "29.948068510107234",
      "longitude": "-90.11297984200158"
    }
  },
  {
    "service_request": "2024-1133638",
    "request_type": "Trash/Recycling",
    "request_reason": "Request a Large Item Pick Up",
    "date_created": "2024-09-19T19:14:51.000",
    "date_modified": "2024-09-19T19:14:52.000",
    "request_status": "Pending",
    "responsible_agency": "Department of Sanitation",
    "final_address": "4827 Bright Dr",
    "address_councildis": "E",
    "status": "Assigned to Contractor",
    "contractor": "Waste Pro",
    "rowid": "1133638",
    "final_x": "3715866.06501",
    "final_y": "557251.269787",
    "longitude": "-89.9585811013429",
    "latitude": "30.02515864311863",
    "geocoded_column": {
      "latitude": "30.02515864311863",
      "longitude": "-89.9585811013429"
    }
  },
  {
    "service_request": "2024-1133637",
    "request_type": "General Services",
    "request_reason": "General Service Request",
    "date_created": "2024-09-19T19:12:29.000",
    "date_modified": "2024-09-19T19:12:29.000",
    "request_status": "Pending",
    "responsible_agency": "Orleans Parish Communication District",
    "final_address": "6248 Providence Pl",
    "address_councildis": "D",
    "status": "Pending",
    "rowid": "1133637",
    "final_x": "3688052.86351",
    "final_y": "556225.182298",
    "longitude": "-90.0465027083956",
    "latitude": "30.023225497442244",
    "geocoded_column": {
      "latitude": "30.023225497442244",
      "longitude": "-90.0465027083956"
    }
  },
  {
    "service_request": "2024-1133636",
    "request_type": "Property Maintenance",
    "request_reason": "Property Maintenance",
    "date_created": "2024-09-19T19:10:26.000",
    "date_modified": "2024-09-19T19:10:26.000",
    "request_status": "Pending",
    "responsible_agency": "Department of Code Enforcement",
    "final_address": "232 28Th St",
    "address_councildis": "A",
    "status": "Pending",
    "rowid": "1133636",
    "final_x": "3665528.8752",
    "final_y": "550170.05538",
    "longitude": "-90.11787690485842",
    "latitude": "30.007252319739372",
    "geocoded_column": {
      "latitude": "30.007252319739372",
      "longitude": "-90.11787690485842"
    }
  },
  {
    "service_request": "2024-1133635",
    "request_type": "Abandoned Vehicles",
    "request_reason": "Abandoned/Junk Vehicles",
    "date_created": "2024-09-19T19:10:00.000",
    "date_modified": "2024-09-19T19:10:00.000",
    "request_status": "Pending",
    "responsible_agency": "Department of Public Works",
    "final_address": "1851 Agriculture St",
    "address_councildis": "D",
    "status": "Pending",
    "rowid": "1133635",
    "final_x": "3681921.99304",
    "final_y": "543137.645005",
    "longitude": "-90.06633218749519",
    "latitude": "29.987427370947184",
    "geocoded_column": {
      "latitude": "29.987427370947184",
      "longitude": "-90.06633218749519"
    }
  },
  {
    "service_request": "2024-1133634",
    "request_type": "Trash/Recycling",
    "request_reason": "Missed Trash Pick-Up",
    "date_created": "2024-09-19T19:08:23.000",
    "date_modified": "2024-09-19T19:08:24.000",
    "request_status": "Pending",
    "responsible_agency": "Department of Sanitation",
    "final_address": "1500 Adams St HM",
    "address_councildis": "A",
    "status": "Assigned to Contractor",
    "contractor": "IV Waste",
    "rowid": "1133634",
    "final_x": "3663805.79232",
    "final_y": "528293.016",
    "longitude": "-90.12405005428518",
    "latitude": "29.947147896592206",
    "geocoded_column": {
      "latitude": "29.947147896592206",
      "longitude": "-90.12405005428518"
    }
  },
  {
    "service_request": "2024-1133633",
    "request_type": "Property Maintenance",
    "request_reason": "Property Maintenance",
    "date_created": "2024-09-19T19:07:18.000",
    "date_modified": "2024-09-19T19:07:18.000",
    "request_status": "Pending",
    "responsible_agency": "Department of Code Enforcement",
    "final_address": "5661 Clements Dr",
    "address_councildis": "E",
    "status": "Pending",
    "rowid": "1133633",
    "final_x": "3702569.44305",
    "final_y": "556412.327386",
    "longitude": "-90.00062690190053",
    "latitude": "30.02328381908828",
    "geocoded_column": {
      "latitude": "30.02328381908828",
      "longitude": "-90.00062690190053"
    }
  },
  {
    "service_request": "2024-1133632",
    "request_type": "Trash/Recycling",
    "request_reason": "Start Trash Service",
    "date_created": "2024-09-19T19:02:43.000",
    "date_modified": "2024-09-19T19:02:44.000",
    "request_status": "Pending",
    "responsible_agency": "Department of Sanitation",
    "final_address": "6248 Providence Pl",
    "address_councildis": "D",
    "status": "Assigned to Contractor",
    "contractor": "IV Waste",
    "rowid": "1133632",
    "final_x": "3688052.86351",
    "final_y": "556225.182298",
    "longitude": "-90.0465027083956",
    "latitude": "30.023225497442244",
    "geocoded_column": {
      "latitude": "30.023225497442244",
      "longitude": "-90.0465027083956"
    }
  },
  {
    "service_request": "2024-1133631",
    "request_type": "Trash/Recycling",
    "request_reason": "MIssed Recycling Pick-Up",
    "date_created": "2024-09-19T18:57:51.000",
    "date_modified": "2024-09-19T18:57:52.000",
    "request_status": "Pending",
    "responsible_agency": "Department of Sanitation",
    "final_address": "1429 Annette St",
    "address_councildis": "C",
    "status": "Assigned to Contractor",
    "contractor": "IV Waste",
    "rowid": "1133631",
    "final_x": "3683065.59503",
    "final_y": "537498.374408",
    "longitude": "-90.06291744303876",
    "latitude": "29.971886530398315",
    "geocoded_column": {
      "latitude": "29.971886530398315",
      "longitude": "-90.06291744303876"
    }
  },
  {
    "service_request": "2024-1133630",
    "request_type": "Trash/Recycling",
    "request_reason": "Missed Trash Pick-Up",
    "date_created": "2024-09-19T18:54:21.000",
    "date_modified": "2024-09-19T18:54:22.000",
    "request_status": "Pending",
    "responsible_agency": "Department of Sanitation",
    "final_address": "2130 Painters St",
    "address_councildis": "D",
    "status": "Assigned to Contractor",
    "contractor": "IV Waste",
    "rowid": "1133630",
    "final_x": "3687210.0301",
    "final_y": "540460.367947",
    "longitude": "-90.04972390027345",
    "latitude": "29.97990397244672",
    "geocoded_column": {
      "latitude": "29.97990397244672",
      "longitude": "-90.04972390027345"
    }
  },
  {
    "service_request": "2024-1133629",
    "request_type": "Parks & Parkways",
    "request_reason": "Request Tree Service (Right of Way/Public Property)",
    "date_created": "2024-09-19T18:42:19.000",
    "date_modified": "2024-09-19T18:42:19.000",
    "request_status": "Pending",
    "responsible_agency": "Department of Parks & Parkway",
    "final_address": "5501 Annunciation St",
    "address_councildis": "A",
    "status": "Pending",
    "rowid": "1133629",
    "final_x": "3666105.20327",
    "final_y": "517579.480758",
    "longitude": "-90.11714895471962",
    "latitude": "29.917622152634955",
    "geocoded_column": {
      "latitude": "29.917622152634955",
      "longitude": "-90.11714895471962"
    }
  },
  {
    "service_request": "2024-1133628",
    "request_type": "Street and Traffic Signs",
    "request_reason": "Traffic or Parking Sign Damaged or Missing",
    "date_created": "2024-09-19T18:42:04.000",
    "date_modified": "2024-09-19T18:42:04.000",
    "request_status": "Pending",
    "responsible_agency": "Department of Public Works",
    "final_address": "1500 BLK Henry Clay Ave",
    "address_councildis": "A",
    "status": "Pending",
    "rowid": "1133628",
    "final_x": "3665016.91895",
    "final_y": "522678.937698",
    "longitude": "-90.12041369092414",
    "latitude": "29.93167577367443",
    "geocoded_column": {
      "latitude": "29.93167577367443",
      "longitude": "-90.12041369092414"
    }
  },
  {
    "service_request": "2024-1133627",
    "request_type": "Trash/Recycling",
    "request_reason": "Missed Trash Pick-Up",
    "date_created": "2024-09-19T18:38:53.000",
    "date_modified": "2024-09-19T18:38:54.000",
    "request_status": "Pending",
    "responsible_agency": "Department of Sanitation",
    "final_address": "3830 Annunciation St",
    "address_councildis": "B",
    "status": "Assigned to Contractor",
    "contractor": "IV Waste",
    "rowid": "1133627",
    "final_x": "3673435.50638",
    "final_y": "517951.87999",
    "longitude": "-90.09399852423694",
    "latitude": "29.918430163130722",
    "geocoded_column": {
      "latitude": "29.918430163130722",
      "longitude": "-90.09399852423694"
    }
  },
  {
    "service_request": "2024-1133626",
    "request_type": "Streetlights",
    "request_reason": "Streetlight Outage/Malfunction",
    "date_created": "2024-09-19T18:37:15.000",
    "date_modified": "2024-09-19T18:37:16.000",
    "request_status": "Pending",
    "responsible_agency": "Department of Public Works",
    "final_address": "5400 BLK Marconi Dr",
    "address_councildis": "A",
    "status": "Pending",
    "contractor": "Legacy Professional Services",
    "rowid": "1133626",
    "final_x": "3670815.22493",
    "final_y": "544163.109952",
    "longitude": "-90.10137985049387",
    "latitude": "29.99058006189322",
    "geocoded_column": {
      "latitude": "29.99058006189322",
      "longitude": "-90.10137985049387"
    }
  },
  {
    "service_request": "2024-1133625",
    "request_type": "Trash/Recycling",
    "request_reason": "Missed Trash Pick-Up",
    "date_created": "2024-09-19T18:27:48.000",
    "date_modified": "2024-09-19T18:27:49.000",
    "request_status": "Pending",
    "responsible_agency": "Department of Sanitation",
    "final_address": "2130 Painters St",
    "address_councildis": "D",
    "status": "Assigned to Contractor",
    "contractor": "IV Waste",
    "rowid": "1133625",
    "final_x": "3687210.0301",
    "final_y": "540460.367947",
    "longitude": "-90.04972390027345",
    "latitude": "29.97990397244672",
    "geocoded_column": {
      "latitude": "29.97990397244672",
      "longitude": "-90.04972390027345"
    }
  },
  {
    "service_request": "2024-1133624",
    "request_type": "Roads and Streets",
    "request_reason": "Pothole",
    "date_created": "2024-09-19T18:23:13.000",
    "date_modified": "2024-09-19T18:23:13.000",
    "request_status": "Pending",
    "responsible_agency": "Department of Public Works",
    "final_address": "400 BLK N Saint Patrick St",
    "address_councildis": "A",
    "status": "Pending",
    "rowid": "1133624",
    "final_x": "3669920.543",
    "final_y": "540900.431766",
    "longitude": "-90.10431647634887",
    "latitude": "29.981635230710523",
    "geocoded_column": {
      "latitude": "29.981635230710523",
      "longitude": "-90.10431647634887"
    }
  },
  {
    "service_request": "2024-1133623",
    "request_type": "Trash/Recycling",
    "request_reason": "Request a Large Item Pick Up",
    "date_created": "2024-09-19T18:20:50.000",
    "date_modified": "2024-09-19T18:20:51.000",
    "request_status": "Pending",
    "responsible_agency": "Department of Sanitation",
    "final_address": "2219 S Salcedo St",
    "address_councildis": "A",
    "status": "Assigned to Contractor",
    "contractor": "IV Waste",
    "rowid": "1133623",
    "final_x": "3669136.94913",
    "final_y": "528943.801472",
    "longitude": "-90.10719555049423",
    "latitude": "29.948781562243237",
    "geocoded_column": {
      "latitude": "29.948781562243237",
      "longitude": "-90.10719555049423"
    }
  },
  {
    "service_request": "2024-1133622",
    "request_type": "Trash/Recycling",
    "request_reason": "Replace Trash Cart",
    "date_created": "2024-09-19T18:12:01.000",
    "date_modified": "2024-09-19T18:12:02.000",
    "request_status": "Pending",
    "responsible_agency": "Department of Sanitation",
    "final_address": "2560 N Tonti St",
    "address_councildis": "D",
    "status": "Assigned to Contractor",
    "contractor": "IV Waste",
    "rowid": "1133622",
    "final_x": "3687024.8477",
    "final_y": "540873.849099",
    "longitude": "-90.0502941581447",
    "latitude": "29.981046602203964",
    "geocoded_column": {
      "latitude": "29.981046602203964",
      "longitude": "-90.0502941581447"
    }
  },
  {
    "service_request": "2024-1133621",
    "request_type": "Trash/Recycling",
    "request_reason": "Request a Large Item Pick Up",
    "date_created": "2024-09-19T18:09:26.000",
    "date_modified": "2024-09-19T18:09:27.000",
    "request_status": "Pending",
    "responsible_agency": "Department of Sanitation",
    "final_address": "1338 Madrid St",
    "address_councildis": "D",
    "status": "Assigned to Contractor",
    "contractor": "IV Waste",
    "rowid": "1133621",
    "final_x": "3677085.84686",
    "final_y": "554614.362456",
    "longitude": "-90.08121175904456",
    "latitude": "30.019130424296463",
    "geocoded_column": {
      "latitude": "30.019130424296463",
      "longitude": "-90.08121175904456"
    }
  },
  {
    "service_request": "2024-1133620",
    "request_type": "Trash/Recycling",
    "request_reason": "Missed Trash Pick-Up",
    "date_created": "2024-09-19T18:06:15.000",
    "date_modified": "2024-09-19T18:06:17.000",
    "request_status": "Pending",
    "responsible_agency": "Department of Sanitation",
    "final_address": "4903 Willow St",
    "address_councildis": "B",
    "status": "Assigned to Contractor",
    "contractor": "IV Waste",
    "rowid": "1133620",
    "final_x": "3669165.21889",
    "final_y": "525339.954557",
    "longitude": "-90.1072280502615",
    "latitude": "29.93887132088219",
    "geocoded_column": {
      "latitude": "29.93887132088219",
      "longitude": "-90.1072280502615"
    }
  },
  {
    "service_request": "2024-1133619",
    "request_type": "Trash/Recycling",
    "request_reason": "Replace Recycling Cart",
    "date_created": "2024-09-19T18:06:13.000",
    "date_modified": "2024-09-19T18:06:13.000",
    "request_status": "Pending",
    "responsible_agency": "Department of Sanitation",
    "final_address": "4922 Haik Dr",
    "address_councildis": "D",
    "status": "Pending",
    "rowid": "1133619",
    "final_x": "3681917.1981",
    "final_y": "550832.802581",
    "longitude": "-90.0660785147503",
    "latitude": "30.00858645674808",
    "geocoded_column": {
      "latitude": "30.00858645674808",
      "longitude": "-90.0660785147503"
    }
  },
  {
    "service_request": "2024-1133618",
    "request_type": "Trash/Recycling",
    "request_reason": "Missed Trash Pick-Up",
    "date_created": "2024-09-19T18:00:23.000",
    "date_modified": "2024-09-19T18:00:24.000",
    "request_status": "Pending",
    "responsible_agency": "Department of Sanitation",
    "final_address": "4903 Willow St",
    "address_councildis": "B",
    "status": "Assigned to Contractor",
    "contractor": "IV Waste",
    "rowid": "1133618",
    "final_x": "3669165.21889",
    "final_y": "525339.954557",
    "longitude": "-90.1072280502615",
    "latitude": "29.93887132088219",
    "geocoded_column": {
      "latitude": "29.93887132088219",
      "longitude": "-90.1072280502615"
    }
  },
  {
    "service_request": "2024-1133617",
    "request_type": "Abandoned Vehicles",
    "request_reason": "Abandoned/Junk Vehicles",
    "date_created": "2024-09-19T18:00:15.000",
    "date_modified": "2024-09-19T18:00:15.000",
    "request_status": "Pending",
    "responsible_agency": "Department of Public Works",
    "final_address": "9 Fortress Rd",
    "address_councildis": "D",
    "status": "Pending",
    "rowid": "1133617",
    "final_x": "3676570.36027",
    "final_y": "554680.282136",
    "longitude": "-90.08283824688196",
    "latitude": "30.019327158244973",
    "geocoded_column": {
      "latitude": "30.019327158244973",
      "longitude": "-90.08283824688196"
    }
  },
  {
    "service_request": "2024-1133616",
    "request_type": "Hurricane Francine Tree-Related Issues or Emergencies\t",
    "request_reason": "Hurricane Francine Tree-Related Issues or Emergencies",
    "date_created": "2024-09-19T17:47:19.000",
    "date_modified": "2024-09-19T17:47:19.000",
    "request_status": "Pending",
    "responsible_agency": "Department of Parks & Parkway",
    "final_address": "3533 Palmyra St",
    "address_councildis": "B",
    "status": "Pending",
    "rowid": "1133616",
    "final_x": "3672170.45275",
    "final_y": "536564.272007",
    "longitude": "-90.09735792472628",
    "latitude": "29.969645715052305",
    "geocoded_column": {
      "latitude": "29.969645715052305",
      "longitude": "-90.09735792472628"
    }
  },
  {
    "service_request": "2024-1133615",
    "request_type": "Hurricane Francine Tree-Related Issues or Emergencies\t",
    "request_reason": "Hurricane Francine Tree-Related Issues or Emergencies",
    "date_created": "2024-09-19T17:42:11.000",
    "date_modified": "2024-09-19T17:42:11.000",
    "request_status": "Pending",
    "responsible_agency": "Department of Parks & Parkway",
    "final_address": "4641 Alba Rd",
    "address_councildis": "E",
    "status": "Pending",
    "rowid": "1133615",
    "final_x": "3761921.82435",
    "final_y": "573957.26417",
    "longitude": "-89.812355306233",
    "latitude": "30.06949282052853",
    "geocoded_column": {
      "latitude": "30.06949282052853",
      "longitude": "-89.812355306233"
    }
  },
  {
    "service_request": "2024-1133614",
    "request_type": "Streetlights",
    "request_reason": "Streetlight Outage/Malfunction",
    "date_created": "2024-09-19T17:30:36.000",
    "date_modified": "2024-09-19T17:30:37.000",
    "request_status": "Pending",
    "responsible_agency": "Department of Public Works",
    "final_address": "4641 Murano Rd",
    "address_councildis": "E",
    "status": "Pending",
    "contractor": "Legacy Professional Services",
    "rowid": "1133614",
    "final_x": "3761556.66064",
    "final_y": "574237.20113",
    "longitude": "-89.81349791075753",
    "latitude": "30.070275840367778",
    "geocoded_column": {
      "latitude": "30.070275840367778",
      "longitude": "-89.81349791075753"
    }
  },
  {
    "service_request": "2024-1133613",
    "request_type": "Alley Ways",
    "request_reason": "Alley Way Regrading",
    "date_created": "2024-09-19T17:29:16.000",
    "date_modified": "2024-09-19T17:29:16.000",
    "request_status": "Pending",
    "responsible_agency": "Department of Public Works",
    "final_address": "0 BLK Diagonal Dr",
    "address_councildis": "A",
    "status": "Pending",
    "rowid": "1133613",
    "final_x": "3672892.80411",
    "final_y": "547169.914962",
    "longitude": "-90.09471461621612",
    "latitude": "29.998786147538326",
    "geocoded_column": {
      "latitude": "29.998786147538326",
      "longitude": "-90.09471461621612"
    }
  },
  {
    "service_request": "2024-1133612",
    "request_type": "Property Maintenance",
    "request_reason": "Property Maintenance",
    "date_created": "2024-09-19T17:29:04.000",
    "date_modified": "2024-09-19T17:29:04.000",
    "request_status": "Pending",
    "responsible_agency": "Department of Code Enforcement",
    "final_address": "1619 Deslonde St",
    "address_councildis": "E",
    "status": "Pending",
    "rowid": "1133612",
    "final_x": "3695980.1807",
    "final_y": "536413.104711",
    "longitude": "-90.0221705631102",
    "latitude": "29.968502392814734",
    "geocoded_column": {
      "latitude": "29.968502392814734",
      "longitude": "-90.0221705631102"
    }
  },
  {
    "service_request": "2024-1133611",
    "request_type": "Trash/Recycling",
    "request_reason": "Request a Large Item Pick Up",
    "date_created": "2024-09-19T17:26:42.000",
    "date_modified": "2024-09-19T17:26:43.000",
    "request_status": "Pending",
    "responsible_agency": "Department of Sanitation",
    "final_address": "4881 Chantilly Dr",
    "address_councildis": "E",
    "status": "Assigned to Contractor",
    "contractor": "Waste Pro",
    "rowid": "1133611",
    "final_x": "3700883.35255",
    "final_y": "555016.285401",
    "longitude": "-90.00600565020922",
    "latitude": "30.019499052176066",
    "geocoded_column": {
      "latitude": "30.019499052176066",
      "longitude": "-90.00600565020922"
    }
  },
  {
    "service_request": "2024-1133610",
    "request_type": "Property Maintenance",
    "request_reason": "Property Maintenance",
    "date_created": "2024-09-19T17:26:22.000",
    "date_modified": "2024-09-19T17:26:22.000",
    "request_status": "Pending",
    "responsible_agency": "Department of Code Enforcement",
    "final_address": "2121 Comet St",
    "address_councildis": "C",
    "status": "Pending",
    "rowid": "1133610",
    "final_x": "3700170.26832",
    "final_y": "523291.562555",
    "longitude": "-90.0094169200436",
    "latitude": "29.932290284622766",
    "geocoded_column": {
      "latitude": "29.932290284622766",
      "longitude": "-90.0094169200436"
    }
  },
  {
    "service_request": "2024-1133609",
    "request_type": "Trash/Recycling",
    "request_reason": "Repair Recycling Cart",
    "date_created": "2024-09-19T17:11:18.000",
    "date_modified": "2024-09-19T17:11:18.000",
    "request_status": "Pending",
    "responsible_agency": "Department of Sanitation",
    "final_address": "5512 Constance St",
    "address_councildis": "A",
    "status": "Pending",
    "rowid": "1133609",
    "final_x": "3666235.67949",
    "final_y": "518464.33343",
    "longitude": "-90.11670745721872",
    "latitude": "29.92005141188264",
    "geocoded_column": {
      "latitude": "29.92005141188264",
      "longitude": "-90.11670745721872"
    }
  },
  {
    "service_request": "2024-1133608",
    "request_type": "Property Maintenance",
    "request_reason": "Property Maintenance",
    "date_created": "2024-09-19T17:09:55.000",
    "date_modified": "2024-09-19T17:09:55.000",
    "request_status": "Pending",
    "responsible_agency": "Department of Code Enforcement",
    "final_address": "10921 Kinneil Rd",
    "address_councildis": "E",
    "status": "Pending",
    "rowid": "1133608",
    "final_x": "3711338.14629",
    "final_y": "564312.724769",
    "longitude": "-89.97262350840509",
    "latitude": "30.04472342843068",
    "geocoded_column": {
      "latitude": "30.04472342843068",
      "longitude": "-89.97262350840509"
    }
  },
  {
    "service_request": "2024-1133607",
    "request_type": "Trash/Recycling",
    "request_reason": "Request a Large Item Pick Up",
    "date_created": "2024-09-19T17:00:25.000",
    "date_modified": "2024-09-19T17:00:26.000",
    "request_status": "Pending",
    "responsible_agency": "Department of Sanitation",
    "final_address": "4742 Redwood St",
    "address_councildis": "E",
    "status": "Assigned to Contractor",
    "contractor": "Waste Pro",
    "rowid": "1133607",
    "final_x": "3712410.96894",
    "final_y": "556169.862106",
    "longitude": "-89.96953922772583",
    "latitude": "30.02229872694248",
    "geocoded_column": {
      "latitude": "30.02229872694248",
      "longitude": "-89.96953922772583"
    }
  },
  {
    "service_request": "2024-1133606",
    "request_type": "Mosquito, Termite & Rodent Control",
    "request_reason": "Mosquito Complaint",
    "date_created": "2024-09-19T17:00:20.000",
    "date_modified": "2024-09-19T17:00:20.000",
    "request_status": "Pending",
    "responsible_agency": "Mosquito, Termite & Rodent Control Board",
    "final_address": "3501 Rue Colette",
    "address_councildis": "C",
    "status": "Pending",
    "rowid": "1133606",
    "final_x": "3704484.40548",
    "final_y": "517796.88031",
    "longitude": "-89.99600015275966",
    "latitude": "29.917044052642023",
    "geocoded_column": {
      "latitude": "29.917044052642023",
      "longitude": "-89.99600015275966"
    }
  },
  {
    "service_request": "2024-1133605",
    "request_type": "Trash/Recycling",
    "request_reason": "Request a Large Item Pick Up",
    "date_created": "2024-09-19T16:59:22.000",
    "date_modified": "2024-09-19T16:59:23.000",
    "request_status": "Pending",
    "responsible_agency": "Department of Sanitation",
    "final_address": "7046 Lake Willow Dr",
    "address_councildis": "E",
    "status": "Assigned to Contractor",
    "contractor": "Waste Pro",
    "rowid": "1133605",
    "final_x": "3702245.72721",
    "final_y": "559069.97398",
    "longitude": "-90.00155216452771",
    "latitude": "30.030601668775283",
    "geocoded_column": {
      "latitude": "30.030601668775283",
      "longitude": "-90.00155216452771"
    }
  },
  {
    "service_request": "2024-1133604",
    "request_type": "Abandoned Vehicles",
    "request_reason": "Abandoned/Junk Vehicles",
    "date_created": "2024-09-19T16:58:08.000",
    "date_modified": "2024-09-19T16:58:08.000",
    "request_status": "Pending",
    "responsible_agency": "Department of Public Works",
    "final_address": "1306 S Dorgenois St",
    "address_councildis": "B",
    "status": "Pending",
    "rowid": "1133604",
    "final_x": "3672680.35502",
    "final_y": "530207.200321",
    "longitude": "-90.09596440413841",
    "latitude": "29.952150757042084",
    "geocoded_column": {
      "latitude": "29.952150757042084",
      "longitude": "-90.09596440413841"
    }
  },
  {
    "service_request": "2024-1133603",
    "request_type": "Trash/Recycling",
    "request_reason": "Repair Trash Cart",
    "date_created": "2024-09-19T16:57:22.000",
    "date_modified": "2024-09-19T16:57:24.000",
    "request_status": "Pending",
    "responsible_agency": "Department of Sanitation",
    "final_address": "31 Curtis Dr",
    "address_councildis": "E",
    "status": "Assigned to Contractor",
    "contractor": "Waste Pro",
    "rowid": "1133603",
    "final_x": "3697695.02231",
    "final_y": "561021.802846",
    "longitude": "-90.01586147549051",
    "latitude": "30.036113093184603",
    "geocoded_column": {
      "latitude": "30.036113093184603",
      "longitude": "-90.01586147549051"
    }
  },
  {
    "service_request": "2024-1133602",
    "request_type": "Property Maintenance",
    "request_reason": "Property Maintenance",
    "date_created": "2024-09-19T16:54:25.000",
    "date_modified": "2024-09-19T16:54:25.000",
    "request_status": "Pending",
    "responsible_agency": "Department of Code Enforcement",
    "final_address": "1629 Deslonde St",
    "address_councildis": "E",
    "status": "Pending",
    "rowid": "1133602",
    "final_x": "3696001.56803",
    "final_y": "536489.966407",
    "longitude": "-90.02210024347866",
    "latitude": "29.96871306213204",
    "geocoded_column": {
      "latitude": "29.96871306213204",
      "longitude": "-90.02210024347866"
    }
  },
  {
    "service_request": "2024-1133601",
    "request_type": "Roads and Streets",
    "request_reason": "Pothole",
    "date_created": "2024-09-19T16:53:48.000",
    "date_modified": "2024-09-19T16:53:49.000",
    "request_status": "Pending",
    "responsible_agency": "Department of Public Works",
    "final_address": "1600 BLK Clouet St",
    "address_councildis": "D",
    "status": "Pending",
    "rowid": "1133601",
    "final_x": "3689520.77348",
    "final_y": "538070.98795",
    "longitude": "-90.04251065784919",
    "latitude": "29.97326264451034",
    "geocoded_column": {
      "latitude": "29.97326264451034",
      "longitude": "-90.04251065784919"
    }
  },
  {
    "service_request": "2024-1133600",
    "request_type": "Street and Traffic Signs",
    "request_reason": "Stop Sign Missing or Damaged",
    "date_created": "2024-09-19T16:52:11.000",
    "date_modified": "2024-09-19T16:52:12.000",
    "request_status": "Pending",
    "responsible_agency": "Department of Public Works",
    "final_address": "N CLAIBORNE AV OVERPASS & CLOUET ST & N CLAIBORNE AVE",
    "address_councildis": "D",
    "status": "Pending",
    "rowid": "1133600",
    "final_x": "3689466.8",
    "final_y": "537863.68",
    "longitude": "-90.04268849106715",
    "latitude": "29.972694292506898",
    "geocoded_column": {
      "latitude": "29.972694292506898",
      "longitude": "-90.04268849106715"
    }
  },
  {
    "service_request": "2024-1133599",
    "request_type": "Trash/Recycling",
    "request_reason": "Repair Trash Cart",
    "date_created": "2024-09-19T16:47:38.000",
    "date_modified": "2024-09-19T16:47:39.000",
    "request_status": "Pending",
    "responsible_agency": "Department of Sanitation",
    "final_address": "9029 Quince St",
    "address_councildis": "A",
    "status": "Assigned to Contractor",
    "contractor": "IV Waste",
    "rowid": "1133599",
    "final_x": "3667086.22324",
    "final_y": "539110.236618",
    "longitude": "-90.11332881726408",
    "latitude": "29.97679608340101",
    "geocoded_column": {
      "latitude": "29.97679608340101",
      "longitude": "-90.11332881726408"
    }
  },
  {
    "service_request": "2024-1133598",
    "request_type": "Trash/Recycling",
    "request_reason": "Request a Large Item Pick Up",
    "date_created": "2024-09-19T16:40:44.000",
    "date_modified": "2024-09-19T16:40:45.000",
    "request_status": "Pending",
    "responsible_agency": "Department of Sanitation",
    "final_address": "1426 Egania St",
    "address_councildis": "E",
    "status": "Assigned to Contractor",
    "contractor": "Waste Pro",
    "rowid": "1133598",
    "final_x": "3697143.0673",
    "final_y": "535422.686918",
    "longitude": "-90.01853401760125",
    "latitude": "29.965742457398523",
    "geocoded_column": {
      "latitude": "29.965742457398523",
      "longitude": "-90.01853401760125"
    }
  },
  {
    "service_request": "2024-1133597",
    "request_type": "Trash/Recycling",
    "request_reason": "Request a Large Item Pick Up",
    "date_created": "2024-09-19T16:37:57.000",
    "date_modified": "2024-09-19T16:37:57.000",
    "request_status": "Pending",
    "responsible_agency": "Department of Sanitation",
    "final_address": "7701 Sandy Cove Dr",
    "address_councildis": "E",
    "status": "Assigned to Contractor",
    "contractor": "Waste Pro",
    "rowid": "1133597",
    "final_x": "3715422.05951",
    "final_y": "569682.840742",
    "longitude": "-89.95951310105352",
    "latitude": "30.059355066162887",
    "geocoded_column": {
      "latitude": "30.059355066162887",
      "longitude": "-89.95951310105352"
    }
  },
  {
    "service_request": "2024-1133596",
    "request_type": "Drainage",
    "request_reason": "Catch Basin Clogged",
    "date_created": "2024-09-19T16:37:55.000",
    "date_modified": "2024-09-19T16:37:56.000",
    "request_status": "Pending",
    "responsible_agency": "Department of Public Works",
    "final_address": "931 N Rocheblave St",
    "address_councildis": "D",
    "status": "Pending",
    "rowid": "1133596",
    "final_x": "3678091.78971",
    "final_y": "537137.830344",
    "longitude": "-90.07863798277296",
    "latitude": "29.971045851605197",
    "geocoded_column": {
      "latitude": "29.971045851605197",
      "longitude": "-90.07863798277296"
    }
  },
  {
    "service_request": "2024-1133595",
    "request_type": "Streetlights",
    "request_reason": "Streetlight Outage/Malfunction",
    "date_created": "2024-09-19T16:33:21.000",
    "date_modified": "2024-09-19T16:33:22.000",
    "request_status": "Pending",
    "responsible_agency": "Department of Public Works",
    "final_address": "2709 Prentiss Ave",
    "address_councildis": "D",
    "status": "Pending",
    "contractor": "Legacy Professional Services",
    "rowid": "1133595",
    "final_x": "3687362.63286",
    "final_y": "554200.709592",
    "longitude": "-90.04875539724581",
    "latitude": "30.01768024397973",
    "geocoded_column": {
      "latitude": "30.01768024397973",
      "longitude": "-90.04875539724581"
    }
  },
  {
    "service_request": "2024-1133594",
    "request_type": "Trash/Recycling",
    "request_reason": "Request a Large Item Pick Up",
    "date_created": "2024-09-19T16:31:07.000",
    "date_modified": "2024-09-19T16:31:08.000",
    "request_status": "Pending",
    "responsible_agency": "Department of Sanitation",
    "final_address": "10937 Curran Rd",
    "address_councildis": "E",
    "status": "Assigned to Contractor",
    "contractor": "Waste Pro",
    "rowid": "1133594",
    "final_x": "3710253.42411",
    "final_y": "566030.877219",
    "longitude": "-89.97598737741485",
    "latitude": "30.04948302980104",
    "geocoded_column": {
      "latitude": "30.04948302980104",
      "longitude": "-89.97598737741485"
    }
  },
  {
    "service_request": "2024-1133593",
    "request_type": "Trash/Recycling",
    "request_reason": "Repair Trash Cart",
    "date_created": "2024-09-19T16:30:04.000",
    "date_modified": "2024-09-19T16:30:05.000",
    "request_status": "Pending",
    "responsible_agency": "Department of Sanitation",
    "final_address": "9025 Apple St",
    "address_councildis": "A",
    "status": "Assigned to Contractor",
    "contractor": "IV Waste",
    "rowid": "1133593",
    "final_x": "3662849.65728",
    "final_y": "534437.916549",
    "longitude": "-90.12686466278448",
    "latitude": "29.964072094365747",
    "geocoded_column": {
      "latitude": "29.964072094365747",
      "longitude": "-90.12686466278448"
    }
  },
  {
    "service_request": "2024-1133592",
    "request_type": "Street and Traffic Signs",
    "request_reason": "Traffic or Parking Sign Damaged or Missing",
    "date_created": "2024-09-19T16:20:39.000",
    "date_modified": "2024-09-19T16:20:39.000",
    "request_status": "Pending",
    "responsible_agency": "Department of Public Works",
    "final_address": "1631 Oretha Castle Haley Blvd",
    "address_councildis": "B",
    "status": "Pending",
    "rowid": "1133592",
    "final_x": "3677677.79938",
    "final_y": "525809.933501",
    "longitude": "-90.08033662545176",
    "latitude": "29.93991039887953",
    "geocoded_column": {
      "latitude": "29.93991039887953",
      "longitude": "-90.08033662545176"
    }
  },
  {
    "service_request": "2024-1133591",
    "request_type": "Property Maintenance",
    "request_reason": "Property Maintenance",
    "date_created": "2024-09-19T16:19:36.000",
    "date_modified": "2024-09-19T16:19:37.000",
    "request_status": "Pending",
    "responsible_agency": "Department of Code Enforcement",
    "final_address": "4126 Gibson St",
    "address_councildis": "D",
    "status": "Pending",
    "rowid": "1133591",
    "final_x": "3678698.87842",
    "final_y": "547519.262994",
    "longitude": "-90.07636105875137",
    "latitude": "29.999572880102995",
    "geocoded_column": {
      "latitude": "29.999572880102995",
      "longitude": "-90.07636105875137"
    }
  },
  {
    "service_request": "2024-1133590",
    "request_type": "Trash/Recycling",
    "request_reason": "Storm Debris Collection",
    "date_created": "2024-09-19T16:14:07.000",
    "date_modified": "2024-09-19T16:14:07.000",
    "request_status": "Pending",
    "responsible_agency": "Department of Sanitation",
    "final_address": "6635 Coventry St",
    "address_councildis": "E",
    "status": "Pending",
    "rowid": "1133590",
    "final_x": "3697730.2929",
    "final_y": "559373.122973",
    "longitude": "-90.01580992205524",
    "latitude": "30.03157874409579",
    "geocoded_column": {
      "latitude": "30.03157874409579",
      "longitude": "-90.01580992205524"
    }
  },
  {
    "service_request": "2024-1133589",
    "request_type": "Trash/Recycling",
    "request_reason": "Storm Debris Collection",
    "date_created": "2024-09-19T16:12:56.000",
    "date_modified": "2024-09-19T16:12:57.000",
    "request_status": "Pending",
    "responsible_agency": "Department of Sanitation",
    "final_address": "3514 Elysian Fields Ave",
    "address_councildis": "D",
    "status": "Pending",
    "rowid": "1133589",
    "final_x": "3684104.42165",
    "final_y": "545644.79048",
    "longitude": "-90.05935062027868",
    "latitude": "29.99425459516148",
    "geocoded_column": {
      "latitude": "29.99425459516148",
      "longitude": "-90.05935062027868"
    }
  },
  {
    "service_request": "2024-1133587",
    "request_type": "Trash/Recycling",
    "request_reason": "Storm Debris Collection",
    "date_created": "2024-09-19T16:07:02.000",
    "date_modified": "2024-09-19T16:07:03.000",
    "request_status": "Pending",
    "responsible_agency": "Department of Sanitation",
    "final_address": "7923 Means Ave",
    "address_councildis": "E",
    "status": "Pending",
    "rowid": "1133587",
    "final_x": "3707601.87134",
    "final_y": "565676.133602",
    "longitude": "-89.98438104389504",
    "latitude": "30.048593725718316",
    "geocoded_column": {
      "latitude": "30.048593725718316",
      "longitude": "-89.98438104389504"
    }
  },
  {
    "service_request": "2024-1133586",
    "request_type": "Streetlights",
    "request_reason": "Streetlight Outage/Malfunction",
    "date_created": "2024-09-19T15:55:06.000",
    "date_modified": "2024-09-19T15:55:07.000",
    "request_status": "Pending",
    "responsible_agency": "Department of Public Works",
    "final_address": "3400 BLK Almonaster Ave",
    "address_councildis": "D",
    "status": "Pending",
    "contractor": "Legacy Professional Services",
    "rowid": "1133586",
    "final_x": "3689527.66126",
    "final_y": "545885.604211",
    "longitude": "-90.04221081167968",
    "latitude": "29.994749834847937",
    "geocoded_column": {
      "latitude": "29.994749834847937",
      "longitude": "-90.04221081167968"
    }
  },
  {
    "service_request": "2024-1133585",
    "request_type": "Trash/Recycling",
    "request_reason": "Request a Large Item Pick Up",
    "date_created": "2024-09-19T15:53:04.000",
    "date_modified": "2024-09-19T15:53:05.000",
    "request_status": "Pending",
    "responsible_agency": "Department of Sanitation",
    "final_address": "817 Dumaine St",
    "address_councildis": "C",
    "status": "Assigned to Contractor",
    "contractor": "Empire Services",
    "rowid": "1133585",
    "final_x": "3682600.53967",
    "final_y": "533388.8249",
    "longitude": "-90.06452987384637",
    "latitude": "29.96060085313952",
    "geocoded_column": {
      "latitude": "29.96060085313952",
      "longitude": "-90.06452987384637"
    }
  },
  {
    "service_request": "2024-1133584",
    "request_type": "Trash/Recycling",
    "request_reason": "Illegal Dumping",
    "date_created": "2024-09-19T15:52:15.000",
    "date_modified": "2024-09-19T15:52:15.000",
    "request_status": "Pending",
    "responsible_agency": "Department of Sanitation",
    "final_address": "4600 BLK Tullis Dr",
    "address_councildis": "C",
    "status": "Pending",
    "rowid": "1133584",
    "final_x": "3701136.22532",
    "final_y": "512035.232935",
    "longitude": "-90.00677889979966",
    "latitude": "29.901308501068684",
    "geocoded_column": {
      "latitude": "29.901308501068684",
      "longitude": "-90.00677889979966"
    }
  },
  {
    "service_request": "2024-1133583",
    "request_type": "Property Maintenance",
    "request_reason": "Property Maintenance",
    "date_created": "2024-09-19T15:51:40.000",
    "date_modified": "2024-09-19T15:51:41.000",
    "request_status": "Pending",
    "responsible_agency": "Department of Code Enforcement",
    "final_address": "8075 Edgelake Ct",
    "address_councildis": "E",
    "status": "Pending",
    "rowid": "1133583",
    "final_x": "3702190.6314",
    "final_y": "562733.23024",
    "longitude": "-90.00159172695909",
    "latitude": "30.04067595439996",
    "geocoded_column": {
      "latitude": "30.04067595439996",
      "longitude": "-90.00159172695909"
    }
  },
  {
    "service_request": "2024-1133582",
    "request_type": "Trash/Recycling",
    "request_reason": "Request a Large Item Pick Up",
    "date_created": "2024-09-19T15:51:21.000",
    "date_modified": "2024-09-19T15:51:22.000",
    "request_status": "Pending",
    "responsible_agency": "Department of Sanitation",
    "final_address": "2303 St Charles Ave",
    "address_councildis": "B",
    "status": "Assigned to Contractor",
    "contractor": "IV Waste",
    "rowid": "1133582",
    "final_x": "3677060.18824",
    "final_y": "523395.865147",
    "longitude": "-90.08236972376496",
    "latitude": "29.933291059403455",
    "geocoded_column": {
      "latitude": "29.933291059403455",
      "longitude": "-90.08236972376496"
    }
  },
  {
    "service_request": "2024-1133581",
    "request_type": "Trash/Recycling",
    "request_reason": "Order Second Trash Cart",
    "date_created": "2024-09-19T15:50:24.000",
    "date_modified": "2024-09-19T15:50:25.000",
    "request_status": "Pending",
    "responsible_agency": "Department of Sanitation",
    "final_address": "8004 Trout St",
    "address_councildis": "E",
    "status": "Assigned to Contractor",
    "contractor": "Waste Pro",
    "rowid": "1133581",
    "final_x": "3699395.83504",
    "final_y": "561462.029983",
    "longitude": "-90.0104705517907",
    "latitude": "30.037269666329454",
    "geocoded_column": {
      "latitude": "30.037269666329454",
      "longitude": "-90.0104705517907"
    }
  },
  {
    "service_request": "2024-1133580",
    "request_type": "Trash/Recycling",
    "request_reason": "Storm Debris Collection",
    "date_created": "2024-09-19T15:44:40.000",
    "date_modified": "2024-09-19T15:44:41.000",
    "request_status": "Pending",
    "responsible_agency": "Department of Sanitation",
    "final_address": "4744 St Roch Ave",
    "address_councildis": "D",
    "status": "Pending",
    "rowid": "1133580",
    "final_x": "3685251.60809",
    "final_y": "550527.93602",
    "longitude": "-90.0555548045671",
    "latitude": "30.007646363851013",
    "geocoded_column": {
      "latitude": "30.007646363851013",
      "longitude": "-90.0555548045671"
    }
  },
  {
    "service_request": "2024-1133579",
    "request_type": "Trash/Recycling",
    "request_reason": "Illegal Dumping",
    "date_created": "2024-09-19T15:44:34.000",
    "date_modified": "2024-09-19T15:44:34.000",
    "request_status": "Pending",
    "responsible_agency": "Department of Sanitation",
    "final_address": "3911 Oregon St",
    "address_councildis": "C",
    "status": "Pending",
    "rowid": "1133579",
    "final_x": "3694283.15498",
    "final_y": "517907.78559",
    "longitude": "-90.028195485346",
    "latitude": "29.917672441814478",
    "geocoded_column": {
      "latitude": "29.917672441814478",
      "longitude": "-90.028195485346"
    }
  },
  {
    "service_request": "2024-1133578",
    "request_type": "Trash/Recycling",
    "request_reason": "Request a Large Item Pick Up",
    "date_created": "2024-09-19T15:41:15.000",
    "date_modified": "2024-09-19T15:41:16.000",
    "request_status": "Pending",
    "responsible_agency": "Department of Sanitation",
    "final_address": "8004 Trout St",
    "address_councildis": "E",
    "status": "Assigned to Contractor",
    "contractor": "Waste Pro",
    "rowid": "1133578",
    "final_x": "3699395.83504",
    "final_y": "561462.029983",
    "longitude": "-90.0104705517907",
    "latitude": "30.037269666329454",
    "geocoded_column": {
      "latitude": "30.037269666329454",
      "longitude": "-90.0104705517907"
    }
  },
  {
    "service_request": "2024-1133577",
    "request_type": "Trash/Recycling",
    "request_reason": "Order Trash Cart",
    "date_created": "2024-09-19T15:41:10.000",
    "date_modified": "2024-09-19T15:41:18.000",
    "request_status": "Pending",
    "responsible_agency": "Department of Sanitation",
    "final_address": "144 Pinewood Ct",
    "address_councildis": "C",
    "status": "Assigned to Contractor",
    "contractor": "Richards Disposal",
    "rowid": "1133577",
    "final_x": "3695933.15126",
    "final_y": "523395.439867",
    "longitude": "-90.02278927984466",
    "latitude": "29.932709844539893",
    "geocoded_column": {
      "latitude": "29.932709844539893",
      "longitude": "-90.02278927984466"
    }
  },
  {
    "service_request": "2024-1133576",
    "request_type": "Trash/Recycling",
    "request_reason": "Illegal Dumping",
    "date_created": "2024-09-19T15:40:48.000",
    "date_modified": "2024-09-19T15:40:48.000",
    "request_status": "Pending",
    "responsible_agency": "Department of Sanitation",
    "final_address": "3600 BLK Nevada St",
    "address_councildis": "C",
    "status": "Pending",
    "rowid": "1133576",
    "final_x": "3694413.5278",
    "final_y": "519030.881673",
    "longitude": "-90.02774358068751",
    "latitude": "29.920756494053965",
    "geocoded_column": {
      "latitude": "29.920756494053965",
      "longitude": "-90.02774358068751"
    }
  },
  {
    "service_request": "2024-1133575",
    "request_type": "Property Maintenance",
    "request_reason": "Property Maintenance",
    "date_created": "2024-09-19T15:39:06.000",
    "date_modified": "2024-09-19T15:39:07.000",
    "request_status": "Pending",
    "responsible_agency": "Department of Code Enforcement",
    "final_address": "7509 Forest Glen Rd",
    "address_councildis": "E",
    "status": "Pending",
    "rowid": "1133575",
    "final_x": "3710017.55243",
    "final_y": "564475.967777",
    "longitude": "-89.97679105160582",
    "latitude": "30.04521533542519",
    "geocoded_column": {
      "latitude": "30.04521533542519",
      "longitude": "-89.97679105160582"
    }
  },
  {
    "service_request": "2024-1133574",
    "request_type": "Trash/Recycling",
    "request_reason": "Request a Large Item Pick Up",
    "date_created": "2024-09-19T15:37:56.000",
    "date_modified": "2024-09-19T15:37:57.000",
    "request_status": "Pending",
    "responsible_agency": "Department of Sanitation",
    "final_address": "2824 Carondelet St",
    "address_councildis": "B",
    "status": "Assigned to Contractor",
    "contractor": "IV Waste",
    "rowid": "1133574",
    "final_x": "3675535.22741",
    "final_y": "522704.100602",
    "longitude": "-90.08720768501283",
    "latitude": "29.93143462232989",
    "geocoded_column": {
      "latitude": "29.93143462232989",
      "longitude": "-90.08720768501283"
    }
  },
  {
    "service_request": "2024-1133573",
    "request_type": "Trash/Recycling",
    "request_reason": "Request a Large Item Pick Up",
    "date_created": "2024-09-19T15:34:29.000",
    "date_modified": "2024-09-19T15:34:30.000",
    "request_status": "Pending",
    "responsible_agency": "Department of Sanitation",
    "final_address": "2824 Carondelet St",
    "address_councildis": "B",
    "status": "Assigned to Contractor",
    "contractor": "IV Waste",
    "rowid": "1133573",
    "final_x": "3675535.22741",
    "final_y": "522704.100602",
    "longitude": "-90.08720768501283",
    "latitude": "29.93143462232989",
    "geocoded_column": {
      "latitude": "29.93143462232989",
      "longitude": "-90.08720768501283"
    }
  },
  {
    "service_request": "2024-1133572",
    "request_type": "Drainage",
    "request_reason": "Street Flooding",
    "date_created": "2024-09-19T15:33:26.000",
    "date_modified": "2024-09-19T15:33:26.000",
    "request_status": "Pending",
    "responsible_agency": "Department of Public Works",
    "final_address": "1225 S Dupre St",
    "address_councildis": "B",
    "status": "Pending",
    "rowid": "1133572",
    "final_x": "3671448.83175",
    "final_y": "531317.543042",
    "longitude": "-90.09981524767834",
    "latitude": "29.955240343244864",
    "geocoded_column": {
      "latitude": "29.955240343244864",
      "longitude": "-90.09981524767834"
    }
  },
  {
    "service_request": "2024-1133571",
    "request_type": "Trash/Recycling",
    "request_reason": "Request a Large Item Pick Up",
    "date_created": "2024-09-19T15:29:54.000",
    "date_modified": "2024-09-19T15:29:55.000",
    "request_status": "Pending",
    "responsible_agency": "Department of Sanitation",
    "final_address": "4767 Lancelot Dr",
    "address_councildis": "E",
    "status": "Assigned to Contractor",
    "contractor": "Waste Pro",
    "rowid": "1133571",
    "final_x": "3707503.41643",
    "final_y": "555678.689369",
    "longitude": "-89.98506401555545",
    "latitude": "30.02110788641665",
    "geocoded_column": {
      "latitude": "30.02110788641665",
      "longitude": "-89.98506401555545"
    }
  },
  {
    "service_request": "2024-1133570",
    "request_type": "Trash/Recycling",
    "request_reason": "Request a Large Item Pick Up",
    "date_created": "2024-09-19T15:29:21.000",
    "date_modified": "2024-09-19T15:29:22.000",
    "request_status": "Pending",
    "responsible_agency": "Department of Sanitation",
    "final_address": "6026 Constance St",
    "address_councildis": "A",
    "status": "Assigned to Contractor",
    "contractor": "IV Waste",
    "rowid": "1133570",
    "final_x": "3664348.7392",
    "final_y": "518935.276343",
    "longitude": "-90.12264793929873",
    "latitude": "29.921401313041695",
    "geocoded_column": {
      "latitude": "29.921401313041695",
      "longitude": "-90.12264793929873"
    }
  },
  {
    "service_request": "2024-1133569",
    "request_type": "Trash/Recycling",
    "request_reason": "MIssed Recycling Pick-Up",
    "date_created": "2024-09-19T15:23:02.000",
    "date_modified": "2024-09-19T15:26:19.000",
    "case_close_date": "2024-09-19T10:26:19.000",
    "request_status": "Closed",
    "responsible_agency": "Department of Sanitation",
    "final_address": "7911 Jeannette St",
    "address_councildis": "A",
    "status": "Invalid Request",
    "contractor": "IV Waste",
    "contractor_action": "Invalid",
    "rowid": "1133569",
    "final_x": "3663202.66061",
    "final_y": "528727.407936",
    "longitude": "-90.12593992459634",
    "latitude": "29.9483598234777",
    "geocoded_column": {
      "latitude": "29.9483598234777",
      "longitude": "-90.12593992459634"
    }
  },
  {
    "service_request": "2024-1133568",
    "request_type": "Trash/Recycling",
    "request_reason": "Storm Debris Collection",
    "date_created": "2024-09-19T15:22:05.000",
    "date_modified": "2024-09-19T15:22:06.000",
    "request_status": "Pending",
    "responsible_agency": "Department of Sanitation",
    "final_address": "2801 Holiday Dr",
    "address_councildis": "C",
    "status": "Pending",
    "rowid": "1133568",
    "final_x": "3698709.33661",
    "final_y": "520980.780985",
    "longitude": "-90.01411290319393",
    "latitude": "29.92598276303555",
    "geocoded_column": {
      "latitude": "29.92598276303555",
      "longitude": "-90.01411290319393"
    }
  },
  {
    "service_request": "2024-1133567",
    "request_type": "Parks & Parkways",
    "request_reason": "Request Tree Service (Right of Way/Public Property)",
    "date_created": "2024-09-19T15:18:50.000",
    "date_modified": "2024-09-19T15:18:51.000",
    "request_status": "Pending",
    "responsible_agency": "Department of Parks & Parkway",
    "final_address": "6322 St Claude Ave",
    "address_councildis": "E",
    "status": "Pending",
    "rowid": "1133567",
    "final_x": "3700278.78698",
    "final_y": "532942.59802",
    "longitude": "-90.00872213140836",
    "latitude": "29.958823792539302",
    "geocoded_column": {
      "latitude": "29.958823792539302",
      "longitude": "-90.00872213140836"
    }
  },
  {
    "service_request": "2024-1133566",
    "request_type": "Trash/Recycling",
    "request_reason": "Order Trash Cart",
    "date_created": "2024-09-19T15:17:39.000",
    "date_modified": "2024-09-19T15:17:40.000",
    "request_status": "Pending",
    "responsible_agency": "Department of Sanitation",
    "final_address": "1931 Annunciation St Unit K",
    "address_councildis": "B",
    "status": "Assigned to Contractor",
    "contractor": "IV Waste",
    "rowid": "1133566",
    "final_x": "3680319.27759",
    "final_y": "521956.081722",
    "longitude": "-90.07213101507001",
    "latitude": "29.929233890650107",
    "geocoded_column": {
      "latitude": "29.929233890650107",
      "longitude": "-90.07213101507001"
    }
  },
  {
    "service_request": "2024-1133565",
    "request_type": "Trash/Recycling",
    "request_reason": "Storm Debris Collection",
    "date_created": "2024-09-19T15:14:07.000",
    "date_modified": "2024-09-19T15:14:13.000",
    "request_status": "Pending",
    "responsible_agency": "Department of Sanitation",
    "final_address": "207 Brunswick Ct",
    "address_councildis": "C",
    "status": "Pending",
    "rowid": "1133565",
    "final_x": "3706255.78423",
    "final_y": "516968.225269",
    "longitude": "-89.99043963198636",
    "latitude": "29.914708572089257",
    "geocoded_column": {
      "latitude": "29.914708572089257",
      "longitude": "-89.99043963198636"
    }
  },
  {
    "service_request": "2024-1133564",
    "request_type": "Property Maintenance",
    "request_reason": "Property Maintenance",
    "date_created": "2024-09-19T15:13:55.000",
    "date_modified": "2024-09-19T15:13:59.000",
    "request_status": "Pending",
    "responsible_agency": "Department of Code Enforcement",
    "final_address": "1235 Alvar St",
    "address_councildis": "D",
    "status": "Pending",
    "rowid": "1133564",
    "final_x": "3691691.43312",
    "final_y": "536026.711367",
    "longitude": "-90.03572841559156",
    "latitude": "29.96757419048736",
    "geocoded_column": {
      "latitude": "29.96757419048736",
      "longitude": "-90.03572841559156"
    }
  },
  {
    "service_request": "2024-1133563",
    "request_type": "Trash/Recycling",
    "request_reason": "Request a Large Item Pick Up",
    "date_created": "2024-09-19T15:12:59.000",
    "date_modified": "2024-09-19T15:13:00.000",
    "request_status": "Pending",
    "responsible_agency": "Department of Sanitation",
    "final_address": "206 Fairway Dr",
    "address_councildis": "A",
    "status": "Assigned to Contractor",
    "contractor": "IV Waste",
    "rowid": "1133563",
    "final_x": "3664089.48871",
    "final_y": "540911.066315",
    "longitude": "-90.12273339797012",
    "latitude": "29.981835156162713",
    "geocoded_column": {
      "latitude": "29.981835156162713",
      "longitude": "-90.12273339797012"
    }
  },
  {
    "service_request": "2024-1133562",
    "request_type": "Trash/Recycling",
    "request_reason": "Repair Trash Cart",
    "date_created": "2024-09-19T15:11:55.000",
    "date_modified": "2024-09-19T15:11:56.000",
    "request_status": "Pending",
    "responsible_agency": "Department of Sanitation",
    "final_address": "7030 Crowder Blvd",
    "address_councildis": "E",
    "status": "Assigned to Contractor",
    "contractor": "Waste Pro",
    "rowid": "1133562",
    "final_x": "3704323.54346",
    "final_y": "559568.309661",
    "longitude": "-89.9949678856877",
    "latitude": "30.03190533051799",
    "geocoded_column": {
      "latitude": "30.03190533051799",
      "longitude": "-89.9949678856877"
    }
  },
  {
    "service_request": "2024-1133561",
    "request_type": "General Services",
    "request_reason": "General Service Request",
    "date_created": "2024-09-19T15:11:50.000",
    "date_modified": "2024-09-19T15:11:50.000",
    "request_status": "Pending",
    "responsible_agency": "Orleans Parish Communication District",
    "final_address": "New Orleans,LA",
    "status": "Pending",
    "rowid": "1133561",
    "longitude": "0.0",
    "latitude": "0.0",
    "geocoded_column": {
      "latitude": "0.0",
      "longitude": "0.0"
    }
  },
  {
    "service_request": "2024-1133560",
    "request_type": "Trash/Recycling",
    "request_reason": "Start Trash Service",
    "date_created": "2024-09-19T15:09:34.000",
    "date_modified": "2024-09-19T15:09:35.000",
    "request_status": "Pending",
    "responsible_agency": "Department of Sanitation",
    "final_address": "4213 Burgundy St",
    "address_councildis": "C",
    "status": "Assigned to Contractor",
    "contractor": "IV Waste",
    "rowid": "1133560",
    "final_x": "3692332.47523",
    "final_y": "534423.981637",
    "longitude": "-90.03376140376393",
    "latitude": "29.963147271428266",
    "geocoded_column": {
      "latitude": "29.963147271428266",
      "longitude": "-90.03376140376393"
    }
  },
  {
    "service_request": "2024-1133559",
    "request_type": "Trash/Recycling",
    "request_reason": "Repair Trash Cart",
    "date_created": "2024-09-19T15:08:12.000",
    "date_modified": "2024-09-19T15:08:13.000",
    "request_status": "Pending",
    "responsible_agency": "Department of Sanitation",
    "final_address": "3123 General Ogden St",
    "address_councildis": "A",
    "status": "Assigned to Contractor",
    "contractor": "IV Waste",
    "rowid": "1133559",
    "final_x": "3664600.24845",
    "final_y": "535421.566598",
    "longitude": "-90.12130357000807",
    "latitude": "29.96672600991272",
    "geocoded_column": {
      "latitude": "29.96672600991272",
      "longitude": "-90.12130357000807"
    }
  },
  {
    "service_request": "2024-1133558",
    "request_type": "Trash/Recycling",
    "request_reason": "Request a Large Item Pick Up",
    "date_created": "2024-09-19T15:06:18.000",
    "date_modified": "2024-09-19T15:06:19.000",
    "request_status": "Pending",
    "responsible_agency": "Department of Sanitation",
    "final_address": "2349 Magazine St",
    "address_councildis": "B",
    "status": "Assigned to Contractor",
    "contractor": "IV Waste",
    "rowid": "1133558",
    "final_x": "3678204.50888",
    "final_y": "521638.406009",
    "longitude": "-90.07881791789399",
    "latitude": "29.92842422034972",
    "geocoded_column": {
      "latitude": "29.92842422034972",
      "longitude": "-90.07881791789399"
    }
  },
  {
    "service_request": "2024-1133557",
    "request_type": "Trash/Recycling",
    "request_reason": "Return Trash Cart",
    "date_created": "2024-09-19T15:05:58.000",
    "date_modified": "2024-09-19T15:05:59.000",
    "request_status": "Pending",
    "responsible_agency": "Department of Sanitation",
    "final_address": "6320 Story St",
    "address_councildis": "A",
    "status": "Assigned to Contractor",
    "contractor": "IV Waste",
    "rowid": "1133557",
    "final_x": "3666239.76301",
    "final_y": "526661.745854",
    "longitude": "-90.1164197645784",
    "latitude": "29.942591573655502",
    "geocoded_column": {
      "latitude": "29.942591573655502",
      "longitude": "-90.1164197645784"
    }
  },
  {
    "service_request": "2024-1133556",
    "request_type": "Trash/Recycling",
    "request_reason": "Request a Large Item Pick Up",
    "date_created": "2024-09-19T15:04:48.000",
    "date_modified": "2024-09-19T15:04:49.000",
    "request_status": "Pending",
    "responsible_agency": "Department of Sanitation",
    "final_address": "5219 Camp St",
    "address_councildis": "B",
    "status": "Assigned to Contractor",
    "contractor": "IV Waste",
    "rowid": "1133556",
    "final_x": "3667899.08001",
    "final_y": "519067.038519",
    "longitude": "-90.11143659721783",
    "latitude": "29.92165999246175",
    "geocoded_column": {
      "latitude": "29.92165999246175",
      "longitude": "-90.11143659721783"
    }
  },
  {
    "service_request": "2024-1133555",
    "request_type": "Trash/Recycling",
    "request_reason": "Missed Trash Pick-Up",
    "date_created": "2024-09-19T15:02:34.000",
    "date_modified": "2024-09-19T15:02:35.000",
    "request_status": "Pending",
    "responsible_agency": "Department of Sanitation",
    "final_address": "13943 Dwyer Blvd",
    "address_councildis": "E",
    "status": "Assigned to Contractor",
    "contractor": "Waste Pro",
    "rowid": "1133555",
    "final_x": "3728010.59366",
    "final_y": "562847.085472",
    "longitude": "-89.91998876990938",
    "latitude": "30.04013859774557",
    "geocoded_column": {
      "latitude": "30.04013859774557",
      "longitude": "-89.91998876990938"
    }
  },
  {
    "service_request": "2024-1133554",
    "request_type": "Trash/Recycling",
    "request_reason": "Storm Debris Collection",
    "date_created": "2024-09-19T15:01:25.000",
    "date_modified": "2024-09-19T15:01:25.000",
    "request_status": "Pending",
    "responsible_agency": "Department of Sanitation",
    "final_address": "4112 Clermont Dr",
    "address_councildis": "D",
    "status": "Pending",
    "rowid": "1133554",
    "final_x": "3684619.13314",
    "final_y": "547743.30581",
    "longitude": "-90.05765091706218",
    "latitude": "30.00000901471466",
    "geocoded_column": {
      "latitude": "30.00000901471466",
      "longitude": "-90.05765091706218"
    }
  },
  {
    "service_request": "2024-1133553",
    "request_type": "Abandoned Vehicles",
    "request_reason": "Abandoned/Junk Vehicles",
    "date_created": "2024-09-19T15:00:44.000",
    "date_modified": "2024-09-19T15:00:45.000",
    "request_status": "Pending",
    "responsible_agency": "Department of Public Works",
    "final_address": "4100 BLK Urquhart St",
    "address_councildis": "D",
    "status": "Pending",
    "rowid": "1133553",
    "final_x": "3692429.2798",
    "final_y": "535924.107401",
    "longitude": "-90.0334019649263",
    "latitude": "29.967269069795474",
    "geocoded_column": {
      "latitude": "29.967269069795474",
      "longitude": "-90.0334019649263"
    }
  },
  {
    "service_request": "2024-1133552",
    "request_type": "Trash/Recycling",
    "request_reason": "Storm Debris Collection",
    "date_created": "2024-09-19T15:00:31.000",
    "date_modified": "2024-09-19T15:00:32.000",
    "request_status": "Pending",
    "responsible_agency": "Department of Sanitation",
    "final_address": "4115 Clermont Dr",
    "address_councildis": "D",
    "status": "Pending",
    "rowid": "1133552",
    "final_x": "3684824.23522",
    "final_y": "547722.649234",
    "longitude": "-90.05700371751865",
    "latitude": "29.99994593633786",
    "geocoded_column": {
      "latitude": "29.99994593633786",
      "longitude": "-90.05700371751865"
    }
  },
  {
    "service_request": "2024-1133551",
    "request_type": "Trash/Recycling",
    "request_reason": "Order Recycling Cart",
    "date_created": "2024-09-19T14:57:47.000",
    "date_modified": "2024-09-19T14:57:48.000",
    "request_status": "Pending",
    "responsible_agency": "Department of Sanitation",
    "final_address": "1000 Eighth St",
    "address_councildis": "B",
    "status": "Pending",
    "rowid": "1133551",
    "final_x": "3676275.35061",
    "final_y": "519909.05452",
    "longitude": "-90.08496733500358",
    "latitude": "29.92372699937608",
    "geocoded_column": {
      "latitude": "29.92372699937608",
      "longitude": "-90.08496733500358"
    }
  },
  {
    "service_request": "2024-1133550",
    "request_type": "Streetlights",
    "request_reason": "New Streetlight Request",
    "date_created": "2024-09-19T14:56:04.000",
    "date_modified": "2024-09-19T14:56:05.000",
    "request_status": "Pending",
    "responsible_agency": "Department of Public Works",
    "final_address": "2039 Sixth St",
    "address_councildis": "B",
    "status": "Pending",
    "contractor": "Legacy Professional Services",
    "rowid": "1133550",
    "final_x": "3674559.11304",
    "final_y": "523729.005499",
    "longitude": "-90.09025406329164",
    "latitude": "29.934281930757383",
    "geocoded_column": {
      "latitude": "29.934281930757383",
      "longitude": "-90.09025406329164"
    }
  },
  {
    "service_request": "2024-1133549",
    "request_type": "Parks & Parkways",
    "request_reason": "Request Tree Service (Right of Way/Public Property)",
    "date_created": "2024-09-19T14:55:11.000",
    "date_modified": "2024-09-19T14:55:12.000",
    "request_status": "Pending",
    "responsible_agency": "Department of Parks & Parkway",
    "final_address": "2039 Sixth St",
    "address_councildis": "B",
    "status": "Pending",
    "rowid": "1133549",
    "final_x": "3674559.11304",
    "final_y": "523729.005499",
    "longitude": "-90.09025406329164",
    "latitude": "29.934281930757383",
    "geocoded_column": {
      "latitude": "29.934281930757383",
      "longitude": "-90.09025406329164"
    }
  },
  {
    "service_request": "2024-1133548",
    "request_type": "Trash/Recycling",
    "request_reason": "MIssed Recycling Pick-Up",
    "date_created": "2024-09-19T14:49:05.000",
    "date_modified": "2024-09-19T15:25:38.000",
    "case_close_date": "2024-09-19T10:25:38.000",
    "request_status": "Closed",
    "responsible_agency": "Department of Sanitation",
    "final_address": "1817 Short St",
    "address_councildis": "A",
    "status": "Invalid Request",
    "contractor": "IV Waste",
    "contractor_action": "Invalid",
    "rowid": "1133548",
    "final_x": "3663843.43117",
    "final_y": "529707.157505",
    "longitude": "-90.12388408528567",
    "latitude": "29.951035237797623",
    "geocoded_column": {
      "latitude": "29.951035237797623",
      "longitude": "-90.12388408528567"
    }
  },
  {
    "service_request": "2024-1133547",
    "request_type": "Trash/Recycling",
    "request_reason": "Order Recycling Cart",
    "date_created": "2024-09-19T14:48:04.000",
    "date_modified": "2024-09-19T14:48:04.000",
    "request_status": "Pending",
    "responsible_agency": "Department of Sanitation",
    "final_address": "2915 Perdido St",
    "address_councildis": "B",
    "status": "Pending",
    "rowid": "1133547",
    "final_x": "3672823.97793",
    "final_y": "533430.1529",
    "longitude": "-90.09540096416663",
    "latitude": "29.961008540204716",
    "geocoded_column": {
      "latitude": "29.961008540204716",
      "longitude": "-90.09540096416663"
    }
  },
  {
    "service_request": "2024-1133546",
    "request_type": "Trash/Recycling",
    "request_reason": "Return Recycling Cart",
    "date_created": "2024-09-19T14:46:16.000",
    "date_modified": "2024-09-19T14:46:17.000",
    "request_status": "Pending",
    "responsible_agency": "Department of Sanitation",
    "final_address": "4949 Music St",
    "address_councildis": "D",
    "status": "Pending",
    "rowid": "1133546",
    "final_x": "3685631.52745",
    "final_y": "551203.697621",
    "longitude": "-90.05433070082286",
    "latitude": "30.009492807479266",
    "geocoded_column": {
      "latitude": "30.009492807479266",
      "longitude": "-90.05433070082286"
    }
  },
  {
    "service_request": "2024-1133545",
    "request_type": "Trash/Recycling",
    "request_reason": "Storm Debris Collection",
    "date_created": "2024-09-19T14:44:01.000",
    "date_modified": "2024-09-19T14:44:02.000",
    "request_status": "Pending",
    "responsible_agency": "Department of Sanitation",
    "final_address": "4911 Warren Dr",
    "address_councildis": "E",
    "status": "Pending",
    "rowid": "1133545",
    "final_x": "3713447.33579",
    "final_y": "557098.692698",
    "longitude": "-89.96622958185019",
    "latitude": "30.02481868695864",
    "geocoded_column": {
      "latitude": "30.02481868695864",
      "longitude": "-89.96622958185019"
    }
  },
  {
    "service_request": "2024-1133544",
    "request_type": "Trash/Recycling",
    "request_reason": "Return Trash Cart",
    "date_created": "2024-09-19T14:41:10.000",
    "date_modified": "2024-09-19T14:41:11.000",
    "request_status": "Pending",
    "responsible_agency": "Department of Sanitation",
    "final_address": "2026 Toledano St",
    "address_councildis": "B",
    "status": "Assigned to Contractor",
    "contractor": "IV Waste",
    "rowid": "1133544",
    "final_x": "3673869.04392",
    "final_y": "523219.157435",
    "longitude": "-90.09245002431228",
    "latitude": "29.93290058089704",
    "geocoded_column": {
      "latitude": "29.93290058089704",
      "longitude": "-90.09245002431228"
    }
  },
  {
    "service_request": "2024-1133543",
    "request_type": "Trash/Recycling",
    "request_reason": "Request a Large Item Pick Up",
    "date_created": "2024-09-19T14:39:55.000",
    "date_modified": "2024-09-19T14:39:56.000",
    "request_status": "Pending",
    "responsible_agency": "Department of Sanitation",
    "final_address": "3336 Plymouth Pl",
    "address_councildis": "C",
    "status": "Assigned to Contractor",
    "contractor": "Richards Disposal",
    "rowid": "1133543",
    "final_x": "3702865.27729",
    "final_y": "518848.510391",
    "longitude": "-90.00107217548756",
    "latitude": "29.919987535463196",
    "geocoded_column": {
      "latitude": "29.919987535463196",
      "longitude": "-90.00107217548756"
    }
  },
  {
    "service_request": "2024-1133542",
    "request_type": "Hurricane Francine Tree-Related Issues or Emergencies\t",
    "request_reason": "Hurricane Francine Tree-Related Issues or Emergencies",
    "date_created": "2024-09-19T14:39:41.000",
    "date_modified": "2024-09-19T14:39:41.000",
    "request_status": "Pending",
    "responsible_agency": "Department of Parks & Parkway",
    "final_address": "0 BLK Across St",
    "address_councildis": "E",
    "status": "Pending",
    "rowid": "1133542",
    "final_x": "3711887.63918",
    "final_y": "553972.247814",
    "longitude": "-89.97127534652184",
    "latitude": "30.01627326470007",
    "geocoded_column": {
      "latitude": "30.01627326470007",
      "longitude": "-89.97127534652184"
    }
  },
  {
    "service_request": "2024-1133541",
    "request_type": "Trash/Recycling",
    "request_reason": "Illegal Dumping",
    "date_created": "2024-09-19T14:36:06.000",
    "date_modified": "2024-09-19T14:36:06.000",
    "request_status": "Pending",
    "responsible_agency": "Department of Sanitation",
    "final_address": "2600 BLK Congress St",
    "address_councildis": "D",
    "status": "Pending",
    "rowid": "1133541",
    "final_x": "3692218.69328",
    "final_y": "541603.037645",
    "longitude": "-90.03386361075611",
    "latitude": "29.982890674521116",
    "geocoded_column": {
      "latitude": "29.982890674521116",
      "longitude": "-90.03386361075611"
    }
  },
  {
    "service_request": "2024-1133540",
    "request_type": "Trash/Recycling",
    "request_reason": "Storm Debris Collection",
    "date_created": "2024-09-19T14:35:19.000",
    "date_modified": "2024-09-19T14:35:21.000",
    "request_status": "Pending",
    "responsible_agency": "Department of Sanitation",
    "final_address": "202 Fairfax Pl",
    "address_councildis": "C",
    "status": "Pending",
    "rowid": "1133540",
    "final_x": "3706147.04196",
    "final_y": "517505.955702",
    "longitude": "-89.99076297110616",
    "latitude": "29.916190648726104",
    "geocoded_column": {
      "latitude": "29.916190648726104",
      "longitude": "-89.99076297110616"
    }
  },
  {
    "service_request": "2024-1133539",
    "request_type": "Streetlights",
    "request_reason": "Streetlight Outage/Malfunction",
    "date_created": "2024-09-19T14:33:39.000",
    "date_modified": "2024-09-19T14:33:40.000",
    "request_status": "Pending",
    "responsible_agency": "Department of Public Works",
    "final_address": "3100 Audubon St",
    "address_councildis": "B",
    "status": "Pending",
    "contractor": "Legacy Professional Services",
    "rowid": "1133539",
    "final_x": "3668118.56673",
    "final_y": "531997.339011",
    "longitude": "-90.11030812184775",
    "latitude": "29.95720771674986",
    "geocoded_column": {
      "latitude": "29.95720771674986",
      "longitude": "-90.11030812184775"
    }
  },
  {
    "service_request": "2024-1133538",
    "request_type": "Abandoned Vehicles",
    "request_reason": "Abandoned/Junk Vehicles",
    "date_created": "2024-09-19T14:32:58.000",
    "date_modified": "2024-09-19T14:32:59.000",
    "request_status": "Pending",
    "responsible_agency": "Department of Public Works",
    "final_address": "2000 BLK Hope St",
    "address_councildis": "D",
    "status": "Pending",
    "rowid": "1133538",
    "final_x": "3682858.44396",
    "final_y": "542060.11219",
    "longitude": "-90.06341199065032",
    "latitude": "29.9844360302356",
    "geocoded_column": {
      "latitude": "29.9844360302356",
      "longitude": "-90.06341199065032"
    }
  },
  {
    "service_request": "2024-1133537",
    "request_type": "Streetlights",
    "request_reason": "Streetlight Outage/Malfunction",
    "date_created": "2024-09-19T14:32:24.000",
    "date_modified": "2024-09-19T14:32:25.000",
    "request_status": "Pending",
    "responsible_agency": "Department of Public Works",
    "final_address": "11228 Will Stutley Dr",
    "address_councildis": "E",
    "status": "Pending",
    "contractor": "Legacy Professional Services",
    "rowid": "1133537",
    "final_x": "3716794.96293",
    "final_y": "558190.161307",
    "longitude": "-89.9556102911253",
    "latitude": "30.027709543505843",
    "geocoded_column": {
      "latitude": "30.027709543505843",
      "longitude": "-89.9556102911253"
    }
  },
  {
    "service_request": "2024-1133536",
    "request_type": "Streetlights",
    "request_reason": "Streetlight Outage/Malfunction",
    "date_created": "2024-09-19T14:30:02.000",
    "date_modified": "2024-09-19T14:30:03.000",
    "request_status": "Pending",
    "responsible_agency": "Department of Public Works",
    "final_address": "1119 Bourbon St",
    "address_councildis": "C",
    "status": "Pending",
    "contractor": "Legacy Professional Services",
    "rowid": "1133536",
    "final_x": "3683232.9846",
    "final_y": "533993.314629",
    "longitude": "-90.06251157014097",
    "latitude": "29.96224372125238",
    "geocoded_column": {
      "latitude": "29.96224372125238",
      "longitude": "-90.06251157014097"
    }
  },
  {
    "service_request": "2024-1133535",
    "request_type": "Drainage",
    "request_reason": "Drainage Manhole Cover Missing or Damaged",
    "date_created": "2024-09-19T14:29:49.000",
    "date_modified": "2024-09-19T14:29:50.000",
    "request_status": "Pending",
    "responsible_agency": "Department of Public Works",
    "final_address": "2430 Fats Domino Ave",
    "address_councildis": "E",
    "status": "Pending",
    "rowid": "1133535",
    "final_x": "538951.36897",
    "final_y": "538951.36897",
    "longitude": "-99.97759763572994",
    "latitude": "29.69748709399531",
    "geocoded_column": {
      "latitude": "29.69748709399531",
      "longitude": "-99.97759763572994"
    }
  },
  {
    "service_request": "2024-1133534",
    "request_type": "Trash/Recycling",
    "request_reason": "Request a Large Item Pick Up",
    "date_created": "2024-09-19T14:29:49.000",
    "date_modified": "2024-09-19T14:29:50.000",
    "request_status": "Pending",
    "responsible_agency": "Department of Sanitation",
    "final_address": "1916 Benton St",
    "address_councildis": "E",
    "status": "Assigned to Contractor",
    "contractor": "Waste Pro",
    "rowid": "1133534",
    "final_x": "3699996.908",
    "final_y": "536591.601543",
    "longitude": "-90.00947910055771",
    "latitude": "29.968866202257185",
    "geocoded_column": {
      "latitude": "29.968866202257185",
      "longitude": "-90.00947910055771"
    }
  },
  {
    "service_request": "2024-1133533",
    "request_type": "Trash/Recycling",
    "request_reason": "Missed Trash Pick-Up",
    "date_created": "2024-09-19T14:29:32.000",
    "date_modified": "2024-09-19T14:29:34.000",
    "request_status": "Pending",
    "responsible_agency": "Department of Sanitation",
    "final_address": "15512 Dwyer Blvd",
    "address_councildis": "E",
    "status": "Assigned to Contractor",
    "contractor": "Waste Pro",
    "rowid": "1133533",
    "final_x": "3730930.49024",
    "final_y": "563675.772577",
    "longitude": "-89.91072860062704",
    "latitude": "30.042317787673415",
    "geocoded_column": {
      "latitude": "30.042317787673415",
      "longitude": "-89.91072860062704"
    }
  },
  {
    "service_request": "2024-1133532",
    "request_type": "Drainage",
    "request_reason": "Catch Basin Damaged",
    "date_created": "2024-09-19T14:26:39.000",
    "date_modified": "2024-09-19T14:26:40.000",
    "request_status": "Pending",
    "responsible_agency": "Department of Public Works",
    "final_address": "1241 Southlawn Blvd",
    "address_councildis": "C",
    "status": "Pending",
    "rowid": "1133532",
    "final_x": "3695127.62672",
    "final_y": "526942.655166",
    "longitude": "-90.02520440020781",
    "latitude": "29.942488774919948",
    "geocoded_column": {
      "latitude": "29.942488774919948",
      "longitude": "-90.02520440020781"
    }
  },
  {
    "service_request": "2024-1133531",
    "request_type": "Roads and Streets",
    "request_reason": "Sidewalk Damaged or Missing",
    "date_created": "2024-09-19T14:26:38.000",
    "date_modified": "2024-09-19T14:26:39.000",
    "request_status": "Pending",
    "responsible_agency": "Department of Public Works",
    "final_address": "6911 Whitmore Pl",
    "address_councildis": "E",
    "status": "Pending",
    "rowid": "1133531",
    "final_x": "3719482.39628",
    "final_y": "568693.066981",
    "longitude": "-89.94671668709779",
    "latitude": "30.056499118688414",
    "geocoded_column": {
      "latitude": "30.056499118688414",
      "longitude": "-89.94671668709779"
    }
  },
  {
    "service_request": "2024-1133530",
    "request_type": "Abandoned Vehicles",
    "request_reason": "Abandoned/Junk Vehicles",
    "date_created": "2024-09-19T14:25:58.000",
    "date_modified": "2024-09-19T14:28:23.000",
    "request_status": "Pending",
    "responsible_agency": "Department of Public Works",
    "final_address": "6235 Waldo Dr",
    "address_councildis": "D",
    "status": "Pending",
    "rowid": "1133530",
    "final_x": "3681127.96987",
    "final_y": "556032.864537",
    "longitude": "-90.06839057522275",
    "latitude": "30.02290871420191",
    "geocoded_column": {
      "latitude": "30.02290871420191",
      "longitude": "-90.06839057522275"
    }
  },
  {
    "service_request": "2024-1133529",
    "request_type": "Trash/Recycling",
    "request_reason": "Replace Trash Cart",
    "date_created": "2024-09-19T14:24:20.000",
    "date_modified": "2024-09-19T14:24:21.000",
    "request_status": "Pending",
    "responsible_agency": "Department of Sanitation",
    "final_address": "1913 N Robertson St",
    "address_councildis": "C",
    "status": "Assigned to Contractor",
    "contractor": "IV Waste",
    "rowid": "1133529",
    "final_x": "3683889.31817",
    "final_y": "537729.954696",
    "longitude": "-90.06030787295644",
    "latitude": "29.972498157983708",
    "geocoded_column": {
      "latitude": "29.972498157983708",
      "longitude": "-90.06030787295644"
    }
  },
  {
    "service_request": "2024-1133528",
    "request_type": "Trash/Recycling",
    "request_reason": "Missed Trash Pick-Up",
    "date_created": "2024-09-19T14:24:15.000",
    "date_modified": "2024-09-19T14:24:16.000",
    "request_status": "Pending",
    "responsible_agency": "Department of Sanitation",
    "final_address": "15524 Dwyer Blvd",
    "address_councildis": "E",
    "status": "Assigned to Contractor",
    "contractor": "Waste Pro",
    "rowid": "1133528",
    "final_x": "3731008.28288",
    "final_y": "563719.440993",
    "longitude": "-89.91048103597328",
    "latitude": "30.042435201619636",
    "geocoded_column": {
      "latitude": "30.042435201619636",
      "longitude": "-89.91048103597328"
    }
  },
  {
    "service_request": "2024-1133527",
    "request_type": "Parks & Parkways",
    "request_reason": "Request Tree Service (Right of Way/Public Property)",
    "date_created": "2024-09-19T14:23:18.000",
    "date_modified": "2024-09-19T14:23:19.000",
    "request_status": "Pending",
    "responsible_agency": "Department of Parks & Parkway",
    "final_address": "FORSTALL ST & N CLAIBORNE AVE",
    "address_councildis": "E",
    "status": "Pending",
    "rowid": "1133527",
    "final_x": "3696772.1",
    "final_y": "536056.08",
    "longitude": "-90.01968258100904",
    "latitude": "29.967495761797704",
    "geocoded_column": {
      "latitude": "29.967495761797704",
      "longitude": "-90.01968258100904"
    }
  },
  {
    "service_request": "2024-1133526",
    "request_type": "Street and Traffic Signs",
    "request_reason": "Crosswalk Signage Damaged or Missing",
    "date_created": "2024-09-19T14:23:03.000",
    "date_modified": "2024-09-19T14:23:03.000",
    "request_status": "Pending",
    "responsible_agency": "Department of Public Works",
    "final_address": "1901 Leon C Simon Dr",
    "address_councildis": "D",
    "status": "Pending",
    "rowid": "1133526",
    "final_x": "3681627.86933",
    "final_y": "556591.481754",
    "longitude": "-90.06679149650553",
    "latitude": "30.024429522762222",
    "geocoded_column": {
      "latitude": "30.024429522762222",
      "longitude": "-90.06679149650553"
    }
  },
  {
    "service_request": "2024-1133525",
    "request_type": "Health Related Request",
    "request_reason": "Homeless Encampment Complaint",
    "date_created": "2024-09-19T14:22:34.000",
    "date_modified": "2024-09-19T14:22:34.000",
    "request_status": "Pending",
    "responsible_agency": "Health Department",
    "final_address": "TULANE AVE & S NORMAN C FRANCIS PKWY",
    "address_councildis": "B",
    "status": "Pending",
    "rowid": "1133525",
    "final_x": "3671816.5",
    "final_y": "535046.18",
    "longitude": "-90.09852740611574",
    "latitude": "29.965481965084955",
    "geocoded_column": {
      "latitude": "29.965481965084955",
      "longitude": "-90.09852740611574"
    }
  },
  {
    "service_request": "2024-1133524",
    "request_type": "Trash/Recycling",
    "request_reason": "Missed Trash Pick-Up",
    "date_created": "2024-09-19T14:22:15.000",
    "date_modified": "2024-09-19T14:22:16.000",
    "request_status": "Pending",
    "responsible_agency": "Department of Sanitation",
    "final_address": "15522 Dwyer Blvd",
    "address_councildis": "E",
    "status": "Assigned to Contractor",
    "contractor": "Waste Pro",
    "rowid": "1133524",
    "final_x": "3730990.12096",
    "final_y": "563696.657185",
    "longitude": "-89.91053932791533",
    "latitude": "30.042373175805487",
    "geocoded_column": {
      "latitude": "30.042373175805487",
      "longitude": "-89.91053932791533"
    }
  },
  {
    "service_request": "2024-1133523",
    "request_type": "Drainage",
    "request_reason": "Catch Basin Clogged",
    "date_created": "2024-09-19T14:20:55.000",
    "date_modified": "2024-09-19T14:22:06.000",
    "request_status": "Pending",
    "responsible_agency": "Department of Public Works",
    "final_address": "3514 Live Oak St",
    "address_councildis": "A",
    "status": "Pending",
    "rowid": "1133523",
    "final_x": "3664147.22733",
    "final_y": "537633.341576",
    "longitude": "-90.12266041506032",
    "latitude": "29.972820828585547",
    "geocoded_column": {
      "latitude": "29.972820828585547",
      "longitude": "-90.12266041506032"
    }
  },
  {
    "service_request": "2024-1133522",
    "request_type": "Trash/Recycling",
    "request_reason": "Request a Large Item Pick Up",
    "date_created": "2024-09-19T14:19:56.000",
    "date_modified": "2024-09-19T14:19:57.000",
    "request_status": "Pending",
    "responsible_agency": "Department of Sanitation",
    "final_address": "921 Mazant St",
    "address_councildis": "C",
    "status": "Assigned to Contractor",
    "contractor": "IV Waste",
    "rowid": "1133522",
    "final_x": "3691984.38377",
    "final_y": "534600.286277",
    "longitude": "-90.03485432207307",
    "latitude": "29.9636428981623",
    "geocoded_column": {
      "latitude": "29.9636428981623",
      "longitude": "-90.03485432207307"
    }
  },
  {
    "service_request": "2024-1133521",
    "request_type": "Drainage",
    "request_reason": "Catch Basin Clogged",
    "date_created": "2024-09-19T14:19:44.000",
    "date_modified": "2024-09-19T14:19:45.000",
    "request_status": "Pending",
    "responsible_agency": "Department of Public Works",
    "final_address": "1441 Washington Ave",
    "address_councildis": "B",
    "status": "Pending",
    "rowid": "1133521",
    "final_x": "3676306.50171",
    "final_y": "522042.792058",
    "longitude": "-90.0847956112331",
    "latitude": "29.929593152901568",
    "geocoded_column": {
      "latitude": "29.929593152901568",
      "longitude": "-90.0847956112331"
    }
  },
  {
    "service_request": "2024-1133520",
    "request_type": "Trash/Recycling",
    "request_reason": "Request a Large Item Pick Up",
    "date_created": "2024-09-19T14:19:40.000",
    "date_modified": "2024-09-19T14:19:41.000",
    "request_status": "Pending",
    "responsible_agency": "Department of Sanitation",
    "final_address": "5743 E Louis Prima Dr",
    "address_councildis": "E",
    "status": "Assigned to Contractor",
    "contractor": "Waste Pro",
    "rowid": "1133520",
    "final_x": "3716186.9838",
    "final_y": "562343.853215",
    "longitude": "-89.95737382527268",
    "latitude": "30.039150613264145",
    "geocoded_column": {
      "latitude": "30.039150613264145",
      "longitude": "-89.95737382527268"
    }
  },
  {
    "service_request": "2024-1133519",
    "request_type": "Roads and Streets",
    "request_reason": "Pothole",
    "date_created": "2024-09-19T14:19:20.000",
    "date_modified": "2024-09-19T14:19:20.000",
    "request_status": "Pending",
    "responsible_agency": "Department of Public Works",
    "final_address": "CLOUET ST & INDUSTRIAL CT",
    "address_councildis": "D",
    "status": "Pending",
    "rowid": "1133519",
    "final_x": "3689608.6",
    "final_y": "538434.28",
    "longitude": "-90.04222035670607",
    "latitude": "29.97425884860248",
    "geocoded_column": {
      "latitude": "29.97425884860248",
      "longitude": "-90.04222035670607"
    }
  },
  {
    "service_request": "2024-1133518",
    "request_type": "Hurricane Francine Tree-Related Issues or Emergencies\t",
    "request_reason": "Hurricane Francine Tree-Related Issues or Emergencies",
    "date_created": "2024-09-19T14:17:50.000",
    "date_modified": "2024-09-19T14:17:50.000",
    "request_status": "Pending",
    "responsible_agency": "Department of Parks & Parkway",
    "final_address": "1312 Sumner St",
    "address_councildis": "C",
    "status": "Pending",
    "rowid": "1133518",
    "final_x": "3691099.57539",
    "final_y": "526529.884094",
    "longitude": "-90.03793656494828",
    "latitude": "29.94147962585729",
    "geocoded_column": {
      "latitude": "29.94147962585729",
      "longitude": "-90.03793656494828"
    }
  },
  {
    "service_request": "2024-1133517",
    "request_type": "Trash/Recycling",
    "request_reason": "Request a Large Item Pick Up",
    "date_created": "2024-09-19T14:16:20.000",
    "date_modified": "2024-09-19T14:16:21.000",
    "request_status": "Pending",
    "responsible_agency": "Department of Sanitation",
    "final_address": "3820 Burgundy St",
    "address_councildis": "C",
    "status": "Assigned to Contractor",
    "contractor": "IV Waste",
    "rowid": "1133517",
    "final_x": "3691196.23792",
    "final_y": "534582.114757",
    "longitude": "-90.03734384591219",
    "latitude": "29.963617467471078",
    "geocoded_column": {
      "latitude": "29.963617467471078",
      "longitude": "-90.03734384591219"
    }
  },