[
  {
    "service_request": "2021-843453",
    "request_type": "Law Enforcement Services",
    "request_reason": "Off Duty Officer for Hire",
    "date_created": "2021-11-20T23:48:45.000",
    "date_modified": "2021-11-21T00:00:19.000",
    "request_status": "Pending",
    "responsible_agency": "Office of Police Secondary Employment",
    "status": "Pending",
    "rowid": "843453",
    "longitude": "0.0",
    "latitude": "0.0",
    "geocoded_column": {
      "latitude": "0.0",
      "longitude": "0.0"
    }
  },
  {
    "service_request": "2021-843452",
    "request_type": "Trash/Recycling",
    "request_reason": "Missed Trash Pick-Up",
    "date_created": "2021-11-20T22:23:35.000",
    "date_modified": "2021-11-20T22:23:35.000",
    "request_status": "Pending",
    "responsible_agency": "Department of Sanitation",
    "final_address": "1433 Dauphine St",
    "address_councildis": "C",
    "status": "Assigned to Contractor",
    "contractor": "Metro Disposal",
    "rowid": "843452",
    "final_x": "3683634.5366",
    "final_y": "535116.31367",
    "longitude": "-90.0612041583333",
    "latitude": "29.9653193304802",
    "geocoded_column": {
      "latitude": "29.9653193304802",
      "longitude": "-90.0612041583333"
    }
  },
  {
    "service_request": "2021-843451",
    "request_type": "Abandoned Vehicles",
    "request_reason": "Abandoned/Junk Vehicles",
    "date_created": "2021-11-20T21:27:31.000",
    "date_modified": "2021-11-20T22:00:21.000",
    "request_status": "Pending",
    "responsible_agency": "Department of Public Works",
    "final_address": "965 Navarre Ave, New Orleans, Louisiana, 70124",
    "status": "Pending",
    "rowid": "843451",
    "longitude": "0.0",
    "latitude": "0.0",
    "geocoded_column": {
      "latitude": "0.0",
      "longitude": "0.0"
    }
  },
  {
    "service_request": "2021-843450",
    "request_type": "Trash/Recycling",
    "request_reason": "Repair Recycling Cart",
    "date_created": "2021-11-20T19:23:20.000",
    "date_modified": "2021-11-20T20:01:19.000",
    "request_status": "Pending",
    "responsible_agency": "Department of Sanitation",
    "final_address": "8210 Nelson St",
    "address_councildis": "A",
    "status": "Pending",
    "rowid": "843450",
    "final_x": "3664759.50298",
    "final_y": "532090.390083",
    "longitude": "-90.12091195407002",
    "latitude": "29.9575617340248",
    "geocoded_column": {
      "latitude": "29.9575617340248",
      "longitude": "-90.12091195407002"
    }
  },
  {
    "service_request": "2021-843449",
    "request_type": "Trash/Recycling",
    "request_reason": "Replace Trash Cart",
    "date_created": "2021-11-20T19:18:30.000",
    "date_modified": "2021-11-20T20:01:22.000",
    "request_status": "Pending",
    "responsible_agency": "Department of Sanitation",
    "final_address": "8210 Nelson St",
    "address_councildis": "A",
    "status": "Assigned to Contractor",
    "contractor": "Richards Disposal",
    "rowid": "843449",
    "final_x": "3664759.50298",
    "final_y": "532090.390083",
    "longitude": "-90.12091195407002",
    "latitude": "29.9575617340248",
    "geocoded_column": {
      "latitude": "29.9575617340248",
      "longitude": "-90.12091195407002"
    }
  },
  {
    "service_request": "2021-843448",
    "request_type": "Trash/Recycling",
    "request_reason": "Order Trash Cart",
    "date_created": "2021-11-20T18:52:44.000",
    "date_modified": "2021-11-20T18:52:45.000",
    "request_status": "Pending",
    "responsible_agency": "Department of Sanitation",
    "final_address": "4149 Canal St",
    "address_councildis": "A",
    "status": "Assigned to Contractor",
    "contractor": "Richards Disposal",
    "rowid": "843448",
    "final_x": "3670862.14292",
    "final_y": "538708.126601",
    "longitude": "-90.10141690130942",
    "latitude": "29.97557933175855",
    "geocoded_column": {
      "latitude": "29.97557933175855",
      "longitude": "-90.10141690130942"
    }
  },
  {
    "service_request": "2021-843447",
    "request_type": "Trash/Recycling",
    "request_reason": "Missed Trash Pick-Up",
    "date_created": "2021-11-20T18:52:00.000",
    "date_modified": "2021-11-20T18:52:00.000",
    "request_status": "Pending",
    "responsible_agency": "Department of Sanitation",
    "final_address": "1406 Laharpe St",
    "address_councildis": "C",
    "status": "Assigned to Contractor",
    "contractor": "Metro Disposal",
    "rowid": "843447",
    "final_x": "3682407.4694",
    "final_y": "537072.671752",
    "longitude": "-90.06501078761124",
    "latitude": "29.970736042579475",
    "geocoded_column": {
      "latitude": "29.970736042579475",
      "longitude": "-90.06501078761124"
    }
  },
  {
    "service_request": "2021-843446",
    "request_type": "Abandoned Vehicles",
    "request_reason": "Abandoned/Junk Vehicles",
    "date_created": "2021-11-20T18:08:21.000",
    "date_modified": "2021-11-20T18:08:21.000",
    "request_status": "Pending",
    "responsible_agency": "Department of Public Works",
    "final_address": "1941 Congress St",
    "address_councildis": "D",
    "status": "Pending",
    "rowid": "843446",
    "final_x": "3691583.58966",
    "final_y": "538904.589898",
    "longitude": "-90.03596608384248",
    "latitude": "29.97549069564322",
    "geocoded_column": {
      "latitude": "29.97549069564322",
      "longitude": "-90.03596608384248"
    }
  },
  {
    "service_request": "2021-843445",
    "request_type": "Parks & Parkways",
    "request_reason": "Request Tree Service (Right of Way/Public Property)",
    "date_created": "2021-11-20T18:04:04.000",
    "date_modified": "2021-11-20T19:01:15.000",
    "request_status": "Pending",
    "responsible_agency": "Department of Parks & Parkway",
    "final_address": "2905 St Bernard Ave",
    "address_councildis": "D",
    "status": "Pending",
    "rowid": "843445",
    "final_x": "3679642.83688",
    "final_y": "542950.589389",
    "longitude": "-90.07353774051242",
    "latitude": "29.986982132013598",
    "geocoded_column": {
      "latitude": "29.986982132013598",
      "longitude": "-90.07353774051242"
    }
  },
  {
    "service_request": "2021-843444",
    "request_type": "Traffic Signals/Signs/Striping/Streetlights",
    "request_reason": "Street Light Outage/Malfunction",
    "date_created": "2021-11-20T18:01:44.000",
    "date_modified": "2021-11-20T18:01:45.000",
    "request_status": "Pending",
    "responsible_agency": "Department of Public Works",
    "final_address": "4603 Coliseum St",
    "address_councildis": "B",
    "status": "Pending",
    "contractor": "Royal Engineering",
    "rowid": "843444",
    "final_x": "3670150.5986",
    "final_y": "519786.220408",
    "longitude": "-90.10430515308495",
    "latitude": "29.923571303454708",
    "geocoded_column": {
      "latitude": "29.923571303454708",
      "longitude": "-90.10430515308495"
    }
  },
  {
    "service_request": "2021-843443",
    "request_type": "Abandoned Vehicles",
    "request_reason": "Abandoned/Junk Vehicles",
    "date_created": "2021-11-20T17:51:27.000",
    "date_modified": "2021-11-20T17:51:27.000",
    "request_status": "Pending",
    "responsible_agency": "Department of Public Works",
    "final_address": "1209 Cadiz St",
    "address_councildis": "B",
    "status": "Pending",
    "rowid": "843443",
    "final_x": "3670298.88039",
    "final_y": "519799.94796",
    "longitude": "-90.10383661611125",
    "latitude": "29.92360467574492",
    "geocoded_column": {
      "latitude": "29.92360467574492",
      "longitude": "-90.10383661611125"
    }
  },
  {
    "service_request": "2021-843442",
    "request_type": "Trash/Recycling",
    "request_reason": "Request a Large Item Pick Up",
    "date_created": "2021-11-20T17:35:11.000",
    "date_modified": "2021-11-20T18:01:26.000",
    "request_status": "Pending",
    "responsible_agency": "Department of Sanitation",
    "final_address": "4610 Lennox Blvd",
    "address_councildis": "C",
    "status": "Assigned to Contractor",
    "contractor": "Richards Disposal",
    "rowid": "843442",
    "final_x": "3700851.62321",
    "final_y": "513751.210866",
    "longitude": "-90.007614420725",
    "latitude": "29.906035919005962",
    "geocoded_column": {
      "latitude": "29.906035919005962",
      "longitude": "-90.007614420725"
    }
  },
  {
    "service_request": "2021-843441",
    "request_type": "Abandoned Vehicles",
    "request_reason": "Abandoned/Junk Vehicles",
    "date_created": "2021-11-20T17:32:38.000",
    "date_modified": "2021-11-20T17:32:38.000",
    "request_status": "Pending",
    "responsible_agency": "Department of Public Works",
    "final_address": "1209 Cadiz St",
    "address_councildis": "B",
    "status": "Pending",
    "rowid": "843441",
    "final_x": "3670298.88039",
    "final_y": "519799.94796",
    "longitude": "-90.10383661611125",
    "latitude": "29.92360467574492",
    "geocoded_column": {
      "latitude": "29.92360467574492",
      "longitude": "-90.10383661611125"
    }
  },
  {
    "service_request": "2021-843440",
    "request_type": "Trash/Recycling",
    "request_reason": "Illegal Dumping",
    "date_created": "2021-11-20T17:32:37.000",
    "date_modified": "2021-11-20T17:32:37.000",
    "request_status": "Pending",
    "responsible_agency": "Department of Sanitation",
    "final_address": "716 Peniston St",
    "address_councildis": "B",
    "status": "Pending",
    "rowid": "843440",
    "final_x": "3673485.12014",
    "final_y": "518469.724342",
    "longitude": "-90.09382423794936",
    "latitude": "29.91985259424551",
    "geocoded_column": {
      "latitude": "29.91985259424551",
      "longitude": "-90.09382423794936"
    }
  },
  {
    "service_request": "2021-843439",
    "request_type": "Traffic Signals/Signs/Striping/Streetlights",
    "request_reason": "Street Light Knocked Down/Leaning",
    "date_created": "2021-11-20T17:28:05.000",
    "date_modified": "2021-11-20T17:28:05.000",
    "request_status": "Pending",
    "responsible_agency": "Department of Public Works",
    "final_address": "1141 Royal St",
    "address_councildis": "C",
    "status": "Pending",
    "contractor": "Royal Engineering",
    "rowid": "843439",
    "final_x": "3683610.023",
    "final_y": "533903.300677",
    "longitude": "-90.06132409522782",
    "latitude": "29.961984710340097",
    "geocoded_column": {
      "latitude": "29.961984710340097",
      "longitude": "-90.06132409522782"
    }
  },
  {
    "service_request": "2021-843437",
    "request_type": "Safety & Permits",
    "request_reason": "Construction permit",
    "date_created": "2021-11-20T16:52:14.000",
    "date_modified": "2021-11-20T16:52:14.000",
    "request_status": "Pending",
    "responsible_agency": "Department of Code Enforcement",
    "final_address": "417 Frenchmen St",
    "address_councildis": "C",
    "status": "Pending",
    "rowid": "843437",
    "final_x": "3684803.71516",
    "final_y": "534038.056773",
    "longitude": "-90.05754986859576",
    "latitude": "29.962318752650493",
    "geocoded_column": {
      "latitude": "29.962318752650493",
      "longitude": "-90.05754986859576"
    }
  },
  {
    "service_request": "2021-843436",
    "request_type": "Trash/Recycling",
    "request_reason": "Missed Trash Pick-Up",
    "date_created": "2021-11-20T16:38:15.000",
    "date_modified": "2021-11-20T16:38:29.000",
    "request_status": "Pending",
    "responsible_agency": "Department of Sanitation",
    "final_address": "386 Walnut St",
    "address_councildis": "A",
    "status": "Assigned to Contractor",
    "contractor": "Richards Disposal",
    "rowid": "843436",
    "final_x": "3662236.67911",
    "final_y": "522717.125114",
    "longitude": "-90.12918936945935",
    "latitude": "29.931861407207712",
    "geocoded_column": {
      "latitude": "29.931861407207712",
      "longitude": "-90.12918936945935"
    }
  },
  {
    "service_request": "2021-843435",
    "request_type": "Trash/Recycling",
    "request_reason": "Request a Large Item Pick Up",
    "date_created": "2021-11-20T16:02:26.000",
    "date_modified": "2021-11-20T16:02:27.000",
    "request_status": "Pending",
    "responsible_agency": "Department of Sanitation",
    "final_address": "6950 Canal Blvd",
    "address_councildis": "A",
    "status": "Assigned to Contractor",
    "contractor": "Metro Disposal",
    "rowid": "843435",
    "final_x": "3668903.7963",
    "final_y": "553749.221847",
    "longitude": "-90.10709354674012",
    "latitude": "30.01699490051345",
    "geocoded_column": {
      "latitude": "30.01699490051345",
      "longitude": "-90.10709354674012"
    }
  },
  {
    "service_request": "2021-843434",
    "request_type": "Traffic Signals/Signs/Striping/Streetlights",
    "request_reason": "Traffic Sign Missing/Damaged",
    "date_created": "2021-11-20T15:54:43.000",
    "date_modified": "2021-11-20T15:54:43.000",
    "request_status": "Pending",
    "responsible_agency": "Department of Public Works",
    "final_address": "4400 Elysian Fields Ave",
    "address_councildis": "D",
    "status": "Pending",
    "rowid": "843434",
    "final_x": "3683895.35132",
    "final_y": "548898.536851",
    "longitude": "-90.05989681785873",
    "latitude": "30.003207621292503",
    "geocoded_column": {
      "latitude": "30.003207621292503",
      "longitude": "-90.05989681785873"
    }
  },
  {
    "service_request": "2021-843433",
    "request_type": "Safety & Permits",
    "request_reason": "Licenses & Permits",
    "date_created": "2021-11-20T15:46:50.000",
    "date_modified": "2021-11-20T15:46:50.000",
    "request_status": "Pending",
    "responsible_agency": "Safety and Permits",
    "final_address": "1210 Chartres St",
    "address_councildis": "C",
    "status": "Pending",
    "rowid": "843433",
    "final_x": "3684035.1222",
    "final_y": "533756.998469",
    "longitude": "-90.05998683381364",
    "latitude": "29.961569446862285",
    "geocoded_column": {
      "latitude": "29.961569446862285",
      "longitude": "-90.05998683381364"
    }
  },
  {
    "service_request": "2021-843431",
    "request_type": "Trash/Recycling",
    "request_reason": "Missed Trash Pick-Up",
    "date_created": "2021-11-20T15:16:53.000",
    "date_modified": "2021-11-20T15:16:53.000",
    "request_status": "Pending",
    "responsible_agency": "Department of Sanitation",
    "final_address": "1729 Port St",
    "address_councildis": "D",
    "status": "Assigned to Contractor",
    "contractor": "Metro Disposal",
    "rowid": "843431",
    "final_x": "3688077.0822",
    "final_y": "538870.140233",
    "longitude": "-90.0470417819246",
    "latitude": "29.975504672252345",
    "geocoded_column": {
      "latitude": "29.975504672252345",
      "longitude": "-90.0470417819246"
    }
  },
  {
    "service_request": "2021-843430",
    "request_type": "Safety & Permits",
    "request_reason": "Licenses & Permits",
    "date_created": "2021-11-20T14:55:48.000",
    "date_modified": "2021-11-20T14:55:48.000",
    "request_status": "Pending",
    "responsible_agency": "Safety and Permits",
    "final_address": "2247 N Villere St",
    "address_councildis": "C",
    "status": "Pending",
    "rowid": "843430",
    "final_x": "3685443.79189",
    "final_y": "537489.875272",
    "longitude": "-90.05540703378928",
    "latitude": "29.971790444791715",
    "geocoded_column": {
      "latitude": "29.971790444791715",
      "longitude": "-90.05540703378928"
    }
  },
  {
    "service_request": "2021-843429",
    "request_type": "Safety & Permits",
    "request_reason": "Licenses & Permits",
    "date_created": "2021-11-20T14:50:47.000",
    "date_modified": "2021-11-20T14:50:47.000",
    "request_status": "Pending",
    "responsible_agency": "Safety and Permits",
    "final_address": "1013 Teche St",
    "address_councildis": "C",
    "status": "Pending",
    "rowid": "843429",
    "final_x": "3686527.9437",
    "final_y": "527778.514687",
    "longitude": "-90.05232600014226",
    "latitude": "29.945054257006774",
    "geocoded_column": {
      "latitude": "29.945054257006774",
      "longitude": "-90.05232600014226"
    }
  },
  {
    "service_request": "2021-843428",
    "request_type": "Property Maintenance",
    "request_reason": "Property Maintenance",
    "date_created": "2021-11-20T14:14:27.000",
    "date_modified": "2021-11-20T14:14:53.000",
    "request_status": "Pending",
    "responsible_agency": "Department of Code Enforcement",
    "final_address": "5919 Magazine St",
    "address_councildis": "A",
    "status": "Pending",
    "rowid": "843428",
    "final_x": "3665077.26279",
    "final_y": "519183.308535",
    "longitude": "-90.12034001200189",
    "latitude": "29.922062138084538",
    "geocoded_column": {
      "latitude": "29.922062138084538",
      "longitude": "-90.12034001200189"
    }
  },
  {
    "service_request": "2021-843427",
    "request_type": "Trash/Recycling",
    "request_reason": "Request a Large Item Pick Up",
    "date_created": "2021-11-20T14:09:43.000",
    "date_modified": "2021-11-20T15:01:23.000",
    "request_status": "Pending",
    "responsible_agency": "Department of Sanitation",
    "final_address": "1622 Philip St",
    "address_councildis": "B",
    "status": "Assigned to Contractor",
    "contractor": "Richards Disposal",
    "rowid": "843427",
    "final_x": "3676991.19029",
    "final_y": "523516.601851",
    "longitude": "-90.08258338556534",
    "latitude": "29.93362511694129",
    "geocoded_column": {
      "latitude": "29.93362511694129",
      "longitude": "-90.08258338556534"
    }
  },
  {
    "service_request": "2021-843425",
    "request_type": "Abandoned Vehicles",
    "request_reason": "Abandoned/Junk Vehicles",
    "date_created": "2021-11-20T13:57:49.000",
    "date_modified": "2021-11-20T14:01:14.000",
    "request_status": "Pending",
    "responsible_agency": "Department of Public Works",
    "final_address": "4822 Constance St, New Orleans, Louisiana, 70115",
    "address_councildis": "B",
    "status": "Pending",
    "rowid": "843425",
    "final_x": "3669441.80193",
    "final_y": "518212.259766",
    "longitude": "-90.10659576042404",
    "latitude": "29.919264295511084",
    "geocoded_column": {
      "latitude": "29.919264295511084",
      "longitude": "-90.10659576042404"
    }
  },
  {
    "service_request": "2021-843424",
    "request_type": "Roads/Drainage",
    "request_reason": "Damaged Sidewalk",
    "date_created": "2021-11-20T13:22:55.000",
    "date_modified": "2021-11-20T13:22:55.000",
    "request_status": "Pending",
    "responsible_agency": "Department of Public Works",
    "final_address": "2354 Constance St",
    "address_councildis": "B",
    "status": "Pending",
    "rowid": "843424",
    "final_x": "3678404.58926",
    "final_y": "521241.892665",
    "longitude": "-90.07820001826036",
    "latitude": "29.927327913154485",
    "geocoded_column": {
      "latitude": "29.927327913154485",
      "longitude": "-90.07820001826036"
    }
  },
  {
    "service_request": "2021-843423",
    "request_type": "Trash/Recycling",
    "request_reason": "Request a Large Item Pick Up",
    "date_created": "2021-11-20T13:22:54.000",
    "date_modified": "2021-11-20T13:22:55.000",
    "request_status": "Pending",
    "responsible_agency": "Department of Sanitation",
    "final_address": "111 Westpark Ct",
    "address_councildis": "C",
    "status": "Assigned to Contractor",
    "contractor": "Richards Disposal",
    "rowid": "843423",
    "final_x": "3695768.41117",
    "final_y": "521939.151354",
    "longitude": "-90.02336190740903",
    "latitude": "29.92871072905422",
    "geocoded_column": {
      "latitude": "29.92871072905422",
      "longitude": "-90.02336190740903"
    }
  },
  {
    "service_request": "2021-843422",
    "request_type": "Property Maintenance",
    "request_reason": "Property Maintenance",
    "date_created": "2021-11-20T13:18:52.000",
    "date_modified": "2021-11-20T13:18:52.000",
    "request_status": "Pending",
    "responsible_agency": "Department of Code Enforcement",
    "final_address": "6143 Milne Blvd",
    "address_councildis": "A",
    "status": "Pending",
    "rowid": "843422",
    "final_x": "3667245.55604",
    "final_y": "548404.39125",
    "longitude": "-90.11251284531065",
    "latitude": "30.00234717437046",
    "geocoded_column": {
      "latitude": "30.00234717437046",
      "longitude": "-90.11251284531065"
    }
  },
  {
    "service_request": "2021-843421",
    "request_type": "Trash/Recycling",
    "request_reason": "Replace Recycling Cart",
    "date_created": "2021-11-20T13:04:27.000",
    "date_modified": "2021-11-20T14:01:16.000",
    "request_status": "Pending",
    "responsible_agency": "Department of Sanitation",
    "final_address": "2218 Barracks St, New Orleans, Louisiana, 70119",
    "address_councildis": "D",
    "status": "Pending",
    "rowid": "843421",
    "final_x": "3679515.56674",
    "final_y": "537521.337608",
    "longitude": "-90.07412819745302",
    "latitude": "29.972057419826257",
    "geocoded_column": {
      "latitude": "29.972057419826257",
      "longitude": "-90.07412819745302"
    }
  },
  {
    "service_request": "2021-843420",
    "request_type": "Trash/Recycling",
    "request_reason": "Order Trash Cart",
    "date_created": "2021-11-20T12:58:33.000",
    "date_modified": "2021-11-20T12:58:34.000",
    "request_status": "Pending",
    "responsible_agency": "Department of Sanitation",
    "final_address": "4123 Dryades St",
    "address_councildis": "B",
    "status": "Assigned to Contractor",
    "contractor": "Richards Disposal",
    "rowid": "843420",
    "final_x": "3671638.1346",
    "final_y": "522077.67385",
    "longitude": "-90.0995316561235",
    "latitude": "29.929828110853617",
    "geocoded_column": {
      "latitude": "29.929828110853617",
      "longitude": "-90.0995316561235"
    }
  },
  {
    "service_request": "2021-843418",
    "request_type": "Trash/Recycling",
    "request_reason": "Missed Trash Pick-Up",
    "date_created": "2021-11-20T12:49:17.000",
    "date_modified": "2021-11-20T13:01:10.000",
    "request_status": "Pending",
    "responsible_agency": "Department of Sanitation",
    "final_address": "4918 Marque Dr",
    "address_councildis": "E",
    "status": "Assigned to Contractor",
    "contractor": "Metro Disposal",
    "rowid": "843418",
    "final_x": "3709882.49873",
    "final_y": "556811.034138",
    "longitude": "-89.97750452494108",
    "latitude": "30.024144204311888",
    "geocoded_column": {
      "latitude": "30.024144204311888",
      "longitude": "-89.97750452494108"
    }
  },
  {
    "service_request": "2021-843417",
    "request_type": "Safety & Permits",
    "request_reason": "Licenses & Permits",
    "date_created": "2021-11-20T12:47:28.000",
    "date_modified": "2021-11-20T12:47:28.000",
    "request_status": "Pending",
    "responsible_agency": "Safety and Permits",
    "final_address": "421 Burgundy St",
    "address_councildis": "C",
    "status": "Pending",
    "rowid": "843417",
    "final_x": "3681117.04623",
    "final_y": "532398.014531",
    "longitude": "-90.06924896540603",
    "latitude": "29.957921546747915",
    "geocoded_column": {
      "latitude": "29.957921546747915",
      "longitude": "-90.06924896540603"
    }
  },
  {
    "service_request": "2021-843416",
    "request_type": "Trash/Recycling",
    "request_reason": "Request a Large Item Pick Up",
    "date_created": "2021-11-20T12:34:35.000",
    "date_modified": "2021-11-20T13:01:11.000",
    "request_status": "Pending",
    "responsible_agency": "Department of Sanitation",
    "final_address": "3220 Iberville St",
    "address_councildis": "B",
    "status": "Assigned to Contractor",
    "contractor": "Richards Disposal",
    "rowid": "843416",
    "final_x": "3673962.70555",
    "final_y": "536661.618247",
    "longitude": "-90.09169449299445",
    "latitude": "29.969860105150143",
    "geocoded_column": {
      "latitude": "29.969860105150143",
      "longitude": "-90.09169449299445"
    }
  },
  {
    "service_request": "2021-843415",
    "request_type": "Trash/Recycling",
    "request_reason": "Start Trash Service",
    "date_created": "2021-11-20T12:33:37.000",
    "date_modified": "2021-11-20T12:33:38.000",
    "request_status": "Pending",
    "responsible_agency": "Department of Sanitation",
    "final_address": "2609 Marais St",
    "address_councildis": "C",
    "status": "Assigned to Contractor",
    "contractor": "Metro Disposal",
    "rowid": "843415",
    "final_x": "3687320.9318",
    "final_y": "536825.695176",
    "longitude": "-90.04950225050791",
    "latitude": "29.969906483720017",
    "geocoded_column": {
      "latitude": "29.969906483720017",
      "longitude": "-90.04950225050791"
    }
  },
  {
    "service_request": "2021-843414",
    "request_type": "Trash/Recycling",
    "request_reason": "Missed Trash Pick-Up",
    "date_created": "2021-11-20T12:32:59.000",
    "date_modified": "2021-11-20T12:32:59.000",
    "request_status": "Pending",
    "responsible_agency": "Department of Sanitation",
    "final_address": "4936 Marque Dr",
    "address_councildis": "E",
    "status": "Assigned to Contractor",
    "contractor": "Metro Disposal",
    "rowid": "843414",
    "final_x": "3709871.33246",
    "final_y": "556941.142938",
    "longitude": "-89.97753494343715",
    "latitude": "30.024502315793235",
    "geocoded_column": {
      "latitude": "30.024502315793235",
      "longitude": "-89.97753494343715"
    }
  },
  {
    "service_request": "2021-843412",
    "request_type": "Trash/Recycling",
    "request_reason": "Missed Trash Pick-Up",
    "date_created": "2021-11-20T12:12:54.000",
    "date_modified": "2021-11-20T13:01:15.000",
    "request_status": "Pending",
    "responsible_agency": "Department of Sanitation",
    "final_address": "4766 Eunice Dr",
    "address_councildis": "E",
    "status": "Assigned to Contractor",
    "contractor": "Metro Disposal",
    "rowid": "843412",
    "final_x": "3710453.37893",
    "final_y": "555945.800473",
    "longitude": "-89.97573305996578",
    "latitude": "30.02174656479422",
    "geocoded_column": {
      "latitude": "30.02174656479422",
      "longitude": "-89.97573305996578"
    }
  },
  {
    "service_request": "2021-843411",
    "request_type": "Trash/Recycling",
    "request_reason": "Change Size of Trash Cart",
    "date_created": "2021-11-20T11:54:36.000",
    "date_modified": "2021-11-20T12:01:52.000",
    "request_status": "Pending",
    "responsible_agency": "Department of Sanitation",
    "final_address": "3346 Trafalgar St",
    "address_councildis": "A",
    "status": "Assigned to Contractor",
    "contractor": "Metro Disposal",
    "rowid": "843411",
    "final_x": "3677751.58779",
    "final_y": "543145.697741",
    "longitude": "-90.07950476794628",
    "latitude": "29.987575650887152",
    "geocoded_column": {
      "latitude": "29.987575650887152",
      "longitude": "-90.07950476794628"
    }
  },
  {
    "service_request": "2021-843410",
    "request_type": "Traffic Signals/Signs/Striping/Streetlights",
    "request_reason": "Street Name Sign Damaged or Missing",
    "date_created": "2021-11-20T11:53:35.000",
    "date_modified": "2021-11-20T11:53:35.000",
    "request_status": "Pending",
    "responsible_agency": "Department of Public Works",
    "final_address": "FLEUR DE LIS DR & 22ND ST",
    "address_councildis": "A",
    "status": "Pending",
    "rowid": "843410",
    "final_x": "3665290.2",
    "final_y": "549321.58",
    "longitude": "-90.11865936541079",
    "latitude": "30.004926265509962",
    "geocoded_column": {
      "latitude": "30.004926265509962",
      "longitude": "-90.11865936541079"
    }
  },
  {
    "service_request": "2021-843409",
    "request_type": "Traffic Signals/Signs/Striping/Streetlights",
    "request_reason": "Street Light Outage/Malfunction",
    "date_created": "2021-11-20T11:51:04.000",
    "date_modified": "2021-11-20T11:51:05.000",
    "request_status": "Pending",
    "responsible_agency": "Department of Public Works",
    "final_address": "318 22Nd St",
    "address_councildis": "A",
    "status": "Pending",
    "contractor": "Royal Engineering",
    "rowid": "843409",
    "final_x": "3665041.80922",
    "final_y": "549276.337747",
    "longitude": "-90.11944560022026",
    "latitude": "30.004809102764394",
    "geocoded_column": {
      "latitude": "30.004809102764394",
      "longitude": "-90.11944560022026"
    }
  },
  {
    "service_request": "2021-843408",
    "request_type": "Roads/Drainage",
    "request_reason": "Debris in Roadway",
    "date_created": "2021-11-20T11:50:59.000",
    "date_modified": "2021-11-20T11:50:59.000",
    "request_status": "Pending",
    "responsible_agency": "Department of Public Works",
    "final_address": "6114 Shetland Dr",
    "address_councildis": "C",
    "status": "Pending",
    "rowid": "843408",
    "final_x": "3705449.72587",
    "final_y": "520246.999672",
    "longitude": "-89.99286274552568",
    "latitude": "29.923750016966594",
    "geocoded_column": {
      "latitude": "29.923750016966594",
      "longitude": "-89.99286274552568"
    }
  },
  {
    "service_request": "2021-843406",
    "request_type": "Roads/Drainage",
    "request_reason": "Pothole",
    "date_created": "2021-11-20T11:49:08.000",
    "date_modified": "2021-11-20T11:49:08.000",
    "request_status": "Pending",
    "responsible_agency": "Department of Public Works",
    "final_address": "6114 Shetland Dr",
    "address_councildis": "C",
    "status": "Pending",
    "rowid": "843406",
    "final_x": "3705449.72587",
    "final_y": "520246.999672",
    "longitude": "-89.99286274552568",
    "latitude": "29.923750016966594",
    "geocoded_column": {
      "latitude": "29.923750016966594",
      "longitude": "-89.99286274552568"
    }
  },
  {
    "service_request": "2021-843405",
    "request_type": "Roads/Drainage",
    "request_reason": "Street Subsidence (Sinking)",
    "date_created": "2021-11-20T11:47:57.000",
    "date_modified": "2021-11-20T11:47:57.000",
    "request_status": "Pending",
    "responsible_agency": "Department of Public Works",
    "final_address": "1401 General Collins Ave",
    "address_councildis": "C",
    "status": "Pending",
    "rowid": "843405",
    "final_x": "3698453.17245",
    "final_y": "526013.945981",
    "longitude": "-90.01473869742796",
    "latitude": "29.93983033666793",
    "geocoded_column": {
      "latitude": "29.93983033666793",
      "longitude": "-90.01473869742796"
    }
  },
  {
    "service_request": "2021-843402",
    "request_type": "Roads/Drainage",
    "request_reason": "Pothole",
    "date_created": "2021-11-20T11:40:15.000",
    "date_modified": "2021-11-20T11:40:15.000",
    "request_status": "Pending",
    "responsible_agency": "Department of Public Works",
    "final_address": "2544 Eton St",
    "address_councildis": "C",
    "status": "Pending",
    "rowid": "843402",
    "final_x": "3704106.30545",
    "final_y": "521763.746554",
    "longitude": "-89.99704756584713",
    "latitude": "29.927963689481746",
    "geocoded_column": {
      "latitude": "29.927963689481746",
      "longitude": "-89.99704756584713"
    }
  },
  {
    "service_request": "2021-843401",
    "request_type": "Abandoned Vehicles",
    "request_reason": "Abandoned/Junk Vehicles",
    "date_created": "2021-11-20T11:38:46.000",
    "date_modified": "2021-11-20T11:38:46.000",
    "request_status": "Pending",
    "responsible_agency": "Department of Public Works",
    "final_address": "5400 Rhodes Ave",
    "address_councildis": "C",
    "status": "Pending",
    "rowid": "843401",
    "final_x": "3703990.50142",
    "final_y": "519997.940536",
    "longitude": "-89.99747811561058",
    "latitude": "29.923112049176567",
    "geocoded_column": {
      "latitude": "29.923112049176567",
      "longitude": "-89.99747811561058"
    }
  },
  {
    "service_request": "2021-843400",
    "request_type": "Abandoned Vehicles",
    "request_reason": "Abandoned/Junk Vehicles",
    "date_created": "2021-11-20T11:35:26.000",
    "date_modified": "2021-11-20T11:35:26.000",
    "request_status": "Pending",
    "responsible_agency": "Department of Public Works",
    "final_address": "5701 Rhodes Ave",
    "address_councildis": "C",
    "status": "Pending",
    "rowid": "843400",
    "final_x": "3704424.90385",
    "final_y": "519718.179768",
    "longitude": "-89.9961171907915",
    "latitude": "29.922328871507645",
    "geocoded_column": {
      "latitude": "29.922328871507645",
      "longitude": "-89.9961171907915"
    }
  },
  {
    "service_request": "2021-843399",
    "request_type": "Abandoned Vehicles",
    "request_reason": "Abandoned/Junk Vehicles",
    "date_created": "2021-11-20T11:33:31.000",
    "date_modified": "2021-11-20T11:33:31.000",
    "request_status": "Pending",
    "responsible_agency": "Department of Public Works",
    "final_address": "5891 Rhodes Ave",
    "address_councildis": "C",
    "status": "Pending",
    "rowid": "843399",
    "final_x": "3705452.13527",
    "final_y": "519382.500471",
    "longitude": "-89.99288706368266",
    "latitude": "29.92137286711175",
    "geocoded_column": {
      "latitude": "29.92137286711175",
      "longitude": "-89.99288706368266"
    }
  },
  {
    "service_request": "2021-843398",
    "request_type": "Trash/Recycling",
    "request_reason": "Request a Large Item Pick Up",
    "date_created": "2021-11-20T11:23:48.000",
    "date_modified": "2021-11-20T11:23:49.000",
    "request_status": "Pending",
    "responsible_agency": "Department of Sanitation",
    "final_address": "5924 Oxford Pl",
    "address_councildis": "C",
    "status": "Assigned to Contractor",
    "contractor": "Richards Disposal",
    "rowid": "843398",
    "final_x": "3705811.7802",
    "final_y": "519804.792504",
    "longitude": "-89.99173622495495",
    "latitude": "29.92252244993393",
    "geocoded_column": {
      "latitude": "29.92252244993393",
      "longitude": "-89.99173622495495"
    }
  },
  {
    "service_request": "2021-843397",
    "request_type": "Traffic Signals/Signs/Striping/Streetlights",
    "request_reason": "Street Light Outage/Malfunction",
    "date_created": "2021-11-20T11:19:37.000",
    "date_modified": "2021-11-20T11:19:38.000",
    "request_status": "Pending",
    "responsible_agency": "Department of Public Works",
    "final_address": "1348 General Collins Ave",
    "address_councildis": "C",
    "status": "Pending",
    "contractor": "Royal Engineering",
    "rowid": "843397",
    "final_x": "3698670.23607",
    "final_y": "526127.785982",
    "longitude": "-90.01404926227335",
    "latitude": "29.940136486909957",
    "geocoded_column": {
      "latitude": "29.940136486909957",
      "longitude": "-90.01404926227335"
    }
  },
  {
    "service_request": "2021-843396",
    "request_type": "Traffic Signals/Signs/Striping/Streetlights",
    "request_reason": "Street Light Knocked Down/Leaning",
    "date_created": "2021-11-20T11:15:48.000",
    "date_modified": "2021-11-20T11:15:49.000",
    "request_status": "Pending",
    "responsible_agency": "Department of Public Works",
    "final_address": "1721 Holiday Dr",
    "address_councildis": "C",
    "status": "Pending",
    "contractor": "Royal Engineering",
    "rowid": "843396",
    "final_x": "3698831.04573",
    "final_y": "524424.76358",
    "longitude": "-90.013603490939",
    "latitude": "29.93544867464955",
    "geocoded_column": {
      "latitude": "29.93544867464955",
      "longitude": "-90.013603490939"
    }
  },
  {
    "service_request": "2021-843395",
    "request_type": "Traffic Signals/Signs/Striping/Streetlights",
    "request_reason": "Street Name Sign Damaged or Missing",
    "date_created": "2021-11-20T11:12:35.000",
    "date_modified": "2021-11-20T11:12:35.000",
    "request_status": "Pending",
    "responsible_agency": "Department of Public Works",
    "final_address": "1840 Halsey Ave",
    "address_councildis": "C",
    "status": "Pending",
    "rowid": "843395",
    "final_x": "3697847.19229",
    "final_y": "524007.921852",
    "longitude": "-90.01672462488104",
    "latitude": "29.934333625282488",
    "geocoded_column": {
      "latitude": "29.934333625282488",
      "longitude": "-90.01672462488104"
    }
  },
  {
    "service_request": "2021-843394",
    "request_type": "Safety & Permits",
    "request_reason": "Licenses & Permits",
    "date_created": "2021-11-20T11:12:21.000",
    "date_modified": "2021-11-20T11:12:21.000",
    "request_status": "Pending",
    "responsible_agency": "Safety and Permits",
    "final_address": "8609 Stroelitz St",
    "address_councildis": "A",
    "status": "Pending",
    "rowid": "843394",
    "final_x": "3666601.38497",
    "final_y": "536250.794311",
    "longitude": "-90.11495612185045",
    "latitude": "29.968947756416984",
    "geocoded_column": {
      "latitude": "29.968947756416984",
      "longitude": "-90.11495612185045"
    }
  },
  {
    "service_request": "2021-843392",
    "request_type": "Trash/Recycling",
    "request_reason": "Request a Large Item Pick Up",
    "date_created": "2021-11-20T10:39:12.000",
    "date_modified": "2021-11-20T10:39:13.000",
    "request_status": "Pending",
    "responsible_agency": "Department of Sanitation",
    "final_address": "832 Flood St",
    "address_councildis": "E",
    "status": "Assigned to Contractor",
    "contractor": "Metro Disposal",
    "rowid": "843392",
    "final_x": "3697417.30429",
    "final_y": "532968.9017",
    "longitude": "-90.01775696009884",
    "latitude": "29.958986764621343",
    "geocoded_column": {
      "latitude": "29.958986764621343",
      "longitude": "-90.01775696009884"
    }
  },
  {
    "service_request": "2021-843390",
    "request_type": "Trash/Recycling",
    "request_reason": "Illegal Dumping",
    "date_created": "2021-11-20T10:25:05.000",
    "date_modified": "2021-11-20T10:25:06.000",
    "request_status": "Pending",
    "responsible_agency": "Department of Sanitation",
    "final_address": "2418 Cambronne St",
    "address_councildis": "A",
    "status": "Pending",
    "rowid": "843390",
    "final_x": "3664164.92903",
    "final_y": "532453.326915",
    "longitude": "-90.1227773439837",
    "latitude": "29.9585769774158",
    "geocoded_column": {
      "latitude": "29.9585769774158",
      "longitude": "-90.1227773439837"
    }
  },
  {
    "service_request": "2021-843389",
    "request_type": "Safety & Permits",
    "request_reason": "Construction permit",
    "date_created": "2021-11-20T10:24:17.000",
    "date_modified": "2021-11-20T10:24:17.000",
    "request_status": "Pending",
    "responsible_agency": "Department of Code Enforcement",
    "final_address": "3026 S Saratoga St",
    "address_councildis": "B",
    "status": "Pending",
    "rowid": "843389",
    "final_x": "3674084.50894",
    "final_y": "523425.496379",
    "longitude": "-90.09176275814613",
    "latitude": "29.933461528255418",
    "geocoded_column": {
      "latitude": "29.933461528255418",
      "longitude": "-90.09176275814613"
    }
  },
  {
    "service_request": "2021-843388",
    "request_type": "Trash/Recycling",
    "request_reason": "Replace Trash Cart",
    "date_created": "2021-11-20T10:11:35.000",
    "date_modified": "2021-11-20T10:11:36.000",
    "request_status": "Pending",
    "responsible_agency": "Department of Sanitation",
    "final_address": "8203 Jeannette St",
    "address_councildis": "A",
    "status": "Assigned to Contractor",
    "contractor": "Richards Disposal",
    "rowid": "843388",
    "final_x": "3662403.72397",
    "final_y": "529447.301953",
    "longitude": "-90.12843860944567",
    "latitude": "29.950362424863496",
    "geocoded_column": {
      "latitude": "29.950362424863496",
      "longitude": "-90.12843860944567"
    }
  },
  {
    "service_request": "2021-843387",
    "request_type": "Trash/Recycling",
    "request_reason": "Order Recycling Cart",
    "date_created": "2021-11-20T10:10:25.000",
    "date_modified": "2021-11-20T11:01:24.000",
    "request_status": "Pending",
    "responsible_agency": "Department of Sanitation",
    "final_address": "2721 Danbury Dr",
    "address_councildis": "C",
    "status": "Pending",
    "rowid": "843387",
    "final_x": "3703591.5226",
    "final_y": "520783.086969",
    "longitude": "-89.99870866149085",
    "latitude": "29.925283713642234",
    "geocoded_column": {
      "latitude": "29.925283713642234",
      "longitude": "-89.99870866149085"
    }
  },
  {
    "service_request": "2021-843386",
    "request_type": "Trash/Recycling",
    "request_reason": "Missed Trash Pick-Up",
    "date_created": "2021-11-20T09:54:14.000",
    "date_modified": "2021-11-20T10:01:07.000",
    "request_status": "Pending",
    "responsible_agency": "Department of Sanitation",
    "final_address": "8329 Pritchard Pl",
    "address_councildis": "A",
    "status": "Assigned to Contractor",
    "contractor": "Richards Disposal",
    "rowid": "843386",
    "final_x": "3665364.90036",
    "final_y": "533567.160005",
    "longitude": "-90.11895085816175",
    "latitude": "29.961604740226623",
    "geocoded_column": {
      "latitude": "29.961604740226623",
      "longitude": "-90.11895085816175"
    }
  },
  {
    "service_request": "2021-843385",
    "request_type": "Trash/Recycling",
    "request_reason": "Missed Trash Pick-Up",
    "date_created": "2021-11-20T09:53:01.000",
    "date_modified": "2021-11-20T09:53:02.000",
    "request_status": "Pending",
    "responsible_agency": "Department of Sanitation",
    "final_address": "7085 Patterson Rd",
    "address_councildis": "C",
    "status": "Assigned to Contractor",
    "contractor": "Richards Disposal",
    "rowid": "843385",
    "final_x": "3710411.57905",
    "final_y": "519567.650615",
    "longitude": "-89.97722551554051",
    "latitude": "29.921721504848957",
    "geocoded_column": {
      "latitude": "29.921721504848957",
      "longitude": "-89.97722551554051"
    }
  },
  {
    "service_request": "2021-843382",
    "request_type": "Roads/Drainage",
    "request_reason": "Pothole",
    "date_created": "2021-11-20T09:27:23.000",
    "date_modified": "2021-11-20T09:27:23.000",
    "request_status": "Pending",
    "responsible_agency": "Department of Public Works",
    "final_address": "2251 Kraft Pl",
    "address_councildis": "C",
    "status": "Pending",
    "rowid": "843382",
    "final_x": "3692418.60816",
    "final_y": "523024.709819",
    "longitude": "-90.03389763548822",
    "latitude": "29.93180052402001",
    "geocoded_column": {
      "latitude": "29.93180052402001",
      "longitude": "-90.03389763548822"
    }
  },
  {
    "service_request": "2021-843381",
    "request_type": "Trash/Recycling",
    "request_reason": "Return Trash Cart",
    "date_created": "2021-11-20T08:57:36.000",
    "date_modified": "2021-11-20T08:57:37.000",
    "request_status": "Pending",
    "responsible_agency": "Department of Sanitation",
    "final_address": "720 Lyons St",
    "address_councildis": "B",
    "status": "Assigned to Contractor",
    "contractor": "Richards Disposal",
    "rowid": "843381",
    "final_x": "3669236.32513",
    "final_y": "518035.45087",
    "longitude": "-90.10725032042382",
    "latitude": "29.918784174085456",
    "geocoded_column": {
      "latitude": "29.918784174085456",
      "longitude": "-90.10725032042382"
    }
  },
  {
    "service_request": "2021-843380",
    "request_type": "Traffic Signals/Signs/Striping/Streetlights",
    "request_reason": "Street Light Outage/Malfunction",
    "date_created": "2021-11-20T08:50:36.000",
    "date_modified": "2021-11-20T08:50:37.000",
    "request_status": "Pending",
    "responsible_agency": "Department of Public Works",
    "final_address": "I 10 E & MORRISON EXIT",
    "address_councildis": "E",
    "status": "Pending",
    "contractor": "Royal Engineering",
    "rowid": "843380",
    "final_x": "3698980.7",
    "final_y": "557202.88",
    "longitude": "-90.01193768635346",
    "latitude": "30.025571817705657",
    "geocoded_column": {
      "latitude": "30.025571817705657",
      "longitude": "-90.01193768635346"
    }
  },
  {
    "service_request": "2021-843379",
    "request_type": "Trash/Recycling",
    "request_reason": "Replace Trash Cart",
    "date_created": "2021-11-20T08:39:32.000",
    "date_modified": "2021-11-20T08:39:33.000",
    "request_status": "Pending",
    "responsible_agency": "Department of Sanitation",
    "final_address": "12641 N Lake Carmel Dr",
    "address_councildis": "E",
    "status": "Assigned to Contractor",
    "contractor": "Metro Disposal",
    "rowid": "843379",
    "final_x": "3716023.63557",
    "final_y": "568177.786341",
    "longitude": "-89.95766869916359",
    "latitude": "30.055196941851705",
    "geocoded_column": {
      "latitude": "30.055196941851705",
      "longitude": "-89.95766869916359"
    }
  },
  {
    "service_request": "2021-843378",
    "request_type": "Roads/Drainage",
    "request_reason": "Catch Basin - Broken/Damage",
    "date_created": "2021-11-20T08:37:50.000",
    "date_modified": "2021-11-20T08:37:50.000",
    "request_status": "Pending",
    "responsible_agency": "Department of Public Works",
    "final_address": "6228 Cameron Blvd",
    "address_councildis": "D",
    "status": "Pending",
    "rowid": "843378",
    "final_x": "3682171.40636",
    "final_y": "556037.218841",
    "longitude": "-90.06509340202791",
    "latitude": "30.022888972769582",
    "geocoded_column": {
      "latitude": "30.022888972769582",
      "longitude": "-90.06509340202791"
    }
  },
  {
    "service_request": "2021-843376",
    "request_type": "Abandoned Vehicles",
    "request_reason": "Abandoned/Junk Vehicles",
    "date_created": "2021-11-20T08:25:58.000",
    "date_modified": "2021-11-20T09:01:22.000",
    "request_status": "Pending",
    "responsible_agency": "Department of Public Works",
    "final_address": "4948 Rhodes Dr",
    "address_councildis": "E",
    "status": "Pending",
    "rowid": "843376",
    "final_x": "3702363.29175",
    "final_y": "555474.920089",
    "longitude": "-90.00131272400237",
    "latitude": "30.02071290052674",
    "geocoded_column": {
      "latitude": "30.02071290052674",
      "longitude": "-90.00131272400237"
    }
  },
  {
    "service_request": "2021-843375",
    "request_type": "Property Maintenance",
    "request_reason": "Property Maintenance",
    "date_created": "2021-11-20T08:11:49.000",
    "date_modified": "2021-11-20T08:11:49.000",
    "request_status": "Pending",
    "responsible_agency": "Department of Code Enforcement",
    "final_address": "2613 Joliet St",
    "address_councildis": "A",
    "status": "Pending",
    "rowid": "843375",
    "final_x": "3664412.09306",
    "final_y": "533127.737924",
    "longitude": "-90.1219743475927",
    "latitude": "29.960424205071405",
    "geocoded_column": {
      "latitude": "29.960424205071405",
      "longitude": "-90.1219743475927"
    }
  },
  {
    "service_request": "2021-843374",
    "request_type": "Trash/Recycling",
    "request_reason": "Request a Large Item Pick Up",
    "date_created": "2021-11-20T08:11:41.000",
    "date_modified": "2021-11-20T08:11:42.000",
    "request_status": "Pending",
    "responsible_agency": "Department of Sanitation",
    "final_address": "1224 S Salcedo St",
    "address_councildis": "B",
    "status": "Assigned to Contractor",
    "contractor": "Richards Disposal",
    "rowid": "843374",
    "final_x": "3671003.30324",
    "final_y": "531579.830083",
    "longitude": "-90.10121316044301",
    "latitude": "29.955974726343378",
    "geocoded_column": {
      "latitude": "29.955974726343378",
      "longitude": "-90.10121316044301"
    }
  },
  {
    "service_request": "2021-843373",
    "request_type": "Abandoned Vehicles",
    "request_reason": "Abandoned/Junk Vehicles",
    "date_created": "2021-11-20T08:09:09.000",
    "date_modified": "2021-11-20T08:10:02.000",
    "request_status": "Pending",
    "responsible_agency": "Department of Public Works",
    "final_address": "2026 St Ann St",
    "address_councildis": "D",
    "status": "Pending",
    "rowid": "843373",
    "final_x": "3678931.45954",
    "final_y": "535645.567942",
    "longitude": "-90.07603790606062",
    "latitude": "29.966917332499428",
    "geocoded_column": {
      "latitude": "29.966917332499428",
      "longitude": "-90.07603790606062"
    }
  },
  {
    "service_request": "2021-843372",
    "request_type": "Trash/Recycling",
    "request_reason": "Missed Trash Pick-Up",
    "date_created": "2021-11-20T07:59:58.000",
    "date_modified": "2021-11-20T07:59:59.000",
    "request_status": "Pending",
    "responsible_agency": "Department of Sanitation",
    "final_address": "5901 Stratford Pl",
    "address_councildis": "C",
    "status": "Assigned to Contractor",
    "contractor": "Richards Disposal",
    "rowid": "843372",
    "final_x": "3705508.45687",
    "final_y": "516123.4133",
    "longitude": "-89.99282963444712",
    "latitude": "29.912409691909474",
    "geocoded_column": {
      "latitude": "29.912409691909474",
      "longitude": "-89.99282963444712"
    }
  },
  {
    "service_request": "2021-843371",
    "request_type": "Trash/Recycling",
    "request_reason": "Replace Trash Cart",
    "date_created": "2021-11-20T07:30:55.000",
    "date_modified": "2021-11-20T07:30:56.000",
    "request_status": "Pending",
    "responsible_agency": "Department of Sanitation",
    "final_address": "2424 Chelsea Dr",
    "address_councildis": "C",
    "status": "Assigned to Contractor",
    "contractor": "Richards Disposal",
    "rowid": "843371",
    "final_x": "3704812.57412",
    "final_y": "522445.613626",
    "longitude": "-89.99479291180056",
    "latitude": "29.92981591915055",
    "geocoded_column": {
      "latitude": "29.92981591915055",
      "longitude": "-89.99479291180056"
    }
  },
  {
    "service_request": "2021-843370",
    "request_type": "Trash/Recycling",
    "request_reason": "Replace Trash Cart",
    "date_created": "2021-11-20T07:26:32.000",
    "date_modified": "2021-11-20T07:26:33.000",
    "request_status": "Pending",
    "responsible_agency": "Department of Sanitation",
    "final_address": "2007 St Claude Ave",
    "address_councildis": "C",
    "status": "Assigned to Contractor",
    "contractor": "Metro Disposal",
    "rowid": "843370",
    "final_x": "3684308.91471",
    "final_y": "536291.174791",
    "longitude": "-90.05903324783523",
    "latitude": "29.968529188164926",
    "geocoded_column": {
      "latitude": "29.968529188164926",
      "longitude": "-90.05903324783523"
    }
  },
  {
    "service_request": "2021-843368",
    "request_type": "Trash/Recycling",
    "request_reason": "Order Trash Cart",
    "date_created": "2021-11-20T07:15:17.000",
    "date_modified": "2021-11-20T07:15:18.000",
    "request_status": "Pending",
    "responsible_agency": "Department of Sanitation",
    "final_address": "4861 Haydel St",
    "address_councildis": "E",
    "status": "Assigned to Contractor",
    "contractor": "Metro Disposal",
    "rowid": "843368",
    "final_x": "3699027.64637",
    "final_y": "555147.075865",
    "longitude": "-90.01186426054107",
    "latitude": "30.019917652463153",
    "geocoded_column": {
      "latitude": "30.019917652463153",
      "longitude": "-90.01186426054107"
    }
  },
  {
    "service_request": "2021-843367",
    "request_type": "COVID-19",
    "request_reason": "COVID-19 Business Non-Compliance",
    "date_created": "2021-11-20T06:25:58.000",
    "date_modified": "2021-11-20T06:25:59.000",
    "request_status": "Pending",
    "responsible_agency": "Safety and Permits",
    "final_address": "910 N Carrollton Ave",
    "address_councildis": "A",
    "status": "Pending",
    "rowid": "843367",
    "final_x": "3673310.04609",
    "final_y": "540598.728139",
    "longitude": "-90.09362113289593",
    "latitude": "29.98070524867427",
    "geocoded_column": {
      "latitude": "29.98070524867427",
      "longitude": "-90.09362113289593"
    }
  },
  {
    "service_request": "2021-843365",
    "request_type": "Traffic Signals/Signs/Striping/Streetlights",
    "request_reason": "Street Light Outage/Malfunction",
    "date_created": "2021-11-20T03:03:33.000",
    "date_modified": "2021-11-20T03:03:34.000",
    "request_status": "Pending",
    "responsible_agency": "Department of Public Works",
    "final_address": "4818 Good Dr",
    "address_councildis": "E",
    "status": "Pending",
    "contractor": "Royal Engineering",
    "rowid": "843365",
    "final_x": "3714690.20363",
    "final_y": "557077.002266",
    "longitude": "-89.96230318886074",
    "latitude": "30.024718215031623",
    "geocoded_column": {
      "latitude": "30.024718215031623",
      "longitude": "-89.96230318886074"
    }
  },
  {
    "service_request": "2021-843364",
    "request_type": "Traffic Signals/Signs/Striping/Streetlights",
    "request_reason": "Street Light Outage/Malfunction",
    "date_created": "2021-11-20T03:03:33.000",
    "date_modified": "2021-11-20T03:03:34.000",
    "request_status": "Pending",
    "responsible_agency": "Department of Public Works",
    "final_address": "4818 Good Dr",
    "address_councildis": "E",
    "status": "Pending",
    "contractor": "Royal Engineering",
    "rowid": "843364",
    "final_x": "3714690.20363",
    "final_y": "557077.002266",
    "longitude": "-89.96230318886074",
    "latitude": "30.024718215031623",
    "geocoded_column": {
      "latitude": "30.024718215031623",
      "longitude": "-89.96230318886074"
    }
  },
  {
    "service_request": "2021-843363",
    "request_type": "Trash/Recycling",
    "request_reason": "Order Trash Cart",
    "date_created": "2021-11-20T01:46:40.000",
    "date_modified": "2021-11-20T01:46:40.000",
    "request_status": "Pending",
    "responsible_agency": "Department of Sanitation",
    "final_address": "828 Clouet St",
    "address_councildis": "C",
    "status": "Assigned to Contractor",
    "contractor": "Metro Disposal",
    "rowid": "843363",
    "final_x": "3688746.56419",
    "final_y": "535091.22727",
    "longitude": "-90.04506156470923",
    "latitude": "29.96509330605687",
    "geocoded_column": {
      "latitude": "29.96509330605687",
      "longitude": "-90.04506156470923"
    }
  },
  {
    "service_request": "2021-843362",
    "request_type": "Health Related Questions",
    "request_reason": "Noise Ordinance Complaint",
    "date_created": "2021-11-20T00:35:42.000",
    "date_modified": "2021-11-20T01:01:05.000",
    "request_status": "Pending",
    "responsible_agency": "Health Department",
    "final_address": "6015 Prytania St, New Orleans, Louisiana, 70118",
    "address_councildis": "A",
    "status": "Pending",
    "rowid": "843362",
    "final_x": "3665088.1986",
    "final_y": "520953.381945",
    "longitude": "-90.12024633907009",
    "latitude": "29.92692896554448",
    "geocoded_column": {
      "latitude": "29.92692896554448",
      "longitude": "-90.12024633907009"
    }
  },
  {
    "service_request": "2021-843361",
    "request_type": "Trash/Recycling",
    "request_reason": "Replace Trash Cart",
    "date_created": "2021-11-20T00:33:40.000",
    "date_modified": "2021-11-20T00:33:40.000",
    "request_status": "Pending",
    "responsible_agency": "Department of Sanitation",
    "final_address": "2105 New Orleans St",
    "address_councildis": "D",
    "status": "Assigned to Contractor",
    "contractor": "Metro Disposal",
    "rowid": "843361",
    "final_x": "3682141.21308",
    "final_y": "539849.603146",
    "longitude": "-90.06575464054313",
    "latitude": "29.978379741117365",
    "geocoded_column": {
      "latitude": "29.978379741117365",
      "longitude": "-90.06575464054313"
    }
  },
  {
    "service_request": "2021-843360",
    "request_type": "Trash/Recycling",
    "request_reason": "Request a Large Item Pick Up",
    "date_created": "2021-11-19T23:44:50.000",
    "date_modified": "2021-11-19T23:44:50.000",
    "request_status": "Pending",
    "responsible_agency": "Department of Sanitation",
    "final_address": "4739 Laine Ave",
    "address_councildis": "E",
    "status": "Assigned to Contractor",
    "contractor": "Metro Disposal",
    "rowid": "843360",
    "final_x": "3705758.23345",
    "final_y": "555419.798425",
    "longitude": "-89.99058784052347",
    "latitude": "30.020452384460025",
    "geocoded_column": {
      "latitude": "30.020452384460025",
      "longitude": "-89.99058784052347"
    }
  },
  {
    "service_request": "2021-843359",
    "request_type": "Traffic Signals/Signs/Striping/Streetlights",
    "request_reason": "Street Light Outage/Malfunction",
    "date_created": "2021-11-19T21:35:27.000",
    "date_modified": "2021-11-19T21:35:28.000",
    "request_status": "Pending",
    "responsible_agency": "Department of Public Works",
    "final_address": "109 Wilshire Pl",
    "address_councildis": "D",
    "status": "Pending",
    "contractor": "Royal Engineering",
    "rowid": "843359",
    "final_x": "3677561.8781",
    "final_y": "544402.872847",
    "longitude": "-90.08006056278404",
    "latitude": "29.99103814996968",
    "geocoded_column": {
      "latitude": "29.99103814996968",
      "longitude": "-90.08006056278404"
    }
  },
  {
    "service_request": "2021-843358",
    "request_type": "COVID-19",
    "request_reason": "COVID-19 Business Non-Compliance",
    "date_created": "2021-11-19T21:12:50.000",
    "date_modified": "2021-11-19T21:12:52.000",
    "request_status": "Pending",
    "responsible_agency": "Safety and Permits",
    "final_address": "3636 St Charles Ave",
    "address_councildis": "B",
    "status": "Pending",
    "rowid": "843358",
    "final_x": "3673311.79393",
    "final_y": "521063.456377",
    "longitude": "-90.09428281378497",
    "latitude": "29.926989680558854",
    "geocoded_column": {
      "latitude": "29.926989680558854",
      "longitude": "-90.09428281378497"
    }
  },
  {
    "service_request": "2021-843357",
    "request_type": "Traffic Signals/Signs/Striping/Streetlights",
    "request_reason": "Traffic Signal Malfunctioning/Damaged",
    "date_created": "2021-11-19T20:53:03.000",
    "date_modified": "2021-11-19T20:54:00.000",
    "request_status": "Pending",
    "responsible_agency": "Department of Public Works",
    "final_address": "1800 BLK Hastings Pl",
    "address_councildis": "B",
    "status": "Pending",
    "rowid": "843357",
    "final_x": "3679956.33296",
    "final_y": "522840.055157",
    "longitude": "-90.07324607406852",
    "latitude": "29.93167550679619",
    "geocoded_column": {
      "latitude": "29.93167550679619",
      "longitude": "-90.07324607406852"
    }
  },
  {
    "service_request": "2021-843356",
    "request_type": "Trash/Recycling",
    "request_reason": "Request a Large Item Pick Up",
    "date_created": "2021-11-19T20:39:17.000",
    "date_modified": "2021-11-19T20:39:18.000",
    "request_status": "Pending",
    "responsible_agency": "Department of Sanitation",
    "final_address": "607 Caffin Ave",
    "address_councildis": "E",
    "status": "Assigned to Contractor",
    "contractor": "Metro Disposal",
    "rowid": "843356",
    "final_x": "3697619.68944",
    "final_y": "532035.025603",
    "longitude": "-90.0171517552874",
    "latitude": "29.95641254486659",
    "geocoded_column": {
      "latitude": "29.95641254486659",
      "longitude": "-90.0171517552874"
    }
  },
  {
    "service_request": "2021-843352",
    "request_type": "Traffic Signals/Signs/Striping/Streetlights",
    "request_reason": "Traffic Signal Malfunctioning/Damaged",
    "date_created": "2021-11-19T19:24:39.000",
    "date_modified": "2021-11-19T19:24:39.000",
    "request_status": "Pending",
    "responsible_agency": "Department of Public Works",
    "final_address": "4001 Earhart Blvd",
    "address_councildis": "B",
    "status": "Pending",
    "rowid": "843352",
    "final_x": "3672053.39342",
    "final_y": "531868.169411",
    "longitude": "-90.09788751399965",
    "latitude": "29.95673647398991",
    "geocoded_column": {
      "latitude": "29.95673647398991",
      "longitude": "-90.09788751399965"
    }
  },
  {
    "service_request": "2021-843351",
    "request_type": "Mayor's Request",
    "request_reason": "Requests to the Mayor",
    "date_created": "2021-11-19T19:10:02.000",
    "date_modified": "2021-11-19T19:10:02.000",
    "request_status": "Pending",
    "responsible_agency": "Executive Office of the Mayor",
    "final_address": "3222 Jackson Ave",
    "address_councildis": "B",
    "status": "Pending",
    "rowid": "843351",
    "final_x": "3673777.08078",
    "final_y": "528634.927552",
    "longitude": "-90.09255520789804",
    "latitude": "29.947794915964977",
    "geocoded_column": {
      "latitude": "29.947794915964977",
      "longitude": "-90.09255520789804"
    }
  },
  {
    "service_request": "2021-843350",
    "request_type": "Mayor's Request",
    "request_reason": "Requests to the Mayor",
    "date_created": "2021-11-19T19:01:50.000",
    "date_modified": "2021-11-19T19:01:50.000",
    "request_status": "Pending",
    "responsible_agency": "Executive Office of the Mayor",
    "final_address": "3222 Jackson Ave",
    "address_councildis": "B",
    "status": "Pending",
    "rowid": "843350",
    "final_x": "3673777.08078",
    "final_y": "528634.927552",
    "longitude": "-90.09255520789804",
    "latitude": "29.947794915964977",
    "geocoded_column": {
      "latitude": "29.947794915964977",
      "longitude": "-90.09255520789804"
    }
  },
  {
    "service_request": "2021-843349",
    "request_type": "Traffic Signals/Signs/Striping/Streetlights",
    "request_reason": "Street Light Outage/Malfunction",
    "date_created": "2021-11-19T18:55:31.000",
    "date_modified": "2021-11-19T19:01:49.000",
    "request_status": "Pending",
    "responsible_agency": "Department of Public Works",
    "final_address": "1621 Mirabeau Ave",
    "address_councildis": "D",
    "status": "Pending",
    "contractor": "Royal Engineering",
    "rowid": "843349",
    "final_x": "3680183.51573",
    "final_y": "550553.088532",
    "longitude": "-90.07156550277928",
    "latitude": "30.00786995090243",
    "geocoded_column": {
      "latitude": "30.00786995090243",
      "longitude": "-90.07156550277928"
    }
  },
  {
    "service_request": "2021-843348",
    "request_type": "Trash/Recycling",
    "request_reason": "Replace Trash Cart",
    "date_created": "2021-11-19T18:39:02.000",
    "date_modified": "2021-11-19T18:39:03.000",
    "request_status": "Pending",
    "responsible_agency": "Department of Sanitation",
    "final_address": "1818 Arts St",
    "address_councildis": "D",
    "status": "Assigned to Contractor",
    "contractor": "Metro Disposal",
    "rowid": "843348",
    "final_x": "3686958.6319",
    "final_y": "539215.402954",
    "longitude": "-90.0505619376588",
    "latitude": "29.97648849899605",
    "geocoded_column": {
      "latitude": "29.97648849899605",
      "longitude": "-90.0505619376588"
    }
  },
  {
    "service_request": "2021-843347",
    "request_type": "Mayor's Request",
    "request_reason": "Requests to the Mayor",
    "date_created": "2021-11-19T18:37:31.000",
    "date_modified": "2021-11-19T18:37:31.000",
    "request_status": "Pending",
    "responsible_agency": "Executive Office of the Mayor",
    "final_address": "3224 Jackson Ave",
    "address_councildis": "B",
    "status": "Pending",
    "rowid": "843347",
    "final_x": "3673770.02523",
    "final_y": "528643.08128",
    "longitude": "-90.09257720633046",
    "latitude": "29.94781754610456",
    "geocoded_column": {
      "latitude": "29.94781754610456",
      "longitude": "-90.09257720633046"
    }
  },
  {
    "service_request": "2021-843346",
    "request_type": "Traffic Signals/Signs/Striping/Streetlights",
    "request_reason": "Street Light Outage/Malfunction",
    "date_created": "2021-11-19T18:33:56.000",
    "date_modified": "2021-11-20T10:41:07.000",
    "request_status": "Pending",
    "responsible_agency": "Department of Public Works",
    "final_address": "5013 Stephen Girard Av ",
    "address_councildis": "D",
    "status": "Pending",
    "contractor": "Royal Engineering",
    "rowid": "843346",
    "final_x": "3692615.23222",
    "final_y": "551200.077525",
    "longitude": "-90.0322669584661",
    "latitude": "30.009266662047533",
    "geocoded_column": {
      "latitude": "30.009266662047533",
      "longitude": "-90.0322669584661"
    }
  },
  {
    "service_request": "2021-843345",
    "request_type": "Trash/Recycling",
    "request_reason": "Missed Trash Pick-Up",
    "date_created": "2021-11-19T18:30:20.000",
    "date_modified": "2021-11-19T18:30:20.000",
    "request_status": "Pending",
    "responsible_agency": "Department of Sanitation",
    "final_address": "2603 General Pershing St",
    "address_councildis": "B",
    "status": "Assigned to Contractor",
    "contractor": "Richards Disposal",
    "rowid": "843345",
    "final_x": "3670942.11899",
    "final_y": "524483.136572",
    "longitude": "-90.10164723759432",
    "latitude": "29.936462947707753",
    "geocoded_column": {
      "latitude": "29.936462947707753",
      "longitude": "-90.10164723759432"
    }
  },
  {
    "service_request": "2021-843344",
    "request_type": "Traffic Signals/Signs/Striping/Streetlights",
    "request_reason": "Street Light Outage/Malfunction",
    "date_created": "2021-11-19T18:10:12.000",
    "date_modified": "2021-11-19T18:10:12.000",
    "request_status": "Pending",
    "responsible_agency": "Department of Public Works",
    "final_address": "14048 Quail Creek Ln",
    "address_councildis": "E",
    "status": "Pending",
    "contractor": "Royal Engineering",
    "rowid": "843344",
    "final_x": "3718978.94751",
    "final_y": "572235.532905",
    "longitude": "-89.94817262996473",
    "latitude": "30.066256163835337",
    "geocoded_column": {
      "latitude": "30.066256163835337",
      "longitude": "-89.94817262996473"
    }
  },
  {
    "service_request": "2021-843343",
    "request_type": "Roads/Drainage",
    "request_reason": "Street Flooding / Drainage",
    "date_created": "2021-11-19T18:00:11.000",
    "date_modified": "2021-11-19T18:00:11.000",
    "request_status": "Pending",
    "responsible_agency": "Department of Public Works",
    "final_address": "5543 Cherlyn Dr",
    "address_councildis": "A",
    "status": "Pending",
    "rowid": "843343",
    "final_x": "3665271.58612",
    "final_y": "544727.440335",
    "longitude": "-90.11887200109466",
    "latitude": "29.992294500122178",
    "geocoded_column": {
      "latitude": "29.992294500122178",
      "longitude": "-90.11887200109466"
    }
  },
  {
    "service_request": "2021-843342",
    "request_type": "Traffic Signals/Signs/Striping/Streetlights",
    "request_reason": "Street Light Outage/Malfunction",
    "date_created": "2021-11-19T17:53:50.000",
    "date_modified": "2021-11-19T18:01:21.000",
    "request_status": "Pending",
    "responsible_agency": "Department of Public Works",
    "final_address": "EVE ST & S SALCEDO ST",
    "address_councildis": "B",
    "status": "Pending",
    "contractor": "Royal Engineering",
    "rowid": "843342",
    "final_x": "3670353.7",
    "final_y": "530735.88",
    "longitude": "-90.10329299614861",
    "latitude": "29.953673332701733",
    "geocoded_column": {
      "latitude": "29.953673332701733",
      "longitude": "-90.10329299614861"
    }
  },
  {
    "service_request": "2021-843341",
    "request_type": "Traffic Signals/Signs/Striping/Streetlights",
    "request_reason": "Street Light Outage/Malfunction",
    "date_created": "2021-11-19T17:52:38.000",
    "date_modified": "2021-11-19T18:01:23.000",
    "request_status": "Pending",
    "responsible_agency": "Department of Public Works",
    "final_address": "4200 Washington Ave",
    "address_councildis": "B",
    "status": "Pending",
    "contractor": "Royal Engineering",
    "rowid": "843341",
    "final_x": "3670784.91495",
    "final_y": "530311.955714",
    "longitude": "-90.10194578118096",
    "latitude": "29.952494945216575",
    "geocoded_column": {
      "latitude": "29.952494945216575",
      "longitude": "-90.10194578118096"
    }
  },
  {
    "service_request": "2021-843340",
    "request_type": "Parks & Parkways",
    "request_reason": "Request Tree Service (Right of Way/Public Property)",
    "date_created": "2021-11-19T17:28:20.000",
    "date_modified": "2021-11-19T17:28:20.000",
    "request_status": "Pending",
    "responsible_agency": "Department of Parks & Parkway",
    "final_address": "4655 Baccich St",
    "address_councildis": "D",
    "status": "Pending",
    "rowid": "843340",
    "final_x": "3687804.38691",
    "final_y": "550178.005908",
    "longitude": "-90.04750226090704",
    "latitude": "30.006605662327207",
    "geocoded_column": {
      "latitude": "30.006605662327207",
      "longitude": "-90.04750226090704"
    }
  },
  {
    "service_request": "2021-843338",
    "request_type": "Parks & Parkways",
    "request_reason": "Request Tree Service (Right of Way/Public Property)",
    "date_created": "2021-11-19T17:20:47.000",
    "date_modified": "2021-11-19T17:20:47.000",
    "request_status": "Pending",
    "responsible_agency": "Department of Parks & Parkway",
    "final_address": "4655 Baccich St",
    "address_councildis": "D",
    "status": "Pending",
    "rowid": "843338",
    "final_x": "3687804.38691",
    "final_y": "550178.005908",
    "longitude": "-90.04750226090704",
    "latitude": "30.006605662327207",
    "geocoded_column": {
      "latitude": "30.006605662327207",
      "longitude": "-90.04750226090704"
    }
  },
  {
    "service_request": "2021-843337",
    "request_type": "COVID-19",
    "request_reason": "COVID-19 Business Non-Compliance",
    "date_created": "2021-11-19T17:10:42.000",
    "date_modified": "2021-11-19T17:10:43.000",
    "request_status": "Pending",
    "responsible_agency": "Safety and Permits",
    "final_address": "301 N Peters St",
    "address_councildis": "C",
    "status": "Pending",
    "rowid": "843337",
    "final_x": "3682420.31522",
    "final_y": "530780.516226",
    "longitude": "-90.06519014285749",
    "latitude": "29.95343437837939",
    "geocoded_column": {
      "latitude": "29.95343437837939",
      "longitude": "-90.06519014285749"
    }
  },
  {
    "service_request": "2021-843336",
    "request_type": "Trash/Recycling",
    "request_reason": "Replace Trash Cart",
    "date_created": "2021-11-19T17:08:23.000",
    "date_modified": "2021-11-19T18:01:25.000",
    "request_status": "Pending",
    "responsible_agency": "Department of Sanitation",
    "final_address": "2029 Fourth St",
    "address_councildis": "B",
    "status": "Assigned to Contractor",
    "contractor": "Richards Disposal",
    "rowid": "843336",
    "final_x": "3675287.90056",
    "final_y": "524127.057532",
    "longitude": "-90.08793964292705",
    "latitude": "29.935354684047592",
    "geocoded_column": {
      "latitude": "29.935354684047592",
      "longitude": "-90.08793964292705"
    }
  },
  {
    "service_request": "2021-843335",
    "request_type": "Trash/Recycling",
    "request_reason": "Dead Animal Pick Up",
    "date_created": "2021-11-19T17:02:28.000",
    "date_modified": "2021-11-19T17:02:29.000",
    "request_status": "Pending",
    "responsible_agency": "Department of Sanitation",
    "final_address": "7447 Hampson St",
    "address_councildis": "A",
    "status": "Assigned to Contractor",
    "contractor": "Richards Disposal",
    "rowid": "843335",
    "final_x": "3662444.10983",
    "final_y": "525651.599677",
    "longitude": "-90.12843711691836",
    "latitude": "29.939924288937846",
    "geocoded_column": {
      "latitude": "29.939924288937846",
      "longitude": "-90.12843711691836"
    }
  },
  {
    "service_request": "2021-843334",
    "request_type": "Tax and Revenue",
    "request_reason": "Sales Tax Question",
    "date_created": "2021-11-19T16:57:23.000",
    "date_modified": "2021-11-19T16:57:23.000",
    "request_status": "Pending",
    "responsible_agency": "Bureau of Revenue",
    "status": "Pending",
    "rowid": "843334",
    "longitude": "0.0",
    "latitude": "0.0",
    "geocoded_column": {
      "latitude": "0.0",
      "longitude": "0.0"
    }
  },
  {
    "service_request": "2021-843332",
    "request_type": "Trash/Recycling",
    "request_reason": "Request a Large Item Pick Up",
    "date_created": "2021-11-19T16:49:18.000",
    "date_modified": "2021-11-19T16:49:19.000",
    "request_status": "Pending",
    "responsible_agency": "Department of Sanitation",
    "final_address": "4564 Louisa Dr",
    "address_councildis": "D",
    "status": "Assigned to Contractor",
    "contractor": "Metro Disposal",
    "rowid": "843332",
    "final_x": "3690837.30556",
    "final_y": "550850.571157",
    "longitude": "-90.03789650081879",
    "latitude": "30.00836103770424",
    "geocoded_column": {
      "latitude": "30.00836103770424",
      "longitude": "-90.03789650081879"
    }
  },
  {
    "service_request": "2021-843331",
    "request_type": "Property Maintenance",
    "request_reason": "Property Maintenance",
    "date_created": "2021-11-19T16:49:14.000",
    "date_modified": "2021-11-19T16:49:14.000",
    "request_status": "Pending",
    "responsible_agency": "Department of Code Enforcement",
    "final_address": "3101 Palmyra St",
    "address_councildis": "B",
    "status": "Pending",
    "rowid": "843331",
    "final_x": "3673609.99752",
    "final_y": "535524.36615",
    "longitude": "-90.09284726226402",
    "latitude": "29.966743550110866",
    "geocoded_column": {
      "latitude": "29.966743550110866",
      "longitude": "-90.09284726226402"
    }
  },
  {
    "service_request": "2021-843330",
    "request_type": "Trash/Recycling",
    "request_reason": "Missed Trash Pick-Up",
    "date_created": "2021-11-19T16:41:40.000",
    "date_modified": "2021-11-19T17:01:14.000",
    "request_status": "Pending",
    "responsible_agency": "Department of Sanitation",
    "final_address": "3915 Chestnut St, New Orleans, Louisiana, 70115",
    "address_councildis": "B",
    "status": "Assigned to Contractor",
    "contractor": "Richards Disposal",
    "rowid": "843330",
    "final_x": "3672752.805",
    "final_y": "519741.469688",
    "longitude": "-90.09609245941724",
    "latitude": "29.923371249886785",
    "geocoded_column": {
      "latitude": "29.923371249886785",
      "longitude": "-90.09609245941724"
    }
  },
  {
    "service_request": "2021-843329",
    "request_type": "Trash/Recycling",
    "request_reason": "Order Trash Cart",
    "date_created": "2021-11-19T16:38:31.000",
    "date_modified": "2021-11-19T17:01:16.000",
    "request_status": "Pending",
    "responsible_agency": "Department of Sanitation",
    "final_address": "2900 S Saratoga St",
    "address_councildis": "B",
    "status": "Assigned to Contractor",
    "contractor": "Richards Disposal",
    "rowid": "843329",
    "final_x": "3674501.7563",
    "final_y": "523700.272379",
    "longitude": "-90.09043612091769",
    "latitude": "29.934204634860983",
    "geocoded_column": {
      "latitude": "29.934204634860983",
      "longitude": "-90.09043612091769"
    }
  },
  {
    "service_request": "2021-843328",
    "request_type": "Mosquito, Termite & Rodent Control",
    "request_reason": "Mosquito Complaint",
    "date_created": "2021-11-19T16:29:18.000",
    "date_modified": "2021-11-19T17:01:18.000",
    "request_status": "Pending",
    "responsible_agency": "Mosquito, Termite & Rodent Control Board",
    "final_address": "2213 Milan St",
    "address_councildis": "B",
    "status": "Pending",
    "rowid": "843328",
    "final_x": "3671419.04507",
    "final_y": "523203.866299",
    "longitude": "-90.10018502480322",
    "latitude": "29.932931262610964",
    "geocoded_column": {
      "latitude": "29.932931262610964",
      "longitude": "-90.10018502480322"
    }
  },
  {
    "service_request": "2021-843327",
    "request_type": "Trash/Recycling",
    "request_reason": "Missed Trash Pick-Up",
    "date_created": "2021-11-19T16:15:14.000",
    "date_modified": "2021-11-19T16:15:15.000",
    "request_status": "Pending",
    "responsible_agency": "Department of Sanitation",
    "final_address": "4714 Pitt St",
    "address_councildis": "B",
    "status": "Assigned to Contractor",
    "contractor": "Richards Disposal",
    "rowid": "843327",
    "final_x": "3669620.48858",
    "final_y": "520377.683448",
    "longitude": "-90.10595852028284",
    "latitude": "29.925213262764057",
    "geocoded_column": {
      "latitude": "29.925213262764057",
      "longitude": "-90.10595852028284"
    }
  },
  {
    "service_request": "2021-843326",
    "request_type": "Traffic Signals/Signs/Striping/Streetlights",
    "request_reason": "Striping/Road Surface Markings",
    "date_created": "2021-11-19T16:12:36.000",
    "date_modified": "2021-11-19T17:01:20.000",
    "request_status": "Pending",
    "responsible_agency": "Department of Public Works",
    "final_address": "2426 Esplanade Ave",
    "address_councildis": "D",
    "status": "Pending",
    "rowid": "843326",
    "final_x": "3678785.64533",
    "final_y": "538352.185737",
    "longitude": "-90.0764046258249",
    "latitude": "29.974364002399764",
    "geocoded_column": {
      "latitude": "29.974364002399764",
      "longitude": "-90.0764046258249"
    }
  },
  {
    "service_request": "2021-843325",
    "request_type": "Safety & Permits",
    "request_reason": "Construction permit",
    "date_created": "2021-11-19T16:08:04.000",
    "date_modified": "2021-11-19T17:01:23.000",
    "request_status": "Pending",
    "responsible_agency": "Department of Code Enforcement",
    "final_address": "2824 Bell St",
    "address_councildis": "A",
    "status": "Pending",
    "rowid": "843325",
    "final_x": "3677146.5149",
    "final_y": "539160.325578",
    "longitude": "-90.08155350873142",
    "latitude": "29.976635447701387",
    "geocoded_column": {
      "latitude": "29.976635447701387",
      "longitude": "-90.08155350873142"
    }
  },
  {
    "service_request": "2021-843324",
    "request_type": "Roads/Drainage",
    "request_reason": "Man hole cover issue",
    "date_created": "2021-11-19T16:07:41.000",
    "date_modified": "2021-11-19T16:07:41.000",
    "request_status": "Pending",
    "responsible_agency": "Department of Public Works",
    "final_address": "7001 W Renaissance Ct",
    "address_councildis": "E",
    "status": "Pending",
    "rowid": "843324",
    "final_x": "3717214.49196",
    "final_y": "567148.056164",
    "longitude": "-89.95394386991947",
    "latitude": "30.05232624297696",
    "geocoded_column": {
      "latitude": "30.05232624297696",
      "longitude": "-89.95394386991947"
    }
  },
  {
    "service_request": "2021-843321",
    "request_type": "Roads/Drainage",
    "request_reason": "Pothole",
    "date_created": "2021-11-19T16:02:12.000",
    "date_modified": "2021-11-19T16:02:12.000",
    "request_status": "Pending",
    "responsible_agency": "Department of Public Works",
    "final_address": "2200 BLK Allen St",
    "address_councildis": "D",
    "status": "Pending",
    "rowid": "843321",
    "final_x": "3682437.36081",
    "final_y": "540360.426941",
    "longitude": "-90.06480143790013",
    "latitude": "29.97977531670225",
    "geocoded_column": {
      "latitude": "29.97977531670225",
      "longitude": "-90.06480143790013"
    }
  },
  {
    "service_request": "2021-843320",
    "request_type": "Roads/Drainage",
    "request_reason": "Catch Basin - Broken/Damage",
    "date_created": "2021-11-19T15:59:30.000",
    "date_modified": "2021-11-19T15:59:30.000",
    "request_status": "Pending",
    "responsible_agency": "Department of Public Works",
    "final_address": "4343 Carriere Ct",
    "address_councildis": "E",
    "status": "Pending",
    "rowid": "843320",
    "final_x": "3725004.95129",
    "final_y": "557550.052507",
    "longitude": "-89.92969248949113",
    "latitude": "30.02567552219717",
    "geocoded_column": {
      "latitude": "30.02567552219717",
      "longitude": "-89.92969248949113"
    }
  },
  {
    "service_request": "2021-843319",
    "request_type": "Abandoned Vehicles",
    "request_reason": "Abandoned/Junk Vehicles",
    "date_created": "2021-11-19T15:58:27.000",
    "date_modified": "2021-11-19T15:58:27.000",
    "request_status": "Pending",
    "responsible_agency": "Department of Public Works",
    "final_address": "431 Atlantic Ave",
    "address_councildis": "C",
    "status": "Pending",
    "rowid": "843319",
    "final_x": "3688760.06684",
    "final_y": "530035.319937",
    "longitude": "-90.04519841422469",
    "latitude": "29.95119089399211",
    "geocoded_column": {
      "latitude": "29.95119089399211",
      "longitude": "-90.04519841422469"
    }
  },
  {
    "service_request": "2021-843316",
    "request_type": "Traffic Signals/Signs/Striping/Streetlights",
    "request_reason": "Traffic Signal Malfunctioning/Damaged",
    "date_created": "2021-11-19T15:45:29.000",
    "date_modified": "2021-11-19T16:01:25.000",
    "request_status": "Pending",
    "responsible_agency": "Department of Public Works",
    "final_address": "3328 Lasalle St, New Orleans, Louisiana, 70115",
    "address_councildis": "B",
    "status": "Pending",
    "rowid": "843316",
    "final_x": "3673206.17038",
    "final_y": "524183.357436",
    "longitude": "-90.09450976103773",
    "latitude": "29.93557154029931",
    "geocoded_column": {
      "latitude": "29.93557154029931",
      "longitude": "-90.09450976103773"
    }
  },
  {
    "service_request": "2021-843315",
    "request_type": "Trash/Recycling",
    "request_reason": "Illegal Dumping",
    "date_created": "2021-11-19T15:39:04.000",
    "date_modified": "2021-11-19T15:39:04.000",
    "request_status": "Pending",
    "responsible_agency": "Department of Sanitation",
    "final_address": "1328 S Salcedo St",
    "address_councildis": "B",
    "status": "Pending",
    "rowid": "843315",
    "final_x": "3670773.35854",
    "final_y": "531345.088194",
    "longitude": "-90.10194721405458",
    "latitude": "29.95533606047509",
    "geocoded_column": {
      "latitude": "29.95533606047509",
      "longitude": "-90.10194721405458"
    }
  },
  {
    "service_request": "2021-843314",
    "request_type": "Trash/Recycling",
    "request_reason": "Missed Trash Pick-Up",
    "date_created": "2021-11-19T15:37:05.000",
    "date_modified": "2021-11-19T16:01:28.000",
    "request_status": "Pending",
    "responsible_agency": "Department of Sanitation",
    "final_address": "5211 Berkley Dr, New Orleans, Louisiana, 70131",
    "address_councildis": "C",
    "status": "Assigned to Contractor",
    "contractor": "Richards Disposal",
    "rowid": "843314",
    "final_x": "3703012.57444",
    "final_y": "518141.546166",
    "longitude": "-90.00063318751128",
    "latitude": "29.918038917188003",
    "geocoded_column": {
      "latitude": "29.918038917188003",
      "longitude": "-90.00063318751128"
    }
  },
  {
    "service_request": "2021-843313",
    "request_type": "Abandoned Vehicles",
    "request_reason": "Abandoned/Junk Vehicles",
    "date_created": "2021-11-19T15:35:07.000",
    "date_modified": "2021-11-19T15:35:07.000",
    "request_status": "Pending",
    "responsible_agency": "Department of Public Works",
    "final_address": "8232 Oak St",
    "address_councildis": "A",
    "status": "Pending",
    "rowid": "843313",
    "final_x": "3661487.98963",
    "final_y": "528750.531264",
    "longitude": "-90.13135311348218",
    "latitude": "29.94847297435323",
    "geocoded_column": {
      "latitude": "29.94847297435323",
      "longitude": "-90.13135311348218"
    }
  },
  {
    "service_request": "2021-843312",
    "request_type": "Abandoned Vehicles",
    "request_reason": "Abandoned/Junk Vehicles",
    "date_created": "2021-11-19T15:34:12.000",
    "date_modified": "2021-11-19T15:34:12.000",
    "request_status": "Pending",
    "responsible_agency": "Department of Public Works",
    "final_address": "906 Desire St",
    "address_councildis": "C",
    "status": "Pending",
    "rowid": "843312",
    "final_x": "3689975.85065",
    "final_y": "535001.85607",
    "longitude": "-90.04118274287192",
    "latitude": "29.964809506536692",
    "geocoded_column": {
      "latitude": "29.964809506536692",
      "longitude": "-90.04118274287192"
    }
  },
  {
    "service_request": "2021-843311",
    "request_type": "Abandoned Vehicles",
    "request_reason": "Abandoned/Junk Vehicles",
    "date_created": "2021-11-19T15:33:00.000",
    "date_modified": "2021-11-19T15:33:00.000",
    "request_status": "Pending",
    "responsible_agency": "Department of Public Works",
    "final_address": "DUMAINE ST & N GALVEZ ST",
    "address_councildis": "D",
    "status": "Pending",
    "rowid": "843311",
    "final_x": "3678796.1",
    "final_y": "536260.78",
    "longitude": "-90.07644406041649",
    "latitude": "29.96861303876672",
    "geocoded_column": {
      "latitude": "29.96861303876672",
      "longitude": "-90.07644406041649"
    }
  },
  {
    "service_request": "2021-843310",
    "request_type": "Trash/Recycling",
    "request_reason": "Missed Trash Pick-Up",
    "date_created": "2021-11-19T15:32:02.000",
    "date_modified": "2021-11-19T15:32:04.000",
    "request_status": "Pending",
    "responsible_agency": "Department of Sanitation",
    "final_address": "3993 S Front St",
    "address_councildis": "B",
    "status": "Assigned to Contractor",
    "contractor": "Richards Disposal",
    "rowid": "843310",
    "final_x": "3672704.029",
    "final_y": "517393.301301",
    "longitude": "-90.09632644752156",
    "latitude": "29.916915983460342",
    "geocoded_column": {
      "latitude": "29.916915983460342",
      "longitude": "-90.09632644752156"
    }
  },
  {
    "service_request": "2021-843309",
    "request_type": "Taxi Issues",
    "request_reason": "Taxi Lost & Found Item",
    "date_created": "2021-11-19T15:29:07.000",
    "date_modified": "2021-11-19T16:01:32.000",
    "request_status": "Pending",
    "responsible_agency": "Ground Transportation Bureau",
    "final_address": "228 Poydras St",
    "address_councildis": "B",
    "status": "Pending",
    "rowid": "843309",
    "final_x": "3682272.06844",
    "final_y": "528907.947328",
    "longitude": "-90.06572365399002",
    "latitude": "29.948289957310266",
    "geocoded_column": {
      "latitude": "29.948289957310266",
      "longitude": "-90.06572365399002"
    }
  },
  {
    "service_request": "2021-843308",
    "request_type": "Trash/Recycling",
    "request_reason": "Order Trash Cart",
    "date_created": "2021-11-19T15:26:51.000",
    "date_modified": "2021-11-19T15:26:52.000",
    "request_status": "Pending",
    "responsible_agency": "Department of Sanitation",
    "final_address": "6568 Milne Blvd",
    "address_councildis": "A",
    "status": "Assigned to Contractor",
    "contractor": "Metro Disposal",
    "rowid": "843308",
    "final_x": "3667309.58113",
    "final_y": "551399.942613",
    "longitude": "-90.11220973066722",
    "latitude": "30.010582022245945",
    "geocoded_column": {
      "latitude": "30.010582022245945",
      "longitude": "-90.11220973066722"
    }
  },
  {
    "service_request": "2021-843307",
    "request_type": "Trash/Recycling",
    "request_reason": "Missed Trash Pick-Up",
    "date_created": "2021-11-19T15:26:51.000",
    "date_modified": "2021-11-19T16:01:34.000",
    "request_status": "Pending",
    "responsible_agency": "Department of Sanitation",
    "final_address": "6904 Downman Rd",
    "address_councildis": "D",
    "status": "Assigned to Contractor",
    "contractor": "Metro Disposal",
    "rowid": "843307",
    "final_x": "3695234.95626",
    "final_y": "556270.036634",
    "longitude": "-90.02380733618763",
    "latitude": "30.023125094101015",
    "geocoded_column": {
      "latitude": "30.023125094101015",
      "longitude": "-90.02380733618763"
    }
  },
  {
    "service_request": "2021-843306",
    "request_type": "Trash/Recycling",
    "request_reason": "Order Trash Cart",
    "date_created": "2021-11-19T15:26:00.000",
    "date_modified": "2021-11-19T15:26:01.000",
    "request_status": "Pending",
    "responsible_agency": "Department of Sanitation",
    "final_address": "6568 Milne Blvd",
    "address_councildis": "A",
    "status": "Assigned to Contractor",
    "contractor": "Metro Disposal",
    "rowid": "843306",
    "final_x": "3667309.58113",
    "final_y": "551399.942613",
    "longitude": "-90.11220973066722",
    "latitude": "30.010582022245945",
    "geocoded_column": {
      "latitude": "30.010582022245945",
      "longitude": "-90.11220973066722"
    }
  },
  {
    "service_request": "2021-843305",
    "request_type": "Abandoned Vehicles",
    "request_reason": "Abandoned/Junk Vehicles",
    "date_created": "2021-11-19T15:23:56.000",
    "date_modified": "2021-11-19T15:26:08.000",
    "request_status": "Pending",
    "responsible_agency": "Department of Public Works",
    "final_address": "1234 Marigny St",
    "address_councildis": "C",
    "status": "Pending",
    "rowid": "843305",
    "final_x": "3685335.54511",
    "final_y": "536986.58836",
    "longitude": "-90.05576661514202",
    "latitude": "29.970409900196522",
    "geocoded_column": {
      "latitude": "29.970409900196522",
      "longitude": "-90.05576661514202"
    }
  },
  {
    "service_request": "2021-843304",
    "request_type": "Trash/Recycling",
    "request_reason": "Replace Trash Cart",
    "date_created": "2021-11-19T15:17:37.000",
    "date_modified": "2021-11-19T15:17:38.000",
    "request_status": "Pending",
    "responsible_agency": "Department of Sanitation",
    "final_address": "6029 Colbert St",
    "address_councildis": "A",
    "status": "Assigned to Contractor",
    "contractor": "Metro Disposal",
    "rowid": "843304",
    "final_x": "3667520.87418",
    "final_y": "547653.382226",
    "longitude": "-90.11166837371752",
    "latitude": "30.000274090891736",
    "geocoded_column": {
      "latitude": "30.000274090891736",
      "longitude": "-90.11166837371752"
    }
  },
  {
    "service_request": "2021-843303",
    "request_type": "Trash/Recycling",
    "request_reason": "Missed Trash Pick-Up",
    "date_created": "2021-11-19T15:12:54.000",
    "date_modified": "2021-11-20T15:15:04.000",
    "case_close_date": "2021-11-20T09:15:04.000",
    "request_status": "Closed",
    "responsible_agency": "Department of Sanitation",
    "final_address": "3820 St Claude Ave",
    "address_councildis": "C",
    "status": "Resolved",
    "contractor": "Metro Disposal",
    "rowid": "843303",
    "final_x": "3691325.99593",
    "final_y": "535336.381382",
    "longitude": "-90.03690713581696",
    "latitude": "29.965687399911342",
    "geocoded_column": {
      "latitude": "29.965687399911342",
      "longitude": "-90.03690713581696"
    }
  },
  {
    "service_request": "2021-843302",
    "request_type": "Trash/Recycling",
    "request_reason": "Replace Trash Cart",
    "date_created": "2021-11-19T15:11:27.000",
    "date_modified": "2021-11-19T15:11:28.000",
    "request_status": "Pending",
    "responsible_agency": "Department of Sanitation",
    "final_address": "7771 S Coronet Ct Apt A",
    "address_councildis": "E",
    "status": "Assigned to Contractor",
    "contractor": "Metro Disposal",
    "rowid": "843302",
    "final_x": "3702819.56804",
    "final_y": "557336.545307",
    "longitude": "-89.99980257944574",
    "latitude": "30.02581706024654",
    "geocoded_column": {
      "latitude": "30.02581706024654",
      "longitude": "-89.99980257944574"
    }
  },
  {
    "service_request": "2021-843301",
    "request_type": "Trash/Recycling",
    "request_reason": "Order Trash Cart",
    "date_created": "2021-11-19T15:11:14.000",
    "date_modified": "2021-11-19T15:11:15.000",
    "request_status": "Pending",
    "responsible_agency": "Department of Sanitation",
    "final_address": "6568 Milne Blvd",
    "address_councildis": "A",
    "status": "Assigned to Contractor",
    "contractor": "Metro Disposal",
    "rowid": "843301",
    "final_x": "3667309.58113",
    "final_y": "551399.942613",
    "longitude": "-90.11220973066722",
    "latitude": "30.010582022245945",
    "geocoded_column": {
      "latitude": "30.010582022245945",
      "longitude": "-90.11220973066722"
    }
  },
  {
    "service_request": "2021-843300",
    "request_type": "Trash/Recycling",
    "request_reason": "Request a Large Item Pick Up",
    "date_created": "2021-11-19T15:09:08.000",
    "date_modified": "2021-11-19T15:09:09.000",
    "request_status": "Pending",
    "responsible_agency": "Department of Sanitation",
    "final_address": "8803 Pritchard Pl",
    "address_councildis": "A",
    "status": "Assigned to Contractor",
    "contractor": "Richards Disposal",
    "rowid": "843300",
    "final_x": "3664224.0066",
    "final_y": "534607.766918",
    "longitude": "-90.1225189023639",
    "latitude": "29.964499266032774",
    "geocoded_column": {
      "latitude": "29.964499266032774",
      "longitude": "-90.1225189023639"
    }
  },
  {
    "service_request": "2021-843299",
    "request_type": "Trash/Recycling",
    "request_reason": "Order Trash Cart",
    "date_created": "2021-11-19T15:08:59.000",
    "date_modified": "2021-11-19T15:09:00.000",
    "request_status": "Pending",
    "responsible_agency": "Department of Sanitation",
    "final_address": "6565 Milne Blvd",
    "address_councildis": "A",
    "status": "Assigned to Contractor",
    "contractor": "Metro Disposal",
    "rowid": "843299",
    "final_x": "3667524.16404",
    "final_y": "551328.226005",
    "longitude": "-90.11153419452778",
    "latitude": "30.010378537003245",
    "geocoded_column": {
      "latitude": "30.010378537003245",
      "longitude": "-90.11153419452778"
    }
  },
  {
    "service_request": "2021-843297",
    "request_type": "Trash/Recycling",
    "request_reason": "Repair Trash Cart",
    "date_created": "2021-11-19T14:42:56.000",
    "date_modified": "2021-11-19T15:01:12.000",
    "request_status": "Pending",
    "responsible_agency": "Department of Sanitation",
    "final_address": "7930 Oak St",
    "address_councildis": "A",
    "status": "Assigned to Contractor",
    "contractor": "Richards Disposal",
    "rowid": "843297",
    "final_x": "3662360.46208",
    "final_y": "527960.430719",
    "longitude": "-90.12862456824243",
    "latitude": "29.946275256638664",
    "geocoded_column": {
      "latitude": "29.946275256638664",
      "longitude": "-90.12862456824243"
    }
  },
  {
    "service_request": "2021-843295",
    "request_type": "Abandoned Vehicles",
    "request_reason": "Abandoned/Junk Vehicles",
    "date_created": "2021-11-19T14:35:57.000",
    "date_modified": "2021-11-19T14:35:57.000",
    "request_status": "Pending",
    "responsible_agency": "Department of Public Works",
    "final_address": "901 Vallette St",
    "address_councildis": "C",
    "status": "Pending",
    "rowid": "843295",
    "final_x": "3687411.82972",
    "final_y": "528303.946688",
    "longitude": "-90.04951671824557",
    "latitude": "29.94647181570908",
    "geocoded_column": {
      "latitude": "29.94647181570908",
      "longitude": "-90.04951671824557"
    }
  },
  {
    "service_request": "2021-843294",
    "request_type": "Traffic Signals/Signs/Striping/Streetlights",
    "request_reason": "Street Light Outage/Malfunction",
    "date_created": "2021-11-19T14:34:17.000",
    "date_modified": "2021-11-19T15:01:20.000",
    "request_status": "Pending",
    "responsible_agency": "Department of Public Works",
    "final_address": "4490 Baccich St",
    "address_councildis": "D",
    "status": "Pending",
    "contractor": "Royal Engineering",
    "rowid": "843294",
    "final_x": "3687758.75619",
    "final_y": "549582.855315",
    "longitude": "-90.04766751649184",
    "latitude": "30.00497062313949",
    "geocoded_column": {
      "latitude": "30.00497062313949",
      "longitude": "-90.04766751649184"
    }
  },
  {
    "service_request": "2021-843293",
    "request_type": "Trash/Recycling",
    "request_reason": "Missed Trash Pick-Up",
    "date_created": "2021-11-19T14:31:42.000",
    "date_modified": "2021-11-19T14:31:43.000",
    "request_status": "Pending",
    "responsible_agency": "Department of Sanitation",
    "final_address": "1217 St Anthony St",
    "address_councildis": "C",
    "status": "Assigned to Contractor",
    "contractor": "Metro Disposal",
    "rowid": "843293",
    "final_x": "3683554.72373",
    "final_y": "536329.703303",
    "longitude": "-90.06141366864784",
    "latitude": "29.968658169243096",
    "geocoded_column": {
      "latitude": "29.968658169243096",
      "longitude": "-90.06141366864784"
    }
  },
  {
    "service_request": "2021-843292",
    "request_type": "Trash/Recycling",
    "request_reason": "Replace Trash Cart",
    "date_created": "2021-11-19T14:30:49.000",
    "date_modified": "2021-11-19T14:30:50.000",
    "request_status": "Pending",
    "responsible_agency": "Department of Sanitation",
    "final_address": "1217 St Anthony St",
    "address_councildis": "C",
    "status": "Assigned to Contractor",
    "contractor": "Metro Disposal",
    "rowid": "843292",
    "final_x": "3683554.72373",
    "final_y": "536329.703303",
    "longitude": "-90.06141366864784",
    "latitude": "29.968658169243096",
    "geocoded_column": {
      "latitude": "29.968658169243096",
      "longitude": "-90.06141366864784"
    }
  },
  {
    "service_request": "2021-843291",
    "request_type": "Trash/Recycling",
    "request_reason": "Missed Trash Pick-Up",
    "date_created": "2021-11-19T14:26:36.000",
    "date_modified": "2021-11-19T14:26:37.000",
    "request_status": "Pending",
    "responsible_agency": "Department of Sanitation",
    "final_address": "3550 Plymouth Pl",
    "address_councildis": "C",
    "status": "Assigned to Contractor",
    "contractor": "Richards Disposal",
    "rowid": "843291",
    "final_x": "3702831.7267",
    "final_y": "517819.326134",
    "longitude": "-90.0012158452352",
    "latitude": "29.91715870518437",
    "geocoded_column": {
      "latitude": "29.91715870518437",
      "longitude": "-90.0012158452352"
    }
  },
  {
    "service_request": "2021-843290",
    "request_type": "Traffic Signals/Signs/Striping/Streetlights",
    "request_reason": "Street Light Outage/Malfunction",
    "date_created": "2021-11-19T14:25:27.000",
    "date_modified": "2021-11-19T15:01:21.000",
    "request_status": "Pending",
    "responsible_agency": "Department of Public Works",
    "final_address": "1719 Congress St",
    "address_councildis": "D",
    "status": "Pending",
    "contractor": "Royal Engineering",
    "rowid": "843290",
    "final_x": "3691348.48803",
    "final_y": "537960.892233",
    "longitude": "-90.03674232182063",
    "latitude": "29.972903179082437",
    "geocoded_column": {
      "latitude": "29.972903179082437",
      "longitude": "-90.03674232182063"
    }
  },
  {
    "service_request": "2021-843287",
    "request_type": "Traffic Signals/Signs/Striping/Streetlights",
    "request_reason": "Street Light Outage/Malfunction",
    "date_created": "2021-11-19T14:24:46.000",
    "date_modified": "2021-11-19T15:01:28.000",
    "request_status": "Pending",
    "responsible_agency": "Department of Public Works",
    "final_address": "1200 BLK Senate St",
    "address_councildis": "D",
    "status": "Pending",
    "contractor": "Royal Engineering",
    "rowid": "843287",
    "final_x": "3676732.70621",
    "final_y": "547126.804812",
    "longitude": "-90.08258580354818",
    "latitude": "29.99855291812534",
    "geocoded_column": {
      "latitude": "29.99855291812534",
      "longitude": "-90.08258580354818"
    }
  },