[
  {
    "service_request": "2022-857545",
    "request_type": "Traffic Signals/Signs/Striping/Streetlights",
    "request_reason": "Traffic Sign Missing/Damaged",
    "date_created": "2022-01-29T22:16:53.000",
    "date_modified": "2022-01-29T22:16:53.000",
    "request_status": "Pending",
    "responsible_agency": "Department of Public Works",
    "final_address": "5690 Eastover Dr",
    "address_councildis": "E",
    "status": "Pending",
    "rowid": "857545",
    "final_x": "3719519.67557",
    "final_y": "562639.938592",
    "longitude": "-89.94683036868318",
    "latitude": "30.039854266670755",
    "geocoded_column": {
      "latitude": "30.039854266670755",
      "longitude": "-89.94683036868318"
    }
  },
  {
    "service_request": "2022-857543",
    "request_type": "Trash/Recycling",
    "request_reason": "Order Trash Cart",
    "date_created": "2022-01-29T21:46:42.000",
    "date_modified": "2022-01-29T21:46:43.000",
    "request_status": "Pending",
    "responsible_agency": "Department of Sanitation",
    "final_address": "1915 France St",
    "address_councildis": "D",
    "status": "Assigned to Contractor",
    "contractor": "Metro Disposal",
    "rowid": "857543",
    "final_x": "3693208.9711",
    "final_y": "538296.138569",
    "longitude": "-90.03085455160937",
    "latitude": "29.973766968824194",
    "geocoded_column": {
      "latitude": "29.973766968824194",
      "longitude": "-90.03085455160937"
    }
  },
  {
    "service_request": "2022-857541",
    "request_type": "Traffic Signals/Signs/Striping/Streetlights",
    "request_reason": "Street Light Outage/Malfunction",
    "date_created": "2022-01-29T21:41:25.000",
    "date_modified": "2022-01-29T21:41:26.000",
    "request_status": "Pending",
    "responsible_agency": "Department of Public Works",
    "final_address": "420 S Gayoso St",
    "address_councildis": "B",
    "status": "Pending",
    "contractor": "Royal Engineering",
    "rowid": "857541",
    "final_x": "3673513.65524",
    "final_y": "534712.196422",
    "longitude": "-90.093179270705",
    "latitude": "29.964513224111478",
    "geocoded_column": {
      "latitude": "29.964513224111478",
      "longitude": "-90.093179270705"
    }
  },
  {
    "service_request": "2022-857540",
    "request_type": "Trash/Recycling",
    "request_reason": "MIssed Recycling Pick-Up",
    "date_created": "2022-01-29T21:20:21.000",
    "date_modified": "2022-01-29T21:20:22.000",
    "request_status": "Pending",
    "responsible_agency": "Department of Sanitation",
    "final_address": "2231 Calhoun St",
    "address_councildis": "A",
    "status": "Assigned to Contractor",
    "contractor": "Richards Disposal",
    "rowid": "857540",
    "final_x": "3665942.54541",
    "final_y": "525328.612157",
    "longitude": "-90.11740281789183",
    "latitude": "29.93893455969094",
    "geocoded_column": {
      "latitude": "29.93893455969094",
      "longitude": "-90.11740281789183"
    }
  },
  {
    "service_request": "2022-857539",
    "request_type": "Roads/Drainage",
    "request_reason": "Street Flooding / Drainage",
    "date_created": "2022-01-29T21:14:33.000",
    "date_modified": "2022-01-29T21:14:33.000",
    "request_status": "Pending",
    "responsible_agency": "Department of Public Works",
    "final_address": "3002 Laurel St",
    "address_councildis": "B",
    "status": "Pending",
    "rowid": "857539",
    "final_x": "3676763.34478",
    "final_y": "519721.428024",
    "longitude": "-90.08343337493233",
    "latitude": "29.923196459281233",
    "geocoded_column": {
      "latitude": "29.923196459281233",
      "longitude": "-90.08343337493233"
    }
  },
  {
    "service_request": "2022-857538",
    "request_type": "Trash/Recycling",
    "request_reason": "Replace Trash Cart",
    "date_created": "2022-01-29T21:12:48.000",
    "date_modified": "2022-01-29T21:12:49.000",
    "request_status": "Pending",
    "responsible_agency": "Department of Sanitation",
    "final_address": "1730 Joliet St",
    "address_councildis": "A",
    "status": "Assigned to Contractor",
    "contractor": "Richards Disposal",
    "rowid": "857538",
    "final_x": "3662238.74848",
    "final_y": "530845.76621",
    "longitude": "-90.12891310475061",
    "latitude": "29.954212520124766",
    "geocoded_column": {
      "latitude": "29.954212520124766",
      "longitude": "-90.12891310475061"
    }
  },
  {
    "service_request": "2022-857537",
    "request_type": "Roads/Drainage",
    "request_reason": "Street Subsidence (Sinking)",
    "date_created": "2022-01-29T20:50:19.000",
    "date_modified": "2022-01-29T20:50:19.000",
    "request_status": "Pending",
    "responsible_agency": "Department of Public Works",
    "final_address": "1015 N Broad St",
    "address_councildis": "A",
    "status": "Pending",
    "rowid": "857537",
    "final_x": "3677363.31387",
    "final_y": "538062.276105",
    "longitude": "-90.0809066959445",
    "latitude": "29.973609674478617",
    "geocoded_column": {
      "latitude": "29.973609674478617",
      "longitude": "-90.0809066959445"
    }
  },
  {
    "service_request": "2022-857536",
    "request_type": "Roads/Drainage",
    "request_reason": "Debris in Roadway",
    "date_created": "2022-01-29T20:40:13.000",
    "date_modified": "2022-01-29T20:40:13.000",
    "request_status": "Pending",
    "responsible_agency": "Department of Public Works",
    "final_address": "2005 N Broad St",
    "address_councildis": "D",
    "status": "Pending",
    "rowid": "857536",
    "final_x": "3680422.34607",
    "final_y": "542028.95534",
    "longitude": "-90.07110762317988",
    "latitude": "29.984424372658932",
    "geocoded_column": {
      "latitude": "29.984424372658932",
      "longitude": "-90.07110762317988"
    }
  },
  {
    "service_request": "2022-857535",
    "request_type": "Roads/Drainage",
    "request_reason": "Catch Basin - Clogged",
    "date_created": "2022-01-29T20:26:11.000",
    "date_modified": "2022-01-29T20:26:11.000",
    "request_status": "Pending",
    "responsible_agency": "Department of Public Works",
    "final_address": "981 Navarre St",
    "address_councildis": "A",
    "status": "Pending",
    "rowid": "857535",
    "final_x": "3670510.35764",
    "final_y": "543711.306254",
    "longitude": "-90.10235818438862",
    "latitude": "29.989346766270113",
    "geocoded_column": {
      "latitude": "29.989346766270113",
      "longitude": "-90.10235818438862"
    }
  },
  {
    "service_request": "2022-857534",
    "request_type": "Roads/Drainage",
    "request_reason": "Catch Basin - Clogged",
    "date_created": "2022-01-29T20:24:03.000",
    "date_modified": "2022-01-29T20:24:03.000",
    "request_status": "Pending",
    "responsible_agency": "Department of Public Works",
    "final_address": "975 Navarre St",
    "address_councildis": "A",
    "status": "Pending",
    "rowid": "857534",
    "final_x": "3670413.42254",
    "final_y": "543719.26875",
    "longitude": "-90.10266410506316",
    "latitude": "29.989371523456146",
    "geocoded_column": {
      "latitude": "29.989371523456146",
      "longitude": "-90.10266410506316"
    }
  },
  {
    "service_request": "2022-857533",
    "request_type": "Abandoned Vehicles",
    "request_reason": "Abandoned/Junk Vehicles",
    "date_created": "2022-01-29T19:40:09.000",
    "date_modified": "2022-01-29T19:40:09.000",
    "request_status": "Pending",
    "responsible_agency": "Department of Public Works",
    "final_address": "5822 Lafaye St",
    "address_councildis": "D",
    "status": "Pending",
    "rowid": "857533",
    "final_x": "3687134.28233",
    "final_y": "554733.346328",
    "longitude": "-90.04945803724782",
    "latitude": "30.01915183519533",
    "geocoded_column": {
      "latitude": "30.01915183519533",
      "longitude": "-90.04945803724782"
    }
  },
  {
    "service_request": "2022-857532",
    "request_type": "Roads/Drainage",
    "request_reason": "Catch Basin - Broken/Damage",
    "date_created": "2022-01-29T19:21:44.000",
    "date_modified": "2022-01-29T19:21:44.000",
    "request_status": "Pending",
    "responsible_agency": "Department of Public Works",
    "final_address": "2413 S Tonti St",
    "address_councildis": "B",
    "status": "Pending",
    "rowid": "857532",
    "final_x": "3672760.46996",
    "final_y": "529314.993729",
    "longitude": "-90.09574186554018",
    "latitude": "29.949695104334733",
    "geocoded_column": {
      "latitude": "29.949695104334733",
      "longitude": "-90.09574186554018"
    }
  },
  {
    "service_request": "2022-857531",
    "request_type": "Trash/Recycling",
    "request_reason": "Order Trash Cart",
    "date_created": "2022-01-29T19:06:03.000",
    "date_modified": "2022-01-29T19:06:05.000",
    "request_status": "Pending",
    "responsible_agency": "Department of Sanitation",
    "final_address": "200 Robert E Lee Blvd",
    "address_councildis": "A",
    "status": "Assigned to Contractor",
    "contractor": "Metro Disposal",
    "rowid": "857531",
    "final_x": "3667235.20205",
    "final_y": "554766.63292",
    "longitude": "-90.11233137963038",
    "latitude": "30.019841415732806",
    "geocoded_column": {
      "latitude": "30.019841415732806",
      "longitude": "-90.11233137963038"
    }
  },
  {
    "service_request": "2022-857530",
    "request_type": "Roads/Drainage",
    "request_reason": "Pothole",
    "date_created": "2022-01-29T17:58:47.000",
    "date_modified": "2022-01-29T17:58:47.000",
    "request_status": "Pending",
    "responsible_agency": "Department of Public Works",
    "final_address": "5417 Freret St",
    "address_councildis": "A",
    "status": "Pending",
    "rowid": "857530",
    "final_x": "3667761.82676",
    "final_y": "524116.028156",
    "longitude": "-90.11169993103742",
    "latitude": "29.93554713323735",
    "geocoded_column": {
      "latitude": "29.93554713323735",
      "longitude": "-90.11169993103742"
    }
  },
  {
    "service_request": "2022-857529",
    "request_type": "Trash/Recycling",
    "request_reason": "Illegal Dumping",
    "date_created": "2022-01-29T17:29:07.000",
    "date_modified": "2022-01-29T17:29:07.000",
    "request_status": "Pending",
    "responsible_agency": "Department of Sanitation",
    "final_address": "529 S Galvez St",
    "address_councildis": "B",
    "status": "Pending",
    "rowid": "857529",
    "final_x": "3675596.2468",
    "final_y": "532254.590467",
    "longitude": "-90.086687032129",
    "latitude": "29.957693492371817",
    "geocoded_column": {
      "latitude": "29.957693492371817",
      "longitude": "-90.086687032129"
    }
  },
  {
    "service_request": "2022-857528",
    "request_type": "EMS",
    "request_reason": "EMS Lost & Found",
    "date_created": "2022-01-29T17:26:42.000",
    "date_modified": "2022-01-29T17:26:42.000",
    "request_status": "Pending",
    "responsible_agency": "Emergency Medical Services",
    "final_address": "SONIAT ST & CUCULLU ST",
    "address_councildis": "B",
    "status": "Pending",
    "rowid": "857528",
    "final_x": "3668569.5",
    "final_y": "525595.78",
    "longitude": "-90.1091001793858",
    "latitude": "29.93959227268642",
    "geocoded_column": {
      "latitude": "29.93959227268642",
      "longitude": "-90.1091001793858"
    }
  },
  {
    "service_request": "2022-857527",
    "request_type": "Property Maintenance",
    "request_reason": "Property Maintenance",
    "date_created": "2022-01-29T17:21:46.000",
    "date_modified": "2022-01-29T17:21:46.000",
    "request_status": "Pending",
    "responsible_agency": "Department of Code Enforcement",
    "final_address": "7849 Read Blvd Apt 12",
    "address_councildis": "E",
    "status": "Pending",
    "rowid": "857527",
    "final_x": "3708429.38795",
    "final_y": "565267.44797",
    "longitude": "-89.98178086429685",
    "latitude": "30.047443191521047",
    "geocoded_column": {
      "latitude": "30.047443191521047",
      "longitude": "-89.98178086429685"
    }
  },
  {
    "service_request": "2022-857525",
    "request_type": "Trash/Recycling",
    "request_reason": "Request a Large Item Pick Up",
    "date_created": "2022-01-29T17:15:22.000",
    "date_modified": "2022-01-29T17:15:23.000",
    "request_status": "Pending",
    "responsible_agency": "Department of Sanitation",
    "final_address": "1620 N Dorgenois St",
    "address_councildis": "D",
    "status": "Assigned to Contractor",
    "contractor": "Metro Disposal",
    "rowid": "857525",
    "final_x": "3679705.28149",
    "final_y": "539937.731402",
    "longitude": "-90.07344513792634",
    "latitude": "29.978695934247632",
    "geocoded_column": {
      "latitude": "29.978695934247632",
      "longitude": "-90.07344513792634"
    }
  },
  {
    "service_request": "2022-857524",
    "request_type": "Mosquito, Termite & Rodent Control",
    "request_reason": "Non-Rodent Complaint (Mice, Possums, Snakes)",
    "date_created": "2022-01-29T17:07:31.000",
    "date_modified": "2022-01-29T17:07:31.000",
    "request_status": "Pending",
    "responsible_agency": "Mosquito, Termite & Rodent Control Board",
    "final_address": "7849 Read Blvd Apt 12",
    "address_councildis": "E",
    "status": "Pending",
    "rowid": "857524",
    "final_x": "3708429.38795",
    "final_y": "565267.44797",
    "longitude": "-89.98178086429685",
    "latitude": "30.047443191521047",
    "geocoded_column": {
      "latitude": "30.047443191521047",
      "longitude": "-89.98178086429685"
    }
  },
  {
    "service_request": "2022-857523",
    "request_type": "Trash/Recycling",
    "request_reason": "Replace Trash Cart",
    "date_created": "2022-01-29T17:02:11.000",
    "date_modified": "2022-01-29T17:02:12.000",
    "request_status": "Pending",
    "responsible_agency": "Department of Sanitation",
    "final_address": "2718 Odin St",
    "address_councildis": "D",
    "status": "Assigned to Contractor",
    "contractor": "Metro Disposal",
    "rowid": "857523",
    "final_x": "3687479.48175",
    "final_y": "553238.535959",
    "longitude": "-90.04842029211291",
    "latitude": "30.01503101908773",
    "geocoded_column": {
      "latitude": "30.01503101908773",
      "longitude": "-90.04842029211291"
    }
  },
  {
    "service_request": "2022-857522",
    "request_type": "Trash/Recycling",
    "request_reason": "Order Recycling Cart",
    "date_created": "2022-01-29T16:43:23.000",
    "date_modified": "2022-01-29T16:43:23.000",
    "request_status": "Pending",
    "responsible_agency": "Department of Sanitation",
    "final_address": "3631 Iberville St",
    "address_councildis": "B",
    "status": "Pending",
    "rowid": "857522",
    "final_x": "3672679.40513",
    "final_y": "537722.5298",
    "longitude": "-90.09571109655566",
    "latitude": "29.972815427481287",
    "geocoded_column": {
      "latitude": "29.972815427481287",
      "longitude": "-90.09571109655566"
    }
  },
  {
    "service_request": "2022-857521",
    "request_type": "Traffic Signals/Signs/Striping/Streetlights",
    "request_reason": "Traffic Sign Missing/Damaged",
    "date_created": "2022-01-29T16:32:37.000",
    "date_modified": "2022-01-29T16:32:37.000",
    "request_status": "Pending",
    "responsible_agency": "Department of Public Works",
    "final_address": "2200 St Charles Ave",
    "address_councildis": "B",
    "status": "Pending",
    "rowid": "857521",
    "final_x": "3677589.27925",
    "final_y": "523572.057403",
    "longitude": "-90.08069333499199",
    "latitude": "29.933759636811537",
    "geocoded_column": {
      "latitude": "29.933759636811537",
      "longitude": "-90.08069333499199"
    }
  },
  {
    "service_request": "2022-857520",
    "request_type": "Trash/Recycling",
    "request_reason": "Illegal Dumping",
    "date_created": "2022-01-29T16:29:24.000",
    "date_modified": "2022-01-29T16:29:24.000",
    "request_status": "Pending",
    "responsible_agency": "Department of Sanitation",
    "final_address": "2318 Milan St",
    "address_councildis": "B",
    "status": "Pending",
    "rowid": "857520",
    "final_x": "3671289.57358",
    "final_y": "523583.742907",
    "longitude": "-90.10058085563837",
    "latitude": "29.933979631474774",
    "geocoded_column": {
      "latitude": "29.933979631474774",
      "longitude": "-90.10058085563837"
    }
  },
  {
    "service_request": "2022-857519",
    "request_type": "Trash/Recycling",
    "request_reason": "Illegal Dumping",
    "date_created": "2022-01-29T16:28:33.000",
    "date_modified": "2022-01-29T16:28:33.000",
    "request_status": "Pending",
    "responsible_agency": "Department of Code Enforcement",
    "final_address": "2844 St Anthony St",
    "address_councildis": "D",
    "status": "Pending",
    "rowid": "857519",
    "final_x": "3682923.96796",
    "final_y": "542904.360013",
    "longitude": "-90.06317547052258",
    "latitude": "29.986755417467037",
    "geocoded_column": {
      "latitude": "29.986755417467037",
      "longitude": "-90.06317547052258"
    }
  },
  {
    "service_request": "2022-857515",
    "request_type": "COVID-19",
    "request_reason": "COVID-19 Business Non-Compliance",
    "date_created": "2022-01-29T15:37:44.000",
    "date_modified": "2022-01-29T15:37:46.000",
    "request_status": "Pending",
    "responsible_agency": "Safety and Permits",
    "final_address": "8550 Pontchartrain Blvd",
    "address_councildis": "A",
    "status": "Pending",
    "rowid": "857515",
    "final_x": "3666468.75149",
    "final_y": "555327.528217",
    "longitude": "-90.11473427732953",
    "latitude": "30.021406114289903",
    "geocoded_column": {
      "latitude": "30.021406114289903",
      "longitude": "-90.11473427732953"
    }
  },
  {
    "service_request": "2022-857514",
    "request_type": "Trash/Recycling",
    "request_reason": "Order Trash Cart",
    "date_created": "2022-01-29T15:36:20.000",
    "date_modified": "2022-01-29T15:36:21.000",
    "request_status": "Pending",
    "responsible_agency": "Department of Sanitation",
    "final_address": "3614 N Miro St",
    "address_councildis": "D",
    "status": "Assigned to Contractor",
    "contractor": "Metro Disposal",
    "rowid": "857514",
    "final_x": "3691904.65667",
    "final_y": "539634.043786",
    "longitude": "-90.03492596503203",
    "latitude": "29.977486434471416",
    "geocoded_column": {
      "latitude": "29.977486434471416",
      "longitude": "-90.03492596503203"
    }
  },
  {
    "service_request": "2022-857512",
    "request_type": "Trash/Recycling",
    "request_reason": "Missed Trash Pick-Up",
    "date_created": "2022-01-29T14:50:24.000",
    "date_modified": "2022-01-29T14:50:25.000",
    "request_status": "Pending",
    "responsible_agency": "Department of Sanitation",
    "final_address": "4936 Marque Dr",
    "address_councildis": "E",
    "status": "Assigned to Contractor",
    "contractor": "Metro Disposal",
    "rowid": "857512",
    "final_x": "3709871.33246",
    "final_y": "556941.142938",
    "longitude": "-89.97753494343715",
    "latitude": "30.024502315793235",
    "geocoded_column": {
      "latitude": "30.024502315793235",
      "longitude": "-89.97753494343715"
    }
  },
  {
    "service_request": "2022-857511",
    "request_type": "Trash/Recycling",
    "request_reason": "Missed Trash Pick-Up",
    "date_created": "2022-01-29T14:45:14.000",
    "date_modified": "2022-01-29T14:45:15.000",
    "request_status": "Pending",
    "responsible_agency": "Department of Sanitation",
    "final_address": "4918 Marque Dr",
    "address_councildis": "E",
    "status": "Assigned to Contractor",
    "contractor": "Metro Disposal",
    "rowid": "857511",
    "final_x": "3709882.49873",
    "final_y": "556811.034138",
    "longitude": "-89.97750452494108",
    "latitude": "30.024144204311888",
    "geocoded_column": {
      "latitude": "30.024144204311888",
      "longitude": "-89.97750452494108"
    }
  },
  {
    "service_request": "2022-857510",
    "request_type": "Trash/Recycling",
    "request_reason": "Request a Large Item Pick Up",
    "date_created": "2022-01-29T14:27:09.000",
    "date_modified": "2022-01-29T14:27:10.000",
    "request_status": "Pending",
    "responsible_agency": "Department of Sanitation",
    "final_address": "1601 N Rocheblave St",
    "address_councildis": "D",
    "status": "Assigned to Contractor",
    "contractor": "Metro Disposal",
    "rowid": "857510",
    "final_x": "3679930.8228",
    "final_y": "539553.331018",
    "longitude": "-90.07274615084303",
    "latitude": "29.977632145662515",
    "geocoded_column": {
      "latitude": "29.977632145662515",
      "longitude": "-90.07274615084303"
    }
  },
  {
    "service_request": "2022-857509",
    "request_type": "Abandoned Vehicles",
    "request_reason": "Abandoned/Junk Vehicles",
    "date_created": "2022-01-29T14:22:46.000",
    "date_modified": "2022-01-29T18:14:16.000",
    "request_status": "Pending",
    "responsible_agency": "Department of Public Works",
    "final_address": "1000 BLK Sister St",
    "address_councildis": "E",
    "status": "Pending",
    "rowid": "857509",
    "final_x": "3694596.93557",
    "final_y": "534372.85952",
    "longitude": "-90.02661238014336",
    "latitude": "29.96293589074982",
    "geocoded_column": {
      "latitude": "29.96293589074982",
      "longitude": "-90.02661238014336"
    }
  },
  {
    "service_request": "2022-857508",
    "request_type": "Trash/Recycling",
    "request_reason": "Illegal Dumping",
    "date_created": "2022-01-29T14:20:29.000",
    "date_modified": "2022-01-29T14:20:29.000",
    "request_status": "Pending",
    "responsible_agency": "Department of Code Enforcement",
    "final_address": "900 BLK Sister St",
    "address_councildis": "E",
    "status": "Pending",
    "rowid": "857508",
    "final_x": "3694490.48467",
    "final_y": "533987.817967",
    "longitude": "-90.02696239981658",
    "latitude": "29.96188049989214",
    "geocoded_column": {
      "latitude": "29.96188049989214",
      "longitude": "-90.02696239981658"
    }
  },
  {
    "service_request": "2022-857507",
    "request_type": "Traffic Signals/Signs/Striping/Streetlights",
    "request_reason": "Street Light Outage/Malfunction",
    "date_created": "2022-01-29T13:35:50.000",
    "date_modified": "2022-01-29T13:35:51.000",
    "request_status": "Pending",
    "responsible_agency": "Department of Public Works",
    "final_address": "4846 Rosalia Dr",
    "address_councildis": "E",
    "status": "Pending",
    "contractor": "Royal Engineering",
    "rowid": "857507",
    "final_x": "3711048.27441",
    "final_y": "556662.850394",
    "longitude": "-89.97382648357265",
    "latitude": "30.023698776905093",
    "geocoded_column": {
      "latitude": "30.023698776905093",
      "longitude": "-89.97382648357265"
    }
  },
  {
    "service_request": "2022-857506",
    "request_type": "Trash/Recycling",
    "request_reason": "MIssed Recycling Pick-Up",
    "date_created": "2022-01-29T13:34:36.000",
    "date_modified": "2022-01-29T13:34:36.000",
    "request_status": "Pending",
    "responsible_agency": "Department of Sanitation",
    "final_address": "1212 Constance St",
    "address_councildis": "B",
    "status": "Assigned to Contractor",
    "contractor": "Richards Disposal",
    "rowid": "857506",
    "final_x": "3681001.56117",
    "final_y": "525409.784573",
    "longitude": "-90.06985695735747",
    "latitude": "29.938709764676556",
    "geocoded_column": {
      "latitude": "29.938709764676556",
      "longitude": "-90.06985695735747"
    }
  },
  {
    "service_request": "2022-857504",
    "request_type": "Trash/Recycling",
    "request_reason": "Repair Trash Cart",
    "date_created": "2022-01-29T13:26:27.000",
    "date_modified": "2022-01-29T13:26:28.000",
    "request_status": "Pending",
    "responsible_agency": "Department of Sanitation",
    "final_address": "7561 Parry St",
    "address_councildis": "E",
    "status": "Assigned to Contractor",
    "contractor": "Metro Disposal",
    "rowid": "857504",
    "final_x": "3714674.59339",
    "final_y": "568207.483237",
    "longitude": "-89.9619315773078",
    "latitude": "30.055323060427455",
    "geocoded_column": {
      "latitude": "30.055323060427455",
      "longitude": "-89.9619315773078"
    }
  },
  {
    "service_request": "2022-857503",
    "request_type": "Traffic Signals/Signs/Striping/Streetlights",
    "request_reason": "Traffic Signal Malfunctioning/Damaged",
    "date_created": "2022-01-29T13:21:18.000",
    "date_modified": "2022-01-29T13:21:18.000",
    "request_status": "Pending",
    "responsible_agency": "Department of Public Works",
    "final_address": "WASHINGTON AVE & S CLAIBORNE AVE",
    "address_councildis": "B",
    "status": "Pending",
    "rowid": "857503",
    "final_x": "3673195.7",
    "final_y": "526653.08",
    "longitude": "-90.09445851618365",
    "latitude": "29.942362783507658",
    "geocoded_column": {
      "latitude": "29.942362783507658",
      "longitude": "-90.09445851618365"
    }
  },
  {
    "service_request": "2022-857502",
    "request_type": "Trash/Recycling",
    "request_reason": "Request a Large Item Pick Up",
    "date_created": "2022-01-29T13:19:44.000",
    "date_modified": "2022-01-29T13:19:45.000",
    "request_status": "Pending",
    "responsible_agency": "Department of Sanitation",
    "final_address": "3520 White Oak Ave",
    "address_councildis": "C",
    "status": "Assigned to Contractor",
    "contractor": "Richards Disposal",
    "rowid": "857502",
    "final_x": "3703280.04561",
    "final_y": "514525.877555",
    "longitude": "-89.99992174198377",
    "latitude": "29.908088509450977",
    "geocoded_column": {
      "latitude": "29.908088509450977",
      "longitude": "-89.99992174198377"
    }
  },
  {
    "service_request": "2022-857501",
    "request_type": "COVID-19",
    "request_reason": "COVID-19 Business Non-Compliance",
    "date_created": "2022-01-29T13:17:34.000",
    "date_modified": "2022-01-29T13:17:36.000",
    "request_status": "Pending",
    "responsible_agency": "Safety and Permits",
    "final_address": "1901 Tchoupitoulas St",
    "address_councildis": "B",
    "status": "Pending",
    "rowid": "857501",
    "final_x": "3681231.14696",
    "final_y": "520379.060984",
    "longitude": "-90.06930733758496",
    "latitude": "29.924869972069214",
    "geocoded_column": {
      "latitude": "29.924869972069214",
      "longitude": "-90.06930733758496"
    }
  },
  {
    "service_request": "2022-857500",
    "request_type": "Abandoned Vehicles",
    "request_reason": "Abandoned/Junk Vehicles",
    "date_created": "2022-01-29T13:15:45.000",
    "date_modified": "2022-01-29T13:15:45.000",
    "request_status": "Pending",
    "responsible_agency": "Department of Public Works",
    "final_address": "4838 Rosalia Dr",
    "address_councildis": "E",
    "status": "Pending",
    "rowid": "857500",
    "final_x": "3711056.58065",
    "final_y": "556578.426714",
    "longitude": "-89.97380340288049",
    "latitude": "30.023466373965782",
    "geocoded_column": {
      "latitude": "30.023466373965782",
      "longitude": "-89.97380340288049"
    }
  },
  {
    "service_request": "2022-857499",
    "request_type": "Property Maintenance",
    "request_reason": "Property Maintenance",
    "date_created": "2022-01-29T13:04:45.000",
    "date_modified": "2022-01-29T13:04:45.000",
    "request_status": "Pending",
    "responsible_agency": "Department of Code Enforcement",
    "final_address": "2900 St Charles Ave",
    "address_councildis": "B",
    "status": "Pending",
    "rowid": "857499",
    "final_x": "3675489.98965",
    "final_y": "522160.276666",
    "longitude": "-90.08736916329597",
    "latitude": "29.929940635843415",
    "geocoded_column": {
      "latitude": "29.929940635843415",
      "longitude": "-90.08736916329597"
    }
  },
  {
    "service_request": "2022-857498",
    "request_type": "Trash/Recycling",
    "request_reason": "Start Trash Service",
    "date_created": "2022-01-29T12:48:37.000",
    "date_modified": "2022-01-29T12:48:37.000",
    "request_status": "Pending",
    "responsible_agency": "Department of Sanitation",
    "final_address": "3513 Encampment St",
    "address_councildis": "D",
    "status": "Assigned to Contractor",
    "contractor": "Metro Disposal",
    "rowid": "857498",
    "final_x": "3676719.94305",
    "final_y": "545483.480144",
    "longitude": "-90.08268278358202",
    "latitude": "29.99403473588247",
    "geocoded_column": {
      "latitude": "29.99403473588247",
      "longitude": "-90.08268278358202"
    }
  },
  {
    "service_request": "2022-857497",
    "request_type": "Trash/Recycling",
    "request_reason": "Request a Large Item Pick Up",
    "date_created": "2022-01-29T12:46:24.000",
    "date_modified": "2022-01-29T12:46:25.000",
    "request_status": "Pending",
    "responsible_agency": "Department of Sanitation",
    "final_address": "2638 Marengo St",
    "address_councildis": "B",
    "status": "Assigned to Contractor",
    "contractor": "Richards Disposal",
    "rowid": "857497",
    "final_x": "3671527.64891",
    "final_y": "524799.381436",
    "longitude": "-90.09978794508345",
    "latitude": "29.93731519931328",
    "geocoded_column": {
      "latitude": "29.93731519931328",
      "longitude": "-90.09978794508345"
    }
  },
  {
    "service_request": "2022-857496",
    "request_type": "COVID-19",
    "request_reason": "COVID-19 Business Non-Compliance",
    "date_created": "2022-01-29T12:44:24.000",
    "date_modified": "2022-01-29T12:44:25.000",
    "request_status": "Pending",
    "responsible_agency": "Safety and Permits",
    "final_address": "111 Robert E Lee Blvd",
    "address_councildis": "D",
    "status": "Pending",
    "rowid": "857496",
    "final_x": "3667124.95469",
    "final_y": "555326.527193",
    "longitude": "-90.11266088073394",
    "latitude": "30.021384156574168",
    "geocoded_column": {
      "latitude": "30.021384156574168",
      "longitude": "-90.11266088073394"
    }
  },
  {
    "service_request": "2022-857495",
    "request_type": "Abandoned Vehicles",
    "request_reason": "Abandoned/Junk Vehicles",
    "date_created": "2022-01-29T12:40:52.000",
    "date_modified": "2022-01-29T12:40:52.000",
    "request_status": "Pending",
    "responsible_agency": "Department of Public Works",
    "final_address": "3220 Louisiana Avenue Prkwy",
    "address_councildis": "B",
    "status": "Pending",
    "rowid": "857495",
    "final_x": "3671802.44084",
    "final_y": "527117.442751",
    "longitude": "-90.09884156250081",
    "latitude": "29.943680976521648",
    "geocoded_column": {
      "latitude": "29.943680976521648",
      "longitude": "-90.09884156250081"
    }
  },
  {
    "service_request": "2022-857494",
    "request_type": "Abandoned Vehicles",
    "request_reason": "Abandoned/Junk Vehicles",
    "date_created": "2022-01-29T12:39:31.000",
    "date_modified": "2022-01-29T12:39:31.000",
    "request_status": "Pending",
    "responsible_agency": "Department of Public Works",
    "final_address": "N WHITE ST & FORTIN ST",
    "address_councildis": "A",
    "status": "Pending",
    "rowid": "857494",
    "final_x": "3677724.7",
    "final_y": "540911.98",
    "longitude": "-90.0796668921155",
    "latitude": "29.981434512080998",
    "geocoded_column": {
      "latitude": "29.981434512080998",
      "longitude": "-90.0796668921155"
    }
  },
  {
    "service_request": "2022-857493",
    "request_type": "Trash/Recycling",
    "request_reason": "Missed Trash Pick-Up",
    "date_created": "2022-01-29T12:19:15.000",
    "date_modified": "2022-01-29T12:19:16.000",
    "request_status": "Pending",
    "responsible_agency": "Department of Sanitation",
    "final_address": "800 Block of De Armas St, New Orleans, Louisiana, 70114",
    "status": "Assigned to Contractor",
    "rowid": "857493",
    "longitude": "0.0",
    "latitude": "0.0",
    "geocoded_column": {
      "latitude": "0.0",
      "longitude": "0.0"
    }
  },
  {
    "service_request": "2022-857491",
    "request_type": "Trash/Recycling",
    "request_reason": "Replace Trash Cart",
    "date_created": "2022-01-29T12:14:46.000",
    "date_modified": "2022-01-29T12:14:47.000",
    "request_status": "Pending",
    "responsible_agency": "Department of Sanitation",
    "final_address": "2304 Dante St, New Orleans, Louisiana, 70118",
    "status": "Assigned to Contractor",
    "rowid": "857491",
    "longitude": "0.0",
    "latitude": "0.0",
    "geocoded_column": {
      "latitude": "0.0",
      "longitude": "0.0"
    }
  },
  {
    "service_request": "2022-857490",
    "request_type": "Property Maintenance",
    "request_reason": "Property Maintenance",
    "date_created": "2022-01-29T12:10:41.000",
    "date_modified": "2022-01-29T12:10:41.000",
    "request_status": "Pending",
    "responsible_agency": "Department of Code Enforcement",
    "final_address": "4121 Gibson St",
    "address_councildis": "D",
    "status": "Pending",
    "rowid": "857490",
    "final_x": "3678783.56738",
    "final_y": "547492.69077",
    "longitude": "-90.07609444434857",
    "latitude": "29.999497261140394",
    "geocoded_column": {
      "latitude": "29.999497261140394",
      "longitude": "-90.07609444434857"
    }
  },
  {
    "service_request": "2022-857489",
    "request_type": "Trash/Recycling",
    "request_reason": "Missed Trash Pick-Up",
    "date_created": "2022-01-29T12:10:21.000",
    "date_modified": "2022-01-29T12:10:21.000",
    "request_status": "Pending",
    "responsible_agency": "Department of Sanitation",
    "final_address": "1529 Dublin St",
    "address_councildis": "A",
    "status": "Assigned to Contractor",
    "contractor": "Richards Disposal",
    "rowid": "857489",
    "final_x": "3662604.53434",
    "final_y": "529538.818305",
    "longitude": "-90.12780151196084",
    "latitude": "29.950608257665813",
    "geocoded_column": {
      "latitude": "29.950608257665813",
      "longitude": "-90.12780151196084"
    }
  },
  {
    "service_request": "2022-857488",
    "request_type": "Trash/Recycling",
    "request_reason": "Request a Large Item Pick Up",
    "date_created": "2022-01-29T12:02:49.000",
    "date_modified": "2022-01-29T12:02:50.000",
    "request_status": "Pending",
    "responsible_agency": "Department of Sanitation",
    "final_address": "6732 Marshal Foch St",
    "address_councildis": "A",
    "status": "Assigned to Contractor",
    "contractor": "Metro Disposal",
    "rowid": "857488",
    "final_x": "3670185.78273",
    "final_y": "552186.69711",
    "longitude": "-90.10309599377702",
    "latitude": "30.01266072485728",
    "geocoded_column": {
      "latitude": "30.01266072485728",
      "longitude": "-90.10309599377702"
    }
  },
  {
    "service_request": "2022-857487",
    "request_type": "COVID-19",
    "request_reason": "COVID-19 Business Non-Compliance",
    "date_created": "2022-01-29T12:02:24.000",
    "date_modified": "2022-01-29T12:02:25.000",
    "request_status": "Pending",
    "responsible_agency": "Safety and Permits",
    "final_address": "2222 Saint Claude Ave, New Orleans, Louisiana, 70117",
    "status": "Pending",
    "rowid": "857487",
    "longitude": "0.0",
    "latitude": "0.0",
    "geocoded_column": {
      "latitude": "0.0",
      "longitude": "0.0"
    }
  },
  {
    "service_request": "2022-857486",
    "request_type": "Property Maintenance",
    "request_reason": "Property Maintenance",
    "date_created": "2022-01-29T11:49:52.000",
    "date_modified": "2022-01-29T11:49:52.000",
    "request_status": "Pending",
    "responsible_agency": "Department of Code Enforcement",
    "final_address": "1518 N Lopez St",
    "address_councildis": "A",
    "status": "Pending",
    "rowid": "857486",
    "final_x": "3676659.49435",
    "final_y": "540493.055755",
    "longitude": "-90.0830457427097",
    "latitude": "29.980314617620895",
    "geocoded_column": {
      "latitude": "29.980314617620895",
      "longitude": "-90.0830457427097"
    }
  },
  {
    "service_request": "2022-857485",
    "request_type": "Roads/Drainage",
    "request_reason": "Street Flooding / Drainage",
    "date_created": "2022-01-29T11:49:06.000",
    "date_modified": "2022-01-29T11:49:06.000",
    "request_status": "Pending",
    "responsible_agency": "Department of Public Works",
    "final_address": "918 Elmira Ave",
    "address_councildis": "C",
    "status": "Pending",
    "rowid": "857485",
    "final_x": "3688170.77916",
    "final_y": "528156.80544",
    "longitude": "-90.04712566734109",
    "latitude": "29.94604382421929",
    "geocoded_column": {
      "latitude": "29.94604382421929",
      "longitude": "-90.04712566734109"
    }
  },
  {
    "service_request": "2022-857484",
    "request_type": "Trash/Recycling",
    "request_reason": "Repair Trash Cart",
    "date_created": "2022-01-29T11:46:23.000",
    "date_modified": "2022-01-29T11:46:24.000",
    "request_status": "Pending",
    "responsible_agency": "Department of Sanitation",
    "final_address": "8212 Plum St",
    "address_councildis": "A",
    "status": "Assigned to Contractor",
    "contractor": "Richards Disposal",
    "rowid": "857484",
    "final_x": "3661814.33293",
    "final_y": "528928.891328",
    "longitude": "-90.1303167934735",
    "latitude": "29.948953990332775",
    "geocoded_column": {
      "latitude": "29.948953990332775",
      "longitude": "-90.1303167934735"
    }
  },
  {
    "service_request": "2022-857483",
    "request_type": "Trash/Recycling",
    "request_reason": "Request a Large Item Pick Up",
    "date_created": "2022-01-29T11:43:39.000",
    "date_modified": "2022-01-29T11:43:39.000",
    "request_status": "Pending",
    "responsible_agency": "Department of Sanitation",
    "final_address": "4127 Orleans Ave",
    "address_councildis": "A",
    "status": "Assigned to Contractor",
    "contractor": "Richards Disposal",
    "rowid": "857483",
    "final_x": "3672476.12916",
    "final_y": "540436.942859",
    "longitude": "-90.09626052968329",
    "latitude": "29.980285176381592",
    "geocoded_column": {
      "latitude": "29.980285176381592",
      "longitude": "-90.09626052968329"
    }
  },
  {
    "service_request": "2022-857482",
    "request_type": "Abandoned Vehicles",
    "request_reason": "Abandoned/Junk Vehicles",
    "date_created": "2022-01-29T11:42:18.000",
    "date_modified": "2022-01-29T11:42:18.000",
    "request_status": "Pending",
    "responsible_agency": "Department of Public Works",
    "final_address": "1204 Constance St",
    "address_councildis": "B",
    "status": "Pending",
    "rowid": "857482",
    "final_x": "3681015.48379",
    "final_y": "525466.478653",
    "longitude": "-90.06981102843274",
    "latitude": "29.93886523241654",
    "geocoded_column": {
      "latitude": "29.93886523241654",
      "longitude": "-90.06981102843274"
    }
  },
  {
    "service_request": "2022-857481",
    "request_type": "Trash/Recycling",
    "request_reason": "Order Recycling Cart",
    "date_created": "2022-01-29T11:41:04.000",
    "date_modified": "2022-01-29T11:41:04.000",
    "request_status": "Pending",
    "responsible_agency": "Department of Sanitation",
    "final_address": "3523 Camp St",
    "address_councildis": "B",
    "status": "Pending",
    "rowid": "857481",
    "final_x": "3674120.76622",
    "final_y": "519723.240056",
    "longitude": "-90.091774937416",
    "latitude": "29.923280438470304",
    "geocoded_column": {
      "latitude": "29.923280438470304",
      "longitude": "-90.091774937416"
    }
  },
  {
    "service_request": "2022-857480",
    "request_type": "Safety & Permits",
    "request_reason": "Licenses & Permits",
    "date_created": "2022-01-29T11:23:58.000",
    "date_modified": "2022-01-29T11:41:37.000",
    "request_status": "Pending",
    "responsible_agency": "Safety and Permits",
    "final_address": "3024 Cleveland Ave, New Orleans, Louisiana, 70119",
    "address_councildis": "B",
    "rowid": "857480",
    "final_x": "3673858.15764",
    "final_y": "535604.035846",
    "longitude": "-90.09206084686781",
    "latitude": "29.96695522540006",
    "geocoded_column": {
      "latitude": "29.96695522540006",
      "longitude": "-90.09206084686781"
    }
  },
  {
    "service_request": "2022-857479",
    "request_type": "Trash/Recycling",
    "request_reason": "Illegal Dumping",
    "date_created": "2022-01-29T10:59:17.000",
    "date_modified": "2022-01-29T10:59:17.000",
    "request_status": "Pending",
    "responsible_agency": "Department of Sanitation",
    "final_address": "3308 Burgundy St",
    "address_councildis": "C",
    "status": "Pending",
    "rowid": "857479",
    "final_x": "3689721.15971",
    "final_y": "534952.560134",
    "longitude": "-90.04198879203038",
    "latitude": "29.964681854830143",
    "geocoded_column": {
      "latitude": "29.964681854830143",
      "longitude": "-90.04198879203038"
    }
  },
  {
    "service_request": "2022-857478",
    "request_type": "Property Maintenance",
    "request_reason": "Property Maintenance",
    "date_created": "2022-01-29T10:53:49.000",
    "date_modified": "2022-01-29T10:53:49.000",
    "request_status": "Pending",
    "responsible_agency": "Department of Code Enforcement",
    "final_address": "3308 Burgundy St",
    "address_councildis": "C",
    "status": "Pending",
    "rowid": "857478",
    "final_x": "3689721.15971",
    "final_y": "534952.560134",
    "longitude": "-90.04198879203038",
    "latitude": "29.964681854830143",
    "geocoded_column": {
      "latitude": "29.964681854830143",
      "longitude": "-90.04198879203038"
    }
  },
  {
    "service_request": "2022-857477",
    "request_type": "Trash/Recycling",
    "request_reason": "Missed Trash Pick-Up",
    "date_created": "2022-01-29T10:53:24.000",
    "date_modified": "2022-01-29T10:53:25.000",
    "request_status": "Pending",
    "responsible_agency": "Department of Sanitation",
    "final_address": "13537 St Marie Ct",
    "address_councildis": "E",
    "status": "Assigned to Contractor",
    "contractor": "Metro Disposal",
    "rowid": "857477",
    "final_x": "3723957.44108",
    "final_y": "569326.141542",
    "longitude": "-89.93254753095215",
    "latitude": "30.058090146489892",
    "geocoded_column": {
      "latitude": "30.058090146489892",
      "longitude": "-89.93254753095215"
    }
  },
  {
    "service_request": "2022-857476",
    "request_type": "Trash/Recycling",
    "request_reason": "Replace Recycling Cart",
    "date_created": "2022-01-29T10:51:01.000",
    "date_modified": "2022-01-29T10:51:01.000",
    "request_status": "Pending",
    "responsible_agency": "Department of Sanitation",
    "final_address": "5716 Tchoupitoulas St",
    "address_councildis": "A",
    "status": "Pending",
    "rowid": "857476",
    "final_x": "3665290.91514",
    "final_y": "517191.628853",
    "longitude": "-90.11973218490154",
    "latitude": "29.916579420559522",
    "geocoded_column": {
      "latitude": "29.916579420559522",
      "longitude": "-90.11973218490154"
    }
  },
  {
    "service_request": "2022-857475",
    "request_type": "Traffic Signals/Signs/Striping/Streetlights",
    "request_reason": "Traffic Signal Malfunctioning/Damaged",
    "date_created": "2022-01-29T10:41:53.000",
    "date_modified": "2022-01-29T10:41:53.000",
    "request_status": "Pending",
    "responsible_agency": "Department of Public Works",
    "final_address": "S CLAIBORNE AVE & WASHINGTON AVE",
    "address_councildis": "B",
    "status": "Pending",
    "rowid": "857475",
    "final_x": "3673121.4",
    "final_y": "526764.58",
    "longitude": "-90.09468929296312",
    "latitude": "29.942671580693215",
    "geocoded_column": {
      "latitude": "29.942671580693215",
      "longitude": "-90.09468929296312"
    }
  },
  {
    "service_request": "2022-857474",
    "request_type": "Trash/Recycling",
    "request_reason": "Missed Trash Pick-Up",
    "date_created": "2022-01-29T10:39:47.000",
    "date_modified": "2022-01-29T10:39:48.000",
    "request_status": "Pending",
    "responsible_agency": "Department of Sanitation",
    "final_address": "1000 BLK Ursulines Ave",
    "address_councildis": "C",
    "status": "Assigned to Contractor",
    "contractor": "Empire Services",
    "rowid": "857474",
    "final_x": "3682439.02551",
    "final_y": "534403.866675",
    "longitude": "-90.06500442358595",
    "latitude": "29.96339678717759",
    "geocoded_column": {
      "latitude": "29.96339678717759",
      "longitude": "-90.06500442358595"
    }
  },
  {
    "service_request": "2022-857472",
    "request_type": "Trash/Recycling",
    "request_reason": "Replace Trash Cart",
    "date_created": "2022-01-29T10:27:31.000",
    "date_modified": "2022-01-29T10:27:32.000",
    "request_status": "Pending",
    "responsible_agency": "Department of Sanitation",
    "final_address": "8730 Oak St",
    "address_councildis": "A",
    "status": "Assigned to Contractor",
    "contractor": "Richards Disposal",
    "rowid": "857472",
    "final_x": "3660147.6343",
    "final_y": "529969.461313",
    "longitude": "-90.13554496731703",
    "latitude": "29.951863235331206",
    "geocoded_column": {
      "latitude": "29.951863235331206",
      "longitude": "-90.13554496731703"
    }
  },
  {
    "service_request": "2022-857471",
    "request_type": "Trash/Recycling",
    "request_reason": "Replace Trash Cart",
    "date_created": "2022-01-29T10:27:29.000",
    "date_modified": "2022-01-29T10:27:30.000",
    "request_status": "Pending",
    "responsible_agency": "Department of Sanitation",
    "final_address": "8730 Oak St",
    "address_councildis": "A",
    "status": "Assigned to Contractor",
    "contractor": "Richards Disposal",
    "rowid": "857471",
    "final_x": "3660147.6343",
    "final_y": "529969.461313",
    "longitude": "-90.13554496731703",
    "latitude": "29.951863235331206",
    "geocoded_column": {
      "latitude": "29.951863235331206",
      "longitude": "-90.13554496731703"
    }
  },
  {
    "service_request": "2022-857470",
    "request_type": "Abandoned Vehicles",
    "request_reason": "Abandoned/Junk Vehicles",
    "date_created": "2022-01-29T10:25:48.000",
    "date_modified": "2022-01-29T10:25:48.000",
    "request_status": "Pending",
    "responsible_agency": "Department of Public Works",
    "final_address": "5409 Laurel St",
    "address_councildis": "A",
    "status": "Pending",
    "rowid": "857470",
    "final_x": "3666464.46509",
    "final_y": "517919.206966",
    "longitude": "-90.11600356902355",
    "latitude": "29.918545803484403",
    "geocoded_column": {
      "latitude": "29.918545803484403",
      "longitude": "-90.11600356902355"
    }
  },
  {
    "service_request": "2022-857469",
    "request_type": "COVID-19",
    "request_reason": "COVID-19 Business Non-Compliance",
    "date_created": "2022-01-29T10:25:25.000",
    "date_modified": "2022-01-29T10:25:26.000",
    "request_status": "Pending",
    "responsible_agency": "Safety and Permits",
    "final_address": "541 Dumaine St",
    "address_councildis": "C",
    "status": "Pending",
    "rowid": "857469",
    "final_x": "3683357.14812",
    "final_y": "532804.13114",
    "longitude": "-90.06216114059237",
    "latitude": "29.958970087038086",
    "geocoded_column": {
      "latitude": "29.958970087038086",
      "longitude": "-90.06216114059237"
    }
  },
  {
    "service_request": "2022-857468",
    "request_type": "Trash/Recycling",
    "request_reason": "Request a Large Item Pick Up",
    "date_created": "2022-01-29T10:22:20.000",
    "date_modified": "2022-01-29T10:22:21.000",
    "request_status": "Pending",
    "responsible_agency": "Department of Sanitation",
    "final_address": "5624 Annunciation St",
    "address_councildis": "A",
    "status": "Assigned to Contractor",
    "contractor": "Richards Disposal",
    "rowid": "857468",
    "final_x": "3665590.24634",
    "final_y": "517503.879542",
    "longitude": "-90.11877692239632",
    "latitude": "29.917429291783687",
    "geocoded_column": {
      "latitude": "29.917429291783687",
      "longitude": "-90.11877692239632"
    }
  },
  {
    "service_request": "2022-857467",
    "request_type": "Safety & Permits",
    "request_reason": "Licenses & Permits",
    "date_created": "2022-01-29T10:14:43.000",
    "date_modified": "2022-01-29T10:14:43.000",
    "request_status": "Pending",
    "responsible_agency": "Safety and Permits",
    "final_address": "1724 N Robertson St",
    "address_councildis": "C",
    "status": "Pending",
    "rowid": "857467",
    "final_x": "3683242.28751",
    "final_y": "537603.186632",
    "longitude": "-90.06235574921246",
    "latitude": "29.972169339820468",
    "geocoded_column": {
      "latitude": "29.972169339820468",
      "longitude": "-90.06235574921246"
    }
  },
  {
    "service_request": "2022-857466",
    "request_type": "Mayor's Request",
    "request_reason": "Entergy Bill Payment Assistance",
    "date_created": "2022-01-29T10:04:33.000",
    "date_modified": "2022-01-29T10:04:33.000",
    "request_status": "Pending",
    "responsible_agency": "Executive Office of the Mayor",
    "final_address": "4545 Macarthur Blvd",
    "address_councildis": "C",
    "status": "Pending",
    "rowid": "857466",
    "final_x": "3700570.18634",
    "final_y": "519828.143864",
    "longitude": "-90.0082808619901",
    "latitude": "29.922754366742478",
    "geocoded_column": {
      "latitude": "29.922754366742478",
      "longitude": "-90.0082808619901"
    }
  },
  {
    "service_request": "2022-857465",
    "request_type": "Trash/Recycling",
    "request_reason": "Replace Trash Cart",
    "date_created": "2022-01-29T09:49:05.000",
    "date_modified": "2022-01-29T09:49:06.000",
    "request_status": "Pending",
    "responsible_agency": "Department of Sanitation",
    "final_address": "4609 Arts St",
    "address_councildis": "D",
    "status": "Assigned to Contractor",
    "contractor": "Metro Disposal",
    "rowid": "857465",
    "final_x": "3686071.86479",
    "final_y": "549689.374356",
    "longitude": "-90.0529929827977",
    "latitude": "30.00531544753519",
    "geocoded_column": {
      "latitude": "30.00531544753519",
      "longitude": "-90.0529929827977"
    }
  },
  {
    "service_request": "2022-857464",
    "request_type": "Trash/Recycling",
    "request_reason": "Request a Large Item Pick Up",
    "date_created": "2022-01-29T09:46:49.000",
    "date_modified": "2022-01-29T09:46:50.000",
    "request_status": "Pending",
    "responsible_agency": "Department of Sanitation",
    "final_address": "1511 N Rocheblave St",
    "address_councildis": "D",
    "status": "Assigned to Contractor",
    "contractor": "Metro Disposal",
    "rowid": "857464",
    "final_x": "3679526.65071",
    "final_y": "539023.085514",
    "longitude": "-90.07404106889945",
    "latitude": "29.976186373959163",
    "geocoded_column": {
      "latitude": "29.976186373959163",
      "longitude": "-90.07404106889945"
    }
  },
  {
    "service_request": "2022-857463",
    "request_type": "Trash/Recycling",
    "request_reason": "Order Trash Cart",
    "date_created": "2022-01-29T09:46:05.000",
    "date_modified": "2022-01-29T09:46:06.000",
    "request_status": "Pending",
    "responsible_agency": "Department of Sanitation",
    "final_address": "7022 St Charles Ave",
    "address_councildis": "A",
    "status": "Assigned to Contractor",
    "contractor": "Richards Disposal",
    "rowid": "857463",
    "final_x": "3663233.22074",
    "final_y": "524364.585148",
    "longitude": "-90.12598857977886",
    "latitude": "29.936362567912056",
    "geocoded_column": {
      "latitude": "29.936362567912056",
      "longitude": "-90.12598857977886"
    }
  },
  {
    "service_request": "2022-857462",
    "request_type": "COVID-19",
    "request_reason": "COVID-19 Business Non-Compliance",
    "date_created": "2022-01-29T09:27:44.000",
    "date_modified": "2022-01-29T09:27:45.000",
    "request_status": "Pending",
    "responsible_agency": "Safety and Permits",
    "final_address": "541 Dumaine St",
    "address_councildis": "C",
    "status": "Pending",
    "rowid": "857462",
    "final_x": "3683357.14812",
    "final_y": "532804.13114",
    "longitude": "-90.06216114059237",
    "latitude": "29.958970087038086",
    "geocoded_column": {
      "latitude": "29.958970087038086",
      "longitude": "-90.06216114059237"
    }
  },
  {
    "service_request": "2022-857461",
    "request_type": "Trash/Recycling",
    "request_reason": "Request a Large Item Pick Up",
    "date_created": "2022-01-29T09:17:24.000",
    "date_modified": "2022-01-29T09:17:25.000",
    "request_status": "Pending",
    "responsible_agency": "Department of Sanitation",
    "final_address": "1469 N Johnson St",
    "address_councildis": "D",
    "status": "Assigned to Contractor",
    "contractor": "Metro Disposal",
    "rowid": "857461",
    "final_x": "3680488.33903",
    "final_y": "537962.201609",
    "longitude": "-90.07104068597837",
    "latitude": "29.973240213687124",
    "geocoded_column": {
      "latitude": "29.973240213687124",
      "longitude": "-90.07104068597837"
    }
  },
  {
    "service_request": "2022-857460",
    "request_type": "Trash/Recycling",
    "request_reason": "MIssed Recycling Pick-Up",
    "date_created": "2022-01-29T09:15:56.000",
    "date_modified": "2022-01-29T09:15:56.000",
    "request_status": "Pending",
    "responsible_agency": "Department of Sanitation",
    "final_address": "8015 Plum St",
    "address_councildis": "A",
    "status": "Assigned to Contractor",
    "contractor": "Richards Disposal",
    "rowid": "857460",
    "final_x": "3662458.64474",
    "final_y": "528448.2464",
    "longitude": "-90.1282983721216",
    "latitude": "29.947613754758624",
    "geocoded_column": {
      "latitude": "29.947613754758624",
      "longitude": "-90.1282983721216"
    }
  },
  {
    "service_request": "2022-857459",
    "request_type": "Trash/Recycling",
    "request_reason": "Order Trash Cart",
    "date_created": "2022-01-29T09:12:08.000",
    "date_modified": "2022-01-29T09:12:09.000",
    "request_status": "Pending",
    "responsible_agency": "Department of Sanitation",
    "final_address": "3707 S Saratoga St",
    "address_councildis": "B",
    "status": "Assigned to Contractor",
    "contractor": "Richards Disposal",
    "rowid": "857459",
    "final_x": "3672615.962",
    "final_y": "522940.780219",
    "longitude": "-90.09641540463369",
    "latitude": "29.932172387647693",
    "geocoded_column": {
      "latitude": "29.932172387647693",
      "longitude": "-90.09641540463369"
    }
  },
  {
    "service_request": "2022-857457",
    "request_type": "Abandoned Vehicles",
    "request_reason": "Abandoned/Junk Vehicles",
    "date_created": "2022-01-29T07:02:21.000",
    "date_modified": "2022-01-29T07:02:21.000",
    "request_status": "Pending",
    "responsible_agency": "Department of Public Works",
    "final_address": "728 Peniston St",
    "address_councildis": "B",
    "status": "Pending",
    "rowid": "857457",
    "final_x": "3673469.94664",
    "final_y": "518536.062711",
    "longitude": "-90.093869868302",
    "latitude": "29.920035454895814",
    "geocoded_column": {
      "latitude": "29.920035454895814",
      "longitude": "-90.093869868302"
    }
  },
  {
    "service_request": "2022-857456",
    "request_type": "Traffic Signals/Signs/Striping/Streetlights",
    "request_reason": "Traffic Signal Malfunctioning/Damaged",
    "date_created": "2022-01-29T06:49:21.000",
    "date_modified": "2022-01-29T06:49:21.000",
    "request_status": "Pending",
    "responsible_agency": "Department of Public Works",
    "final_address": "5600 Read Blvd",
    "address_councildis": "E",
    "status": "Pending",
    "rowid": "857456",
    "final_x": "3711659.04869",
    "final_y": "559001.97302",
    "longitude": "-89.97180875530105",
    "latitude": "30.030110500857166",
    "geocoded_column": {
      "latitude": "30.030110500857166",
      "longitude": "-89.97180875530105"
    }
  },
  {
    "service_request": "2022-857455",
    "request_type": "Traffic Signals/Signs/Striping/Streetlights",
    "request_reason": "Request for Stop Sign",
    "date_created": "2022-01-29T06:43:35.000",
    "date_modified": "2022-01-29T06:43:35.000",
    "request_status": "Pending",
    "responsible_agency": "Department of Public Works",
    "final_address": "4767 Bundy Rd",
    "address_councildis": "E",
    "status": "Pending",
    "rowid": "857455",
    "final_x": "3709442.73464",
    "final_y": "556017.586329",
    "longitude": "-89.97892371920918",
    "latitude": "30.021976833685905",
    "geocoded_column": {
      "latitude": "30.021976833685905",
      "longitude": "-89.97892371920918"
    }
  },
  {
    "service_request": "2022-857454",
    "request_type": "COVID-19",
    "request_reason": "COVID-19 Business Non-Compliance",
    "date_created": "2022-01-29T06:25:05.000",
    "date_modified": "2022-01-29T06:25:07.000",
    "request_status": "Pending",
    "responsible_agency": "Safety and Permits",
    "final_address": "6215 S Miro St",
    "address_councildis": "A",
    "status": "Pending",
    "rowid": "857454",
    "final_x": "3667336.54343",
    "final_y": "528186.524032",
    "longitude": "-90.11290568797953",
    "latitude": "29.946752146601156",
    "geocoded_column": {
      "latitude": "29.946752146601156",
      "longitude": "-90.11290568797953"
    }
  },
  {
    "service_request": "2022-857453",
    "request_type": "Trash/Recycling",
    "request_reason": "Order Recycling Cart",
    "date_created": "2022-01-29T06:05:44.000",
    "date_modified": "2022-01-29T06:05:44.000",
    "request_status": "Pending",
    "responsible_agency": "Department of Sanitation",
    "final_address": "10 Trianon Plz",
    "address_councildis": "B",
    "status": "Pending",
    "rowid": "857453",
    "final_x": "3667305.99898",
    "final_y": "531141.256322",
    "longitude": "-90.1129027635465",
    "latitude": "29.95487759274558",
    "geocoded_column": {
      "latitude": "29.95487759274558",
      "longitude": "-90.1129027635465"
    }
  },
  {
    "service_request": "2022-857452",
    "request_type": "Property Maintenance",
    "request_reason": "Property Maintenance",
    "date_created": "2022-01-29T00:49:09.000",
    "date_modified": "2022-01-29T00:49:09.000",
    "request_status": "Pending",
    "responsible_agency": "Department of Code Enforcement",
    "final_address": "8225 Oak St",
    "address_councildis": "A",
    "status": "Pending",
    "rowid": "857452",
    "final_x": "3661576.21658",
    "final_y": "528780.668608",
    "longitude": "-90.13107354427795",
    "latitude": "29.948553297297092",
    "geocoded_column": {
      "latitude": "29.948553297297092",
      "longitude": "-90.13107354427795"
    }
  },
  {
    "service_request": "2022-857451",
    "request_type": "Traffic Signals/Signs/Striping/Streetlights",
    "request_reason": "Traffic Signal Malfunctioning/Damaged",
    "date_created": "2022-01-28T23:58:53.000",
    "date_modified": "2022-01-28T23:58:53.000",
    "request_status": "Pending",
    "responsible_agency": "Department of Public Works",
    "final_address": "ST BERNARD AVE & ST BERNARD EXIT",
    "address_councildis": "D",
    "status": "Pending",
    "rowid": "857451",
    "final_x": "3682052.0",
    "final_y": "538137.28",
    "longitude": "-90.06609621875964",
    "latitude": "29.97367416102322",
    "geocoded_column": {
      "latitude": "29.97367416102322",
      "longitude": "-90.06609621875964"
    }
  },
  {
    "service_request": "2022-857450",
    "request_type": "Health Related Questions",
    "request_reason": "Noise Ordinance Complaint",
    "date_created": "2022-01-28T22:54:28.000",
    "date_modified": "2022-01-28T22:54:28.000",
    "request_status": "Pending",
    "responsible_agency": "Health Department",
    "final_address": "711 Bourbon St, New Orleans, Louisiana, 70116",
    "address_councildis": "C",
    "status": "Pending",
    "rowid": "857450",
    "final_x": "3682299.38447",
    "final_y": "532765.705988",
    "longitude": "-90.06550263299877",
    "latitude": "29.95889665479323",
    "geocoded_column": {
      "latitude": "29.95889665479323",
      "longitude": "-90.06550263299877"
    }
  },
  {
    "service_request": "2022-857449",
    "request_type": "Trash/Recycling",
    "request_reason": "MIssed Recycling Pick-Up",
    "date_created": "2022-01-28T21:28:33.000",
    "date_modified": "2022-01-28T21:28:33.000",
    "request_status": "Pending",
    "responsible_agency": "Department of Sanitation",
    "final_address": "7320 Hurst St",
    "address_councildis": "A",
    "status": "Assigned to Contractor",
    "contractor": "Richards Disposal",
    "rowid": "857449",
    "final_x": "3661819.1513",
    "final_y": "523847.623483",
    "longitude": "-90.13047000182155",
    "latitude": "29.934981980100186",
    "geocoded_column": {
      "latitude": "29.934981980100186",
      "longitude": "-90.13047000182155"
    }
  },
  {
    "service_request": "2022-857448",
    "request_type": "Health Related Questions",
    "request_reason": "Noise Ordinance Complaint",
    "date_created": "2022-01-28T20:52:58.000",
    "date_modified": "2022-01-28T20:52:58.000",
    "request_status": "Pending",
    "responsible_agency": "Health Department",
    "final_address": "239 Decatur St",
    "address_councildis": "C",
    "status": "Pending",
    "rowid": "857448",
    "final_x": "3682195.63317",
    "final_y": "530830.069826",
    "longitude": "-90.06589786183099",
    "latitude": "29.95357746948798",
    "geocoded_column": {
      "latitude": "29.95357746948798",
      "longitude": "-90.06589786183099"
    }
  },
  {
    "service_request": "2022-857447",
    "request_type": "Abandoned Vehicles",
    "request_reason": "Abandoned/Junk Vehicles",
    "date_created": "2022-01-28T20:50:12.000",
    "date_modified": "2022-01-28T20:50:12.000",
    "request_status": "Pending",
    "responsible_agency": "Department of Public Works",
    "final_address": "226 N Norman C Francis Prkwy",
    "address_councildis": "B",
    "status": "Pending",
    "rowid": "857447",
    "final_x": "3673702.9586",
    "final_y": "537129.463496",
    "longitude": "-90.09249879985602",
    "latitude": "29.971154257954677",
    "geocoded_column": {
      "latitude": "29.971154257954677",
      "longitude": "-90.09249879985602"
    }
  },
  {
    "service_request": "2022-857446",
    "request_type": "COVID-19",
    "request_reason": "COVID-19 Business Non-Compliance",
    "date_created": "2022-01-28T19:49:17.000",
    "date_modified": "2022-01-28T19:49:18.000",
    "request_status": "Pending",
    "responsible_agency": "Safety and Permits",
    "final_address": "2230 St Claude Ave",
    "address_councildis": "C",
    "status": "Pending",
    "rowid": "857446",
    "final_x": "3685340.98946",
    "final_y": "536296.943367",
    "longitude": "-90.05577370472797",
    "latitude": "29.96851344937551",
    "geocoded_column": {
      "latitude": "29.96851344937551",
      "longitude": "-90.05577370472797"
    }
  },
  {
    "service_request": "2022-857445",
    "request_type": "Traffic Signals/Signs/Striping/Streetlights",
    "request_reason": "Street Light Outage/Malfunction",
    "date_created": "2022-01-28T19:34:51.000",
    "date_modified": "2022-01-28T19:34:52.000",
    "request_status": "Pending",
    "responsible_agency": "Department of Public Works",
    "final_address": "800 Pacific Ave",
    "address_councildis": "C",
    "status": "Pending",
    "contractor": "Royal Engineering",
    "rowid": "857445",
    "final_x": "3688504.63548",
    "final_y": "528661.126912",
    "longitude": "-90.0460536835043",
    "latitude": "29.94742022725461",
    "geocoded_column": {
      "latitude": "29.94742022725461",
      "longitude": "-90.0460536835043"
    }
  },
  {
    "service_request": "2022-857444",
    "request_type": "Trash/Recycling",
    "request_reason": "Request a Large Item Pick Up",
    "date_created": "2022-01-28T19:34:50.000",
    "date_modified": "2022-01-28T19:34:51.000",
    "request_status": "Pending",
    "responsible_agency": "Department of Sanitation",
    "final_address": "7540 Dogwood Dr",
    "address_councildis": "E",
    "status": "Assigned to Contractor",
    "contractor": "Metro Disposal",
    "rowid": "857444",
    "final_x": "3701273.37393",
    "final_y": "560855.621278",
    "longitude": "-90.0045593622239",
    "latitude": "30.03554254422795",
    "geocoded_column": {
      "latitude": "30.03554254422795",
      "longitude": "-90.0045593622239"
    }
  },
  {
    "service_request": "2022-857443",
    "request_type": "Trash/Recycling",
    "request_reason": "Replace Trash Cart",
    "date_created": "2022-01-28T19:14:51.000",
    "date_modified": "2022-01-28T19:14:52.000",
    "request_status": "Pending",
    "responsible_agency": "Department of Sanitation",
    "final_address": "1416 S Prieur St",
    "address_councildis": "B",
    "status": "Assigned to Contractor",
    "contractor": "Richards Disposal",
    "rowid": "857443",
    "final_x": "3674306.21819",
    "final_y": "528796.804992",
    "longitude": "-90.09087896689006",
    "latitude": "29.948224259849237",
    "geocoded_column": {
      "latitude": "29.948224259849237",
      "longitude": "-90.09087896689006"
    }
  },
  {
    "service_request": "2022-857442",
    "request_type": "Property Maintenance",
    "request_reason": "Property Maintenance",
    "date_created": "2022-01-28T19:01:16.000",
    "date_modified": "2022-01-28T19:01:16.000",
    "request_status": "Pending",
    "responsible_agency": "Department of Code Enforcement",
    "final_address": "2137 Dumaine St",
    "address_councildis": "D",
    "status": "Pending",
    "rowid": "857442",
    "final_x": "3678862.94178",
    "final_y": "536273.171271",
    "longitude": "-90.07623254105646",
    "latitude": "29.968645094313246",
    "geocoded_column": {
      "latitude": "29.968645094313246",
      "longitude": "-90.07623254105646"
    }
  },
  {
    "service_request": "2022-857441",
    "request_type": "Trash/Recycling",
    "request_reason": "Replace Trash Cart",
    "date_created": "2022-01-28T18:54:26.000",
    "date_modified": "2022-01-28T18:54:27.000",
    "request_status": "Pending",
    "responsible_agency": "Department of Sanitation",
    "final_address": "4128 Burgundy St",
    "address_councildis": "C",
    "status": "Assigned to Contractor",
    "contractor": "Metro Disposal",
    "rowid": "857441",
    "final_x": "3692155.4472",
    "final_y": "534348.193541",
    "longitude": "-90.03432314838962",
    "latitude": "29.962944400312367",
    "geocoded_column": {
      "latitude": "29.962944400312367",
      "longitude": "-90.03432314838962"
    }
  },
  {
    "service_request": "2022-857440",
    "request_type": "Trash/Recycling",
    "request_reason": "MIssed Recycling Pick-Up",
    "date_created": "2022-01-28T18:52:08.000",
    "date_modified": "2022-01-28T18:52:09.000",
    "request_status": "Pending",
    "responsible_agency": "Department of Sanitation",
    "final_address": "4116 Eve St",
    "address_councildis": "B",
    "status": "Assigned to Contractor",
    "contractor": "Richards Disposal",
    "rowid": "857440",
    "final_x": "3670787.33153",
    "final_y": "530422.391426",
    "longitude": "-90.1019344032672",
    "latitude": "29.952798535665753",
    "geocoded_column": {
      "latitude": "29.952798535665753",
      "longitude": "-90.1019344032672"
    }
  },
  {
    "service_request": "2022-857439",
    "request_type": "Traffic Signals/Signs/Striping/Streetlights",
    "request_reason": "Request for Stop Sign",
    "date_created": "2022-01-28T18:41:11.000",
    "date_modified": "2022-01-28T18:41:11.000",
    "request_status": "Pending",
    "responsible_agency": "Department of Public Works",
    "final_address": "2728 N Rampart St",
    "address_councildis": "C",
    "status": "Pending",
    "rowid": "857439",
    "final_x": "3687497.2511",
    "final_y": "535838.469447",
    "longitude": "-90.04898036498925",
    "latitude": "29.967186524512076",
    "geocoded_column": {
      "latitude": "29.967186524512076",
      "longitude": "-90.04898036498925"
    }
  },
  {
    "service_request": "2022-857438",
    "request_type": "Traffic Signals/Signs/Striping/Streetlights",
    "request_reason": "Street Light Outage/Malfunction",
    "date_created": "2022-01-28T18:25:13.000",
    "date_modified": "2022-01-28T18:25:14.000",
    "request_status": "Pending",
    "responsible_agency": "Department of Public Works",
    "final_address": "7530 Farwood Dr",
    "address_councildis": "E",
    "status": "Pending",
    "contractor": "Royal Engineering",
    "rowid": "857438",
    "final_x": "3702039.60189",
    "final_y": "556954.479578",
    "longitude": "-90.00228117499506",
    "latitude": "30.02479146280455",
    "geocoded_column": {
      "latitude": "30.02479146280455",
      "longitude": "-90.00228117499506"
    }
  },
  {
    "service_request": "2022-857437",
    "request_type": "Trash/Recycling",
    "request_reason": "Order Trash Cart",
    "date_created": "2022-01-28T18:17:42.000",
    "date_modified": "2022-01-28T18:17:43.000",
    "request_status": "Pending",
    "responsible_agency": "Department of Sanitation",
    "final_address": "1708 Laharpe St",
    "address_councildis": "D",
    "status": "Assigned to Contractor",
    "contractor": "Metro Disposal",
    "rowid": "857437",
    "final_x": "3681571.71087",
    "final_y": "537726.8898",
    "longitude": "-90.067627390943",
    "latitude": "29.972560326680345",
    "geocoded_column": {
      "latitude": "29.972560326680345",
      "longitude": "-90.067627390943"
    }
  },
  {
    "service_request": "2022-857435",
    "request_type": "Abandoned Vehicles",
    "request_reason": "Abandoned/Junk Vehicles",
    "date_created": "2022-01-28T18:09:46.000",
    "date_modified": "2022-01-28T18:09:46.000",
    "request_status": "Pending",
    "responsible_agency": "Department of Public Works",
    "status": "Inspected",
    "rowid": "857435",
    "longitude": "0.0",
    "latitude": "0.0",
    "geocoded_column": {
      "latitude": "0.0",
      "longitude": "0.0"
    }
  },
  {
    "service_request": "2022-857434",
    "request_type": "Roads/Drainage",
    "request_reason": "Leaking Hydrant",
    "date_created": "2022-01-28T18:09:39.000",
    "date_modified": "2022-01-28T18:09:39.000",
    "request_status": "Closed",
    "responsible_agency": "Department of Public Works",
    "final_address": "3500 General De Gaulle Dr",
    "address_councildis": "C",
    "status": "Invalid Case",
    "rowid": "857434",
    "final_x": "3696226.37693",
    "final_y": "520903.798713",
    "longitude": "-90.02195361777919",
    "latitude": "29.92584945824911",
    "geocoded_column": {
      "latitude": "29.92584945824911",
      "longitude": "-90.02195361777919"
    }
  },
  {
    "service_request": "2022-857433",
    "request_type": "Abandoned Vehicles",
    "request_reason": "Abandoned/Junk Vehicles",
    "date_created": "2022-01-28T18:05:38.000",
    "date_modified": "2022-01-28T18:05:38.000",
    "request_status": "Pending",
    "responsible_agency": "Department of Public Works",
    "status": "Inspected",
    "rowid": "857433",
    "longitude": "0.0",
    "latitude": "0.0",
    "geocoded_column": {
      "latitude": "0.0",
      "longitude": "0.0"
    }
  },
  {
    "service_request": "2022-857432",
    "request_type": "Abandoned Vehicles",
    "request_reason": "Abandoned/Junk Vehicles",
    "date_created": "2022-01-28T17:59:28.000",
    "date_modified": "2022-01-28T17:59:28.000",
    "request_status": "Pending",
    "responsible_agency": "Department of Public Works",
    "status": "Inspected",
    "rowid": "857432",
    "longitude": "0.0",
    "latitude": "0.0",
    "geocoded_column": {
      "latitude": "0.0",
      "longitude": "0.0"
    }
  },
  {
    "service_request": "2022-857431",
    "request_type": "Abandoned Vehicles",
    "request_reason": "Abandoned/Junk Vehicles",
    "date_created": "2022-01-28T17:53:10.000",
    "date_modified": "2022-01-28T17:53:10.000",
    "request_status": "Pending",
    "responsible_agency": "Department of Public Works",
    "status": "Inspected",
    "rowid": "857431",
    "longitude": "0.0",
    "latitude": "0.0",
    "geocoded_column": {
      "latitude": "0.0",
      "longitude": "0.0"
    }
  },
  {
    "service_request": "2022-857430",
    "request_type": "Abandoned Vehicles",
    "request_reason": "Abandoned/Junk Vehicles",
    "date_created": "2022-01-28T17:45:32.000",
    "date_modified": "2022-01-28T17:45:32.000",
    "request_status": "Pending",
    "responsible_agency": "Department of Public Works",
    "status": "Inspected",
    "rowid": "857430",
    "longitude": "0.0",
    "latitude": "0.0",
    "geocoded_column": {
      "latitude": "0.0",
      "longitude": "0.0"
    }
  },
  {
    "service_request": "2022-857429",
    "request_type": "Trash/Recycling",
    "request_reason": "Order Trash Cart",
    "date_created": "2022-01-28T17:43:22.000",
    "date_modified": "2022-01-28T17:43:23.000",
    "request_status": "Pending",
    "responsible_agency": "Department of Sanitation",
    "final_address": "2333 Pauger St, New Orleans, Louisiana, 70116",
    "address_councildis": "D",
    "status": "Assigned to Contractor",
    "contractor": "Metro Disposal",
    "rowid": "857429",
    "final_x": "3683789.73026",
    "final_y": "538328.487049",
    "longitude": "-90.060601392848",
    "latitude": "29.974146955577375",
    "geocoded_column": {
      "latitude": "29.974146955577375",
      "longitude": "-90.060601392848"
    }
  },
  {
    "service_request": "2022-857428",
    "request_type": "Trash/Recycling",
    "request_reason": "Repair Recycling Cart",
    "date_created": "2022-01-28T17:33:27.000",
    "date_modified": "2022-01-28T17:33:27.000",
    "request_status": "Pending",
    "responsible_agency": "Department of Sanitation",
    "final_address": "914 Piety St",
    "address_councildis": "C",
    "status": "Pending",
    "rowid": "857428",
    "final_x": "3689639.37078",
    "final_y": "535140.106374",
    "longitude": "-90.042240401619",
    "latitude": "29.965200075658636",
    "geocoded_column": {
      "latitude": "29.965200075658636",
      "longitude": "-90.042240401619"
    }
  },
  {
    "service_request": "2022-857427",
    "request_type": "Trash/Recycling",
    "request_reason": "MIssed Recycling Pick-Up",
    "date_created": "2022-01-28T17:30:41.000",
    "date_modified": "2022-01-28T17:30:42.000",
    "request_status": "Pending",
    "responsible_agency": "Department of Sanitation",
    "final_address": "23 Park Timbers Dr",
    "address_councildis": "C",
    "status": "Assigned to Contractor",
    "contractor": "Richards Disposal",
    "rowid": "857427",
    "final_x": "3699175.14032",
    "final_y": "517801.182262",
    "longitude": "-90.01275818309111",
    "latitude": "29.917225198666788",
    "geocoded_column": {
      "latitude": "29.917225198666788",
      "longitude": "-90.01275818309111"
    }
  },
  {
    "service_request": "2022-857426",
    "request_type": "Traffic Signals/Signs/Striping/Streetlights",
    "request_reason": "Street Light Outage/Malfunction",
    "date_created": "2022-01-28T17:22:16.000",
    "date_modified": "2022-01-28T17:22:17.000",
    "request_status": "Pending",
    "responsible_agency": "Department of Public Works",
    "final_address": "THOMAS ST & BAILEY ST",
    "address_councildis": "C",
    "status": "Pending",
    "contractor": "Royal Engineering",
    "rowid": "857426",
    "final_x": "3711361.3",
    "final_y": "518798.88",
    "longitude": "-89.97425646631768",
    "latitude": "29.91957671597563",
    "geocoded_column": {
      "latitude": "29.91957671597563",
      "longitude": "-89.97425646631768"
    }
  },
  {
    "service_request": "2022-857425",
    "request_type": "Trash/Recycling",
    "request_reason": "Replace Recycling Cart",
    "date_created": "2022-01-28T17:07:04.000",
    "date_modified": "2022-01-28T17:07:04.000",
    "request_status": "Pending",
    "responsible_agency": "Department of Sanitation",
    "final_address": "814 Louisiana Ave",
    "address_councildis": "B",
    "status": "Pending",
    "rowid": "857425",
    "final_x": "3675358.50536",
    "final_y": "518706.674935",
    "longitude": "-90.08790273776151",
    "latitude": "29.920448276422082",
    "geocoded_column": {
      "latitude": "29.920448276422082",
      "longitude": "-90.08790273776151"
    }
  },
  {
    "service_request": "2022-857424",
    "request_type": "Property Maintenance",
    "request_reason": "Property Maintenance",
    "date_created": "2022-01-28T16:59:19.000",
    "date_modified": "2022-01-28T16:59:20.000",
    "request_status": "Pending",
    "responsible_agency": "Department of Code Enforcement",
    "final_address": "2413 Deslonde St",
    "address_councildis": "E",
    "status": "Pending",
    "rowid": "857424",
    "final_x": "3696814.31722",
    "final_y": "539371.381322",
    "longitude": "-90.01942920494535",
    "latitude": "29.976610320637594",
    "geocoded_column": {
      "latitude": "29.976610320637594",
      "longitude": "-90.01942920494535"
    }
  },
  {
    "service_request": "2022-857423",
    "request_type": "Trash/Recycling",
    "request_reason": "Illegal Dumping",
    "date_created": "2022-01-28T16:58:33.000",
    "date_modified": "2022-01-28T16:58:34.000",
    "request_status": "Pending",
    "responsible_agency": "Department of Sanitation",
    "final_address": "2400 BLK Deslonde St",
    "address_councildis": "E",
    "status": "Pending",
    "rowid": "857423",
    "final_x": "3696792.54306",
    "final_y": "539452.165962",
    "longitude": "-90.01949504857667",
    "latitude": "29.976833135788695",
    "geocoded_column": {
      "latitude": "29.976833135788695",
      "longitude": "-90.01949504857667"
    }
  },
  {
    "service_request": "2022-857422",
    "request_type": "Trash/Recycling",
    "request_reason": "Request a Large Item Pick Up",
    "date_created": "2022-01-28T16:44:33.000",
    "date_modified": "2022-01-28T16:44:34.000",
    "request_status": "Pending",
    "responsible_agency": "Department of Sanitation",
    "final_address": "1320 Caffin Ave",
    "address_councildis": "E",
    "status": "Assigned to Contractor",
    "contractor": "Metro Disposal",
    "rowid": "857422",
    "final_x": "3698209.02826",
    "final_y": "534680.50055",
    "longitude": "-90.01519473316911",
    "latitude": "29.96366803458303",
    "geocoded_column": {
      "latitude": "29.96366803458303",
      "longitude": "-90.01519473316911"
    }
  },
  {
    "service_request": "2022-857421",
    "request_type": "Roads/Drainage",
    "request_reason": "Damaged Sidewalk",
    "date_created": "2022-01-28T16:42:16.000",
    "date_modified": "2022-01-28T16:42:16.000",
    "request_status": "Pending",
    "responsible_agency": "Department of Public Works",
    "final_address": "2419 Upperline St",
    "address_councildis": "B",
    "status": "Pending",
    "rowid": "857421",
    "final_x": "3669201.66599",
    "final_y": "523696.901307",
    "longitude": "-90.10716849173167",
    "latitude": "29.9343523808598",
    "geocoded_column": {
      "latitude": "29.9343523808598",
      "longitude": "-90.10716849173167"
    }
  },
  {
    "service_request": "2022-857420",
    "request_type": "Trash/Recycling",
    "request_reason": "Order Recycling Cart",
    "date_created": "2022-01-28T16:41:33.000",
    "date_modified": "2022-01-28T16:41:33.000",
    "request_status": "Pending",
    "responsible_agency": "Department of Sanitation",
    "final_address": "33 Fontainebleau Dr",
    "address_councildis": "A",
    "status": "Pending",
    "rowid": "857420",
    "final_x": "3666084.26573",
    "final_y": "531575.192643",
    "longitude": "-90.11674600029302",
    "latitude": "29.95610649983678",
    "geocoded_column": {
      "latitude": "29.95610649983678",
      "longitude": "-90.11674600029302"
    }
  },
  {
    "service_request": "2022-857419",
    "request_type": "Trash/Recycling",
    "request_reason": "Request a Large Item Pick Up",
    "date_created": "2022-01-28T16:38:41.000",
    "date_modified": "2022-01-28T16:38:42.000",
    "request_status": "Pending",
    "responsible_agency": "Department of Sanitation",
    "final_address": "504 S Murat St",
    "address_councildis": "A",
    "status": "Assigned to Contractor",
    "contractor": "Richards Disposal",
    "rowid": "857419",
    "final_x": "3668723.52391",
    "final_y": "538043.335881",
    "longitude": "-90.1081937194886",
    "latitude": "29.973814429516555",
    "geocoded_column": {
      "latitude": "29.973814429516555",
      "longitude": "-90.1081937194886"
    }
  },
  {
    "service_request": "2022-857418",
    "request_type": "Abandoned Vehicles",
    "request_reason": "Abandoned/Junk Vehicles",
    "date_created": "2022-01-28T16:35:28.000",
    "date_modified": "2022-01-28T16:35:28.000",
    "request_status": "Pending",
    "responsible_agency": "Department of Public Works",
    "final_address": "230 26Th St",
    "address_councildis": "A",
    "status": "Pending",
    "rowid": "857418",
    "final_x": "3665542.3664",
    "final_y": "549860.03298",
    "longitude": "-90.11784467205574",
    "latitude": "30.006399472138266",
    "geocoded_column": {
      "latitude": "30.006399472138266",
      "longitude": "-90.11784467205574"
    }
  },
  {
    "service_request": "2022-857417",
    "request_type": "Trash/Recycling",
    "request_reason": "MIssed Recycling Pick-Up",
    "date_created": "2022-01-28T16:27:59.000",
    "date_modified": "2022-01-28T16:27:59.000",
    "request_status": "Pending",
    "responsible_agency": "Department of Sanitation",
    "final_address": "1227 Leonidas St",
    "address_councildis": "A",
    "status": "Assigned to Contractor",
    "contractor": "Richards Disposal",
    "rowid": "857417",
    "final_x": "3660847.15021",
    "final_y": "529727.962049",
    "longitude": "-90.13334420214194",
    "latitude": "29.951179064887057",
    "geocoded_column": {
      "latitude": "29.951179064887057",
      "longitude": "-90.13334420214194"
    }
  },
  {
    "service_request": "2022-857416",
    "request_type": "Trash/Recycling",
    "request_reason": "Replace Trash Cart",
    "date_created": "2022-01-28T16:26:24.000",
    "date_modified": "2022-01-28T16:26:24.000",
    "request_status": "Pending",
    "responsible_agency": "Department of Sanitation",
    "final_address": "3241 Vincennes Pl",
    "address_councildis": "A",
    "status": "Assigned to Contractor",
    "contractor": "Richards Disposal",
    "rowid": "857416",
    "final_x": "3667791.94689",
    "final_y": "528176.918976",
    "longitude": "-90.11146813231618",
    "latitude": "29.946712390756748",
    "geocoded_column": {
      "latitude": "29.946712390756748",
      "longitude": "-90.11146813231618"
    }
  },
  {
    "service_request": "2022-857415",
    "request_type": "Trash/Recycling",
    "request_reason": "Request a Large Item Pick Up",
    "date_created": "2022-01-28T16:25:47.000",
    "date_modified": "2022-01-28T16:25:48.000",
    "request_status": "Pending",
    "responsible_agency": "Department of Sanitation",
    "final_address": "2337 Ursulines Ave",
    "address_councildis": "D",
    "status": "Assigned to Contractor",
    "contractor": "Richards Disposal",
    "rowid": "857415",
    "final_x": "3678783.93307",
    "final_y": "537326.437192",
    "longitude": "-90.07644556868583",
    "latitude": "29.97154359802943",
    "geocoded_column": {
      "latitude": "29.97154359802943",
      "longitude": "-90.07644556868583"
    }
  },
  {
    "service_request": "2022-857414",
    "request_type": "Property Maintenance",
    "request_reason": "Property Maintenance",
    "date_created": "2022-01-28T16:21:24.000",
    "date_modified": "2022-01-28T16:21:24.000",
    "request_status": "Pending",
    "responsible_agency": "Department of Code Enforcement",
    "final_address": "2988 Toledano St",
    "address_councildis": "B",
    "status": "Pending",
    "rowid": "857414",
    "final_x": "3672363.47847",
    "final_y": "526748.914942",
    "longitude": "-90.09708276724417",
    "latitude": "29.94265101337088",
    "geocoded_column": {
      "latitude": "29.94265101337088",
      "longitude": "-90.09708276724417"
    }
  },
  {
    "service_request": "2022-857413",
    "request_type": "Traffic Signals/Signs/Striping/Streetlights",
    "request_reason": "Traffic Signal Malfunctioning/Damaged",
    "date_created": "2022-01-28T16:17:52.000",
    "date_modified": "2022-01-28T16:17:52.000",
    "request_status": "Pending",
    "responsible_agency": "Department of Public Works",
    "final_address": "BARONNE ST & CALLIOPE ST",
    "address_councildis": "B",
    "status": "Pending",
    "rowid": "857413",
    "final_x": "3679060.1",
    "final_y": "527019.36",
    "longitude": "-90.07593059822653",
    "latitude": "29.94319428493894",
    "geocoded_column": {
      "latitude": "29.94319428493894",
      "longitude": "-90.07593059822653"
    }
  },
  {
    "service_request": "2022-857412",
    "request_type": "Trash/Recycling",
    "request_reason": "Return Trash Cart",
    "date_created": "2022-01-28T16:14:03.000",
    "date_modified": "2022-01-28T16:14:04.000",
    "request_status": "Pending",
    "responsible_agency": "Department of Sanitation",
    "final_address": "602 Pacific Ave",
    "address_councildis": "C",
    "status": "Assigned to Contractor",
    "contractor": "Richards Disposal",
    "rowid": "857412",
    "final_x": "3688569.58575",
    "final_y": "529416.332929",
    "longitude": "-90.04582181823999",
    "latitude": "29.94949477871877",
    "geocoded_column": {
      "latitude": "29.94949477871877",
      "longitude": "-90.04582181823999"
    }
  },
  {
    "service_request": "2022-857411",
    "request_type": "Trash/Recycling",
    "request_reason": "Order Recycling Cart",
    "date_created": "2022-01-28T16:14:02.000",
    "date_modified": "2022-01-28T16:14:02.000",
    "request_status": "Pending",
    "responsible_agency": "Department of Sanitation",
    "final_address": "1215 Lowerline St A",
    "address_councildis": "A",
    "status": "Pending",
    "rowid": "857411",
    "final_x": "3663802.90247",
    "final_y": "526905.759678",
    "longitude": "-90.12410540268364",
    "latitude": "29.943333470484664",
    "geocoded_column": {
      "latitude": "29.943333470484664",
      "longitude": "-90.12410540268364"
    }
  },
  {
    "service_request": "2022-857410",
    "request_type": "Trash/Recycling",
    "request_reason": "Replace Trash Cart",
    "date_created": "2022-01-28T16:12:33.000",
    "date_modified": "2022-01-28T16:12:34.000",
    "request_status": "Pending",
    "responsible_agency": "Department of Sanitation",
    "final_address": "1215 Lowerline St",
    "address_councildis": "A",
    "status": "Assigned to Contractor",
    "contractor": "Richards Disposal",
    "rowid": "857410",
    "final_x": "3663793.03527",
    "final_y": "526890.301822",
    "longitude": "-90.12413707112347",
    "latitude": "29.94329125264799",
    "geocoded_column": {
      "latitude": "29.94329125264799",
      "longitude": "-90.12413707112347"
    }
  },
  {
    "service_request": "2022-857409",
    "request_type": "Safety & Permits",
    "request_reason": "Licenses & Permits",
    "date_created": "2022-01-28T16:09:07.000",
    "date_modified": "2022-01-28T16:09:07.000",
    "request_status": "Pending",
    "responsible_agency": "Safety and Permits",
    "final_address": "2400 BLK Royal St",
    "address_councildis": "C",
    "status": "Pending",
    "rowid": "857409",
    "final_x": "3686070.17113",
    "final_y": "534946.209423",
    "longitude": "-90.05351856040531",
    "latitude": "29.964777025106702",
    "geocoded_column": {
      "latitude": "29.964777025106702",
      "longitude": "-90.05351856040531"
    }
  },
  {
    "service_request": "2022-857408",
    "request_type": "Abandoned Vehicles",
    "request_reason": "Abandoned/Junk Vehicles",
    "date_created": "2022-01-28T16:08:01.000",
    "date_modified": "2022-01-28T16:08:01.000",
    "request_status": "Pending",
    "responsible_agency": "Department of Public Works",
    "final_address": "719 Kerlerec St, New Orleans, Louisiana, 70116",
    "address_councildis": "C",
    "status": "Pending",
    "rowid": "857408",
    "final_x": "3684135.97749",
    "final_y": "534793.926726",
    "longitude": "-90.05963195193053",
    "latitude": "29.964417560513507",
    "geocoded_column": {
      "latitude": "29.964417560513507",
      "longitude": "-90.05963195193053"
    }
  },
  {
    "service_request": "2022-857407",
    "request_type": "Abandoned Vehicles",
    "request_reason": "Abandoned/Junk Vehicles",
    "date_created": "2022-01-28T16:06:52.000",
    "date_modified": "2022-01-28T16:06:52.000",
    "request_status": "Pending",
    "responsible_agency": "Department of Public Works",
    "final_address": "4600 St Claude Ave",
    "address_councildis": "C",
    "status": "Pending",
    "rowid": "857407",
    "final_x": "3693821.53392",
    "final_y": "534718.93223",
    "longitude": "-90.02904855115517",
    "latitude": "29.963911760299002",
    "geocoded_column": {
      "latitude": "29.963911760299002",
      "longitude": "-90.02904855115517"
    }
  },
  {
    "service_request": "2022-857406",
    "request_type": "Property Maintenance",
    "request_reason": "Property Maintenance",
    "date_created": "2022-01-28T16:05:25.000",
    "date_modified": "2022-01-28T16:05:25.000",
    "request_status": "Pending",
    "responsible_agency": "Department of Code Enforcement",
    "final_address": "4600 St Claude Ave",
    "address_councildis": "C",
    "status": "Pending",
    "rowid": "857406",
    "final_x": "3693821.53392",
    "final_y": "534718.93223",
    "longitude": "-90.02904855115517",
    "latitude": "29.963911760299002",
    "geocoded_column": {
      "latitude": "29.963911760299002",
      "longitude": "-90.02904855115517"
    }
  },
  {
    "service_request": "2022-857404",
    "request_type": "Trash/Recycling",
    "request_reason": "Request a Large Item Pick Up",
    "date_created": "2022-01-28T15:49:20.000",
    "date_modified": "2022-01-28T15:49:21.000",
    "request_status": "Pending",
    "responsible_agency": "Department of Sanitation",
    "final_address": "5059 W St Andrews Cir",
    "address_councildis": "E",
    "status": "Assigned to Contractor",
    "contractor": "Metro Disposal",
    "rowid": "857404",
    "final_x": "3719014.63397",
    "final_y": "559661.909725",
    "longitude": "-89.94854017837463",
    "latitude": "30.03168268848592",
    "geocoded_column": {
      "latitude": "30.03168268848592",
      "longitude": "-89.94854017837463"
    }
  },
  {
    "service_request": "2022-857402",
    "request_type": "Traffic Signals/Signs/Striping/Streetlights",
    "request_reason": "Additional signage",
    "date_created": "2022-01-28T15:43:08.000",
    "date_modified": "2022-01-28T15:43:08.000",
    "request_status": "Pending",
    "responsible_agency": "Department of Public Works",
    "final_address": "GENERAL DE GAULLE DR & BEHRMAN PL",
    "address_councildis": "C",
    "status": "Pending",
    "rowid": "857402",
    "final_x": "3697728.9",
    "final_y": "519623.78",
    "longitude": "-90.01725703655204",
    "latitude": "29.92228247505187",
    "geocoded_column": {
      "latitude": "29.92228247505187",
      "longitude": "-90.01725703655204"
    }
  },
  {
    "service_request": "2022-857401",
    "request_type": "Trash/Recycling",
    "request_reason": "Replace Trash Cart",
    "date_created": "2022-01-28T15:41:30.000",
    "date_modified": "2022-01-28T15:41:30.000",
    "request_status": "Pending",
    "responsible_agency": "Department of Sanitation",
    "final_address": "3321 Bennett St, New Orleans, Louisiana, 70131",
    "address_councildis": "C",
    "status": "Assigned to Contractor",
    "contractor": "Richards Disposal",
    "rowid": "857401",
    "final_x": "3710382.33413",
    "final_y": "518272.289014",
    "longitude": "-89.97736621549257",
    "latitude": "29.918160666798734",
    "geocoded_column": {
      "latitude": "29.918160666798734",
      "longitude": "-89.97736621549257"
    }
  },
  {
    "service_request": "2022-857400",
    "request_type": "Trash/Recycling",
    "request_reason": "Order Recycling Cart",
    "date_created": "2022-01-28T15:37:41.000",
    "date_modified": "2022-01-28T15:37:41.000",
    "request_status": "Pending",
    "responsible_agency": "Department of Sanitation",
    "final_address": "7823 Leake Ave",
    "address_councildis": "A",
    "status": "Pending",
    "rowid": "857400",
    "final_x": "3660619.41363",
    "final_y": "525548.116861",
    "longitude": "-90.13420140226206",
    "latitude": "29.939692376860616",
    "geocoded_column": {
      "latitude": "29.939692376860616",
      "longitude": "-90.13420140226206"
    }
  },
  {
    "service_request": "2022-857399",
    "request_type": "Trash/Recycling",
    "request_reason": "Repair Trash Cart",
    "date_created": "2022-01-28T15:36:41.000",
    "date_modified": "2022-01-28T15:36:42.000",
    "request_status": "Pending",
    "responsible_agency": "Department of Sanitation",
    "final_address": "7823 Leake Ave",
    "address_councildis": "A",
    "status": "Assigned to Contractor",
    "contractor": "Richards Disposal",
    "rowid": "857399",
    "final_x": "3660619.41363",
    "final_y": "525548.116861",
    "longitude": "-90.13420140226206",
    "latitude": "29.939692376860616",
    "geocoded_column": {
      "latitude": "29.939692376860616",
      "longitude": "-90.13420140226206"
    }
  },
  {
    "service_request": "2022-857398",
    "request_type": "Trash/Recycling",
    "request_reason": "Request a Large Item Pick Up",
    "date_created": "2022-01-28T15:35:58.000",
    "date_modified": "2022-01-28T15:35:59.000",
    "request_status": "Pending",
    "responsible_agency": "Department of Sanitation",
    "final_address": "25 Oriole St",
    "address_councildis": "D",
    "status": "Assigned to Contractor",
    "contractor": "Metro Disposal",
    "rowid": "857398",
    "final_x": "3675835.16443",
    "final_y": "556640.863898",
    "longitude": "-90.08509373500003",
    "latitude": "30.02474008994908",
    "geocoded_column": {
      "latitude": "30.02474008994908",
      "longitude": "-90.08509373500003"
    }
  },
  {
    "service_request": "2022-857397",
    "request_type": "Abandoned Vehicles",
    "request_reason": "Abandoned/Junk Vehicles",
    "date_created": "2022-01-28T15:26:48.000",
    "date_modified": "2022-01-28T15:26:48.000",
    "request_status": "Pending",
    "responsible_agency": "Department of Public Works",
    "final_address": "3919 Mithra St",
    "address_councildis": "D",
    "status": "Pending",
    "rowid": "857397",
    "final_x": "3688550.33916",
    "final_y": "553073.399319",
    "longitude": "-90.0450427674266",
    "latitude": "30.014543892397224",
    "geocoded_column": {
      "latitude": "30.014543892397224",
      "longitude": "-90.0450427674266"
    }
  },
  {
    "service_request": "2022-857395",
    "request_type": "Abandoned Vehicles",
    "request_reason": "Abandoned/Junk Vehicles",
    "date_created": "2022-01-28T15:25:36.000",
    "date_modified": "2022-01-28T15:27:47.000",
    "request_status": "Pending",
    "responsible_agency": "Department of Public Works",
    "final_address": "3919 Mithra St",
    "address_councildis": "D",
    "status": "Pending",
    "rowid": "857395",
    "final_x": "3688550.33916",
    "final_y": "553073.399319",
    "longitude": "-90.0450427674266",
    "latitude": "30.014543892397224",
    "geocoded_column": {
      "latitude": "30.014543892397224",
      "longitude": "-90.0450427674266"
    }
  },
  {
    "service_request": "2022-857394",
    "request_type": "Roads/Drainage",
    "request_reason": "Pothole",
    "date_created": "2022-01-28T15:22:44.000",
    "date_modified": "2022-01-28T15:22:44.000",
    "request_status": "Pending",
    "responsible_agency": "Department of Public Works",
    "final_address": "5801 Chamberlain Dr",
    "address_councildis": "D",
    "status": "Pending",
    "rowid": "857394",
    "final_x": "3679434.89647",
    "final_y": "553878.261527",
    "longitude": "-90.07381513964442",
    "latitude": "30.017035623392555",
    "geocoded_column": {
      "latitude": "30.017035623392555",
      "longitude": "-90.07381513964442"
    }
  },
  {
    "service_request": "2022-857393",
    "request_type": "Trash/Recycling",
    "request_reason": "Order Trash Cart",
    "date_created": "2022-01-28T15:11:21.000",
    "date_modified": "2022-01-28T15:11:22.000",
    "request_status": "Pending",
    "responsible_agency": "Department of Sanitation",
    "final_address": "2518 Clio St",
    "address_councildis": "B",
    "status": "Assigned to Contractor",
    "contractor": "Richards Disposal",
    "rowid": "857393",
    "final_x": "3676507.10414",
    "final_y": "528343.765376",
    "longitude": "-90.08394545923696",
    "latitude": "29.94691274812063",
    "geocoded_column": {
      "latitude": "29.94691274812063",
      "longitude": "-90.08394545923696"
    }
  },
  {
    "service_request": "2022-857392",
    "request_type": "Trash/Recycling",
    "request_reason": "Order Trash Cart",
    "date_created": "2022-01-28T15:10:28.000",
    "date_modified": "2022-01-28T15:26:10.000",
    "case_close_date": "2022-01-28T09:26:10.000",
    "request_status": "Closed",
    "responsible_agency": "Department of Sanitation",
    "final_address": "2518 Clio St",
    "address_councildis": "B",
    "status": "Duplicate Case",
    "contractor": "Richards Disposal",
    "rowid": "857392",
    "final_x": "3676507.10414",
    "final_y": "528343.765376",
    "longitude": "-90.08394545923696",
    "latitude": "29.94691274812063",
    "geocoded_column": {
      "latitude": "29.94691274812063",
      "longitude": "-90.08394545923696"
    }
  },
  {
    "service_request": "2022-857391",
    "request_type": "Roads/Drainage",
    "request_reason": "Man hole cover issue",
    "date_created": "2022-01-28T15:08:39.000",
    "date_modified": "2022-01-28T15:08:39.000",
    "request_status": "Pending",
    "responsible_agency": "Department of Public Works",
    "final_address": "341 S Cortez St",
    "address_councildis": "A",
    "status": "Pending",
    "rowid": "857391",
    "final_x": "3671355.18529",
    "final_y": "536738.849031",
    "longitude": "-90.0999266822785",
    "latitude": "29.970149898437892",
    "geocoded_column": {
      "latitude": "29.970149898437892",
      "longitude": "-90.0999266822785"
    }
  },
  {
    "service_request": "2022-857390",
    "request_type": "Trash/Recycling",
    "request_reason": "Replace Trash Cart",
    "date_created": "2022-01-28T15:07:46.000",
    "date_modified": "2022-01-28T15:07:46.000",
    "request_status": "Pending",
    "responsible_agency": "Department of Sanitation",
    "final_address": "2424 Royal St",
    "address_councildis": "C",
    "status": "Assigned to Contractor",
    "contractor": "Metro Disposal",
    "rowid": "857390",
    "final_x": "3686109.60489",
    "final_y": "534922.923462",
    "longitude": "-90.05339485288546",
    "latitude": "29.964711785653222",
    "geocoded_column": {
      "latitude": "29.964711785653222",
      "longitude": "-90.05339485288546"
    }
  },