[
  {
    "service_request": "2023-976016",
    "request_type": "Roads/Drainage",
    "request_reason": "Street Subsidence (Sinking)",
    "date_created": "2023-02-17T02:08:36.000",
    "date_modified": "2023-02-17T02:08:36.000",
    "request_status": "Pending",
    "responsible_agency": "Department of Public Works",
    "final_address": "3316 Montegut St",
    "address_councildis": "D",
    "status": "Pending",
    "rowid": "976016",
    "final_x": "3690619.50691",
    "final_y": "544981.563471",
    "longitude": "-90.03879407525227",
    "latitude": "29.99223017649448",
    "geocoded_column": {
      "latitude": "29.99223017649448",
      "longitude": "-90.03879407525227"
    }
  },
  {
    "service_request": "2023-976015",
    "request_type": "Traffic Signals/Signs/Striping/Streetlights",
    "request_reason": "Traffic Signal Malfunctioning/Damaged",
    "date_created": "2023-02-17T01:26:43.000",
    "date_modified": "2023-02-17T01:26:44.000",
    "request_status": "Pending",
    "responsible_agency": "Department of Public Works",
    "final_address": "ST CHARLES AVE & JULIA ST",
    "address_councildis": "B",
    "status": "Pending",
    "rowid": "976015",
    "final_x": "3680393.6",
    "final_y": "528026.98",
    "longitude": "-90.07168537755908",
    "latitude": "29.94592459922379",
    "geocoded_column": {
      "latitude": "29.94592459922379",
      "longitude": "-90.07168537755908"
    }
  },
  {
    "service_request": "2023-976013",
    "request_type": "Trash/Recycling",
    "request_reason": "MIssed Recycling Pick-Up",
    "date_created": "2023-02-17T01:10:35.000",
    "date_modified": "2023-02-17T01:10:35.000",
    "request_status": "Pending",
    "responsible_agency": "Department of Sanitation",
    "final_address": "1937 Allen St",
    "address_councildis": "D",
    "status": "Assigned to Contractor",
    "contractor": "IV Waste",
    "rowid": "976013",
    "final_x": "3682552.33116",
    "final_y": "539370.938506",
    "longitude": "-90.06447292232423",
    "latitude": "29.977051068522695",
    "geocoded_column": {
      "latitude": "29.977051068522695",
      "longitude": "-90.06447292232423"
    }
  },
  {
    "service_request": "2023-976014",
    "request_type": "Trash/Recycling",
    "request_reason": "MIssed Recycling Pick-Up",
    "date_created": "2023-02-17T01:10:35.000",
    "date_modified": "2023-02-17T01:10:35.000",
    "request_status": "Pending",
    "responsible_agency": "Department of Sanitation",
    "final_address": "1937 Allen St",
    "address_councildis": "D",
    "status": "Assigned to Contractor",
    "contractor": "IV Waste",
    "rowid": "976014",
    "final_x": "3682552.33116",
    "final_y": "539370.938506",
    "longitude": "-90.06447292232423",
    "latitude": "29.977051068522695",
    "geocoded_column": {
      "latitude": "29.977051068522695",
      "longitude": "-90.06447292232423"
    }
  },
  {
    "service_request": "2023-976012",
    "request_type": "Property Maintenance",
    "request_reason": "Property Maintenance",
    "date_created": "2023-02-17T00:37:15.000",
    "date_modified": "2023-02-17T00:37:15.000",
    "request_status": "Pending",
    "responsible_agency": "Department of Code Enforcement",
    "final_address": "6917 Lake Kenilworth Dr Apt S220",
    "address_councildis": "E",
    "status": "Pending",
    "rowid": "976012",
    "final_x": "3699876.32816",
    "final_y": "558016.261403",
    "longitude": "-90.00907794249589",
    "latitude": "30.027779874135987",
    "geocoded_column": {
      "latitude": "30.027779874135987",
      "longitude": "-90.00907794249589"
    }
  },
  {
    "service_request": "2023-976010",
    "request_type": "Abandoned Vehicles",
    "request_reason": "Vehicle Blocking Your Driveway",
    "date_created": "2023-02-16T22:11:59.000",
    "date_modified": "2023-02-16T22:14:07.000",
    "request_status": "Pending",
    "responsible_agency": "Department of Public Works",
    "final_address": "1033 Jena St",
    "address_councildis": "B",
    "status": "Pending",
    "rowid": "976010",
    "final_x": "3670640.21383",
    "final_y": "519401.168823",
    "longitude": "-90.1027726682948",
    "latitude": "29.922498084774734",
    "geocoded_column": {
      "latitude": "29.922498084774734",
      "longitude": "-90.1027726682948"
    }
  },
  {
    "service_request": "2023-976009",
    "request_type": "Abandoned Vehicles",
    "request_reason": "Abandoned/Junk Vehicles",
    "date_created": "2023-02-16T21:36:41.000",
    "date_modified": "2023-02-16T21:36:41.000",
    "request_status": "Pending",
    "responsible_agency": "Department of Public Works",
    "final_address": "Marigny St & Saint Claude Ave, New Orleans, Louisiana, 70117",
    "status": "Pending",
    "rowid": "976009",
    "longitude": "0.0",
    "latitude": "0.0",
    "geocoded_column": {
      "latitude": "0.0",
      "longitude": "0.0"
    }
  },
  {
    "service_request": "2023-976008",
    "request_type": "Abandoned Vehicles",
    "request_reason": "Vehicle Blocking Your Driveway",
    "date_created": "2023-02-16T21:00:22.000",
    "date_modified": "2023-02-16T21:00:23.000",
    "request_status": "Pending",
    "responsible_agency": "Department of Public Works",
    "final_address": "2102 General Taylor St",
    "address_councildis": "B",
    "status": "Pending",
    "rowid": "976008",
    "final_x": "3672158.87259",
    "final_y": "522841.701243",
    "longitude": "-90.09786176669687",
    "latitude": "29.93191351198703",
    "geocoded_column": {
      "latitude": "29.93191351198703",
      "longitude": "-90.09786176669687"
    }
  },
  {
    "service_request": "2023-976007",
    "request_type": "Traffic Signals/Signs/Striping/Streetlights",
    "request_reason": "Street Light Outage/Malfunction",
    "date_created": "2023-02-16T20:51:34.000",
    "date_modified": "2023-02-16T20:51:35.000",
    "request_status": "Pending",
    "responsible_agency": "Department of Public Works",
    "final_address": "4646 Wright Rd",
    "address_councildis": "E",
    "status": "Assigned to Contractor",
    "contractor": "Legacy Professional Services",
    "rowid": "976007",
    "final_x": "3716626.99724",
    "final_y": "556433.51113",
    "longitude": "-89.95620775698325",
    "latitude": "30.02288500771418",
    "geocoded_column": {
      "latitude": "30.02288500771418",
      "longitude": "-89.95620775698325"
    }
  },
  {
    "service_request": "2023-976006",
    "request_type": "Roads/Drainage",
    "request_reason": "WaterMain Break",
    "date_created": "2023-02-16T20:34:12.000",
    "date_modified": "2023-02-16T20:34:13.000",
    "request_status": "Pending",
    "responsible_agency": "Department of Public Works",
    "final_address": "835 Weiblen Pl",
    "address_councildis": "A",
    "status": "Pending",
    "rowid": "976006",
    "final_x": "3668851.5282",
    "final_y": "542584.128141",
    "longitude": "-90.10763604971335",
    "latitude": "29.98629630805942",
    "geocoded_column": {
      "latitude": "29.98629630805942",
      "longitude": "-90.10763604971335"
    }
  },
  {
    "service_request": "2023-976005",
    "request_type": "Trash/Recycling",
    "request_reason": "Missed Trash Pick-Up",
    "date_created": "2023-02-16T20:29:09.000",
    "date_modified": "2023-02-16T20:29:10.000",
    "request_status": "Pending",
    "responsible_agency": "Department of Sanitation",
    "final_address": "123 S Salcedo St",
    "address_councildis": "B",
    "status": "Assigned to Contractor",
    "contractor": "Richards Disposal",
    "rowid": "976005",
    "final_x": "3673867.56379",
    "final_y": "535890.782343",
    "longitude": "-90.09202133220576",
    "latitude": "29.96774340134996",
    "geocoded_column": {
      "latitude": "29.96774340134996",
      "longitude": "-90.09202133220576"
    }
  },
  {
    "service_request": "2023-976004",
    "request_type": "Abandoned Vehicles",
    "request_reason": "Vehicle Blocking Your Driveway",
    "date_created": "2023-02-16T20:07:27.000",
    "date_modified": "2023-02-16T20:08:04.000",
    "request_status": "Pending",
    "responsible_agency": "Department of Public Works",
    "final_address": "1017 Dufossat St",
    "address_councildis": "B",
    "status": "Pending",
    "rowid": "976004",
    "final_x": "3668146.15796",
    "final_y": "519143.010743",
    "longitude": "-90.11065411694987",
    "latitude": "29.921861644987967",
    "geocoded_column": {
      "latitude": "29.921861644987967",
      "longitude": "-90.11065411694987"
    }
  },
  {
    "service_request": "2023-976003",
    "request_type": "Trash/Recycling",
    "request_reason": "Missed Trash Pick-Up",
    "date_created": "2023-02-16T20:06:22.000",
    "date_modified": "2023-02-16T20:06:22.000",
    "request_status": "Pending",
    "responsible_agency": "Department of Sanitation",
    "final_address": "5400 Lacour Monique St",
    "address_councildis": "C",
    "status": "Assigned to Contractor",
    "contractor": "Richards Disposal",
    "rowid": "976003",
    "final_x": "3703908.6291",
    "final_y": "517945.602102",
    "longitude": "-89.99781206162554",
    "latitude": "29.917471451590874",
    "geocoded_column": {
      "latitude": "29.917471451590874",
      "longitude": "-89.99781206162554"
    }
  },
  {
    "service_request": "2023-976002",
    "request_type": "Trash/Recycling",
    "request_reason": "Order Trash Cart",
    "date_created": "2023-02-16T19:44:54.000",
    "date_modified": "2023-02-16T19:44:55.000",
    "request_status": "Pending",
    "responsible_agency": "Department of Sanitation",
    "final_address": "1910 Josephine St",
    "address_councildis": "B",
    "status": "Assigned to Contractor",
    "contractor": "Richards Disposal",
    "rowid": "976002",
    "final_x": "3677030.19982",
    "final_y": "525035.274173",
    "longitude": "-90.08240789380527",
    "latitude": "29.937799796884637",
    "geocoded_column": {
      "latitude": "29.937799796884637",
      "longitude": "-90.08240789380527"
    }
  },
  {
    "service_request": "2023-976001",
    "request_type": "Trash/Recycling",
    "request_reason": "Request a Large Item Pick Up",
    "date_created": "2023-02-16T19:36:25.000",
    "date_modified": "2023-02-16T19:36:25.000",
    "request_status": "Pending",
    "responsible_agency": "Department of Sanitation",
    "final_address": "621 Whitney Ave",
    "address_councildis": "C",
    "status": "Assigned to Contractor",
    "contractor": "Richards Disposal",
    "rowid": "976001",
    "final_x": "3690142.0248",
    "final_y": "529192.875776",
    "longitude": "-90.04086489555563",
    "latitude": "29.948831672207895",
    "geocoded_column": {
      "latitude": "29.948831672207895",
      "longitude": "-90.04086489555563"
    }
  },
  {
    "service_request": "2023-976000",
    "request_type": "Trash/Recycling",
    "request_reason": "MIssed Recycling Pick-Up",
    "date_created": "2023-02-16T19:28:21.000",
    "date_modified": "2023-02-16T19:28:22.000",
    "request_status": "Pending",
    "responsible_agency": "Department of Sanitation",
    "final_address": "2634 Upperline St",
    "address_councildis": "B",
    "status": "Assigned to Contractor",
    "contractor": "Richards Disposal",
    "rowid": "976000",
    "final_x": "3669146.60993",
    "final_y": "524540.253052",
    "longitude": "-90.10731381522838",
    "latitude": "29.93667294696024",
    "geocoded_column": {
      "latitude": "29.93667294696024",
      "longitude": "-90.10731381522838"
    }
  },
  {
    "service_request": "2023-975999",
    "request_type": "Trash/Recycling",
    "request_reason": "Illegal Dumping",
    "date_created": "2023-02-16T19:27:23.000",
    "date_modified": "2023-02-16T19:27:23.000",
    "request_status": "Pending",
    "responsible_agency": "Department of Sanitation",
    "final_address": "2510 Forstall St",
    "address_councildis": "E",
    "status": "Pending",
    "rowid": "975999",
    "final_x": "3697717.61469",
    "final_y": "539553.229258",
    "longitude": "-90.01656972953114",
    "latitude": "29.977081825337404",
    "geocoded_column": {
      "latitude": "29.977081825337404",
      "longitude": "-90.01656972953114"
    }
  },
  {
    "service_request": "2023-975998",
    "request_type": "Trash/Recycling",
    "request_reason": "Illegal Dumping",
    "date_created": "2023-02-16T19:23:19.000",
    "date_modified": "2023-02-16T19:23:19.000",
    "request_status": "Pending",
    "responsible_agency": "Department of Sanitation",
    "final_address": "2600 Flood St",
    "address_councildis": "E",
    "status": "Pending",
    "rowid": "975998",
    "final_x": "3699201.86928",
    "final_y": "539509.23841",
    "longitude": "-90.01188360542093",
    "latitude": "29.976913883358364",
    "geocoded_column": {
      "latitude": "29.976913883358364",
      "longitude": "-90.01188360542093"
    }
  },
  {
    "service_request": "2023-975995",
    "request_type": "Abandoned Vehicles",
    "request_reason": "Abandoned/Junk Vehicles",
    "date_created": "2023-02-16T19:14:42.000",
    "date_modified": "2023-02-16T19:14:42.000",
    "request_status": "Pending",
    "responsible_agency": "Department of Public Works",
    "final_address": "PRENTISS AVE & CORONADO DR",
    "address_councildis": "E",
    "status": "Pending",
    "rowid": "975995",
    "final_x": "3714151.0",
    "final_y": "556157.18",
    "longitude": "-89.96404169542764",
    "latitude": "30.022206796425355",
    "geocoded_column": {
      "latitude": "30.022206796425355",
      "longitude": "-89.96404169542764"
    }
  },
  {
    "service_request": "2023-975994",
    "request_type": "Abandoned Vehicles",
    "request_reason": "Vehicle Blocking Your Driveway",
    "date_created": "2023-02-16T19:11:49.000",
    "date_modified": "2023-02-16T19:11:50.000",
    "request_status": "Pending",
    "responsible_agency": "Department of Public Works",
    "final_address": "4823 Camp St",
    "address_councildis": "B",
    "status": "Pending",
    "rowid": "975994",
    "final_x": "3669362.03994",
    "final_y": "519030.462903",
    "longitude": "-90.10681988452248",
    "latitude": "29.92151644326117",
    "geocoded_column": {
      "latitude": "29.92151644326117",
      "longitude": "-90.10681988452248"
    }
  },
  {
    "service_request": "2023-975993",
    "request_type": "Trash/Recycling",
    "request_reason": "Repair Trash Cart",
    "date_created": "2023-02-16T19:11:06.000",
    "date_modified": "2023-02-16T19:11:20.000",
    "request_status": "Pending",
    "responsible_agency": "Department of Sanitation",
    "final_address": "5855 W Louis Prima Dr",
    "address_councildis": "E",
    "status": "Assigned to Contractor",
    "contractor": "Waste Pro",
    "rowid": "975993",
    "final_x": "3715371.92594",
    "final_y": "562939.381024",
    "longitude": "-89.95992705612096",
    "latitude": "30.040814960685704",
    "geocoded_column": {
      "latitude": "30.040814960685704",
      "longitude": "-89.95992705612096"
    }
  },
  {
    "service_request": "2023-975992",
    "request_type": "Traffic Signals/Signs/Striping/Streetlights",
    "request_reason": "Street Light Outage/Malfunction",
    "date_created": "2023-02-16T19:05:24.000",
    "date_modified": "2023-02-16T19:05:25.000",
    "request_status": "Pending",
    "responsible_agency": "Department of Public Works",
    "final_address": "1023 Valence St",
    "address_councildis": "B",
    "status": "Assigned to Contractor",
    "contractor": "Legacy Professional Services",
    "rowid": "975992",
    "final_x": "3669938.84999",
    "final_y": "519253.164791",
    "longitude": "-90.10499160510983",
    "latitude": "29.922111813156572",
    "geocoded_column": {
      "latitude": "29.922111813156572",
      "longitude": "-90.10499160510983"
    }
  },
  {
    "service_request": "2023-975991",
    "request_type": "Trash/Recycling",
    "request_reason": "Missed Trash Pick-Up",
    "date_created": "2023-02-16T18:46:47.000",
    "date_modified": "2023-02-16T18:46:48.000",
    "request_status": "Pending",
    "responsible_agency": "Department of Sanitation",
    "final_address": "1732 Forstall St",
    "address_councildis": "E",
    "status": "Assigned to Contractor",
    "contractor": "Waste Pro",
    "rowid": "975991",
    "final_x": "3696933.37111",
    "final_y": "536771.887048",
    "longitude": "-90.01914736004304",
    "latitude": "29.969458890620334",
    "geocoded_column": {
      "latitude": "29.969458890620334",
      "longitude": "-90.01914736004304"
    }
  },
  {
    "service_request": "2023-975990",
    "request_type": "Abandoned Vehicles",
    "request_reason": "Abandoned/Junk Vehicles",
    "date_created": "2023-02-16T18:33:18.000",
    "date_modified": "2023-02-16T18:33:18.000",
    "request_status": "Pending",
    "responsible_agency": "Department of Public Works",
    "final_address": "2306 Seminole Ln",
    "address_councildis": "B",
    "status": "Pending",
    "rowid": "975990",
    "final_x": "3673932.54152",
    "final_y": "528299.893632",
    "longitude": "-90.09207581520116",
    "latitude": "29.946869053407077",
    "geocoded_column": {
      "latitude": "29.946869053407077",
      "longitude": "-90.09207581520116"
    }
  },
  {
    "service_request": "2023-975989",
    "request_type": "Trash/Recycling",
    "request_reason": "MIssed Recycling Pick-Up",
    "date_created": "2023-02-16T18:20:45.000",
    "date_modified": "2023-02-16T18:20:46.000",
    "request_status": "Pending",
    "responsible_agency": "Department of Sanitation",
    "final_address": "7616 Hurst St",
    "address_councildis": "A",
    "status": "Assigned to Contractor",
    "contractor": "Richards Disposal",
    "rowid": "975989",
    "final_x": "3660793.83546",
    "final_y": "524642.908284",
    "longitude": "-90.1336806460374",
    "latitude": "29.93719831889418",
    "geocoded_column": {
      "latitude": "29.93719831889418",
      "longitude": "-90.1336806460374"
    }
  },
  {
    "service_request": "2023-975988",
    "request_type": "Abandoned Vehicles",
    "request_reason": "Abandoned/Junk Vehicles",
    "date_created": "2023-02-16T18:04:07.000",
    "date_modified": "2023-02-16T18:04:07.000",
    "request_status": "Pending",
    "responsible_agency": "Department of Public Works",
    "final_address": "3503 Danneel St",
    "address_councildis": "B",
    "status": "Pending",
    "rowid": "975988",
    "final_x": "3673211.51278",
    "final_y": "522730.341562",
    "longitude": "-90.09454248799527",
    "latitude": "29.931576058634487",
    "geocoded_column": {
      "latitude": "29.931576058634487",
      "longitude": "-90.09454248799527"
    }
  },
  {
    "service_request": "2023-975987",
    "request_type": "Trash/Recycling",
    "request_reason": "Request a Large Item Pick Up",
    "date_created": "2023-02-16T18:01:07.000",
    "date_modified": "2023-02-16T18:01:08.000",
    "request_status": "Pending",
    "responsible_agency": "Department of Sanitation",
    "final_address": "4614 Herschel St",
    "address_councildis": "C",
    "status": "Assigned to Contractor",
    "contractor": "Richards Disposal",
    "rowid": "975987",
    "final_x": "3702004.89681",
    "final_y": "520889.030841",
    "longitude": "-90.00371322192262",
    "latitude": "29.925625742067567",
    "geocoded_column": {
      "latitude": "29.925625742067567",
      "longitude": "-90.00371322192262"
    }
  },
  {
    "service_request": "2023-975986",
    "request_type": "Trash/Recycling",
    "request_reason": "Request a Large Item Pick Up",
    "date_created": "2023-02-16T17:57:48.000",
    "date_modified": "2023-02-16T17:59:00.000",
    "request_status": "Pending",
    "responsible_agency": "Department of Sanitation",
    "final_address": "555 Audubon Street",
    "address_councildis": "A",
    "status": "Assigned to Contractor",
    "contractor": "Richards Disposal",
    "rowid": "975986",
    "final_x": "3663007.13319",
    "final_y": "524080.931836",
    "longitude": "-90.12671177949672",
    "latitude": "29.935589159545028",
    "geocoded_column": {
      "latitude": "29.935589159545028",
      "longitude": "-90.12671177949672"
    }
  },
  {
    "service_request": "2023-975985",
    "request_type": "Trash/Recycling",
    "request_reason": "Missed Trash Pick-Up",
    "date_created": "2023-02-16T17:52:15.000",
    "date_modified": "2023-02-16T17:54:09.000",
    "request_status": "Pending",
    "responsible_agency": "Department of Sanitation",
    "final_address": "6402 Peoples Ave",
    "address_councildis": "D",
    "status": "Assigned to Contractor",
    "contractor": "IV Waste",
    "rowid": "975985",
    "final_x": "3687639.96771",
    "final_y": "556895.594202",
    "longitude": "-90.04778360032876",
    "latitude": "30.025081624007303",
    "geocoded_column": {
      "latitude": "30.025081624007303",
      "longitude": "-90.04778360032876"
    }
  },
  {
    "service_request": "2023-975984",
    "request_type": "Trash/Recycling",
    "request_reason": "Replace Trash Cart",
    "date_created": "2023-02-16T17:23:23.000",
    "date_modified": "2023-02-16T17:23:24.000",
    "request_status": "Pending",
    "responsible_agency": "Department of Sanitation",
    "final_address": "2321 Loyola Ave",
    "address_councildis": "B",
    "status": "Assigned to Contractor",
    "contractor": "Richards Disposal",
    "rowid": "975984",
    "final_x": "3675839.81461",
    "final_y": "525079.171325",
    "longitude": "-90.08616453062989",
    "latitude": "29.937956179474632",
    "geocoded_column": {
      "latitude": "29.937956179474632",
      "longitude": "-90.08616453062989"
    }
  },
  {
    "service_request": "2023-975983",
    "request_type": "Traffic Signals/Signs/Striping/Streetlights",
    "request_reason": "Street Light Outage/Malfunction",
    "date_created": "2023-02-16T17:21:25.000",
    "date_modified": "2023-02-16T17:21:26.000",
    "request_status": "Pending",
    "responsible_agency": "Department of Public Works",
    "final_address": "5725 General Diaz St",
    "address_councildis": "A",
    "status": "Assigned to Contractor",
    "contractor": "Legacy Professional Services",
    "rowid": "975983",
    "final_x": "3669446.8521",
    "final_y": "545532.28456",
    "longitude": "-90.10565587359483",
    "latitude": "29.994385203381093",
    "geocoded_column": {
      "latitude": "29.994385203381093",
      "longitude": "-90.10565587359483"
    }
  },
  {
    "service_request": "2023-975982",
    "request_type": "Trash/Recycling",
    "request_reason": "Return Recycling Cart",
    "date_created": "2023-02-16T17:11:55.000",
    "date_modified": "2023-02-16T17:11:55.000",
    "request_status": "Pending",
    "responsible_agency": "Department of Sanitation",
    "final_address": "5450 Dauphine St",
    "address_councildis": "E",
    "status": "Pending",
    "rowid": "975982",
    "final_x": "3697219.47453",
    "final_y": "532710.04762",
    "longitude": "-90.01839103386715",
    "latitude": "29.95828125140014",
    "geocoded_column": {
      "latitude": "29.95828125140014",
      "longitude": "-90.01839103386715"
    }
  },
  {
    "service_request": "2023-975981",
    "request_type": "Trash/Recycling",
    "request_reason": "Repair Trash Cart",
    "date_created": "2023-02-16T17:10:40.000",
    "date_modified": "2023-02-16T17:10:41.000",
    "request_status": "Pending",
    "responsible_agency": "Department of Sanitation",
    "final_address": "3732 General Meyer Ave",
    "address_councildis": "C",
    "status": "Assigned to Contractor",
    "contractor": "Richards Disposal",
    "rowid": "975981",
    "final_x": "3697785.1009",
    "final_y": "525435.190141",
    "longitude": "-90.01686887656906",
    "latitude": "29.93826008116362",
    "geocoded_column": {
      "latitude": "29.93826008116362",
      "longitude": "-90.01686887656906"
    }
  },
  {
    "service_request": "2023-975980",
    "request_type": "Traffic Signals/Signs/Striping/Streetlights",
    "request_reason": "Street Light Outage/Malfunction",
    "date_created": "2023-02-16T17:06:50.000",
    "date_modified": "2023-02-16T17:06:50.000",
    "request_status": "Pending",
    "responsible_agency": "Department of Public Works",
    "final_address": "2617 Palmyra St",
    "address_councildis": "B",
    "status": "Assigned to Contractor",
    "contractor": "Legacy Professional Services",
    "rowid": "975980",
    "final_x": "3675234.81595",
    "final_y": "534248.853445",
    "longitude": "-90.08775987291713",
    "latitude": "29.96318785340479",
    "geocoded_column": {
      "latitude": "29.96318785340479",
      "longitude": "-90.08775987291713"
    }
  },
  {
    "service_request": "2023-975979",
    "request_type": "Trash/Recycling",
    "request_reason": "Missed Trash Pick-Up",
    "date_created": "2023-02-16T16:57:05.000",
    "date_modified": "2023-02-16T16:57:05.000",
    "request_status": "Pending",
    "responsible_agency": "Department of Sanitation",
    "final_address": "5410 Lacour Monique St",
    "address_councildis": "C",
    "status": "Assigned to Contractor",
    "contractor": "Richards Disposal",
    "rowid": "975979",
    "final_x": "3703981.41438",
    "final_y": "517939.402998",
    "longitude": "-89.99758254933272",
    "latitude": "29.917452073333283",
    "geocoded_column": {
      "latitude": "29.917452073333283",
      "longitude": "-89.99758254933272"
    }
  },
  {
    "service_request": "2023-975978",
    "request_type": "Traffic Signals/Signs/Striping/Streetlights",
    "request_reason": "Street Light Outage/Malfunction",
    "date_created": "2023-02-16T16:51:10.000",
    "date_modified": "2023-02-16T16:51:10.000",
    "request_status": "Pending",
    "responsible_agency": "Department of Public Works",
    "final_address": "861 Jewel St",
    "address_councildis": "D",
    "status": "Assigned to Contractor",
    "contractor": "Legacy Professional Services",
    "rowid": "975978",
    "final_x": "3670821.21947",
    "final_y": "556183.498458",
    "longitude": "-90.10095254414054",
    "latitude": "30.023631731579112",
    "geocoded_column": {
      "latitude": "30.023631731579112",
      "longitude": "-90.10095254414054"
    }
  },
  {
    "service_request": "2023-975977",
    "request_type": "Roads/Drainage",
    "request_reason": "Leaking Hydrant",
    "date_created": "2023-02-16T16:37:41.000",
    "date_modified": "2023-02-16T16:37:41.000",
    "request_status": "Pending",
    "responsible_agency": "Department of Public Works",
    "final_address": "GANNON RD & BISHOP C L MORTON SR DR",
    "address_councildis": "E",
    "status": "Pending",
    "rowid": "975977",
    "final_x": "3716427.1",
    "final_y": "569836.78",
    "longitude": "-89.9563304288327",
    "latitude": "30.059745164122422",
    "geocoded_column": {
      "latitude": "30.059745164122422",
      "longitude": "-89.9563304288327"
    }
  },
  {
    "service_request": "2023-975976",
    "request_type": "Trash/Recycling",
    "request_reason": "MIssed Recycling Pick-Up",
    "date_created": "2023-02-16T16:34:15.000",
    "date_modified": "2023-02-16T17:35:06.000",
    "case_close_date": "2023-02-16T11:35:06.000",
    "request_status": "Closed",
    "responsible_agency": "Department of Sanitation",
    "final_address": "8012 Windward Ct",
    "address_councildis": "E",
    "status": "Assigned to Contractor",
    "contractor": "Waste Pro",
    "contractor_action": "Completed",
    "rowid": "975976",
    "final_x": "3714961.42968",
    "final_y": "570670.355559",
    "longitude": "-89.9609317165858",
    "latitude": "30.062085501204617",
    "geocoded_column": {
      "latitude": "30.062085501204617",
      "longitude": "-89.9609317165858"
    }
  },
  {
    "service_request": "2023-975975",
    "request_type": "Trash/Recycling",
    "request_reason": "Missed Trash Pick-Up",
    "date_created": "2023-02-16T16:27:51.000",
    "date_modified": "2023-02-16T16:27:51.000",
    "request_status": "Pending",
    "responsible_agency": "Department of Sanitation",
    "final_address": "2020 Forstall St",
    "address_councildis": "E",
    "status": "Assigned to Contractor",
    "contractor": "Waste Pro",
    "rowid": "975975",
    "final_x": "3697215.93546",
    "final_y": "537775.36564",
    "longitude": "-90.01821863144758",
    "latitude": "29.972209182977732",
    "geocoded_column": {
      "latitude": "29.972209182977732",
      "longitude": "-90.01821863144758"
    }
  },
  {
    "service_request": "2023-975974",
    "request_type": "Trash/Recycling",
    "request_reason": "Request a Large Item Pick Up",
    "date_created": "2023-02-16T16:25:39.000",
    "date_modified": "2023-02-16T16:25:39.000",
    "request_status": "Pending",
    "responsible_agency": "Department of Sanitation",
    "final_address": "4911 St Claude Ave",
    "address_councildis": "E",
    "status": "Assigned to Contractor",
    "contractor": "Waste Pro",
    "rowid": "975974",
    "final_x": "3695526.90326",
    "final_y": "534490.860613",
    "longitude": "-90.0236714138403",
    "latitude": "29.963231158057482",
    "geocoded_column": {
      "latitude": "29.963231158057482",
      "longitude": "-90.0236714138403"
    }
  },
  {
    "service_request": "2023-975972",
    "request_type": "Abandoned Vehicles",
    "request_reason": "Abandoned/Junk Vehicles",
    "date_created": "2023-02-16T16:23:38.000",
    "date_modified": "2023-02-16T16:26:54.000",
    "request_status": "Pending",
    "responsible_agency": "Department of Public Works",
    "final_address": "7700 BLK W Laverne St",
    "address_councildis": "D",
    "status": "Pending",
    "rowid": "975972",
    "final_x": "3695011.4833",
    "final_y": "559087.454447",
    "longitude": "-90.02441176399317",
    "latitude": "30.030878942600815",
    "geocoded_column": {
      "latitude": "30.030878942600815",
      "longitude": "-90.02441176399317"
    }
  },
  {
    "service_request": "2023-975971",
    "request_type": "Abandoned Vehicles",
    "request_reason": "Abandoned/Junk Vehicles",
    "date_created": "2023-02-16T16:18:51.000",
    "date_modified": "2023-02-16T16:18:52.000",
    "request_status": "Pending",
    "responsible_agency": "Department of Public Works",
    "final_address": "9900 BLK Rockton Cir E",
    "address_councildis": "E",
    "status": "Pending",
    "rowid": "975971",
    "final_x": "3708604.80355",
    "final_y": "562788.652425",
    "longitude": "-89.98131889921022",
    "latitude": "30.040621804459605",
    "geocoded_column": {
      "latitude": "30.040621804459605",
      "longitude": "-89.98131889921022"
    }
  },
  {
    "service_request": "2023-975970",
    "request_type": "Safety & Permits",
    "request_reason": "Construction permit",
    "date_created": "2023-02-16T16:17:27.000",
    "date_modified": "2023-02-16T16:17:27.000",
    "request_status": "Pending",
    "responsible_agency": "Department of Code Enforcement",
    "status": "Pending",
    "rowid": "975970",
    "longitude": "0.0",
    "latitude": "0.0",
    "geocoded_column": {
      "latitude": "0.0",
      "longitude": "0.0"
    }
  },
  {
    "service_request": "2023-975969",
    "request_type": "Trash/Recycling",
    "request_reason": "Replace Trash Cart",
    "date_created": "2023-02-16T16:13:38.000",
    "date_modified": "2023-02-16T16:13:38.000",
    "request_status": "Pending",
    "responsible_agency": "Department of Sanitation",
    "final_address": "6743 Foch Rd",
    "address_councildis": "D",
    "status": "Assigned to Contractor",
    "contractor": "Waste Pro",
    "rowid": "975969",
    "final_x": "3696790.41335",
    "final_y": "556250.840858",
    "longitude": "-90.0188931546196",
    "latitude": "30.02302334228376",
    "geocoded_column": {
      "latitude": "30.02302334228376",
      "longitude": "-90.0188931546196"
    }
  },
  {
    "service_request": "2023-975968",
    "request_type": "Traffic Signals/Signs/Striping/Streetlights",
    "request_reason": "Street Light Knocked Down/Leaning",
    "date_created": "2023-02-16T16:11:28.000",
    "date_modified": "2023-02-16T16:11:29.000",
    "request_status": "Pending",
    "responsible_agency": "Department of Public Works",
    "final_address": "W ROCKTON CIR & E ROCKTON CIR & WEAVER RD",
    "address_councildis": "E",
    "status": "Pending",
    "contractor": "Legacy Professional Services",
    "rowid": "975968",
    "final_x": "3708364.6",
    "final_y": "562655.58",
    "longitude": "-89.98208297553971",
    "latitude": "30.040263699138322",
    "geocoded_column": {
      "latitude": "30.040263699138322",
      "longitude": "-89.98208297553971"
    }
  },
  {
    "service_request": "2023-975966",
    "request_type": "Trash/Recycling",
    "request_reason": "Replace Trash Cart",
    "date_created": "2023-02-16T16:10:49.000",
    "date_modified": "2023-02-16T16:10:50.000",
    "request_status": "Pending",
    "responsible_agency": "Department of Sanitation",
    "final_address": "2262 N Roman St",
    "address_councildis": "D",
    "status": "Assigned to Contractor",
    "contractor": "IV Waste",
    "rowid": "975966",
    "final_x": "3685450.95407",
    "final_y": "538903.86209",
    "longitude": "-90.05533460818586",
    "latitude": "29.97567819466444",
    "geocoded_column": {
      "latitude": "29.97567819466444",
      "longitude": "-90.05533460818586"
    }
  },
  {
    "service_request": "2023-975965",
    "request_type": "Trash/Recycling",
    "request_reason": "Missed Trash Pick-Up",
    "date_created": "2023-02-16T16:09:27.000",
    "date_modified": "2023-02-16T16:09:28.000",
    "request_status": "Pending",
    "responsible_agency": "Department of Sanitation",
    "final_address": "7724 Marquis St",
    "address_councildis": "E",
    "status": "Assigned to Contractor",
    "contractor": "Waste Pro",
    "rowid": "975965",
    "final_x": "3710922.8028",
    "final_y": "566690.116963",
    "longitude": "-89.97384702826919",
    "latitude": "30.051273852556243",
    "geocoded_column": {
      "latitude": "30.051273852556243",
      "longitude": "-89.97384702826919"
    }
  },
  {
    "service_request": "2023-975964",
    "request_type": "Trash/Recycling",
    "request_reason": "Return Trash Cart",
    "date_created": "2023-02-16T16:09:07.000",
    "date_modified": "2023-02-16T16:09:08.000",
    "request_status": "Pending",
    "responsible_agency": "Department of Sanitation",
    "final_address": "918 Milan St",
    "address_councildis": "B",
    "status": "Assigned to Contractor",
    "contractor": "Richards Disposal",
    "rowid": "975964",
    "final_x": "3671751.84961",
    "final_y": "519023.853111",
    "longitude": "-90.09927650251174",
    "latitude": "29.921427713606043",
    "geocoded_column": {
      "latitude": "29.921427713606043",
      "longitude": "-90.09927650251174"
    }
  },
  {
    "service_request": "2023-975963",
    "request_type": "Trash/Recycling",
    "request_reason": "Order Recycling Cart",
    "date_created": "2023-02-16T15:57:50.000",
    "date_modified": "2023-02-16T15:57:50.000",
    "request_status": "Pending",
    "responsible_agency": "Department of Sanitation",
    "final_address": "2411 Painters St",
    "address_councildis": "D",
    "status": "Pending",
    "rowid": "975963",
    "final_x": "3687200.26262",
    "final_y": "541430.81742",
    "longitude": "-90.04972041379817",
    "latitude": "29.982572665786385",
    "geocoded_column": {
      "latitude": "29.982572665786385",
      "longitude": "-90.04972041379817"
    }
  },
  {
    "service_request": "2023-975962",
    "request_type": "Trash/Recycling",
    "request_reason": "Order Recycling Cart",
    "date_created": "2023-02-16T15:56:27.000",
    "date_modified": "2023-02-16T15:56:28.000",
    "request_status": "Pending",
    "responsible_agency": "Department of Sanitation",
    "final_address": "2413 Painters St",
    "address_councildis": "D",
    "status": "Pending",
    "rowid": "975962",
    "final_x": "3687198.01442",
    "final_y": "541441.943436",
    "longitude": "-90.04972712104794",
    "latitude": "29.982603327635545",
    "geocoded_column": {
      "latitude": "29.982603327635545",
      "longitude": "-90.04972712104794"
    }
  },
  {
    "service_request": "2023-975960",
    "request_type": "Trash/Recycling",
    "request_reason": "Repair Trash Cart",
    "date_created": "2023-02-16T15:53:19.000",
    "date_modified": "2023-02-16T15:53:20.000",
    "request_status": "Pending",
    "responsible_agency": "Department of Sanitation",
    "final_address": "2132 Lizardi St",
    "address_councildis": "E",
    "status": "Assigned to Contractor",
    "contractor": "Waste Pro",
    "rowid": "975960",
    "final_x": "3697623.52394",
    "final_y": "538114.795657",
    "longitude": "-90.01691909002827",
    "latitude": "29.973129624283953",
    "geocoded_column": {
      "latitude": "29.973129624283953",
      "longitude": "-90.01691909002827"
    }
  },
  {
    "service_request": "2023-975959",
    "request_type": "Trash/Recycling",
    "request_reason": "Request a Large Item Pick Up",
    "date_created": "2023-02-16T15:52:16.000",
    "date_modified": "2023-02-16T15:52:17.000",
    "request_status": "Pending",
    "responsible_agency": "Department of Sanitation",
    "final_address": "1075 Race St, New Orleans, Louisiana, 70130",
    "address_councildis": "B",
    "status": "Assigned to Contractor",
    "contractor": "Richards Disposal",
    "rowid": "975959",
    "final_x": "3680297.82293",
    "final_y": "523866.142971",
    "longitude": "-90.07213237577774",
    "latitude": "29.93448657949603",
    "geocoded_column": {
      "latitude": "29.93448657949603",
      "longitude": "-90.07213237577774"
    }
  },
  {
    "service_request": "2023-975958",
    "request_type": "Trash/Recycling",
    "request_reason": "MIssed Recycling Pick-Up",
    "date_created": "2023-02-16T15:44:16.000",
    "date_modified": "2023-02-16T15:44:17.000",
    "request_status": "Pending",
    "responsible_agency": "Department of Sanitation",
    "final_address": "2400 N Broad St",
    "address_councildis": "D",
    "status": "Assigned to Contractor",
    "contractor": "IV Waste",
    "rowid": "975958",
    "final_x": "3681949.93896",
    "final_y": "543915.765838",
    "longitude": "-90.06621673670527",
    "latitude": "29.989566079204355",
    "geocoded_column": {
      "latitude": "29.989566079204355",
      "longitude": "-90.06621673670527"
    }
  },
  {
    "service_request": "2023-975957",
    "request_type": "Traffic Signals/Signs/Striping/Streetlights",
    "request_reason": "Street Light Outage/Malfunction",
    "date_created": "2023-02-16T15:40:01.000",
    "date_modified": "2023-02-16T15:40:01.000",
    "request_status": "Pending",
    "responsible_agency": "Department of Public Works",
    "final_address": "820 Lamanche St",
    "address_councildis": "E",
    "status": "Assigned to Contractor",
    "contractor": "Legacy Professional Services",
    "rowid": "975957",
    "final_x": "3698059.88336",
    "final_y": "532732.304836",
    "longitude": "-90.0157364586658",
    "latitude": "29.958315905437736",
    "geocoded_column": {
      "latitude": "29.958315905437736",
      "longitude": "-90.0157364586658"
    }
  },
  {
    "service_request": "2023-975956",
    "request_type": "Trash/Recycling",
    "request_reason": "MIssed Recycling Pick-Up",
    "date_created": "2023-02-16T15:39:31.000",
    "date_modified": "2023-02-16T15:39:32.000",
    "request_status": "Pending",
    "responsible_agency": "Department of Sanitation",
    "final_address": "7440 Mayo Rd",
    "address_councildis": "E",
    "status": "Assigned to Contractor",
    "contractor": "Waste Pro",
    "rowid": "975956",
    "final_x": "3700847.80925",
    "final_y": "560247.255901",
    "longitude": "-90.00592648367011",
    "latitude": "30.03388333860036",
    "geocoded_column": {
      "latitude": "30.03388333860036",
      "longitude": "-90.00592648367011"
    }
  },
  {
    "service_request": "2023-975955",
    "request_type": "Trash/Recycling",
    "request_reason": "MIssed Recycling Pick-Up",
    "date_created": "2023-02-16T15:39:06.000",
    "date_modified": "2023-02-16T15:39:06.000",
    "request_status": "Pending",
    "responsible_agency": "Department of Sanitation",
    "final_address": "5826 Clara St",
    "address_councildis": "A",
    "status": "Assigned to Contractor",
    "contractor": "Richards Disposal",
    "rowid": "975955",
    "final_x": "3666914.57978",
    "final_y": "525225.735933",
    "longitude": "-90.11433743670578",
    "latitude": "29.938623284611396",
    "geocoded_column": {
      "latitude": "29.938623284611396",
      "longitude": "-90.11433743670578"
    }
  },
  {
    "service_request": "2023-975954",
    "request_type": "Property Maintenance",
    "request_reason": "Property Maintenance",
    "date_created": "2023-02-16T15:37:58.000",
    "date_modified": "2023-02-16T15:37:58.000",
    "request_status": "Pending",
    "responsible_agency": "Department of Code Enforcement",
    "final_address": "1917 Clouet St",
    "address_councildis": "D",
    "status": "Pending",
    "rowid": "975954",
    "final_x": "3689833.45833",
    "final_y": "539153.23521",
    "longitude": "-90.04148460426958",
    "latitude": "29.97622875240727",
    "geocoded_column": {
      "latitude": "29.97622875240727",
      "longitude": "-90.04148460426958"
    }
  },
  {
    "service_request": "2023-975953",
    "request_type": "Roads/Drainage",
    "request_reason": "Leaking Hydrant",
    "date_created": "2023-02-16T15:37:27.000",
    "date_modified": "2023-02-16T15:37:28.000",
    "request_status": "Pending",
    "responsible_agency": "Department of Public Works",
    "final_address": "PALMER AVE & MAGNOLIA ST",
    "address_councildis": "A",
    "status": "Pending",
    "rowid": "975953",
    "final_x": "3666200.4",
    "final_y": "525255.58",
    "longitude": "-90.11659118628037",
    "latitude": "29.938726218273892",
    "geocoded_column": {
      "latitude": "29.938726218273892",
      "longitude": "-90.11659118628037"
    }
  },
  {
    "service_request": "2023-975952",
    "request_type": "Trash/Recycling",
    "request_reason": "Order Trash Cart",
    "date_created": "2023-02-16T15:30:52.000",
    "date_modified": "2023-02-16T15:30:53.000",
    "request_status": "Pending",
    "responsible_agency": "Department of Sanitation",
    "final_address": "516 Whitney Ave",
    "address_councildis": "C",
    "status": "Assigned to Contractor",
    "contractor": "Richards Disposal",
    "rowid": "975952",
    "final_x": "3690318.18665",
    "final_y": "529671.019521",
    "longitude": "-90.04029164242505",
    "latitude": "29.950140938027214",
    "geocoded_column": {
      "latitude": "29.950140938027214",
      "longitude": "-90.04029164242505"
    }
  },
  {
    "service_request": "2023-975951",
    "request_type": "Trash/Recycling",
    "request_reason": "Order Trash Cart",
    "date_created": "2023-02-16T15:30:37.000",
    "date_modified": "2023-02-16T15:30:37.000",
    "request_status": "Pending",
    "responsible_agency": "Department of Sanitation",
    "final_address": "516 Whitney Ave",
    "address_councildis": "C",
    "status": "Assigned to Contractor",
    "contractor": "Richards Disposal",
    "rowid": "975951",
    "final_x": "3690318.18665",
    "final_y": "529671.019521",
    "longitude": "-90.04029164242505",
    "latitude": "29.950140938027214",
    "geocoded_column": {
      "latitude": "29.950140938027214",
      "longitude": "-90.04029164242505"
    }
  },
  {
    "service_request": "2023-975950",
    "request_type": "Trash/Recycling",
    "request_reason": "Order Trash Cart",
    "date_created": "2023-02-16T15:30:17.000",
    "date_modified": "2023-02-16T15:30:18.000",
    "request_status": "Pending",
    "responsible_agency": "Department of Sanitation",
    "final_address": "516 Whitney Ave",
    "address_councildis": "C",
    "status": "Assigned to Contractor",
    "contractor": "Richards Disposal",
    "rowid": "975950",
    "final_x": "3690318.18665",
    "final_y": "529671.019521",
    "longitude": "-90.04029164242505",
    "latitude": "29.950140938027214",
    "geocoded_column": {
      "latitude": "29.950140938027214",
      "longitude": "-90.04029164242505"
    }
  },
  {
    "service_request": "2023-975949",
    "request_type": "Trash/Recycling",
    "request_reason": "Repair Trash Cart",
    "date_created": "2023-02-16T15:19:30.000",
    "date_modified": "2023-02-16T15:19:31.000",
    "request_status": "Pending",
    "responsible_agency": "Department of Sanitation",
    "final_address": "1502 Governor Nicholls St",
    "address_councildis": "C",
    "status": "Assigned to Contractor",
    "contractor": "Richards Disposal",
    "rowid": "975949",
    "final_x": "3681394.54664",
    "final_y": "535699.699783",
    "longitude": "-90.06825759149775",
    "latitude": "29.966991632420417",
    "geocoded_column": {
      "latitude": "29.966991632420417",
      "longitude": "-90.06825759149775"
    }
  },
  {
    "service_request": "2023-975948",
    "request_type": "Trash/Recycling",
    "request_reason": "Request a Large Item Pick Up",
    "date_created": "2023-02-16T15:18:45.000",
    "date_modified": "2023-02-16T15:18:46.000",
    "request_status": "Pending",
    "responsible_agency": "Department of Sanitation",
    "final_address": "3314 Carondelet St",
    "address_councildis": "B",
    "status": "Assigned to Contractor",
    "contractor": "Richards Disposal",
    "rowid": "975948",
    "final_x": "3674314.37396",
    "final_y": "521970.988602",
    "longitude": "-90.0910868676804",
    "latitude": "29.929455252765287",
    "geocoded_column": {
      "latitude": "29.929455252765287",
      "longitude": "-90.0910868676804"
    }
  },
  {
    "service_request": "2023-975947",
    "request_type": "Property Maintenance",
    "request_reason": "Property Maintenance",
    "date_created": "2023-02-16T15:16:26.000",
    "date_modified": "2023-02-16T15:16:26.000",
    "request_status": "Pending",
    "responsible_agency": "Department of Code Enforcement",
    "final_address": "1922 Clouet St",
    "address_councildis": "D",
    "status": "Pending",
    "rowid": "975947",
    "final_x": "3689760.34492",
    "final_y": "539201.500362",
    "longitude": "-90.04171379902628",
    "latitude": "29.97636373081016",
    "geocoded_column": {
      "latitude": "29.97636373081016",
      "longitude": "-90.04171379902628"
    }
  },
  {
    "service_request": "2023-975946",
    "request_type": "Trash/Recycling",
    "request_reason": "Missed Trash Pick-Up",
    "date_created": "2023-02-16T15:03:32.000",
    "date_modified": "2023-02-16T16:45:31.000",
    "case_close_date": "2023-02-16T10:45:31.000",
    "request_status": "Closed",
    "responsible_agency": "Department of Sanitation",
    "final_address": "4548 Virgilian St",
    "address_councildis": "D",
    "status": "Assigned to Contractor",
    "contractor": "Waste Pro",
    "contractor_action": "Completed",
    "rowid": "975946",
    "final_x": "3697485.13059",
    "final_y": "552838.157398",
    "longitude": "-90.01682190933802",
    "latitude": "30.013617823238178",
    "geocoded_column": {
      "latitude": "30.013617823238178",
      "longitude": "-90.01682190933802"
    }
  },
  {
    "service_request": "2023-975945",
    "request_type": "Abandoned Vehicles",
    "request_reason": "Abandoned/Junk Vehicles",
    "date_created": "2023-02-16T14:59:51.000",
    "date_modified": "2023-02-16T15:01:11.000",
    "request_status": "Pending",
    "responsible_agency": "Department of Public Works",
    "final_address": "4653 Dale St",
    "address_councildis": "E",
    "status": "Pending",
    "rowid": "975945",
    "final_x": "3699555.55991",
    "final_y": "554609.126616",
    "longitude": "-90.01021586060732",
    "latitude": "30.01842174567403",
    "geocoded_column": {
      "latitude": "30.01842174567403",
      "longitude": "-90.01021586060732"
    }
  },
  {
    "service_request": "2023-975944",
    "request_type": "Health Related Request",
    "request_reason": "Noise Ordinance Complaint",
    "date_created": "2023-02-16T14:59:35.000",
    "date_modified": "2023-02-16T14:59:35.000",
    "request_status": "Pending",
    "responsible_agency": "Health Department",
    "final_address": "1116 N Roman St",
    "address_councildis": "D",
    "status": "Pending",
    "rowid": "975944",
    "final_x": "3680233.09231",
    "final_y": "536354.924743",
    "longitude": "-90.07190268800737",
    "latitude": "29.968828484559772",
    "geocoded_column": {
      "latitude": "29.968828484559772",
      "longitude": "-90.07190268800737"
    }
  },
  {
    "service_request": "2023-975943",
    "request_type": "Roads/Drainage",
    "request_reason": "Pothole",
    "date_created": "2023-02-16T14:58:22.000",
    "date_modified": "2023-02-16T14:58:23.000",
    "request_status": "Pending",
    "responsible_agency": "Department of Public Works",
    "final_address": "9137 Edinburgh St",
    "address_councildis": "A",
    "status": "Pending",
    "rowid": "975943",
    "final_x": "3664673.91994",
    "final_y": "537041.227848",
    "longitude": "-90.12101679847787",
    "latitude": "29.97117740007026",
    "geocoded_column": {
      "latitude": "29.97117740007026",
      "longitude": "-90.12101679847787"
    }
  },
  {
    "service_request": "2023-975942",
    "request_type": "Trash/Recycling",
    "request_reason": "Repair Trash Cart",
    "date_created": "2023-02-16T14:56:47.000",
    "date_modified": "2023-02-16T14:56:47.000",
    "request_status": "Pending",
    "responsible_agency": "Department of Sanitation",
    "final_address": "22 Castle Pines Dr",
    "address_councildis": "C",
    "status": "Assigned to Contractor",
    "contractor": "Richards Disposal",
    "rowid": "975942",
    "final_x": "3719320.22188",
    "final_y": "511459.388848",
    "longitude": "-89.94941422425849",
    "latitude": "29.89913375485177",
    "geocoded_column": {
      "latitude": "29.89913375485177",
      "longitude": "-89.94941422425849"
    }
  },
  {
    "service_request": "2023-975941",
    "request_type": "Abandoned Vehicles",
    "request_reason": "Abandoned/Junk Vehicles",
    "date_created": "2023-02-16T14:50:34.000",
    "date_modified": "2023-02-16T14:50:34.000",
    "request_status": "Pending",
    "responsible_agency": "Department of Public Works",
    "final_address": "5930 Eads St",
    "address_councildis": "D",
    "status": "Pending",
    "rowid": "975941",
    "final_x": "3686700.78575",
    "final_y": "555104.475481",
    "longitude": "-90.05081460875104",
    "latitude": "30.020185651475277",
    "geocoded_column": {
      "latitude": "30.020185651475277",
      "longitude": "-90.05081460875104"
    }
  },
  {
    "service_request": "2023-975940",
    "request_type": "Traffic Signals/Signs/Striping/Streetlights",
    "request_reason": "Street Light Outage/Malfunction",
    "date_created": "2023-02-16T14:50:20.000",
    "date_modified": "2023-02-16T14:50:21.000",
    "request_status": "Pending",
    "responsible_agency": "Department of Public Works",
    "final_address": "1ST ST & LAUREL ST",
    "address_councildis": "B",
    "status": "Assigned to Contractor",
    "contractor": "Legacy Professional Services",
    "rowid": "975940",
    "final_x": "3678488.5",
    "final_y": "520891.48",
    "longitude": "-90.07794725224049",
    "latitude": "29.92636186492744",
    "geocoded_column": {
      "latitude": "29.92636186492744",
      "longitude": "-90.07794725224049"
    }
  },
  {
    "service_request": "2023-975939",
    "request_type": "Abandoned Vehicles",
    "request_reason": "Abandoned/Junk Vehicles",
    "date_created": "2023-02-16T14:45:23.000",
    "date_modified": "2023-02-16T14:45:23.000",
    "request_status": "Pending",
    "responsible_agency": "Department of Public Works",
    "final_address": "3251 St Ferdinand St",
    "address_councildis": "D",
    "status": "Pending",
    "rowid": "975939",
    "final_x": "3689913.11312",
    "final_y": "544797.423055",
    "longitude": "-90.04103198660441",
    "latitude": "29.991745781806454",
    "geocoded_column": {
      "latitude": "29.991745781806454",
      "longitude": "-90.04103198660441"
    }
  },
  {
    "service_request": "2023-975937",
    "request_type": "Roads/Drainage",
    "request_reason": "Damaged Sidewalk",
    "date_created": "2023-02-16T14:35:57.000",
    "date_modified": "2023-02-16T14:35:57.000",
    "request_status": "Pending",
    "responsible_agency": "Department of Public Works",
    "final_address": "1028 Third St",
    "address_councildis": "B",
    "status": "Pending",
    "rowid": "975937",
    "final_x": "3677614.97224",
    "final_y": "521012.336889",
    "longitude": "-90.08070056398793",
    "latitude": "29.926720468644557",
    "geocoded_column": {
      "latitude": "29.926720468644557",
      "longitude": "-90.08070056398793"
    }
  },
  {
    "service_request": "2023-975936",
    "request_type": "Traffic Signals/Signs/Striping/Streetlights",
    "request_reason": "Traffic Signal Malfunctioning/Damaged",
    "date_created": "2023-02-16T14:32:31.000",
    "date_modified": "2023-02-16T14:32:31.000",
    "request_status": "Pending",
    "responsible_agency": "Department of Public Works",
    "final_address": "5700 BLK Paris Ave",
    "address_councildis": "D",
    "status": "Pending",
    "rowid": "975936",
    "final_x": "3679065.91611",
    "final_y": "553630.733077",
    "longitude": "-90.07498955449088",
    "latitude": "30.01636615678059",
    "geocoded_column": {
      "latitude": "30.01636615678059",
      "longitude": "-90.07498955449088"
    }
  },
  {
    "service_request": "2023-975935",
    "request_type": "Traffic Signals/Signs/Striping/Streetlights",
    "request_reason": "Traffic Signal Malfunctioning/Damaged",
    "date_created": "2023-02-16T14:31:45.000",
    "date_modified": "2023-02-16T14:31:46.000",
    "request_status": "Pending",
    "responsible_agency": "Department of Public Works",
    "final_address": "5400 BLK Paris Ave",
    "address_councildis": "D",
    "status": "Pending",
    "rowid": "975935",
    "final_x": "3679167.28795",
    "final_y": "552370.676542",
    "longitude": "-90.07471299423668",
    "latitude": "30.012898395104607",
    "geocoded_column": {
      "latitude": "30.012898395104607",
      "longitude": "-90.07471299423668"
    }
  },
  {
    "service_request": "2023-975934",
    "request_type": "Property Maintenance",
    "request_reason": "Property Maintenance",
    "date_created": "2023-02-16T14:31:36.000",
    "date_modified": "2023-02-16T14:31:36.000",
    "request_status": "Pending",
    "responsible_agency": "Department of Code Enforcement",
    "final_address": "2509 Memorial Park Dr",
    "address_councildis": "C",
    "status": "Pending",
    "rowid": "975934",
    "final_x": "3692667.34697",
    "final_y": "521156.961721",
    "longitude": "-90.03317930093436",
    "latitude": "29.92665709085535",
    "geocoded_column": {
      "latitude": "29.92665709085535",
      "longitude": "-90.03317930093436"
    }
  },
  {
    "service_request": "2023-975933",
    "request_type": "Abandoned Vehicles",
    "request_reason": "Abandoned/Junk Vehicles",
    "date_created": "2023-02-16T14:28:55.000",
    "date_modified": "2023-02-16T14:31:43.000",
    "request_status": "Pending",
    "responsible_agency": "Department of Public Works",
    "final_address": "1623 Joliet St",
    "address_councildis": "A",
    "status": "Pending",
    "rowid": "975933",
    "final_x": "3662007.45511",
    "final_y": "530489.45581",
    "longitude": "-90.12965525902757",
    "latitude": "29.953239464342296",
    "geocoded_column": {
      "latitude": "29.953239464342296",
      "longitude": "-90.12965525902757"
    }
  },
  {
    "service_request": "2023-975932",
    "request_type": "Trash/Recycling",
    "request_reason": "Repair Trash Cart",
    "date_created": "2023-02-16T14:22:58.000",
    "date_modified": "2023-02-16T14:22:58.000",
    "request_status": "Pending",
    "responsible_agency": "Department of Sanitation",
    "final_address": "3235 Fern St",
    "address_councildis": "B",
    "status": "Assigned to Contractor",
    "contractor": "Richards Disposal",
    "rowid": "975932",
    "final_x": "3667540.70516",
    "final_y": "533299.881156",
    "longitude": "-90.11208900124925",
    "latitude": "29.960806226088",
    "geocoded_column": {
      "latitude": "29.960806226088",
      "longitude": "-90.11208900124925"
    }
  },
  {
    "service_request": "2023-975931",
    "request_type": "Abandoned Vehicles",
    "request_reason": "Abandoned/Junk Vehicles",
    "date_created": "2023-02-16T14:19:46.000",
    "date_modified": "2023-02-16T14:19:46.000",
    "request_status": "Pending",
    "responsible_agency": "Department of Public Works",
    "final_address": "6501 Center St",
    "address_councildis": "A",
    "status": "Pending",
    "rowid": "975931",
    "final_x": "3664978.27469",
    "final_y": "551258.059285",
    "longitude": "-90.11958000212604",
    "latitude": "30.010260000674354",
    "geocoded_column": {
      "latitude": "30.010260000674354",
      "longitude": "-90.11958000212604"
    }
  },
  {
    "service_request": "2023-975930",
    "request_type": "Trash/Recycling",
    "request_reason": "Repair Trash Cart",
    "date_created": "2023-02-16T14:03:11.000",
    "date_modified": "2023-02-16T14:03:12.000",
    "request_status": "Pending",
    "responsible_agency": "Department of Sanitation",
    "final_address": "4507 Croyden Ave",
    "address_councildis": "C",
    "status": "Assigned to Contractor",
    "contractor": "Richards Disposal",
    "rowid": "975930",
    "final_x": "3702109.53245",
    "final_y": "524231.046396",
    "longitude": "-90.00326046229551",
    "latitude": "29.934811785003806",
    "geocoded_column": {
      "latitude": "29.934811785003806",
      "longitude": "-90.00326046229551"
    }
  },
  {
    "service_request": "2023-975929",
    "request_type": "Trash/Recycling",
    "request_reason": "Missed Trash Pick-Up",
    "date_created": "2023-02-16T14:02:26.000",
    "date_modified": "2023-02-16T14:02:26.000",
    "request_status": "Pending",
    "responsible_agency": "Department of Sanitation",
    "final_address": "2443 Fats Domino Ave",
    "address_councildis": "E",
    "status": "Assigned to Contractor",
    "contractor": "Waste Pro",
    "rowid": "975929",
    "final_x": "3699483.80752",
    "final_y": "538944.515146",
    "longitude": "-90.01101374320318",
    "latitude": "29.975352155701138",
    "geocoded_column": {
      "latitude": "29.975352155701138",
      "longitude": "-90.01101374320318"
    }
  },
  {
    "service_request": "2023-975928",
    "request_type": "Trash/Recycling",
    "request_reason": "Illegal Dumping",
    "date_created": "2023-02-16T14:01:48.000",
    "date_modified": "2023-02-16T14:01:49.000",
    "request_status": "Pending",
    "responsible_agency": "Department of Code Enforcement",
    "final_address": "7849 Bass St",
    "address_councildis": "E",
    "status": "Pending",
    "rowid": "975928",
    "final_x": "3719813.10796",
    "final_y": "574029.720234",
    "longitude": "-89.94546706268008",
    "latitude": "30.071161669759153",
    "geocoded_column": {
      "latitude": "30.071161669759153",
      "longitude": "-89.94546706268008"
    }
  },
  {
    "service_request": "2023-975927",
    "request_type": "Trash/Recycling",
    "request_reason": "MIssed Recycling Pick-Up",
    "date_created": "2023-02-16T14:00:52.000",
    "date_modified": "2023-02-16T14:00:53.000",
    "request_status": "Pending",
    "responsible_agency": "Department of Sanitation",
    "final_address": "1138 Josephine St, New Orleans, Louisiana, 70130",
    "address_councildis": "B",
    "status": "Assigned to Contractor",
    "contractor": "Richards Disposal",
    "rowid": "975927",
    "final_x": "3678939.07432",
    "final_y": "522549.966266",
    "longitude": "-90.0764674893942",
    "latitude": "29.930908578442235",
    "geocoded_column": {
      "latitude": "29.930908578442235",
      "longitude": "-90.0764674893942"
    }
  },
  {
    "service_request": "2023-975926",
    "request_type": "Trash/Recycling",
    "request_reason": "Request a Large Item Pick Up",
    "date_created": "2023-02-16T13:59:22.000",
    "date_modified": "2023-02-16T13:59:23.000",
    "request_status": "Pending",
    "responsible_agency": "Department of Sanitation",
    "final_address": "7849 Bass St",
    "address_councildis": "E",
    "status": "Assigned to Contractor",
    "contractor": "Waste Pro",
    "rowid": "975926",
    "final_x": "3719813.10796",
    "final_y": "574029.720234",
    "longitude": "-89.94546706268008",
    "latitude": "30.071161669759153",
    "geocoded_column": {
      "latitude": "30.071161669759153",
      "longitude": "-89.94546706268008"
    }
  },
  {
    "service_request": "2023-975925",
    "request_type": "Trash/Recycling",
    "request_reason": "Missed Trash Pick-Up",
    "date_created": "2023-02-16T13:56:05.000",
    "date_modified": "2023-02-16T13:56:06.000",
    "request_status": "Pending",
    "responsible_agency": "Department of Sanitation",
    "final_address": "6423 S Claiborne Ave",
    "address_councildis": "A",
    "status": "Assigned to Contractor",
    "contractor": "Richards Disposal",
    "rowid": "975925",
    "final_x": "3666984.97549",
    "final_y": "528449.361472",
    "longitude": "-90.11400688875564",
    "latitude": "29.947485155940623",
    "geocoded_column": {
      "latitude": "29.947485155940623",
      "longitude": "-90.11400688875564"
    }
  },
  {
    "service_request": "2023-975924",
    "request_type": "Trash/Recycling",
    "request_reason": "Repair Trash Cart",
    "date_created": "2023-02-16T13:56:03.000",
    "date_modified": "2023-02-16T13:59:34.000",
    "request_status": "Pending",
    "responsible_agency": "Department of Sanitation",
    "final_address": "2504 S Galvez St",
    "address_councildis": "B",
    "status": "Assigned to Contractor",
    "contractor": "Richards Disposal",
    "rowid": "975924",
    "final_x": "3672986.93076",
    "final_y": "528561.249728",
    "longitude": "-90.09505254324891",
    "latitude": "29.947615829170214",
    "geocoded_column": {
      "latitude": "29.947615829170214",
      "longitude": "-90.09505254324891"
    }
  },
  {
    "service_request": "2023-975923",
    "request_type": "Traffic Signals/Signs/Striping/Streetlights",
    "request_reason": "Street Light Outage/Malfunction",
    "date_created": "2023-02-16T13:54:48.000",
    "date_modified": "2023-02-16T13:54:49.000",
    "request_status": "Pending",
    "responsible_agency": "Department of Public Works",
    "final_address": "MAUMUS AVE & MANSFIELD AVE",
    "address_councildis": "C",
    "status": "Assigned to Contractor",
    "contractor": "Legacy Professional Services",
    "rowid": "975923",
    "final_x": "3708765.4",
    "final_y": "516624.38",
    "longitude": "-89.9825312741836",
    "latitude": "29.913682005266722",
    "geocoded_column": {
      "latitude": "29.913682005266722",
      "longitude": "-89.9825312741836"
    }
  },
  {
    "service_request": "2023-975922",
    "request_type": "Traffic Signals/Signs/Striping/Streetlights",
    "request_reason": "Street Light Outage/Malfunction",
    "date_created": "2023-02-16T13:53:53.000",
    "date_modified": "2023-02-16T13:53:54.000",
    "request_status": "Pending",
    "responsible_agency": "Department of Public Works",
    "final_address": "6740 Maumus Ave",
    "address_councildis": "C",
    "status": "Assigned to Contractor",
    "contractor": "Legacy Professional Services",
    "rowid": "975922",
    "final_x": "3708713.34878",
    "final_y": "516689.900021",
    "longitude": "-89.98269312520041",
    "latitude": "29.913863849711714",
    "geocoded_column": {
      "latitude": "29.913863849711714",
      "longitude": "-89.98269312520041"
    }
  },
  {
    "service_request": "2023-975921",
    "request_type": "Trash/Recycling",
    "request_reason": "Request a Large Item Pick Up",
    "date_created": "2023-02-16T13:53:15.000",
    "date_modified": "2023-02-16T13:53:16.000",
    "request_status": "Pending",
    "responsible_agency": "Department of Sanitation",
    "final_address": "6811 Louis Xiv St",
    "address_councildis": "A",
    "status": "Assigned to Contractor",
    "contractor": "IV Waste",
    "rowid": "975921",
    "final_x": "3668677.22068",
    "final_y": "552812.38479",
    "longitude": "-90.10784109222101",
    "latitude": "30.014425594623713",
    "geocoded_column": {
      "latitude": "30.014425594623713",
      "longitude": "-90.10784109222101"
    }
  },
  {
    "service_request": "2023-975920",
    "request_type": "Traffic Signals/Signs/Striping/Streetlights",
    "request_reason": "Traffic Signal Malfunctioning/Damaged",
    "date_created": "2023-02-16T13:52:32.000",
    "date_modified": "2023-02-16T13:52:32.000",
    "request_status": "Pending",
    "responsible_agency": "Department of Public Works",
    "final_address": "231 Burgundy St",
    "address_councildis": "C",
    "status": "Pending",
    "rowid": "975920",
    "final_x": "3680736.97346",
    "final_y": "531903.959171",
    "longitude": "-90.07046632117634",
    "latitude": "29.956574585743887",
    "geocoded_column": {
      "latitude": "29.956574585743887",
      "longitude": "-90.07046632117634"
    }
  },
  {
    "service_request": "2023-975919",
    "request_type": "Trash/Recycling",
    "request_reason": "Illegal Dumping",
    "date_created": "2023-02-16T13:52:28.000",
    "date_modified": "2023-02-16T13:52:29.000",
    "request_status": "Pending",
    "responsible_agency": "Department of Sanitation",
    "final_address": "4019 Erato St",
    "address_councildis": "B",
    "status": "Pending",
    "rowid": "975919",
    "final_x": "3671605.62855",
    "final_y": "531116.137602",
    "longitude": "-90.09932698897069",
    "latitude": "29.9546819026717",
    "geocoded_column": {
      "latitude": "29.9546819026717",
      "longitude": "-90.09932698897069"
    }
  },
  {
    "service_request": "2023-975918",
    "request_type": "Property Maintenance",
    "request_reason": "Property Maintenance",
    "date_created": "2023-02-16T13:52:13.000",
    "date_modified": "2023-02-16T13:52:13.000",
    "request_status": "Pending",
    "responsible_agency": "Department of Code Enforcement",
    "final_address": "3319 River Oaks Dr",
    "address_councildis": "C",
    "status": "Pending",
    "rowid": "975918",
    "final_x": "3701366.72061",
    "final_y": "518911.889143",
    "longitude": "-90.00580004444589",
    "latitude": "29.920209629428804",
    "geocoded_column": {
      "latitude": "29.920209629428804",
      "longitude": "-90.00580004444589"
    }
  },
  {
    "service_request": "2023-975917",
    "request_type": "Trash/Recycling",
    "request_reason": "Order Trash Cart",
    "date_created": "2023-02-16T13:50:18.000",
    "date_modified": "2023-02-16T13:50:18.000",
    "request_status": "Pending",
    "responsible_agency": "Department of Sanitation",
    "final_address": "1246 Delery St",
    "address_councildis": "E",
    "status": "Assigned to Contractor",
    "contractor": "Waste Pro",
    "rowid": "975917",
    "final_x": "3700651.80849",
    "final_y": "533584.136005",
    "longitude": "-90.00752079243654",
    "latitude": "29.960575930583904",
    "geocoded_column": {
      "latitude": "29.960575930583904",
      "longitude": "-90.00752079243654"
    }
  },
  {
    "service_request": "2023-975916",
    "request_type": "Trash/Recycling",
    "request_reason": "Request a Large Item Pick Up",
    "date_created": "2023-02-16T13:49:26.000",
    "date_modified": "2023-02-16T13:49:27.000",
    "request_status": "Pending",
    "responsible_agency": "Department of Sanitation",
    "final_address": "1129 Fourth St",
    "address_councildis": "B",
    "status": "Assigned to Contractor",
    "contractor": "Richards Disposal",
    "rowid": "975916",
    "final_x": "3677227.54971",
    "final_y": "521221.942329",
    "longitude": "-90.08191632658591",
    "latitude": "29.927308455509323",
    "geocoded_column": {
      "latitude": "29.927308455509323",
      "longitude": "-90.08191632658591"
    }
  },
  {
    "service_request": "2023-975915",
    "request_type": "Traffic Signals/Signs/Striping/Streetlights",
    "request_reason": "Street Light Outage/Malfunction",
    "date_created": "2023-02-16T13:47:42.000",
    "date_modified": "2023-02-16T13:47:43.000",
    "request_status": "Pending",
    "responsible_agency": "Department of Public Works",
    "final_address": "1024 Bienville St",
    "address_councildis": "C",
    "status": "Assigned to Contractor",
    "contractor": "Legacy Professional Services",
    "rowid": "975915",
    "final_x": "3680624.46837",
    "final_y": "532044.966147",
    "longitude": "-90.07081666950155",
    "latitude": "29.956965716124497",
    "geocoded_column": {
      "latitude": "29.956965716124497",
      "longitude": "-90.07081666950155"
    }
  },
  {
    "service_request": "2023-975914",
    "request_type": "Traffic Signals/Signs/Striping/Streetlights",
    "request_reason": "Traffic Sign Missing/Damaged",
    "date_created": "2023-02-16T13:47:20.000",
    "date_modified": "2023-02-16T13:47:20.000",
    "request_status": "Pending",
    "responsible_agency": "Department of Public Works",
    "final_address": "COMMERCE ST & GIROD ST",
    "address_councildis": "B",
    "status": "Pending",
    "rowid": "975914",
    "final_x": "3682002.2",
    "final_y": "528186.58",
    "longitude": "-90.0666009186683",
    "latitude": "29.946314646117408",
    "geocoded_column": {
      "latitude": "29.946314646117408",
      "longitude": "-90.0666009186683"
    }
  },
  {
    "service_request": "2023-975913",
    "request_type": "Traffic Signals/Signs/Striping/Streetlights",
    "request_reason": "Street Light Outage/Malfunction",
    "date_created": "2023-02-16T13:45:52.000",
    "date_modified": "2023-02-16T13:45:53.000",
    "request_status": "Pending",
    "responsible_agency": "Department of Public Works",
    "final_address": "7050 E Renaissance Ct",
    "address_councildis": "E",
    "status": "Assigned to Contractor",
    "contractor": "Legacy Professional Services",
    "rowid": "975913",
    "final_x": "3717417.67768",
    "final_y": "567522.681444",
    "longitude": "-89.95328740627944",
    "latitude": "30.05334958110673",
    "geocoded_column": {
      "latitude": "30.05334958110673",
      "longitude": "-89.95328740627944"
    }
  },
  {
    "service_request": "2023-975912",
    "request_type": "Roads/Drainage",
    "request_reason": "Accessibility Ramps, Curbs and Sidewalk Repair",
    "date_created": "2023-02-16T13:44:37.000",
    "date_modified": "2023-02-16T13:44:37.000",
    "request_status": "Pending",
    "responsible_agency": "Department of Public Works",
    "final_address": "7812 Hickman St",
    "address_councildis": "E",
    "status": "Pending",
    "rowid": "975912",
    "final_x": "3705788.56913",
    "final_y": "563807.772513",
    "longitude": "-89.99018131766108",
    "latitude": "30.043515048904457",
    "geocoded_column": {
      "latitude": "30.043515048904457",
      "longitude": "-89.99018131766108"
    }
  },
  {
    "service_request": "2023-975911",
    "request_type": "Trash/Recycling",
    "request_reason": "Return Recycling Cart",
    "date_created": "2023-02-16T13:42:26.000",
    "date_modified": "2023-02-16T13:42:26.000",
    "request_status": "Pending",
    "responsible_agency": "Department of Sanitation",
    "final_address": "2429 Napoleon Ave",
    "address_councildis": "B",
    "status": "Pending",
    "rowid": "975911",
    "final_x": "3670642.07444",
    "final_y": "523952.882172",
    "longitude": "-90.10261247242894",
    "latitude": "29.935013784163818",
    "geocoded_column": {
      "latitude": "29.935013784163818",
      "longitude": "-90.10261247242894"
    }
  },
  {
    "service_request": "2023-975910",
    "request_type": "Trash/Recycling",
    "request_reason": "Request a Large Item Pick Up",
    "date_created": "2023-02-16T13:41:56.000",
    "date_modified": "2023-02-16T13:43:19.000",
    "request_status": "Pending",
    "responsible_agency": "Department of Sanitation",
    "final_address": "1328 Horace St",
    "address_councildis": "C",
    "status": "Assigned to Contractor",
    "contractor": "Richards Disposal",
    "rowid": "975910",
    "final_x": "3696410.66544",
    "final_y": "526464.479806",
    "longitude": "-90.02117086389296",
    "latitude": "29.94113362012666",
    "geocoded_column": {
      "latitude": "29.94113362012666",
      "longitude": "-90.02117086389296"
    }
  },
  {
    "service_request": "2023-975909",
    "request_type": "Trash/Recycling",
    "request_reason": "MIssed Recycling Pick-Up",
    "date_created": "2023-02-16T13:39:18.000",
    "date_modified": "2023-02-16T13:39:19.000",
    "request_status": "Pending",
    "responsible_agency": "Department of Sanitation",
    "final_address": "5411 Marais St",
    "address_councildis": "E",
    "status": "Assigned to Contractor",
    "contractor": "Waste Pro",
    "rowid": "975909",
    "final_x": "3697396.18288",
    "final_y": "534329.577605",
    "longitude": "-90.01777432509826",
    "latitude": "29.962728807486187",
    "geocoded_column": {
      "latitude": "29.962728807486187",
      "longitude": "-90.01777432509826"
    }
  },
  {
    "service_request": "2023-975908",
    "request_type": "Parks & Parkways",
    "request_reason": "Request Tree Service (Right of Way/Public Property)",
    "date_created": "2023-02-16T13:35:46.000",
    "date_modified": "2023-02-16T13:35:47.000",
    "request_status": "Pending",
    "responsible_agency": "Department of Parks & Parkway",
    "final_address": "1766 Pressburg Dr",
    "address_councildis": "D",
    "status": "Pending",
    "rowid": "975908",
    "final_x": "3680183.32795",
    "final_y": "554099.3942",
    "longitude": "-90.07144271048746",
    "latitude": "30.017621015883357",
    "geocoded_column": {
      "latitude": "30.017621015883357",
      "longitude": "-90.07144271048746"
    }
  },
  {
    "service_request": "2023-975907",
    "request_type": "Trash/Recycling",
    "request_reason": "Missed Trash Pick-Up",
    "date_created": "2023-02-16T13:29:55.000",
    "date_modified": "2023-02-16T13:29:55.000",
    "request_status": "Pending",
    "responsible_agency": "Department of Sanitation",
    "final_address": "4141 Orleans Ave",
    "address_councildis": "A",
    "status": "Assigned to Contractor",
    "contractor": "Richards Disposal",
    "rowid": "975907",
    "final_x": "3672370.0779",
    "final_y": "540530.536843",
    "longitude": "-90.09659229465717",
    "latitude": "29.980545675684755",
    "geocoded_column": {
      "latitude": "29.980545675684755",
      "longitude": "-90.09659229465717"
    }
  },
  {
    "service_request": "2023-975906",
    "request_type": "Trash/Recycling",
    "request_reason": "Request a Large Item Pick Up",
    "date_created": "2023-02-16T13:28:12.000",
    "date_modified": "2023-02-16T13:28:13.000",
    "request_status": "Pending",
    "responsible_agency": "Department of Sanitation",
    "final_address": "5623 Woodlawn Pl",
    "address_councildis": "A",
    "status": "Assigned to Contractor",
    "contractor": "IV Waste",
    "rowid": "975906",
    "final_x": "3667591.90593",
    "final_y": "544926.973839",
    "longitude": "-90.11153581790323",
    "latitude": "29.992775323342922",
    "geocoded_column": {
      "latitude": "29.992775323342922",
      "longitude": "-90.11153581790323"
    }
  },
  {
    "service_request": "2023-975905",
    "request_type": "Roads/Drainage",
    "request_reason": "Pothole",
    "date_created": "2023-02-16T13:24:54.000",
    "date_modified": "2023-02-16T13:24:54.000",
    "request_status": "Pending",
    "responsible_agency": "Department of Public Works",
    "final_address": "1732 Seventh St",
    "address_councildis": "B",
    "status": "Pending",
    "rowid": "975905",
    "final_x": "3674835.52245",
    "final_y": "522642.241722",
    "longitude": "-90.08941869160259",
    "latitude": "29.931285435409297",
    "geocoded_column": {
      "latitude": "29.931285435409297",
      "longitude": "-90.08941869160259"
    }
  },
  {
    "service_request": "2023-975904",
    "request_type": "Trash/Recycling",
    "request_reason": "Order Trash Cart",
    "date_created": "2023-02-16T13:21:50.000",
    "date_modified": "2023-02-16T13:21:50.000",
    "request_status": "Pending",
    "responsible_agency": "Department of Sanitation",
    "final_address": "3238 Metropolitan St",
    "address_councildis": "D",
    "status": "Assigned to Contractor",
    "contractor": "IV Waste",
    "rowid": "975904",
    "final_x": "3691394.68176",
    "final_y": "544538.528079",
    "longitude": "-90.03636130047714",
    "latitude": "29.990987886102893",
    "geocoded_column": {
      "latitude": "29.990987886102893",
      "longitude": "-90.03636130047714"
    }
  },
  {
    "service_request": "2023-975903",
    "request_type": "Abandoned Vehicles",
    "request_reason": "Abandoned/Junk Vehicles",
    "date_created": "2023-02-16T13:20:24.000",
    "date_modified": "2023-02-16T13:20:24.000",
    "request_status": "Pending",
    "responsible_agency": "Department of Public Works",
    "final_address": "N SALCEDO ST & ORLEANS AVE",
    "address_councildis": "A",
    "status": "Pending",
    "rowid": "975903",
    "final_x": "3675534.2",
    "final_y": "537989.28",
    "longitude": "-90.08668594201178",
    "latitude": "29.973463806049445",
    "geocoded_column": {
      "latitude": "29.973463806049445",
      "longitude": "-90.08668594201178"
    }
  },
  {
    "service_request": "2023-975902",
    "request_type": "Trash/Recycling",
    "request_reason": "Missed Trash Pick-Up",
    "date_created": "2023-02-16T13:19:52.000",
    "date_modified": "2023-02-16T13:19:53.000",
    "request_status": "Pending",
    "responsible_agency": "Department of Sanitation",
    "final_address": "4408 Majestic Oaks Dr",
    "address_councildis": "D",
    "status": "Assigned to Contractor",
    "contractor": "Waste Pro",
    "rowid": "975902",
    "final_x": "3697807.86",
    "final_y": "552519.723798",
    "longitude": "-90.01581382631223",
    "latitude": "30.01273205116139",
    "geocoded_column": {
      "latitude": "30.01273205116139",
      "longitude": "-90.01581382631223"
    }
  },
  {
    "service_request": "2023-975901",
    "request_type": "Abandoned Vehicles",
    "request_reason": "Abandoned/Junk Vehicles",
    "date_created": "2023-02-16T13:13:13.000",
    "date_modified": "2023-02-16T13:16:36.000",
    "request_status": "Pending",
    "responsible_agency": "Department of Public Works",
    "final_address": "1700 BLK Saint Philip St",
    "address_councildis": "D",
    "status": "Pending",
    "rowid": "975901",
    "final_x": "3680271.42354",
    "final_y": "535624.405573",
    "longitude": "-90.07180703510454",
    "latitude": "29.966818646939295",
    "geocoded_column": {
      "latitude": "29.966818646939295",
      "longitude": "-90.07180703510454"
    }
  },
  {
    "service_request": "2023-975900",
    "request_type": "Roads/Drainage",
    "request_reason": "Pothole",
    "date_created": "2023-02-16T13:11:10.000",
    "date_modified": "2023-02-16T13:11:30.000",
    "case_close_date": "2023-02-16T07:11:30.000",
    "request_status": "Closed",
    "responsible_agency": "Department of Public Works",
    "final_address": "2260 S Roman St",
    "address_councildis": "B",
    "status": "Resolved",
    "rowid": "975900",
    "final_x": "3674250.85294",
    "final_y": "528265.024192",
    "longitude": "-90.09107198134143",
    "latitude": "29.94676368875865",
    "geocoded_column": {
      "latitude": "29.94676368875865",
      "longitude": "-90.09107198134143"
    }
  },
  {
    "service_request": "2023-975898",
    "request_type": "Trash/Recycling",
    "request_reason": "Order Trash Cart",
    "date_created": "2023-02-16T13:08:20.000",
    "date_modified": "2023-02-16T13:08:20.000",
    "request_status": "Pending",
    "responsible_agency": "Department of Sanitation",
    "final_address": "2531 N Miro St",
    "address_councildis": "D",
    "status": "Assigned to Contractor",
    "contractor": "IV Waste",
    "rowid": "975898",
    "final_x": "3687142.88374",
    "final_y": "540593.015051",
    "longitude": "-90.04993128314851",
    "latitude": "29.980270773196143",
    "geocoded_column": {
      "latitude": "29.980270773196143",
      "longitude": "-90.04993128314851"
    }
  },
  {
    "service_request": "2023-975897",
    "request_type": "Trash/Recycling",
    "request_reason": "Order Trash Cart",
    "date_created": "2023-02-16T13:07:14.000",
    "date_modified": "2023-02-16T13:07:14.000",
    "request_status": "Pending",
    "responsible_agency": "Department of Sanitation",
    "final_address": "2529 N Miro St",
    "address_councildis": "D",
    "status": "Assigned to Contractor",
    "contractor": "IV Waste",
    "rowid": "975897",
    "final_x": "3687125.86985",
    "final_y": "540592.667787",
    "longitude": "-90.04998503238134",
    "latitude": "29.98027034231803",
    "geocoded_column": {
      "latitude": "29.98027034231803",
      "longitude": "-90.04998503238134"
    }
  },
  {
    "service_request": "2023-975896",
    "request_type": "Trash/Recycling",
    "request_reason": "Request a Large Item Pick Up",
    "date_created": "2023-02-16T13:01:56.000",
    "date_modified": "2023-02-16T13:01:57.000",
    "request_status": "Pending",
    "responsible_agency": "Department of Sanitation",
    "final_address": "3709 Dumaine St",
    "address_councildis": "A",
    "status": "Assigned to Contractor",
    "contractor": "Richards Disposal",
    "rowid": "975896",
    "final_x": "3674021.0818",
    "final_y": "539971.030155",
    "longitude": "-90.0913968554771",
    "latitude": "29.978958122292486",
    "geocoded_column": {
      "latitude": "29.978958122292486",
      "longitude": "-90.0913968554771"
    }
  },
  {
    "service_request": "2023-975895",
    "request_type": "Abandoned Vehicles",
    "request_reason": "Abandoned/Junk Vehicles",
    "date_created": "2023-02-16T12:57:08.000",
    "date_modified": "2023-02-16T13:02:05.000",
    "request_status": "Pending",
    "responsible_agency": "Department of Public Works",
    "final_address": "11030 Guildford Rd",
    "address_councildis": "E",
    "status": "Pending",
    "rowid": "975895",
    "final_x": "3711806.23915",
    "final_y": "564157.847713",
    "longitude": "-89.9711499511847",
    "latitude": "30.044282286320033",
    "geocoded_column": {
      "latitude": "30.044282286320033",
      "longitude": "-89.9711499511847"
    }
  },
  {
    "service_request": "2023-975894",
    "request_type": "Property Maintenance",
    "request_reason": "Property Maintenance",
    "date_created": "2023-02-16T12:54:02.000",
    "date_modified": "2023-02-16T12:54:02.000",
    "request_status": "Pending",
    "responsible_agency": "Department of Code Enforcement",
    "final_address": "910 Thayer St",
    "address_councildis": "C",
    "status": "Pending",
    "rowid": "975894",
    "final_x": "3689500.17283",
    "final_y": "528176.532672",
    "longitude": "-90.04292763018692",
    "latitude": "29.946056968647405",
    "geocoded_column": {
      "latitude": "29.946056968647405",
      "longitude": "-90.04292763018692"
    }
  },
  {
    "service_request": "2023-975893",
    "request_type": "Trash/Recycling",
    "request_reason": "Repair Trash Cart",
    "date_created": "2023-02-16T12:53:30.000",
    "date_modified": "2023-02-16T12:53:31.000",
    "request_status": "Pending",
    "responsible_agency": "Department of Sanitation",
    "final_address": "2812 OReilly St",
    "address_councildis": "D",
    "status": "Assigned to Contractor",
    "contractor": "IV Waste",
    "rowid": "975893",
    "final_x": "3679293.66632",
    "final_y": "541813.856332",
    "longitude": "-90.07468008364617",
    "latitude": "29.98386706410342",
    "geocoded_column": {
      "latitude": "29.98386706410342",
      "longitude": "-90.07468008364617"
    }
  },
  {
    "service_request": "2023-975892",
    "request_type": "Trash/Recycling",
    "request_reason": "Missed Trash Pick-Up",
    "date_created": "2023-02-16T12:50:25.000",
    "date_modified": "2023-02-16T12:50:26.000",
    "request_status": "Pending",
    "responsible_agency": "Department of Sanitation",
    "final_address": "4522 Croyden Ave",
    "address_councildis": "C",
    "status": "Assigned to Contractor",
    "contractor": "Richards Disposal",
    "rowid": "975892",
    "final_x": "3702267.37002",
    "final_y": "524062.499708",
    "longitude": "-90.00276835373344",
    "latitude": "29.934343301698224",
    "geocoded_column": {
      "latitude": "29.934343301698224",
      "longitude": "-90.00276835373344"
    }
  },
  {
    "service_request": "2023-975891",
    "request_type": "Trash/Recycling",
    "request_reason": "Order Recycling Cart",
    "date_created": "2023-02-16T12:50:11.000",
    "date_modified": "2023-02-16T12:50:11.000",
    "request_status": "Pending",
    "responsible_agency": "Department of Sanitation",
    "final_address": "718 St Maurice Ave",
    "address_councildis": "E",
    "status": "Pending",
    "rowid": "975891",
    "final_x": "3699241.03709",
    "final_y": "531988.659651",
    "longitude": "-90.01203379630331",
    "latitude": "29.956233746339123",
    "geocoded_column": {
      "latitude": "29.956233746339123",
      "longitude": "-90.01203379630331"
    }
  },
  {
    "service_request": "2023-975890",
    "request_type": "Trash/Recycling",
    "request_reason": "Missed Trash Pick-Up",
    "date_created": "2023-02-16T12:49:36.000",
    "date_modified": "2023-02-16T12:49:37.000",
    "request_status": "Pending",
    "responsible_agency": "Department of Sanitation",
    "final_address": "4527 Croyden Ave",
    "address_councildis": "C",
    "status": "Assigned to Contractor",
    "contractor": "Richards Disposal",
    "rowid": "975890",
    "final_x": "3702189.13937",
    "final_y": "523964.281852",
    "longitude": "-90.00301892373895",
    "latitude": "29.934075734489756",
    "geocoded_column": {
      "latitude": "29.934075734489756",
      "longitude": "-90.00301892373895"
    }
  },
  {
    "service_request": "2023-975889",
    "request_type": "Trash/Recycling",
    "request_reason": "MIssed Recycling Pick-Up",
    "date_created": "2023-02-16T12:49:12.000",
    "date_modified": "2023-02-16T12:49:13.000",
    "request_status": "Pending",
    "responsible_agency": "Department of Sanitation",
    "final_address": "5165 Lafaye St",
    "address_councildis": "D",
    "status": "Assigned to Contractor",
    "contractor": "IV Waste",
    "rowid": "975889",
    "final_x": "3687367.94089",
    "final_y": "552085.447638",
    "longitude": "-90.04881354874911",
    "latitude": "30.01186388888551",
    "geocoded_column": {
      "latitude": "30.01186388888551",
      "longitude": "-90.04881354874911"
    }
  },
  {
    "service_request": "2023-975888",
    "request_type": "Trash/Recycling",
    "request_reason": "Illegal Dumping",
    "date_created": "2023-02-16T12:47:45.000",
    "date_modified": "2023-02-16T12:47:46.000",
    "request_status": "Pending",
    "responsible_agency": "Department of Sanitation",
    "final_address": "21420 Chef Menteur Hwy",
    "address_councildis": "E",
    "status": "Pending",
    "rowid": "975888",
    "final_x": "3767315.1242",
    "final_y": "575774.110572",
    "longitude": "-89.79522914097645",
    "latitude": "30.0742903493145",
    "geocoded_column": {
      "latitude": "30.0742903493145",
      "longitude": "-89.79522914097645"
    }
  },
  {
    "service_request": "2023-975887",
    "request_type": "Trash/Recycling",
    "request_reason": "Request a Large Item Pick Up",
    "date_created": "2023-02-16T12:37:08.000",
    "date_modified": "2023-02-16T12:37:08.000",
    "request_status": "Pending",
    "responsible_agency": "Department of Sanitation",
    "final_address": "3001 Baudin St",
    "address_councildis": "B",
    "status": "Assigned to Contractor",
    "contractor": "Richards Disposal",
    "rowid": "975887",
    "final_x": "3673368.1138",
    "final_y": "534636.603654",
    "longitude": "-90.09364146318771",
    "latitude": "29.964309699870952",
    "geocoded_column": {
      "latitude": "29.964309699870952",
      "longitude": "-90.09364146318771"
    }
  },
  {
    "service_request": "2023-975886",
    "request_type": "Trash/Recycling",
    "request_reason": "Request a Large Item Pick Up",
    "date_created": "2023-02-16T12:28:54.000",
    "date_modified": "2023-02-16T12:28:54.000",
    "request_status": "Pending",
    "responsible_agency": "Department of Sanitation",
    "final_address": "4971 Desire Dr",
    "address_councildis": "D",
    "status": "Assigned to Contractor",
    "contractor": "IV Waste",
    "rowid": "975886",
    "final_x": "3691588.39203",
    "final_y": "552448.850454",
    "longitude": "-90.03546639818323",
    "latitude": "30.01273234458771",
    "geocoded_column": {
      "latitude": "30.01273234458771",
      "longitude": "-90.03546639818323"
    }
  },
  {
    "service_request": "2023-975885",
    "request_type": "Traffic Signals/Signs/Striping/Streetlights",
    "request_reason": "Street Light Outage/Malfunction",
    "date_created": "2023-02-16T12:27:14.000",
    "date_modified": "2023-02-16T12:27:15.000",
    "request_status": "Pending",
    "responsible_agency": "Department of Public Works",
    "final_address": "1514 N Roman St",
    "address_councildis": "D",
    "status": "Assigned to Contractor",
    "contractor": "Legacy Professional Services",
    "rowid": "975885",
    "final_x": "3681269.54888",
    "final_y": "537712.634568",
    "longitude": "-90.06858216920662",
    "latitude": "29.972530303809215",
    "geocoded_column": {
      "latitude": "29.972530303809215",
      "longitude": "-90.06858216920662"
    }
  },
  {
    "service_request": "2023-975884",
    "request_type": "Trash/Recycling",
    "request_reason": "Missed Trash Pick-Up",
    "date_created": "2023-02-16T12:22:36.000",
    "date_modified": "2023-02-16T12:22:37.000",
    "request_status": "Pending",
    "responsible_agency": "Department of Sanitation",
    "final_address": "3900 BLK Iberville St",
    "address_councildis": "A",
    "status": "Assigned to Contractor",
    "contractor": "Richards Disposal",
    "rowid": "975884",
    "final_x": "3671890.91602",
    "final_y": "538282.54002",
    "longitude": "-90.0981822341601",
    "latitude": "29.974378660005364",
    "geocoded_column": {
      "latitude": "29.974378660005364",
      "longitude": "-90.0981822341601"
    }
  },
  {
    "service_request": "2023-975882",
    "request_type": "Trash/Recycling",
    "request_reason": "Order Recycling Cart",
    "date_created": "2023-02-16T12:18:31.000",
    "date_modified": "2023-02-16T12:18:33.000",
    "request_status": "Pending",
    "responsible_agency": "Department of Sanitation",
    "final_address": "2160 Lafreniere St",
    "address_councildis": "D",
    "status": "Pending",
    "rowid": "975882",
    "final_x": "3683997.65461",
    "final_y": "545437.30888",
    "longitude": "-90.05969516769102",
    "latitude": "29.993687358330913",
    "geocoded_column": {
      "latitude": "29.993687358330913",
      "longitude": "-90.05969516769102"
    }
  },
  {
    "service_request": "2023-975881",
    "request_type": "Mosquito, Termite & Rodent Control",
    "request_reason": "Rodent Complaint (Rats)",
    "date_created": "2023-02-16T12:17:54.000",
    "date_modified": "2023-02-16T12:17:55.000",
    "request_status": "Pending",
    "responsible_agency": "Mosquito, Termite & Rodent Control Board",
    "final_address": "4004 Virgil Blvd",
    "address_councildis": "D",
    "status": "Pending",
    "rowid": "975881",
    "final_x": "3679839.26939",
    "final_y": "547141.875345",
    "longitude": "-90.07277163966877",
    "latitude": "29.998500750909077",
    "geocoded_column": {
      "latitude": "29.998500750909077",
      "longitude": "-90.07277163966877"
    }
  },
  {
    "service_request": "2023-975880",
    "request_type": "Abandoned Vehicles",
    "request_reason": "Abandoned/Junk Vehicles",
    "date_created": "2023-02-16T12:17:17.000",
    "date_modified": "2023-02-16T12:17:17.000",
    "request_status": "Pending",
    "responsible_agency": "Department of Public Works",
    "final_address": "4233 Buchanan St",
    "address_councildis": "D",
    "status": "Pending",
    "rowid": "975880",
    "final_x": "3677335.03637",
    "final_y": "547846.896082",
    "longitude": "-90.08065817113543",
    "latitude": "30.000514822685073",
    "geocoded_column": {
      "latitude": "30.000514822685073",
      "longitude": "-90.08065817113543"
    }
  },
  {
    "service_request": "2023-975879",
    "request_type": "Trash/Recycling",
    "request_reason": "Repair Trash Cart",
    "date_created": "2023-02-16T12:10:47.000",
    "date_modified": "2023-02-16T12:10:48.000",
    "request_status": "Pending",
    "responsible_agency": "Department of Sanitation",
    "final_address": "3938 Hollygrove St",
    "address_councildis": "A",
    "status": "Assigned to Contractor",
    "contractor": "Richards Disposal",
    "rowid": "975879",
    "final_x": "3666258.29402",
    "final_y": "537869.462537",
    "longitude": "-90.11598532095563",
    "latitude": "29.973408582117568",
    "geocoded_column": {
      "latitude": "29.973408582117568",
      "longitude": "-90.11598532095563"
    }
  },
  {
    "service_request": "2023-975878",
    "request_type": "Trash/Recycling",
    "request_reason": "Repair Trash Cart",
    "date_created": "2023-02-16T12:09:26.000",
    "date_modified": "2023-02-16T12:09:27.000",
    "request_status": "Pending",
    "responsible_agency": "Department of Sanitation",
    "final_address": "518 Peniston St",
    "address_councildis": "B",
    "status": "Assigned to Contractor",
    "contractor": "Richards Disposal",
    "rowid": "975878",
    "final_x": "3673635.57492",
    "final_y": "517886.086966",
    "longitude": "-90.09336926065487",
    "latitude": "29.91824330166899",
    "geocoded_column": {
      "latitude": "29.91824330166899",
      "longitude": "-90.09336926065487"
    }
  },
  {
    "service_request": "2023-975877",
    "request_type": "Trash/Recycling",
    "request_reason": "Repair Trash Cart",
    "date_created": "2023-02-16T12:08:08.000",
    "date_modified": "2023-02-16T12:13:11.000",
    "request_status": "Pending",
    "responsible_agency": "Department of Sanitation",
    "final_address": "3936 Hollygrove St",
    "address_councildis": "A",
    "status": "Assigned to Contractor",
    "contractor": "Richards Disposal",
    "rowid": "975877",
    "final_x": "3666251.07207",
    "final_y": "537859.983817",
    "longitude": "-90.11600844748884",
    "latitude": "29.97338272976884",
    "geocoded_column": {
      "latitude": "29.97338272976884",
      "longitude": "-90.11600844748884"
    }
  },
  {
    "service_request": "2023-975876",
    "request_type": "Trash/Recycling",
    "request_reason": "Repair Trash Cart",
    "date_created": "2023-02-16T12:07:25.000",
    "date_modified": "2023-02-16T12:11:13.000",
    "request_status": "Pending",
    "responsible_agency": "Department of Sanitation",
    "final_address": "3918 Hollygrove St",
    "address_councildis": "A",
    "status": "Assigned to Contractor",
    "contractor": "Richards Disposal",
    "rowid": "975876",
    "final_x": "3666159.49172",
    "final_y": "537758.29684",
    "longitude": "-90.11630108924052",
    "latitude": "29.973105799413787",
    "geocoded_column": {
      "latitude": "29.973105799413787",
      "longitude": "-90.11630108924052"
    }
  },
  {
    "service_request": "2023-975875",
    "request_type": "Trash/Recycling",
    "request_reason": "Missed Trash Pick-Up",
    "date_created": "2023-02-16T12:03:09.000",
    "date_modified": "2023-02-16T12:03:09.000",
    "request_status": "Pending",
    "responsible_agency": "Department of Sanitation",
    "final_address": "7826 Berg Rd",
    "address_councildis": "E",
    "status": "Assigned to Contractor",
    "contractor": "Waste Pro",
    "rowid": "975875",
    "final_x": "3711458.06731",
    "final_y": "567401.766116",
    "longitude": "-89.97212852877773",
    "latitude": "30.05321312595589",
    "geocoded_column": {
      "latitude": "30.05321312595589",
      "longitude": "-89.97212852877773"
    }
  },
  {
    "service_request": "2023-975874",
    "request_type": "Trash/Recycling",
    "request_reason": "Request a Large Item Pick Up",
    "date_created": "2023-02-16T12:00:05.000",
    "date_modified": "2023-02-16T12:00:06.000",
    "request_status": "Pending",
    "responsible_agency": "Department of Sanitation",
    "final_address": "300 BLK Eleonore St",
    "address_councildis": "A",
    "status": "Assigned to Contractor",
    "contractor": "Richards Disposal",
    "rowid": "975874",
    "final_x": "3664922.19308",
    "final_y": "517692.964402",
    "longitude": "-90.12087928330985",
    "latitude": "29.917968670259818",
    "geocoded_column": {
      "latitude": "29.917968670259818",
      "longitude": "-90.12087928330985"
    }
  },
  {
    "service_request": "2023-975873",
    "request_type": "Trash/Recycling",
    "request_reason": "Replace Trash Cart",
    "date_created": "2023-02-16T11:55:01.000",
    "date_modified": "2023-02-16T11:55:01.000",
    "request_status": "Pending",
    "responsible_agency": "Department of Sanitation",
    "final_address": "1000 Bourbon St Unit 2",
    "address_councildis": "C",
    "status": "Assigned to Contractor",
    "contractor": "Empire Services",
    "rowid": "975873",
    "final_x": "3682999.40181",
    "final_y": "533582.553861",
    "longitude": "-90.06326356703259",
    "latitude": "29.96112139113478",
    "geocoded_column": {
      "latitude": "29.96112139113478",
      "longitude": "-90.06326356703259"
    }
  },
  {
    "service_request": "2023-975872",
    "request_type": "Trash/Recycling",
    "request_reason": "Missed Trash Pick-Up",
    "date_created": "2023-02-16T11:52:26.000",
    "date_modified": "2023-02-16T11:52:28.000",
    "request_status": "Pending",
    "responsible_agency": "Department of Sanitation",
    "final_address": "11003 Curran Rd",
    "address_councildis": "E",
    "status": "Assigned to Contractor",
    "contractor": "Waste Pro",
    "rowid": "975872",
    "final_x": "3710409.14174",
    "final_y": "566142.004579",
    "longitude": "-89.97549105638917",
    "latitude": "30.04978351226466",
    "geocoded_column": {
      "latitude": "30.04978351226466",
      "longitude": "-89.97549105638917"
    }
  },
  {
    "service_request": "2023-975870",
    "request_type": "Trash/Recycling",
    "request_reason": "Illegal Dumping",
    "date_created": "2023-02-16T11:48:41.000",
    "date_modified": "2023-02-16T11:48:41.000",
    "request_status": "Pending",
    "responsible_agency": "Department of Sanitation",
    "final_address": "2435 Philip St",
    "address_councildis": "B",
    "status": "Pending",
    "rowid": "975870",
    "final_x": "3675378.77019",
    "final_y": "526079.105726",
    "longitude": "-90.08758576742963",
    "latitude": "29.940719461391886",
    "geocoded_column": {
      "latitude": "29.940719461391886",
      "longitude": "-90.08758576742963"
    }
  },