[
  {
    "service_request": "2026-1282805",
    "request_type": "Trash/Recycling",
    "request_reason": "Replace Trash Cart",
    "date_created": "2026-05-19T23:53:19.000",
    "date_modified": "2026-05-19T23:53:21.000",
    "request_status": "Pending",
    "responsible_agency": "Department of Sanitation",
    "final_address": "620 S Alexander St",
    "address_councildis": "A",
    "status": "Assigned to Contractor",
    "contractor": "IV Waste",
    "rowid": "1282805",
    "final_x": "3668715.92961",
    "final_y": "537428.547912",
    "longitude": "-90.10823846337935",
    "latitude": "29.97212419205359",
    "geocoded_column": {
      "latitude": "29.97212419205359",
      "longitude": "-90.10823846337935"
    }
  },
  {
    "service_request": "2026-1282804",
    "request_type": "Trash/Recycling",
    "request_reason": "Repair Trash Cart",
    "date_created": "2026-05-19T23:49:17.000",
    "date_modified": "2026-05-19T23:49:19.000",
    "request_status": "Pending",
    "responsible_agency": "Department of Sanitation",
    "final_address": "618 S Alexander St",
    "address_councildis": "A",
    "status": "Assigned to Contractor",
    "contractor": "IV Waste",
    "rowid": "1282804",
    "final_x": "3668726.63719",
    "final_y": "537442.72724",
    "longitude": "-90.10820416816286",
    "latitude": "29.972162865664103",
    "geocoded_column": {
      "latitude": "29.972162865664103",
      "longitude": "-90.10820416816286"
    }
  },
  {
    "service_request": "2026-1282803",
    "request_type": "Trash/Recycling",
    "request_reason": "Illegal Dumping",
    "date_created": "2026-05-19T23:46:06.000",
    "date_modified": "2026-05-19T23:46:09.000",
    "request_status": "Pending",
    "responsible_agency": "Department of Sanitation",
    "final_address": "4415 Wilson Ave",
    "address_councildis": "E",
    "status": "Pending",
    "rowid": "1282803",
    "final_x": "3703301.7553",
    "final_y": "552933.706775",
    "longitude": "-89.99844102091654",
    "latitude": "30.013695507002854",
    "geocoded_column": {
      "latitude": "30.013695507002854",
      "longitude": "-89.99844102091654"
    }
  },
  {
    "service_request": "2026-1282802",
    "request_type": "Health Related Request",
    "request_reason": "Noise Ordinance Complaint",
    "date_created": "2026-05-19T23:31:50.000",
    "date_modified": "2026-05-19T23:31:54.000",
    "request_status": "Pending",
    "responsible_agency": "Health Department",
    "final_address": "800 Bourbon St, New Orleans, Louisiana, 70116",
    "address_councildis": "C",
    "status": "Pending",
    "rowid": "1282802",
    "final_x": "3682553.51528",
    "final_y": "533013.631428",
    "longitude": "-90.06469148499534",
    "latitude": "29.95957063099051",
    "geocoded_column": {
      "latitude": "29.95957063099051",
      "longitude": "-90.06469148499534"
    }
  },
  {
    "service_request": "2026-1282801",
    "request_type": "Abandoned Vehicles",
    "request_reason": "Abandoned/Junk Vehicles",
    "date_created": "2026-05-19T23:29:36.000",
    "date_modified": "2026-05-19T23:29:38.000",
    "request_status": "Pending",
    "responsible_agency": "Department of Public Works",
    "final_address": "5356 Pasteur Blvd",
    "address_councildis": "D",
    "status": "Pending",
    "rowid": "1282801",
    "final_x": "3682799.22248",
    "final_y": "552917.428503",
    "longitude": "-90.06321891703023",
    "latitude": "30.01429156966537",
    "geocoded_column": {
      "latitude": "30.01429156966537",
      "longitude": "-90.06321891703023"
    }
  },
  {
    "service_request": "2026-1282800",
    "request_type": "Health Related Request",
    "request_reason": "Noise Ordinance Complaint",
    "date_created": "2026-05-19T21:58:14.000",
    "date_modified": "2026-05-19T21:58:15.000",
    "request_status": "Pending",
    "responsible_agency": "Health Department",
    "final_address": "801 Bourbon St, New Orleans, Louisiana, 70116",
    "address_councildis": "C",
    "status": "Pending",
    "rowid": "1282800",
    "final_x": "3682490.98735",
    "final_y": "533018.672772",
    "longitude": "-90.06488875731978",
    "latitude": "29.959586396383013",
    "geocoded_column": {
      "latitude": "29.959586396383013",
      "longitude": "-90.06488875731978"
    }
  },
  {
    "service_request": "2026-1282799",
    "request_type": "Health Related Request",
    "request_reason": "Noise Ordinance Complaint",
    "date_created": "2026-05-19T21:57:24.000",
    "date_modified": "2026-05-19T21:57:25.000",
    "request_status": "Pending",
    "responsible_agency": "Health Department",
    "final_address": "800 Bourbon St, New Orleans, Louisiana, 70116",
    "address_councildis": "C",
    "status": "Pending",
    "rowid": "1282799",
    "final_x": "3682553.51528",
    "final_y": "533013.631428",
    "longitude": "-90.06469148499534",
    "latitude": "29.95957063099051",
    "geocoded_column": {
      "latitude": "29.95957063099051",
      "longitude": "-90.06469148499534"
    }
  },
  {
    "service_request": "2026-1282798",
    "request_type": "Graffiti Removal",
    "request_reason": "Graffiti Removal",
    "date_created": "2026-05-19T21:56:28.000",
    "date_modified": "2026-05-19T21:56:30.000",
    "request_status": "Pending",
    "responsible_agency": "Department of Code Enforcement",
    "final_address": "7330 Lake Barrington Dr",
    "address_councildis": "E",
    "status": "Pending",
    "rowid": "1282798",
    "final_x": "3712166.40786",
    "final_y": "564972.351906",
    "longitude": "-89.9699810387647",
    "latitude": "30.046510066114426",
    "geocoded_column": {
      "latitude": "30.046510066114426",
      "longitude": "-89.9699810387647"
    }
  },
  {
    "service_request": "2026-1282797",
    "request_type": "Property Maintenance",
    "request_reason": "Property Maintenance",
    "date_created": "2026-05-19T21:50:41.000",
    "date_modified": "2026-05-19T21:50:42.000",
    "request_status": "Pending",
    "responsible_agency": "Department of Code Enforcement",
    "final_address": "1332 Governor Nicholls St",
    "address_councildis": "C",
    "status": "Pending",
    "rowid": "1282797",
    "final_x": "3681705.11496",
    "final_y": "535439.685766",
    "longitude": "-90.06728588901117",
    "latitude": "29.96626725136556",
    "geocoded_column": {
      "latitude": "29.96626725136556",
      "longitude": "-90.06728588901117"
    }
  },
  {
    "service_request": "2026-1282796",
    "request_type": "Health Related Request",
    "request_reason": "Request Health Records (Immunization, Lead and Health)",
    "date_created": "2026-05-19T21:47:19.000",
    "date_modified": "2026-05-19T21:47:27.000",
    "request_status": "Pending",
    "responsible_agency": "Health Department",
    "final_address": "1109 Decatur St",
    "address_councildis": "C",
    "status": "Pending",
    "rowid": "1282796",
    "final_x": "3684080.05084",
    "final_y": "533245.840644",
    "longitude": "-90.05986289634873",
    "latitude": "29.96016256540176",
    "geocoded_column": {
      "latitude": "29.96016256540176",
      "longitude": "-90.05986289634873"
    }
  },
  {
    "service_request": "2026-1282795",
    "request_type": "Streetlights",
    "request_reason": "Streetlight Outage/Malfunction",
    "date_created": "2026-05-19T21:45:52.000",
    "date_modified": "2026-05-19T21:45:53.000",
    "request_status": "Pending",
    "responsible_agency": "Department of Public Works",
    "final_address": "1133 Governor Nicholls St",
    "address_councildis": "C",
    "status": "Pending",
    "rowid": "1282795",
    "final_x": "3682296.78824",
    "final_y": "535040.458822",
    "longitude": "-90.06543134845776",
    "latitude": "29.965151525494342",
    "geocoded_column": {
      "latitude": "29.965151525494342",
      "longitude": "-90.06543134845776"
    }
  },
  {
    "service_request": "2026-1282794",
    "request_type": "General Services",
    "request_reason": "General Service Request",
    "date_created": "2026-05-19T21:41:54.000",
    "date_modified": "2026-05-19T21:41:58.000",
    "request_status": "Pending",
    "responsible_agency": "Orleans Parish Communication District",
    "final_address": "7441 Kenyon Rd",
    "address_councildis": "E",
    "status": "Pending",
    "rowid": "1282794",
    "final_x": "3704467.35089",
    "final_y": "561975.895455",
    "longitude": "-89.99442454905171",
    "latitude": "30.038520628088143",
    "geocoded_column": {
      "latitude": "30.038520628088143",
      "longitude": "-89.99442454905171"
    }
  },
  {
    "service_request": "2026-1282793",
    "request_type": "Abandoned Vehicles",
    "request_reason": "Abandoned/Junk Vehicles",
    "date_created": "2026-05-19T21:23:34.000",
    "date_modified": "2026-05-19T21:23:36.000",
    "request_status": "Pending",
    "responsible_agency": "Department of Public Works",
    "final_address": "1000 Tupelo St",
    "address_councildis": "E",
    "status": "Pending",
    "rowid": "1282793",
    "final_x": "3699307.95178",
    "final_y": "532945.035268",
    "longitude": "-90.01178767372862",
    "latitude": "29.9588613178386",
    "geocoded_column": {
      "latitude": "29.9588613178386",
      "longitude": "-90.01178767372862"
    }
  },
  {
    "service_request": "2026-1282792",
    "request_type": "Trash/Recycling",
    "request_reason": "Missed Trash Pick-Up",
    "date_created": "2026-05-19T21:22:28.000",
    "date_modified": "2026-05-19T21:22:30.000",
    "request_status": "Pending",
    "responsible_agency": "Department of Sanitation",
    "final_address": "7400 Hanover Rd",
    "address_councildis": "E",
    "status": "Assigned to Contractor",
    "contractor": "Waste Pro",
    "rowid": "1282792",
    "final_x": "3709466.83237",
    "final_y": "563185.790496",
    "longitude": "-89.97857978552656",
    "latitude": "30.041685780062522",
    "geocoded_column": {
      "latitude": "30.041685780062522",
      "longitude": "-89.97857978552656"
    }
  },
  {
    "service_request": "2026-1282791",
    "request_type": "General Services",
    "request_reason": "General Service Request",
    "date_created": "2026-05-19T21:07:06.000",
    "date_modified": "2026-05-19T21:07:08.000",
    "request_status": "Pending",
    "responsible_agency": "Orleans Parish Communication District",
    "final_address": "3520 Clematis St",
    "address_councildis": "D",
    "status": "Pending",
    "rowid": "1282791",
    "final_x": "3686446.72342",
    "final_y": "545851.67656",
    "longitude": "-90.05194430910933",
    "latitude": "29.99475164212993",
    "geocoded_column": {
      "latitude": "29.99475164212993",
      "longitude": "-90.05194430910933"
    }
  },
  {
    "service_request": "2026-1282790",
    "request_type": "Roads and Streets",
    "request_reason": "Pothole",
    "date_created": "2026-05-19T20:59:07.000",
    "date_modified": "2026-05-19T20:59:08.000",
    "request_status": "Pending",
    "responsible_agency": "Department of Public Works",
    "final_address": "620 Opelousas Ave",
    "address_councildis": "C",
    "status": "Pending",
    "rowid": "1282790",
    "final_x": "3687434.51382",
    "final_y": "529211.46336",
    "longitude": "-90.04941299029124",
    "latitude": "29.948966478114226",
    "geocoded_column": {
      "latitude": "29.948966478114226",
      "longitude": "-90.04941299029124"
    }
  },
  {
    "service_request": "2026-1282789",
    "request_type": "Streetlights",
    "request_reason": "Streetlight Outage/Malfunction",
    "date_created": "2026-05-19T20:55:09.000",
    "date_modified": "2026-05-19T20:55:11.000",
    "request_status": "Pending",
    "responsible_agency": "Department of Public Works",
    "final_address": "1521 Ursulines Ave",
    "address_councildis": "C",
    "status": "Pending",
    "rowid": "1282789",
    "final_x": "3681084.20699",
    "final_y": "535496.987974",
    "longitude": "-90.06924470697969",
    "latitude": "29.966443662089375",
    "geocoded_column": {
      "latitude": "29.966443662089375",
      "longitude": "-90.06924470697969"
    }
  },
  {
    "service_request": "2026-1282788",
    "request_type": "Streetlights",
    "request_reason": "Streetlight Outage/Malfunction",
    "date_created": "2026-05-19T20:50:40.000",
    "date_modified": "2026-05-19T20:50:42.000",
    "request_status": "Pending",
    "responsible_agency": "Department of Public Works",
    "final_address": "941 Wilson Dr",
    "address_councildis": "A",
    "status": "Pending",
    "rowid": "1282788",
    "final_x": "3674085.1371",
    "final_y": "540207.404555",
    "longitude": "-90.09118645094348",
    "latitude": "29.97960616181824",
    "geocoded_column": {
      "latitude": "29.97960616181824",
      "longitude": "-90.09118645094348"
    }
  },
  {
    "service_request": "2026-1282787",
    "request_type": "Streetlights",
    "request_reason": "Streetlight Outage/Malfunction",
    "date_created": "2026-05-19T20:26:32.000",
    "date_modified": "2026-05-19T20:26:34.000",
    "request_status": "Pending",
    "responsible_agency": "Department of Public Works",
    "final_address": "349 Stafford Pl",
    "address_councildis": "A",
    "status": "Pending",
    "rowid": "1282787",
    "final_x": "3665080.02272",
    "final_y": "554015.10556",
    "longitude": "-90.11916624109807",
    "latitude": "30.017837950446975",
    "geocoded_column": {
      "latitude": "30.017837950446975",
      "longitude": "-90.11916624109807"
    }
  },
  {
    "service_request": "2026-1282786",
    "request_type": "Streetlights",
    "request_reason": "Streetlight Outage/Malfunction",
    "date_created": "2026-05-19T20:22:10.000",
    "date_modified": "2026-05-19T20:22:11.000",
    "request_status": "Pending",
    "responsible_agency": "Department of Public Works",
    "final_address": "5444 Royal St",
    "address_councildis": "E",
    "status": "Pending",
    "rowid": "1282786",
    "final_x": "3697057.14794",
    "final_y": "532379.839555",
    "longitude": "-90.01891557535492",
    "latitude": "29.9573784170001",
    "geocoded_column": {
      "latitude": "29.9573784170001",
      "longitude": "-90.01891557535492"
    }
  },
  {
    "service_request": "2026-1282785",
    "request_type": "Streetlights",
    "request_reason": "Streetlight Outage/Malfunction",
    "date_created": "2026-05-19T20:18:19.000",
    "date_modified": "2026-05-19T20:18:21.000",
    "request_status": "Pending",
    "responsible_agency": "Department of Public Works",
    "final_address": "6429 N Derbigny St",
    "address_councildis": "E",
    "status": "Pending",
    "rowid": "1282785",
    "final_x": "3701533.36849",
    "final_y": "534930.944518",
    "longitude": "-90.00468770654959",
    "latitude": "29.964251094034303",
    "geocoded_column": {
      "latitude": "29.964251094034303",
      "longitude": "-90.00468770654959"
    }
  },
  {
    "service_request": "2026-1282784",
    "request_type": "Streetlights",
    "request_reason": "Streetlight Outage/Malfunction",
    "date_created": "2026-05-19T20:15:11.000",
    "date_modified": "2026-05-19T20:15:14.000",
    "request_status": "Pending",
    "responsible_agency": "Department of Public Works",
    "final_address": "2321 Flood St",
    "address_councildis": "E",
    "status": "Pending",
    "rowid": "1282784",
    "final_x": "3699018.42288",
    "final_y": "538543.774089",
    "longitude": "-90.01249813309792",
    "latitude": "29.974265021824927",
    "geocoded_column": {
      "latitude": "29.974265021824927",
      "longitude": "-90.01249813309792"
    }
  },
  {
    "service_request": "2026-1282783",
    "request_type": "Streetlights",
    "request_reason": "Streetlight Outage/Malfunction",
    "date_created": "2026-05-19T20:11:03.000",
    "date_modified": "2026-05-19T20:11:05.000",
    "request_status": "Pending",
    "responsible_agency": "Department of Public Works",
    "final_address": "1850 Lizardi St",
    "address_councildis": "E",
    "status": "Pending",
    "rowid": "1282783",
    "final_x": "3697314.11389",
    "final_y": "537060.256008",
    "longitude": "-90.01793449542323",
    "latitude": "29.970239789273077",
    "geocoded_column": {
      "latitude": "29.970239789273077",
      "longitude": "-90.01793449542323"
    }
  },
  {
    "service_request": "2026-1282782",
    "request_type": "Roads and Streets",
    "request_reason": "Push-up/Pavement Expansion",
    "date_created": "2026-05-19T20:08:47.000",
    "date_modified": "2026-05-19T20:08:48.000",
    "request_status": "Pending",
    "responsible_agency": "Department of Public Works",
    "final_address": "3749 Kent Dr",
    "address_councildis": "C",
    "status": "Pending",
    "rowid": "1282782",
    "final_x": "3708493.55307",
    "final_y": "517128.782069",
    "longitude": "-89.98337054492036",
    "latitude": "29.9150777449051",
    "geocoded_column": {
      "latitude": "29.9150777449051",
      "longitude": "-89.98337054492036"
    }
  },
  {
    "service_request": "2026-1282781",
    "request_type": "Trash/Recycling",
    "request_reason": "Replace Trash Cart",
    "date_created": "2026-05-19T20:08:23.000",
    "date_modified": "2026-05-19T20:08:25.000",
    "request_status": "Pending",
    "responsible_agency": "Department of Sanitation",
    "final_address": "1530 Painters St",
    "address_councildis": "C",
    "status": "Assigned to Contractor",
    "contractor": "IV Waste",
    "rowid": "1282781",
    "final_x": "3687399.4582",
    "final_y": "538189.277577",
    "longitude": "-90.04920599689585",
    "latitude": "29.97365343804609",
    "geocoded_column": {
      "latitude": "29.97365343804609",
      "longitude": "-90.04920599689585"
    }
  },
  {
    "service_request": "2026-1282780",
    "request_type": "Trash/Recycling",
    "request_reason": "Request a Large Item Pick Up",
    "date_created": "2026-05-19T19:53:07.000",
    "date_modified": "2026-05-19T19:53:09.000",
    "request_status": "Pending",
    "responsible_agency": "Department of Sanitation",
    "final_address": "717 Burdette St",
    "address_councildis": "A",
    "status": "Assigned to Contractor",
    "contractor": "IV Waste",
    "rowid": "1282780",
    "final_x": "3661749.40192",
    "final_y": "526414.486462",
    "longitude": "-90.13060514215336",
    "latitude": "29.942042053810624",
    "geocoded_column": {
      "latitude": "29.942042053810624",
      "longitude": "-90.13060514215336"
    }
  },
  {
    "service_request": "2026-1282779",
    "request_type": "Trash/Recycling",
    "request_reason": "Repair Trash Cart",
    "date_created": "2026-05-19T19:50:35.000",
    "date_modified": "2026-05-19T19:50:38.000",
    "request_status": "Pending",
    "responsible_agency": "Department of Sanitation",
    "final_address": "1717 Burdette St",
    "address_councildis": "A",
    "status": "Assigned to Contractor",
    "contractor": "IV Waste",
    "rowid": "1282779",
    "final_x": "3664114.5104",
    "final_y": "528997.224512",
    "longitude": "-90.12305182593701",
    "latitude": "29.9490752808722",
    "geocoded_column": {
      "latitude": "29.9490752808722",
      "longitude": "-90.12305182593701"
    }
  },
  {
    "service_request": "2026-1282778",
    "request_type": "Parks & Grass Service",
    "request_reason": "Request Grass Cutting Service (City Owned Property)",
    "date_created": "2026-05-19T19:38:58.000",
    "date_modified": "2026-05-19T19:39:00.000",
    "request_status": "Pending",
    "responsible_agency": "Department of Parks & Parkways",
    "final_address": "4815 Dryades St",
    "address_councildis": "B",
    "status": "Pending",
    "rowid": "1282778",
    "final_x": "3669147.08033",
    "final_y": "521821.696634",
    "longitude": "-90.10740415510003",
    "latitude": "29.929197774210508",
    "geocoded_column": {
      "latitude": "29.929197774210508",
      "longitude": "-90.10740415510003"
    }
  },
  {
    "service_request": "2026-1282777",
    "request_type": "Trash/Recycling",
    "request_reason": "Damaged Caused By Contractor",
    "date_created": "2026-05-19T19:36:28.000",
    "date_modified": "2026-05-19T19:36:30.000",
    "request_status": "Pending",
    "responsible_agency": "Department of Sanitation",
    "final_address": "3126 Dumaine St",
    "address_councildis": "A",
    "status": "Assigned to Contractor",
    "contractor": "IV Waste",
    "rowid": "1282777",
    "final_x": "3675493.76968",
    "final_y": "538742.125129",
    "longitude": "-90.08678776345589",
    "latitude": "29.975535082473623",
    "geocoded_column": {
      "latitude": "29.975535082473623",
      "longitude": "-90.08678776345589"
    }
  },
  {
    "service_request": "2026-1282776",
    "request_type": "General Services",
    "request_reason": "General Service Request",
    "date_created": "2026-05-19T19:25:07.000",
    "date_modified": "2026-05-19T19:25:09.000",
    "request_status": "Pending",
    "responsible_agency": "Orleans Parish Communication District",
    "final_address": "4455 Gawain Dr",
    "address_councildis": "E",
    "status": "Pending",
    "rowid": "1282776",
    "final_x": "3707233.62052",
    "final_y": "553920.405591",
    "longitude": "-89.98598181387648",
    "latitude": "30.016282013088194",
    "geocoded_column": {
      "latitude": "30.016282013088194",
      "longitude": "-89.98598181387648"
    }
  },
  {
    "service_request": "2026-1282775",
    "request_type": "Trash/Recycling",
    "request_reason": "MIssed Recycling Pick-Up",
    "date_created": "2026-05-19T19:16:14.000",
    "date_modified": "2026-05-19T19:16:16.000",
    "request_status": "Pending",
    "responsible_agency": "Department of Sanitation",
    "final_address": "850 Filmore Ave",
    "address_councildis": "A",
    "status": "Assigned to Contractor",
    "contractor": "IV Waste",
    "rowid": "1282775",
    "final_x": "3669990.40334",
    "final_y": "551826.85199",
    "longitude": "-90.10372548712253",
    "latitude": "30.011677044155697",
    "geocoded_column": {
      "latitude": "30.011677044155697",
      "longitude": "-90.10372548712253"
    }
  },
  {
    "service_request": "2026-1282774",
    "request_type": "Trash/Recycling",
    "request_reason": "Replace Trash Cart",
    "date_created": "2026-05-19T19:02:21.000",
    "date_modified": "2026-05-19T19:02:23.000",
    "request_status": "Pending",
    "responsible_agency": "Department of Sanitation",
    "final_address": "124 Stafford Pl",
    "address_councildis": "A",
    "status": "Assigned to Contractor",
    "contractor": "IV Waste",
    "rowid": "1282774",
    "final_x": "3666144.2377",
    "final_y": "553815.782167",
    "longitude": "-90.11581041159879",
    "latitude": "30.017258831318497",
    "geocoded_column": {
      "latitude": "30.017258831318497",
      "longitude": "-90.11581041159879"
    }
  },
  {
    "service_request": "2026-1282773",
    "request_type": "Trash/Recycling",
    "request_reason": "Return Trash Cart",
    "date_created": "2026-05-19T19:01:45.000",
    "date_modified": "2026-05-19T19:01:47.000",
    "request_status": "Pending",
    "responsible_agency": "Department of Sanitation",
    "final_address": "500 State St",
    "address_councildis": "A",
    "status": "Assigned to Contractor",
    "contractor": "IV Waste",
    "rowid": "1282773",
    "final_x": "3664343.6992",
    "final_y": "518299.955126",
    "longitude": "-90.1226850370298",
    "latitude": "29.919654524439807",
    "geocoded_column": {
      "latitude": "29.919654524439807",
      "longitude": "-90.1226850370298"
    }
  },
  {
    "service_request": "2026-1282772",
    "request_type": "Trash/Recycling",
    "request_reason": "Replace Trash Cart",
    "date_created": "2026-05-19T18:54:00.000",
    "date_modified": "2026-05-19T18:54:03.000",
    "request_status": "Pending",
    "responsible_agency": "Department of Sanitation",
    "final_address": "124 Stafford Pl",
    "address_councildis": "A",
    "status": "Assigned to Contractor",
    "contractor": "IV Waste",
    "rowid": "1282772",
    "final_x": "3666144.2377",
    "final_y": "553815.782167",
    "longitude": "-90.11581041159879",
    "latitude": "30.017258831318497",
    "geocoded_column": {
      "latitude": "30.017258831318497",
      "longitude": "-90.11581041159879"
    }
  },
  {
    "service_request": "2026-1282771",
    "request_type": "Trash/Recycling",
    "request_reason": "Return Trash Cart",
    "date_created": "2026-05-19T18:48:41.000",
    "date_modified": "2026-05-19T18:48:43.000",
    "request_status": "Pending",
    "responsible_agency": "Department of Sanitation",
    "final_address": "500 State St",
    "address_councildis": "A",
    "status": "Assigned to Contractor",
    "contractor": "IV Waste",
    "rowid": "1282771",
    "final_x": "3664343.6992",
    "final_y": "518299.955126",
    "longitude": "-90.1226850370298",
    "latitude": "29.919654524439807",
    "geocoded_column": {
      "latitude": "29.919654524439807",
      "longitude": "-90.1226850370298"
    }
  },
  {
    "service_request": "2026-1282770",
    "request_type": "Property Maintenance",
    "request_reason": "Property Maintenance",
    "date_created": "2026-05-19T18:47:44.000",
    "date_modified": "2026-05-19T18:47:45.000",
    "request_status": "Pending",
    "responsible_agency": "Department of Code Enforcement",
    "final_address": "7011 Coventry St",
    "address_councildis": "E",
    "status": "Pending",
    "rowid": "1282770",
    "final_x": "3699186.30212",
    "final_y": "559827.066077",
    "longitude": "-90.01119233808276",
    "latitude": "30.032780798712942",
    "geocoded_column": {
      "latitude": "30.032780798712942",
      "longitude": "-90.01119233808276"
    }
  },
  {
    "service_request": "2026-1282769",
    "request_type": "Mosquito, Termite & Rodent Control",
    "request_reason": "Mosquito Complaint",
    "date_created": "2026-05-19T18:46:42.000",
    "date_modified": "2026-05-19T18:46:44.000",
    "request_status": "Pending",
    "responsible_agency": "Mosquito, Termite & Rodent Control Board",
    "final_address": "1336 Bartholomew St",
    "address_councildis": "D",
    "status": "Pending",
    "rowid": "1282769",
    "final_x": "3692022.60432",
    "final_y": "536346.700039",
    "longitude": "-90.03467112068562",
    "latitude": "29.968443730121805",
    "geocoded_column": {
      "latitude": "29.968443730121805",
      "longitude": "-90.03467112068562"
    }
  },
  {
    "service_request": "2026-1282768",
    "request_type": "Property Maintenance",
    "request_reason": "Property Maintenance",
    "date_created": "2026-05-19T18:45:48.000",
    "date_modified": "2026-05-19T18:45:50.000",
    "request_status": "Pending",
    "responsible_agency": "Department of Code Enforcement",
    "final_address": "7020 Coventry St",
    "address_councildis": "E",
    "status": "Pending",
    "rowid": "1282768",
    "final_x": "3699204.89834",
    "final_y": "559653.361117",
    "longitude": "-90.01113990681763",
    "latitude": "30.032302587157528",
    "geocoded_column": {
      "latitude": "30.032302587157528",
      "longitude": "-90.01113990681763"
    }
  },
  {
    "service_request": "2026-1282767",
    "request_type": "Trash/Recycling",
    "request_reason": "Request a Large Item Pick Up",
    "date_created": "2026-05-19T18:44:42.000",
    "date_modified": "2026-05-19T18:44:44.000",
    "request_status": "Pending",
    "responsible_agency": "Department of Sanitation",
    "final_address": "10210 Seawood St",
    "address_councildis": "E",
    "status": "Assigned to Contractor",
    "contractor": "Waste Pro",
    "rowid": "1282767",
    "final_x": "3713129.82206",
    "final_y": "557361.871707",
    "longitude": "-89.96722294744801",
    "latitude": "30.025552737647814",
    "geocoded_column": {
      "latitude": "30.025552737647814",
      "longitude": "-89.96722294744801"
    }
  },
  {
    "service_request": "2026-1282766",
    "request_type": "General Services",
    "request_reason": "General Service Request",
    "date_created": "2026-05-19T18:44:38.000",
    "date_modified": "2026-05-19T18:44:39.000",
    "request_status": "Pending",
    "responsible_agency": "Orleans Parish Communication District",
    "final_address": "722 Allen Toussaint Blvd",
    "address_councildis": "A",
    "status": "Pending",
    "rowid": "1282766",
    "final_x": "3669386.1819",
    "final_y": "554558.352216",
    "longitude": "-90.10554200935324",
    "latitude": "30.01920551864214",
    "geocoded_column": {
      "latitude": "30.01920551864214",
      "longitude": "-90.10554200935324"
    }
  },
  {
    "service_request": "2026-1282765",
    "request_type": "Abandoned Vehicles",
    "request_reason": "Abandoned/Junk Vehicles",
    "date_created": "2026-05-19T18:34:59.000",
    "date_modified": "2026-05-19T18:35:01.000",
    "request_status": "Pending",
    "responsible_agency": "Department of Public Works",
    "final_address": "4659 Longfellow Dr",
    "address_councildis": "E",
    "status": "Pending",
    "rowid": "1282765",
    "final_x": "3709739.86494",
    "final_y": "555314.694873",
    "longitude": "-89.97801114212214",
    "latitude": "30.02003449620804",
    "geocoded_column": {
      "latitude": "30.02003449620804",
      "longitude": "-89.97801114212214"
    }
  },
  {
    "service_request": "2026-1282764",
    "request_type": "Trash/Recycling",
    "request_reason": "Order Trash Cart",
    "date_created": "2026-05-19T18:16:19.000",
    "date_modified": "2026-05-19T18:16:21.000",
    "request_status": "Pending",
    "responsible_agency": "Department of Sanitation",
    "final_address": "2216 Valence St",
    "address_councildis": "B",
    "status": "Assigned to Contractor",
    "contractor": "IV Waste",
    "rowid": "1282764",
    "final_x": "3669401.92398",
    "final_y": "523036.346491",
    "longitude": "-90.1065586076973",
    "latitude": "29.932530173099984",
    "geocoded_column": {
      "latitude": "29.932530173099984",
      "longitude": "-90.1065586076973"
    }
  },
  {
    "service_request": "2026-1282763",
    "request_type": "Safety & Permits",
    "request_reason": "Zoning Enforcement",
    "date_created": "2026-05-19T18:12:07.000",
    "date_modified": "2026-05-19T18:12:09.000",
    "request_status": "Pending",
    "responsible_agency": "Safety and Permits",
    "final_address": "4511 Knight Dr",
    "address_councildis": "E",
    "status": "Pending",
    "rowid": "1282763",
    "final_x": "3708346.486",
    "final_y": "554159.302232",
    "longitude": "-89.98245677715242",
    "latitude": "30.016902858339122",
    "geocoded_column": {
      "latitude": "30.016902858339122",
      "longitude": "-89.98245677715242"
    }
  },
  {
    "service_request": "2026-1282762",
    "request_type": "Trash/Recycling",
    "request_reason": "Order Trash Cart",
    "date_created": "2026-05-19T18:09:58.000",
    "date_modified": "2026-05-19T18:10:01.000",
    "request_status": "Pending",
    "responsible_agency": "Department of Sanitation",
    "final_address": "8724 Plum St",
    "address_councildis": "A",
    "status": "Assigned to Contractor",
    "contractor": "IV Waste",
    "rowid": "1282762",
    "final_x": "3660429.61171",
    "final_y": "530188.754305",
    "longitude": "-90.13464736807991",
    "latitude": "29.952458112775656",
    "geocoded_column": {
      "latitude": "29.952458112775656",
      "longitude": "-90.13464736807991"
    }
  },
  {
    "service_request": "2026-1282761",
    "request_type": "Abandoned Vehicles",
    "request_reason": "Abandoned/Junk Vehicles",
    "date_created": "2026-05-19T18:04:31.000",
    "date_modified": "2026-05-19T18:04:32.000",
    "request_status": "Pending",
    "responsible_agency": "Department of Public Works",
    "final_address": "5312 Constance St",
    "address_councildis": "B",
    "status": "Pending",
    "rowid": "1282761",
    "final_x": "3667304.8793",
    "final_y": "518233.435766",
    "longitude": "-90.11334025594425",
    "latitude": "29.919385256816515",
    "geocoded_column": {
      "latitude": "29.919385256816515",
      "longitude": "-90.11334025594425"
    }
  },
  {
    "service_request": "2026-1282760",
    "request_type": "Trash/Recycling",
    "request_reason": "Request a Large Item Pick Up",
    "date_created": "2026-05-19T18:04:02.000",
    "date_modified": "2026-05-19T18:04:03.000",
    "request_status": "Pending",
    "responsible_agency": "Department of Sanitation",
    "final_address": "6010 Brighton Pl",
    "address_councildis": "C",
    "status": "Assigned to Contractor",
    "contractor": "Richards Disposal",
    "rowid": "1282760",
    "final_x": "3706164.49687",
    "final_y": "520127.0638",
    "longitude": "-89.99061092928324",
    "latitude": "29.923397223590772",
    "geocoded_column": {
      "latitude": "29.923397223590772",
      "longitude": "-89.99061092928324"
    }
  },
  {
    "service_request": "2026-1282759",
    "request_type": "Tree Service",
    "request_reason": "Tree Trim",
    "date_created": "2026-05-19T17:57:14.000",
    "date_modified": "2026-05-19T17:57:16.000",
    "request_status": "Pending",
    "responsible_agency": "Department of Parks & Parkways",
    "final_address": "19 Neron Pl",
    "address_councildis": "A",
    "status": "Pending",
    "rowid": "1282759",
    "final_x": "3665044.11815",
    "final_y": "530855.837122",
    "longitude": "-90.12005449743627",
    "latitude": "29.954158831740415",
    "geocoded_column": {
      "latitude": "29.954158831740415",
      "longitude": "-90.12005449743627"
    }
  },
  {
    "service_request": "2026-1282758",
    "request_type": "Trash/Recycling",
    "request_reason": "Request a Large Item Pick Up",
    "date_created": "2026-05-19T17:50:46.000",
    "date_modified": "2026-05-19T17:50:48.000",
    "request_status": "Pending",
    "responsible_agency": "Department of Sanitation",
    "final_address": "818 Bordeaux St",
    "address_councildis": "B",
    "status": "Assigned to Contractor",
    "contractor": "IV Waste",
    "rowid": "1282758",
    "final_x": "3669564.27969",
    "final_y": "518429.819446",
    "longitude": "-90.10620180454744",
    "latitude": "29.919858909799583",
    "geocoded_column": {
      "latitude": "29.919858909799583",
      "longitude": "-90.10620180454744"
    }
  },
  {
    "service_request": "2026-1282757",
    "request_type": "Roads and Streets",
    "request_reason": "Street Subsidence (Sinking)",
    "date_created": "2026-05-19T17:27:06.000",
    "date_modified": "2026-05-19T17:27:08.000",
    "request_status": "Pending",
    "responsible_agency": "Sewerage & Water Board",
    "final_address": "2628 Constance St",
    "address_councildis": "B",
    "status": "Pending",
    "rowid": "1282757",
    "final_x": "3677595.22741",
    "final_y": "520691.616121",
    "longitude": "-90.0807739603333",
    "latitude": "29.925839184268607",
    "geocoded_column": {
      "latitude": "29.925839184268607",
      "longitude": "-90.0807739603333"
    }
  },
  {
    "service_request": "2026-1282756",
    "request_type": "Mosquito, Termite & Rodent Control",
    "request_reason": "Rodent Complaint (Mice & Rats)",
    "date_created": "2026-05-19T17:17:40.000",
    "date_modified": "2026-05-19T17:17:45.000",
    "request_status": "Pending",
    "responsible_agency": "Mosquito, Termite & Rodent Control Board",
    "final_address": "1732 Tricou St",
    "address_councildis": "E",
    "status": "Pending",
    "rowid": "1282756",
    "final_x": "3701041.83325",
    "final_y": "535422.25543",
    "longitude": "-90.00622195383815",
    "latitude": "29.96561768501801",
    "geocoded_column": {
      "latitude": "29.96561768501801",
      "longitude": "-90.00622195383815"
    }
  },
  {
    "service_request": "2026-1282755",
    "request_type": "Trash/Recycling",
    "request_reason": "Replace Recycling Cart",
    "date_created": "2026-05-19T17:10:48.000",
    "date_modified": "2026-05-19T17:10:52.000",
    "request_status": "Pending",
    "responsible_agency": "Department of Sanitation",
    "final_address": "8203 Zimple St",
    "address_councildis": "A",
    "status": "Pending",
    "rowid": "1282755",
    "final_x": "3661458.91942",
    "final_y": "528411.228736",
    "longitude": "-90.13145613790101",
    "latitude": "29.947540839405566",
    "geocoded_column": {
      "latitude": "29.947540839405566",
      "longitude": "-90.13145613790101"
    }
  },
  {
    "service_request": "2026-1282754",
    "request_type": "Streetlights",
    "request_reason": "Streetlight Outage/Malfunction",
    "date_created": "2026-05-19T17:08:53.000",
    "date_modified": "2026-05-19T17:08:54.000",
    "request_status": "Pending",
    "responsible_agency": "Department of Public Works",
    "final_address": "GENERAL OGDEN ST & PEACH ST",
    "address_councildis": "A",
    "status": "Pending",
    "rowid": "1282754",
    "final_x": "3666569.5",
    "final_y": "537630.38",
    "longitude": "-90.11501049278363",
    "latitude": "29.972742090127667",
    "geocoded_column": {
      "latitude": "29.972742090127667",
      "longitude": "-90.11501049278363"
    }
  },
  {
    "service_request": "2026-1282753",
    "request_type": "Trash/Recycling",
    "request_reason": "Request a Large Item Pick Up",
    "date_created": "2026-05-19T17:07:41.000",
    "date_modified": "2026-05-19T17:07:42.000",
    "request_status": "Pending",
    "responsible_agency": "Department of Sanitation",
    "final_address": "6000 Eastover Dr",
    "address_councildis": "E",
    "status": "Assigned to Contractor",
    "contractor": "Waste Pro",
    "rowid": "1282753",
    "final_x": "3719006.6974",
    "final_y": "565431.132386",
    "longitude": "-89.94834489854064",
    "latitude": "30.04754596522158",
    "geocoded_column": {
      "latitude": "30.04754596522158",
      "longitude": "-89.94834489854064"
    }
  },
  {
    "service_request": "2026-1282752",
    "request_type": "Trash/Recycling",
    "request_reason": "Request a Large Item Pick Up",
    "date_created": "2026-05-19T17:07:07.000",
    "date_modified": "2026-05-19T17:07:09.000",
    "request_status": "Pending",
    "responsible_agency": "Department of Sanitation",
    "final_address": "5107 Dryades St",
    "address_councildis": "B",
    "status": "Assigned to Contractor",
    "contractor": "IV Waste",
    "rowid": "1282752",
    "final_x": "3668327.39854",
    "final_y": "521870.612282",
    "longitude": "-90.10999009292964",
    "latitude": "29.929356365141565",
    "geocoded_column": {
      "latitude": "29.929356365141565",
      "longitude": "-90.10999009292964"
    }
  },
  {
    "service_request": "2026-1282751",
    "request_type": "Streetlights",
    "request_reason": "Streetlight Outage/Malfunction",
    "date_created": "2026-05-19T17:05:14.000",
    "date_modified": "2026-05-19T17:05:17.000",
    "request_status": "Pending",
    "responsible_agency": "Department of Public Works",
    "final_address": "3924 General Ogden St",
    "address_councildis": "A",
    "status": "Pending",
    "rowid": "1282751",
    "final_x": "3666474.72609",
    "final_y": "537594.790088",
    "longitude": "-90.11531100232786",
    "latitude": "29.972647000201956",
    "geocoded_column": {
      "latitude": "29.972647000201956",
      "longitude": "-90.11531100232786"
    }
  },
  {
    "service_request": "2026-1282750",
    "request_type": "Tree Service",
    "request_reason": "Tree Trim",
    "date_created": "2026-05-19T17:02:58.000",
    "date_modified": "2026-05-19T17:02:59.000",
    "request_status": "Pending",
    "responsible_agency": "Department of Parks & Parkways",
    "final_address": "4501 Congress Dr",
    "address_councildis": "D",
    "status": "Pending",
    "rowid": "1282750",
    "final_x": "3692563.86339",
    "final_y": "551169.328725",
    "longitude": "-90.03243035243328",
    "latitude": "30.00918371793394",
    "geocoded_column": {
      "latitude": "30.00918371793394",
      "longitude": "-90.03243035243328"
    }
  },
  {
    "service_request": "2026-1282749",
    "request_type": "Streetlights",
    "request_reason": "Streetlight Outage/Malfunction",
    "date_created": "2026-05-19T17:02:31.000",
    "date_modified": "2026-05-19T17:02:33.000",
    "request_status": "Pending",
    "responsible_agency": "Department of Public Works",
    "final_address": "3908 General Ogden St",
    "address_councildis": "A",
    "status": "Pending",
    "rowid": "1282749",
    "final_x": "3666387.83604",
    "final_y": "537490.044488",
    "longitude": "-90.11558893367615",
    "latitude": "29.972361524115023",
    "geocoded_column": {
      "latitude": "29.972361524115023",
      "longitude": "-90.11558893367615"
    }
  },
  {
    "service_request": "2026-1282748",
    "request_type": "Trash/Recycling",
    "request_reason": "Replace Trash Cart",
    "date_created": "2026-05-19T17:00:30.000",
    "date_modified": "2026-05-19T17:00:32.000",
    "request_status": "Pending",
    "responsible_agency": "Department of Sanitation",
    "final_address": "1820 Benefit St",
    "address_councildis": "D",
    "status": "Assigned to Contractor",
    "contractor": "IV Waste",
    "rowid": "1282748",
    "final_x": "3681579.28245",
    "final_y": "544150.428302",
    "longitude": "-90.0673793460338",
    "latitude": "29.990222583427304",
    "geocoded_column": {
      "latitude": "29.990222583427304",
      "longitude": "-90.0673793460338"
    }
  },
  {
    "service_request": "2026-1282747",
    "request_type": "Trash/Recycling",
    "request_reason": "Replace Trash Cart",
    "date_created": "2026-05-19T16:59:19.000",
    "date_modified": "2026-05-19T16:59:20.000",
    "request_status": "Pending",
    "responsible_agency": "Department of Sanitation",
    "final_address": "2913 Banks St",
    "address_councildis": "B",
    "status": "Assigned to Contractor",
    "contractor": "IV Waste",
    "rowid": "1282747",
    "final_x": "3673825.98004",
    "final_y": "534827.453062",
    "longitude": "-90.09218902828803",
    "latitude": "29.964820842681558",
    "geocoded_column": {
      "latitude": "29.964820842681558",
      "longitude": "-90.09218902828803"
    }
  },
  {
    "service_request": "2026-1282746",
    "request_type": "Trash/Recycling",
    "request_reason": "Request a Large Item Pick Up",
    "date_created": "2026-05-19T16:53:41.000",
    "date_modified": "2026-05-19T16:53:43.000",
    "request_status": "Pending",
    "responsible_agency": "Department of Sanitation",
    "final_address": "4626 Bonita Dr",
    "address_councildis": "E",
    "status": "Assigned to Contractor",
    "contractor": "Waste Pro",
    "rowid": "1282746",
    "final_x": "3704503.0083",
    "final_y": "554552.007128",
    "longitude": "-89.99458597543689",
    "latitude": "30.01810667786361",
    "geocoded_column": {
      "latitude": "30.01810667786361",
      "longitude": "-89.99458597543689"
    }
  },
  {
    "service_request": "2026-1282745",
    "request_type": "Trash/Recycling",
    "request_reason": "Request a Large Item Pick Up",
    "date_created": "2026-05-19T16:48:52.000",
    "date_modified": "2026-05-19T16:48:54.000",
    "request_status": "Pending",
    "responsible_agency": "Department of Sanitation",
    "final_address": "2633 Burgundy St",
    "address_councildis": "C",
    "status": "Assigned to Contractor",
    "contractor": "IV Waste",
    "rowid": "1282745",
    "final_x": "3687185.90697",
    "final_y": "535646.203462",
    "longitude": "-90.04997039092378",
    "latitude": "29.966667452106925",
    "geocoded_column": {
      "latitude": "29.966667452106925",
      "longitude": "-90.04997039092378"
    }
  },
  {
    "service_request": "2026-1282744",
    "request_type": "Utility Poles",
    "request_reason": "Utility Pole Leaning",
    "date_created": "2026-05-19T16:43:28.000",
    "date_modified": "2026-05-19T16:43:32.000",
    "request_status": "Pending",
    "responsible_agency": "Utility Company Collective",
    "final_address": "4205 Hamilton St",
    "address_councildis": "A",
    "status": "Pending",
    "rowid": "1282744",
    "final_x": "3666598.89645",
    "final_y": "538636.644617",
    "longitude": "-90.11488385944033",
    "latitude": "29.97550812213997",
    "geocoded_column": {
      "latitude": "29.97550812213997",
      "longitude": "-90.11488385944033"
    }
  },
  {
    "service_request": "2026-1282743",
    "request_type": "Roads and Streets",
    "request_reason": "Street Subsidence (Sinking)",
    "date_created": "2026-05-19T16:37:43.000",
    "date_modified": "2026-05-19T16:37:45.000",
    "request_status": "Pending",
    "responsible_agency": "Sewerage & Water Board",
    "final_address": "2700 BLK Constance St",
    "address_councildis": "B",
    "status": "Pending",
    "rowid": "1282743",
    "final_x": "3677388.46671",
    "final_y": "520601.969411",
    "longitude": "-90.08142973439233",
    "latitude": "29.925598898044594",
    "geocoded_column": {
      "latitude": "29.925598898044594",
      "longitude": "-90.08142973439233"
    }
  },
  {
    "service_request": "2026-1282742",
    "request_type": "Trash/Recycling",
    "request_reason": "Replace Trash Cart",
    "date_created": "2026-05-19T16:36:59.000",
    "date_modified": "2026-05-19T16:37:01.000",
    "request_status": "Pending",
    "responsible_agency": "Department of Sanitation",
    "final_address": "6521 Baccich St",
    "address_councildis": "D",
    "status": "Assigned to Contractor",
    "contractor": "IV Waste",
    "rowid": "1282742",
    "final_x": "3687380.90959",
    "final_y": "557366.117979",
    "longitude": "-90.04858551113604",
    "latitude": "30.026383377975858",
    "geocoded_column": {
      "latitude": "30.026383377975858",
      "longitude": "-90.04858551113604"
    }
  },
  {
    "service_request": "2026-1282741",
    "request_type": "Trash/Recycling",
    "request_reason": "Request a Large Item Pick Up",
    "date_created": "2026-05-19T16:35:05.000",
    "date_modified": "2026-05-19T17:03:08.000",
    "request_status": "Pending",
    "responsible_agency": "Department of Sanitation",
    "final_address": "614 Esplanade Ave, New Orleans, Louisiana, 70116",
    "address_councildis": "C",
    "status": "Assigned to Contractor",
    "contractor": "IV Waste",
    "rowid": "1282741",
    "final_x": "3684193.25231",
    "final_y": "534226.798277",
    "longitude": "-90.05947099322388",
    "latitude": "29.962856401929088",
    "geocoded_column": {
      "latitude": "29.962856401929088",
      "longitude": "-90.05947099322388"
    }
  },
  {
    "service_request": "2026-1282740",
    "request_type": "Trash/Recycling",
    "request_reason": "Request a Large Item Pick Up",
    "date_created": "2026-05-19T16:34:25.000",
    "date_modified": "2026-05-19T16:34:27.000",
    "request_status": "Pending",
    "responsible_agency": "Department of Sanitation",
    "final_address": "1563 Foy St",
    "address_councildis": "D",
    "status": "Assigned to Contractor",
    "contractor": "IV Waste",
    "rowid": "1282740",
    "final_x": "3679330.72015",
    "final_y": "546703.691345",
    "longitude": "-90.07439335580806",
    "latitude": "29.99731127365351",
    "geocoded_column": {
      "latitude": "29.99731127365351",
      "longitude": "-90.07439335580806"
    }
  },
  {
    "service_request": "2026-1282739",
    "request_type": "Trash/Recycling",
    "request_reason": "Request a Large Item Pick Up",
    "date_created": "2026-05-19T16:32:33.000",
    "date_modified": "2026-05-19T16:34:50.000",
    "request_status": "Pending",
    "responsible_agency": "Department of Sanitation",
    "final_address": "208 Chartres St, New Orleans, Louisiana, 70130",
    "address_councildis": "C",
    "status": "Assigned to Contractor",
    "contractor": "IV Waste",
    "rowid": "1282739",
    "final_x": "3681800.4758",
    "final_y": "530837.645698",
    "longitude": "-90.0671453372047",
    "latitude": "29.95361031318125",
    "geocoded_column": {
      "latitude": "29.95361031318125",
      "longitude": "-90.0671453372047"
    }
  },
  {
    "service_request": "2026-1282738",
    "request_type": "Trash/Recycling",
    "request_reason": "Illegal Dumping",
    "date_created": "2026-05-19T16:32:14.000",
    "date_modified": "2026-05-19T16:32:17.000",
    "request_status": "Pending",
    "responsible_agency": "Department of Sanitation",
    "final_address": "4139 Hamilton St",
    "address_councildis": "A",
    "status": "Pending",
    "rowid": "1282738",
    "final_x": "3666528.44839",
    "final_y": "538555.927305",
    "longitude": "-90.11510906482027",
    "latitude": "29.975288236179072",
    "geocoded_column": {
      "latitude": "29.975288236179072",
      "longitude": "-90.11510906482027"
    }
  },
  {
    "service_request": "2026-1282737",
    "request_type": "Property Maintenance",
    "request_reason": "Property Maintenance",
    "date_created": "2026-05-19T16:30:42.000",
    "date_modified": "2026-05-19T16:30:44.000",
    "request_status": "Pending",
    "responsible_agency": "Department of Code Enforcement",
    "final_address": "4139 Hamilton St",
    "address_councildis": "A",
    "status": "Pending",
    "rowid": "1282737",
    "final_x": "3666528.44839",
    "final_y": "538555.927305",
    "longitude": "-90.11510906482027",
    "latitude": "29.975288236179072",
    "geocoded_column": {
      "latitude": "29.975288236179072",
      "longitude": "-90.11510906482027"
    }
  },
  {
    "service_request": "2026-1282736",
    "request_type": "Graffiti Removal",
    "request_reason": "Graffiti Removal",
    "date_created": "2026-05-19T16:27:44.000",
    "date_modified": "2026-05-19T16:27:46.000",
    "request_status": "Pending",
    "responsible_agency": "Department of Code Enforcement",
    "final_address": "4700 Tchoupitoulas St",
    "address_councildis": "B",
    "status": "Pending",
    "rowid": "1282736",
    "final_x": "3670067.96513",
    "final_y": "517283.544309",
    "longitude": "-90.10465070897148",
    "latitude": "29.916692173466735",
    "geocoded_column": {
      "latitude": "29.916692173466735",
      "longitude": "-90.10465070897148"
    }
  },
  {
    "service_request": "2026-1282735",
    "request_type": "Trash/Recycling",
    "request_reason": "Request a Large Item Pick Up",
    "date_created": "2026-05-19T16:25:38.000",
    "date_modified": "2026-05-19T16:25:39.000",
    "request_status": "Pending",
    "responsible_agency": "Department of Sanitation",
    "final_address": "1612 N Broad St",
    "address_councildis": "D",
    "status": "Assigned to Contractor",
    "contractor": "IV Waste",
    "rowid": "1282735",
    "final_x": "3679243.33845",
    "final_y": "540198.653131",
    "longitude": "-90.07489507617905",
    "latitude": "29.97942733658747",
    "geocoded_column": {
      "latitude": "29.97942733658747",
      "longitude": "-90.07489507617905"
    }
  },
  {
    "service_request": "2026-1282734",
    "request_type": "Trash/Recycling",
    "request_reason": "Request a Large Item Pick Up",
    "date_created": "2026-05-19T16:24:16.000",
    "date_modified": "2026-05-19T16:24:20.000",
    "request_status": "Pending",
    "responsible_agency": "Department of Sanitation",
    "final_address": "4965 Friar Tuck Dr",
    "address_councildis": "E",
    "status": "Assigned to Contractor",
    "contractor": "Waste Pro",
    "rowid": "1282734",
    "final_x": "3717683.411",
    "final_y": "558142.942427",
    "longitude": "-89.95280469252188",
    "latitude": "30.02755030794648",
    "geocoded_column": {
      "latitude": "30.02755030794648",
      "longitude": "-89.95280469252188"
    }
  },
  {
    "service_request": "2026-1282733",
    "request_type": "Trash/Recycling",
    "request_reason": "Request a Large Item Pick Up",
    "date_created": "2026-05-19T16:21:18.000",
    "date_modified": "2026-05-19T16:21:20.000",
    "request_status": "Pending",
    "responsible_agency": "Department of Sanitation",
    "final_address": "4965 Friar Tuck Dr",
    "address_councildis": "E",
    "status": "Assigned to Contractor",
    "contractor": "Waste Pro",
    "rowid": "1282733",
    "final_x": "3717683.411",
    "final_y": "558142.942427",
    "longitude": "-89.95280469252188",
    "latitude": "30.02755030794648",
    "geocoded_column": {
      "latitude": "30.02755030794648",
      "longitude": "-89.95280469252188"
    }
  },
  {
    "service_request": "2026-1282732",
    "request_type": "Tree Service",
    "request_reason": "Tree Trim",
    "date_created": "2026-05-19T16:20:02.000",
    "date_modified": "2026-05-19T16:20:03.000",
    "request_status": "Pending",
    "responsible_agency": "Department of Parks & Parkways",
    "final_address": "729 Harrison Ave",
    "address_councildis": "A",
    "status": "Pending",
    "rowid": "1282732",
    "final_x": "3668951.66817",
    "final_y": "549383.324627",
    "longitude": "-90.10708991488733",
    "latitude": "30.004988808161826",
    "geocoded_column": {
      "latitude": "30.004988808161826",
      "longitude": "-90.10708991488733"
    }
  },
  {
    "service_request": "2026-1282731",
    "request_type": "Abandoned Vehicles",
    "request_reason": "Abandoned/Junk Vehicles",
    "date_created": "2026-05-19T16:17:47.000",
    "date_modified": "2026-05-19T16:17:49.000",
    "request_status": "Pending",
    "responsible_agency": "Department of Public Works",
    "final_address": "2135 S Gayoso St",
    "address_councildis": "B",
    "status": "Pending",
    "rowid": "1282731",
    "final_x": "3669528.76385",
    "final_y": "528946.931776",
    "longitude": "-90.10595831448498",
    "latitude": "29.948778635152237",
    "geocoded_column": {
      "latitude": "29.948778635152237",
      "longitude": "-90.10595831448498"
    }
  },
  {
    "service_request": "2026-1282730",
    "request_type": "Property Maintenance",
    "request_reason": "Property Maintenance",
    "date_created": "2026-05-19T16:17:08.000",
    "date_modified": "2026-05-19T16:17:10.000",
    "request_status": "Pending",
    "responsible_agency": "Department of Code Enforcement",
    "final_address": "8922 Pear St",
    "address_councildis": "A",
    "status": "Pending",
    "rowid": "1282730",
    "final_x": "3666871.57581",
    "final_y": "538250.463177",
    "longitude": "-90.11403563892834",
    "latitude": "29.974438276745875",
    "geocoded_column": {
      "latitude": "29.974438276745875",
      "longitude": "-90.11403563892834"
    }
  },
  {
    "service_request": "2026-1282729",
    "request_type": "Streetlights",
    "request_reason": "Streetlight Outage/Malfunction",
    "date_created": "2026-05-19T16:16:50.000",
    "date_modified": "2026-05-19T16:16:52.000",
    "request_status": "Pending",
    "responsible_agency": "Department of Public Works",
    "final_address": "7806 Scottwood Dr",
    "address_councildis": "E",
    "status": "Pending",
    "rowid": "1282729",
    "final_x": "3716606.34892",
    "final_y": "571503.869736",
    "longitude": "-89.95570048480512",
    "latitude": "30.06432304419266",
    "geocoded_column": {
      "latitude": "30.06432304419266",
      "longitude": "-89.95570048480512"
    }
  },
  {
    "service_request": "2026-1282728",
    "request_type": "Safety & Permits",
    "request_reason": "Licenses & Permits",
    "date_created": "2026-05-19T16:13:44.000",
    "date_modified": "2026-05-19T16:13:46.000",
    "request_status": "Pending",
    "responsible_agency": "Safety and Permits",
    "final_address": "720 Antonine St",
    "address_councildis": "B",
    "status": "Pending",
    "rowid": "1282728",
    "final_x": "3674237.99982",
    "final_y": "517937.58047",
    "longitude": "-90.09146596514346",
    "latitude": "29.918366953179717",
    "geocoded_column": {
      "latitude": "29.918366953179717",
      "longitude": "-90.09146596514346"
    }
  },
  {
    "service_request": "2026-1282727",
    "request_type": "Trash/Recycling",
    "request_reason": "Request a Large Item Pick Up",
    "date_created": "2026-05-19T16:12:44.000",
    "date_modified": "2026-05-19T16:24:47.000",
    "request_status": "Pending",
    "responsible_agency": "Department of Sanitation",
    "final_address": "2340 Palmer Ave",
    "address_councildis": "A",
    "status": "Assigned to Contractor",
    "contractor": "IV Waste",
    "rowid": "1282727",
    "final_x": "3666256.09793",
    "final_y": "525558.638589",
    "longitude": "-90.11640517965152",
    "latitude": "29.93955790589421",
    "geocoded_column": {
      "latitude": "29.93955790589421",
      "longitude": "-90.11640517965152"
    }
  },
  {
    "service_request": "2026-1282726",
    "request_type": "Trash/Recycling",
    "request_reason": "Request a Large Item Pick Up",
    "date_created": "2026-05-19T16:12:27.000",
    "date_modified": "2026-05-19T16:12:29.000",
    "request_status": "Pending",
    "responsible_agency": "Department of Sanitation",
    "final_address": "2742 Amelia St",
    "address_councildis": "B",
    "status": "Assigned to Contractor",
    "contractor": "IV Waste",
    "rowid": "1282726",
    "final_x": "3672080.86292",
    "final_y": "525266.291773",
    "longitude": "-90.09802551727736",
    "latitude": "29.93858266364996",
    "geocoded_column": {
      "latitude": "29.93858266364996",
      "longitude": "-90.09802551727736"
    }
  },
  {
    "service_request": "2026-1282725",
    "request_type": "Trash/Recycling",
    "request_reason": "Order Trash Cart",
    "date_created": "2026-05-19T16:08:11.000",
    "date_modified": "2026-05-19T16:08:13.000",
    "request_status": "Pending",
    "responsible_agency": "Department of Sanitation",
    "final_address": "1524 N Robertson St",
    "address_councildis": "C",
    "status": "Assigned to Contractor",
    "contractor": "IV Waste",
    "rowid": "1282725",
    "final_x": "3682187.03125",
    "final_y": "537095.963272",
    "longitude": "-90.06570614383956",
    "latitude": "29.97080679356758",
    "geocoded_column": {
      "latitude": "29.97080679356758",
      "longitude": "-90.06570614383956"
    }
  },
  {
    "service_request": "2026-1282724",
    "request_type": "Trash/Recycling",
    "request_reason": "Request a Large Item Pick Up",
    "date_created": "2026-05-19T16:07:14.000",
    "date_modified": "2026-05-19T16:07:16.000",
    "request_status": "Pending",
    "responsible_agency": "Department of Sanitation",
    "final_address": "5980 Winchester Park Dr",
    "address_councildis": "E",
    "status": "Assigned to Contractor",
    "contractor": "Waste Pro",
    "rowid": "1282724",
    "final_x": "3714378.23051",
    "final_y": "563173.030112",
    "longitude": "-89.96305860799644",
    "latitude": "30.04149011308765",
    "geocoded_column": {
      "latitude": "30.04149011308765",
      "longitude": "-89.96305860799644"
    }
  },
  {
    "service_request": "2026-1282722",
    "request_type": "Trash/Recycling",
    "request_reason": "Order Trash Cart",
    "date_created": "2026-05-19T16:05:52.000",
    "date_modified": "2026-05-19T16:05:54.000",
    "request_status": "Pending",
    "responsible_agency": "Department of Sanitation",
    "final_address": "4759 Pauline Dr",
    "address_councildis": "D",
    "status": "Assigned to Contractor",
    "contractor": "IV Waste",
    "rowid": "1282722",
    "final_x": "3692866.97545",
    "final_y": "551518.485269",
    "longitude": "-90.03146018938442",
    "latitude": "30.010134303146693",
    "geocoded_column": {
      "latitude": "30.010134303146693",
      "longitude": "-90.03146018938442"
    }
  },
  {
    "service_request": "2026-1282723",
    "request_type": "Trash/Recycling",
    "request_reason": "Request a Large Item Pick Up",
    "date_created": "2026-05-19T16:05:52.000",
    "date_modified": "2026-05-19T16:23:49.000",
    "request_status": "Pending",
    "responsible_agency": "Department of Sanitation",
    "final_address": "203 Audubon Blvd",
    "address_councildis": "A",
    "status": "Assigned to Contractor",
    "contractor": "IV Waste",
    "rowid": "1282723",
    "final_x": "3666360.57639",
    "final_y": "528402.465856",
    "longitude": "-90.11597993864528",
    "latitude": "29.947374463402497",
    "geocoded_column": {
      "latitude": "29.947374463402497",
      "longitude": "-90.11597993864528"
    }
  },
  {
    "service_request": "2026-1282721",
    "request_type": "Trash/Recycling",
    "request_reason": "Order Second Trash Cart",
    "date_created": "2026-05-19T16:05:48.000",
    "date_modified": "2026-05-19T16:05:50.000",
    "request_status": "Pending",
    "responsible_agency": "Department of Sanitation",
    "final_address": "4759 Pauline Dr",
    "address_councildis": "D",
    "status": "Assigned to Contractor",
    "contractor": "IV Waste",
    "rowid": "1282721",
    "final_x": "3692866.97545",
    "final_y": "551518.485269",
    "longitude": "-90.03146018938442",
    "latitude": "30.010134303146693",
    "geocoded_column": {
      "latitude": "30.010134303146693",
      "longitude": "-90.03146018938442"
    }
  },
  {
    "service_request": "2026-1282720",
    "request_type": "Property Maintenance",
    "request_reason": "Property Maintenance",
    "date_created": "2026-05-19T16:05:23.000",
    "date_modified": "2026-05-19T16:05:24.000",
    "request_status": "Pending",
    "responsible_agency": "Department of Code Enforcement",
    "final_address": "4124 General Ogden St",
    "address_councildis": "A",
    "status": "Pending",
    "rowid": "1282720",
    "final_x": "3666914.13396",
    "final_y": "538079.608649",
    "longitude": "-90.1139069721436",
    "latitude": "29.973967238637698",
    "geocoded_column": {
      "latitude": "29.973967238637698",
      "longitude": "-90.1139069721436"
    }
  },
  {
    "service_request": "2026-1282719",
    "request_type": "Trash/Recycling",
    "request_reason": "Request a Large Item Pick Up",
    "date_created": "2026-05-19T16:01:47.000",
    "date_modified": "2026-05-19T16:01:51.000",
    "request_status": "Pending",
    "responsible_agency": "Department of Sanitation",
    "final_address": "1841 Alvar St",
    "address_councildis": "D",
    "status": "Assigned to Contractor",
    "contractor": "IV Waste",
    "rowid": "1282719",
    "final_x": "3692269.69731",
    "final_y": "538335.563785",
    "longitude": "-90.03381955907801",
    "latitude": "29.973904698046777",
    "geocoded_column": {
      "latitude": "29.973904698046777",
      "longitude": "-90.03381955907801"
    }
  },
  {
    "service_request": "2026-1282718",
    "request_type": "Trash/Recycling",
    "request_reason": "Request a Large Item Pick Up",
    "date_created": "2026-05-19T15:58:28.000",
    "date_modified": "2026-05-19T15:58:29.000",
    "request_status": "Pending",
    "responsible_agency": "Department of Sanitation",
    "final_address": "2145 Beck St",
    "address_councildis": "C",
    "status": "Assigned to Contractor",
    "contractor": "Richards Disposal",
    "rowid": "1282718",
    "final_x": "3700423.12317",
    "final_y": "523036.440827",
    "longitude": "-90.00862799750014",
    "latitude": "29.931580752663848",
    "geocoded_column": {
      "latitude": "29.931580752663848",
      "longitude": "-90.00862799750014"
    }
  },
  {
    "service_request": "2026-1282717",
    "request_type": "Trash/Recycling",
    "request_reason": "Replace Trash Cart",
    "date_created": "2026-05-19T15:58:26.000",
    "date_modified": "2026-05-19T15:58:29.000",
    "request_status": "Pending",
    "responsible_agency": "Department of Sanitation",
    "final_address": "4742 Sierra Madre Dr",
    "address_councildis": "E",
    "status": "Assigned to Contractor",
    "contractor": "Waste Pro",
    "rowid": "1282717",
    "final_x": "3713838.96767",
    "final_y": "556414.13737",
    "longitude": "-89.96501793385487",
    "latitude": "30.022923576894463",
    "geocoded_column": {
      "latitude": "30.022923576894463",
      "longitude": "-89.96501793385487"
    }
  },
  {
    "service_request": "2026-1282716",
    "request_type": "Trash/Recycling",
    "request_reason": "Repair Trash Cart",
    "date_created": "2026-05-19T15:58:18.000",
    "date_modified": "2026-05-19T15:58:20.000",
    "request_status": "Pending",
    "responsible_agency": "Department of Sanitation",
    "final_address": "4929 S Tonti St",
    "address_councildis": "B",
    "status": "Assigned to Contractor",
    "contractor": "IV Waste",
    "rowid": "1282716",
    "final_x": "3669037.80807",
    "final_y": "528078.675263",
    "longitude": "-90.10753780396585",
    "latitude": "29.946405663751957",
    "geocoded_column": {
      "latitude": "29.946405663751957",
      "longitude": "-90.10753780396585"
    }
  },
  {
    "service_request": "2026-1282715",
    "request_type": "Property Maintenance",
    "request_reason": "Property Maintenance",
    "date_created": "2026-05-19T15:57:00.000",
    "date_modified": "2026-05-19T15:57:02.000",
    "request_status": "Pending",
    "responsible_agency": "Department of Code Enforcement",
    "final_address": "4109 General Ogden St",
    "address_councildis": "A",
    "status": "Pending",
    "rowid": "1282715",
    "final_x": "3666894.49057",
    "final_y": "537933.982217",
    "longitude": "-90.11397390491453",
    "latitude": "29.973567389419685",
    "geocoded_column": {
      "latitude": "29.973567389419685",
      "longitude": "-90.11397390491453"
    }
  },
  {
    "service_request": "2026-1282714",
    "request_type": "Trash/Recycling",
    "request_reason": "Request a Large Item Pick Up",
    "date_created": "2026-05-19T15:56:36.000",
    "date_modified": "2026-05-19T15:56:38.000",
    "request_status": "Pending",
    "responsible_agency": "Department of Sanitation",
    "final_address": "5000 N Prieur St",
    "address_councildis": "E",
    "status": "Assigned to Contractor",
    "contractor": "Waste Pro",
    "rowid": "1282714",
    "final_x": "3696820.63101",
    "final_y": "537159.73076",
    "longitude": "-90.01948935629362",
    "latitude": "29.97052887698136",
    "geocoded_column": {
      "latitude": "29.97052887698136",
      "longitude": "-90.01948935629362"
    }
  },
  {
    "service_request": "2026-1282713",
    "request_type": "Trash/Recycling",
    "request_reason": "Request a Large Item Pick Up",
    "date_created": "2026-05-19T15:56:20.000",
    "date_modified": "2026-05-19T15:56:22.000",
    "request_status": "Pending",
    "responsible_agency": "Department of Sanitation",
    "final_address": "2231 Dreux Ave",
    "address_councildis": "D",
    "status": "Assigned to Contractor",
    "contractor": "IV Waste",
    "rowid": "1282713",
    "final_x": "3684067.08207",
    "final_y": "552092.586774",
    "longitude": "-90.05924209663395",
    "latitude": "30.01198485229877",
    "geocoded_column": {
      "latitude": "30.01198485229877",
      "longitude": "-90.05924209663395"
    }
  },
  {
    "service_request": "2026-1282712",
    "request_type": "Streetlights",
    "request_reason": "Streetlight Outage/Malfunction",
    "date_created": "2026-05-19T15:54:29.000",
    "date_modified": "2026-05-19T15:54:30.000",
    "request_status": "Pending",
    "responsible_agency": "Department of Public Works",
    "final_address": "1000 Poydras St",
    "address_councildis": "B",
    "status": "Pending",
    "rowid": "1282712",
    "final_x": "3679488.08693",
    "final_y": "529561.702977",
    "longitude": "-90.07449115220382",
    "latitude": "29.950171957895243",
    "geocoded_column": {
      "latitude": "29.950171957895243",
      "longitude": "-90.07449115220382"
    }
  },
  {
    "service_request": "2026-1282711",
    "request_type": "Graffiti Removal",
    "request_reason": "Graffiti Removal",
    "date_created": "2026-05-19T15:50:52.000",
    "date_modified": "2026-05-19T15:50:54.000",
    "request_status": "Pending",
    "responsible_agency": "Department of Code Enforcement",
    "final_address": "3058 N Villere St",
    "address_councildis": "C",
    "status": "Pending",
    "rowid": "1282711",
    "final_x": "3689221.6863",
    "final_y": "537091.739208",
    "longitude": "-90.04349004604191",
    "latitude": "29.970579316210586",
    "geocoded_column": {
      "latitude": "29.970579316210586",
      "longitude": "-90.04349004604191"
    }
  },
  {
    "service_request": "2026-1282710",
    "request_type": "Streetlights",
    "request_reason": "Streetlight Outage/Malfunction",
    "date_created": "2026-05-19T15:47:36.000",
    "date_modified": "2026-05-19T15:57:38.000",
    "request_status": "Pending",
    "responsible_agency": "Department of Public Works",
    "final_address": "2800 BLK Holiday Dr",
    "address_councildis": "C",
    "status": "Pending",
    "rowid": "1282710",
    "final_x": "3698814.06657",
    "final_y": "520686.127051",
    "longitude": "-90.0137930148176",
    "latitude": "29.92516924983915",
    "geocoded_column": {
      "latitude": "29.92516924983915",
      "longitude": "-90.0137930148176"
    }
  },
  {
    "service_request": "2026-1282709",
    "request_type": "Trash/Recycling",
    "request_reason": "Request a Large Item Pick Up",
    "date_created": "2026-05-19T15:46:04.000",
    "date_modified": "2026-05-19T15:46:14.000",
    "request_status": "Pending",
    "responsible_agency": "Department of Sanitation",
    "final_address": "2815 Holiday Dr",
    "address_councildis": "C",
    "status": "Assigned to Contractor",
    "contractor": "Richards Disposal",
    "rowid": "1282709",
    "final_x": "3698705.58666",
    "final_y": "520892.921081",
    "longitude": "-90.01412793371172",
    "latitude": "29.925741297129846",
    "geocoded_column": {
      "latitude": "29.925741297129846",
      "longitude": "-90.01412793371172"
    }
  },
  {
    "service_request": "2026-1282708",
    "request_type": "Healthy Homes",
    "request_reason": "Healthy Homes",
    "date_created": "2026-05-19T15:42:49.000",
    "date_modified": "2026-05-19T15:42:51.000",
    "request_status": "Pending",
    "responsible_agency": "Department of Code Enforcement",
    "final_address": "510 N St Patrick St",
    "address_councildis": "A",
    "status": "Pending",
    "rowid": "1282708",
    "final_x": "3670120.11687",
    "final_y": "541112.566732",
    "longitude": "-90.10367893679677",
    "latitude": "29.982212642271655",
    "geocoded_column": {
      "latitude": "29.982212642271655",
      "longitude": "-90.10367893679677"
    }
  },
  {
    "service_request": "2026-1282707",
    "request_type": "Streetlights",
    "request_reason": "Streetlight Outage/Malfunction",
    "date_created": "2026-05-19T15:35:11.000",
    "date_modified": "2026-05-19T15:35:12.000",
    "request_status": "Pending",
    "responsible_agency": "Department of Public Works",
    "final_address": "5947 Memphis St",
    "address_councildis": "A",
    "status": "Pending",
    "rowid": "1282707",
    "final_x": "3669251.50516",
    "final_y": "546978.153105",
    "longitude": "-90.10622403865115",
    "latitude": "29.998366596083763",
    "geocoded_column": {
      "latitude": "29.998366596083763",
      "longitude": "-90.10622403865115"
    }
  },
  {
    "service_request": "2026-1282706",
    "request_type": "Trash/Recycling",
    "request_reason": "Request a Large Item Pick Up",
    "date_created": "2026-05-19T15:33:33.000",
    "date_modified": "2026-05-19T15:33:35.000",
    "request_status": "Pending",
    "responsible_agency": "Department of Sanitation",
    "final_address": "2844 Magazine St",
    "address_councildis": "B",
    "status": "Assigned to Contractor",
    "contractor": "IV Waste",
    "rowid": "1282706",
    "final_x": "3676804.04129",
    "final_y": "520547.0142",
    "longitude": "-90.08327648062173",
    "latitude": "29.925465333362045",
    "geocoded_column": {
      "latitude": "29.925465333362045",
      "longitude": "-90.08327648062173"
    }
  },
  {
    "service_request": "2026-1282705",
    "request_type": "Abandoned Vehicles",
    "request_reason": "Abandoned/Junk Vehicles",
    "date_created": "2026-05-19T15:33:08.000",
    "date_modified": "2026-05-19T15:40:53.000",
    "request_status": "Pending",
    "responsible_agency": "Department of Public Works",
    "final_address": "4762 Eastern St",
    "address_councildis": "D",
    "status": "Pending",
    "rowid": "1282705",
    "final_x": "3687948.49833",
    "final_y": "550922.476949",
    "longitude": "-90.04702057388197",
    "latitude": "30.00864823802789",
    "geocoded_column": {
      "latitude": "30.00864823802789",
      "longitude": "-90.04702057388197"
    }
  },
  {
    "service_request": "2026-1282704",
    "request_type": "Trash/Recycling",
    "request_reason": "Request a Large Item Pick Up",
    "date_created": "2026-05-19T15:29:55.000",
    "date_modified": "2026-05-19T15:29:56.000",
    "request_status": "Pending",
    "responsible_agency": "Department of Sanitation",
    "final_address": "1635 Leon C Simon Dr",
    "address_councildis": "D",
    "status": "Assigned to Contractor",
    "contractor": "IV Waste",
    "rowid": "1282704",
    "final_x": "3679345.51176",
    "final_y": "555752.932185",
    "longitude": "-90.07403246153498",
    "latitude": "30.022192987383132",
    "geocoded_column": {
      "latitude": "30.022192987383132",
      "longitude": "-90.07403246153498"
    }
  },
  {
    "service_request": "2026-1282703",
    "request_type": "Tree Service",
    "request_reason": "Tree Trim",
    "date_created": "2026-05-19T15:25:27.000",
    "date_modified": "2026-05-19T15:25:28.000",
    "request_status": "Pending",
    "responsible_agency": "Department of Parks & Parkways",
    "final_address": "2229 Valence St",
    "address_councildis": "B",
    "status": "Pending",
    "rowid": "1282703",
    "final_x": "3669595.98734",
    "final_y": "523147.127163",
    "longitude": "-90.10594221855766",
    "latitude": "29.932829069973195",
    "geocoded_column": {
      "latitude": "29.932829069973195",
      "longitude": "-90.10594221855766"
    }
  },
  {
    "service_request": "2026-1282702",
    "request_type": "Trash/Recycling",
    "request_reason": "Request a Large Item Pick Up",
    "date_created": "2026-05-19T15:22:06.000",
    "date_modified": "2026-05-19T15:22:10.000",
    "request_status": "Pending",
    "responsible_agency": "Department of Sanitation",
    "final_address": "5928 W Hardy St",
    "address_councildis": "E",
    "status": "Assigned to Contractor",
    "contractor": "Waste Pro",
    "rowid": "1282702",
    "final_x": "3712570.00094",
    "final_y": "561618.655391",
    "longitude": "-89.9688317080715",
    "latitude": "30.037275540187217",
    "geocoded_column": {
      "latitude": "30.037275540187217",
      "longitude": "-89.9688317080715"
    }
  },
  {
    "service_request": "2026-1282701",
    "request_type": "Abandoned Vehicles",
    "request_reason": "Abandoned/Junk Vehicles",
    "date_created": "2026-05-19T15:21:22.000",
    "date_modified": "2026-05-19T15:21:24.000",
    "request_status": "Pending",
    "responsible_agency": "Department of Public Works",
    "final_address": "4121 General Ogden St",
    "address_councildis": "A",
    "status": "Pending",
    "rowid": "1282701",
    "final_x": "3666961.46138",
    "final_y": "538006.990601",
    "longitude": "-90.11375994200519",
    "latitude": "29.973766178283192",
    "geocoded_column": {
      "latitude": "29.973766178283192",
      "longitude": "-90.11375994200519"
    }
  },
  {
    "service_request": "2026-1282700",
    "request_type": "General Services",
    "request_reason": "General Service Request",
    "date_created": "2026-05-19T15:18:41.000",
    "date_modified": "2026-05-19T15:18:43.000",
    "request_status": "Pending",
    "responsible_agency": "Orleans Parish Communication District",
    "final_address": "4518 N Robertson St",
    "address_councildis": "D",
    "status": "Pending",
    "rowid": "1282700",
    "final_x": "3693838.1023",
    "final_y": "536340.381959",
    "longitude": "-90.02893794092603",
    "latitude": "29.968369654976225",
    "geocoded_column": {
      "latitude": "29.968369654976225",
      "longitude": "-90.02893794092603"
    }
  },
  {
    "service_request": "2026-1282699",
    "request_type": "Streetlights",
    "request_reason": "New Streetlight Request",
    "date_created": "2026-05-19T15:17:39.000",
    "date_modified": "2026-05-19T15:17:41.000",
    "request_status": "Pending",
    "responsible_agency": "Department of Public Works",
    "final_address": "7821 W Laverne St",
    "address_councildis": "E",
    "status": "Pending",
    "rowid": "1282699",
    "final_x": "3695017.39024",
    "final_y": "559261.101788",
    "longitude": "-90.02438682960536",
    "latitude": "30.0313562209209",
    "geocoded_column": {
      "latitude": "30.0313562209209",
      "longitude": "-90.02438682960536"
    }
  },
  {
    "service_request": "2026-1282698",
    "request_type": "Trash/Recycling",
    "request_reason": "Replace Trash Cart",
    "date_created": "2026-05-19T15:17:04.000",
    "date_modified": "2026-05-19T15:17:06.000",
    "request_status": "Pending",
    "responsible_agency": "Department of Sanitation",
    "final_address": "2214 Terpsichore St",
    "address_councildis": "B",
    "status": "Assigned to Contractor",
    "contractor": "IV Waste",
    "rowid": "1282698",
    "final_x": "3676672.40936",
    "final_y": "526736.553598",
    "longitude": "-90.08347888142077",
    "latitude": "29.94248849055196",
    "geocoded_column": {
      "latitude": "29.94248849055196",
      "longitude": "-90.08347888142077"
    }
  },
  {
    "service_request": "2026-1282697",
    "request_type": "Trash/Recycling",
    "request_reason": "Request a Large Item Pick Up",
    "date_created": "2026-05-19T15:17:02.000",
    "date_modified": "2026-05-19T15:17:04.000",
    "request_status": "Pending",
    "responsible_agency": "Department of Sanitation",
    "final_address": "4758 Charlmark Dr",
    "address_councildis": "E",
    "status": "Assigned to Contractor",
    "contractor": "Waste Pro",
    "rowid": "1282697",
    "final_x": "3711336.68178",
    "final_y": "556142.57129",
    "longitude": "-89.97293470141582",
    "latitude": "30.022258801712216",
    "geocoded_column": {
      "latitude": "30.022258801712216",
      "longitude": "-89.97293470141582"
    }
  },
  {
    "service_request": "2026-1282696",
    "request_type": "Trash/Recycling",
    "request_reason": "Request a Large Item Pick Up",
    "date_created": "2026-05-19T15:16:40.000",
    "date_modified": "2026-05-19T15:16:42.000",
    "request_status": "Pending",
    "responsible_agency": "Department of Sanitation",
    "final_address": "8931 Curran Rd",
    "address_councildis": "E",
    "status": "Assigned to Contractor",
    "contractor": "Waste Pro",
    "rowid": "1282696",
    "final_x": "3705128.51908",
    "final_y": "563120.404384",
    "longitude": "-89.99229276547621",
    "latitude": "30.04164631631388",
    "geocoded_column": {
      "latitude": "30.04164631631388",
      "longitude": "-89.99229276547621"
    }
  },
  {
    "service_request": "2026-1282695",
    "request_type": "Trash/Recycling",
    "request_reason": "Replace Recycling Cart",
    "date_created": "2026-05-19T15:14:00.000",
    "date_modified": "2026-05-19T15:14:02.000",
    "request_status": "Pending",
    "responsible_agency": "Department of Sanitation",
    "final_address": "7600 Pebble Dr",
    "address_councildis": "E",
    "status": "Pending",
    "rowid": "1282695",
    "final_x": "3715197.57221",
    "final_y": "568736.974437",
    "longitude": "-89.9602585087202",
    "latitude": "30.056761722480164",
    "geocoded_column": {
      "latitude": "30.056761722480164",
      "longitude": "-89.9602585087202"
    }
  },
  {
    "service_request": "2026-1282694",
    "request_type": "Trash/Recycling",
    "request_reason": "Request a Large Item Pick Up",
    "date_created": "2026-05-19T15:11:32.000",
    "date_modified": "2026-05-19T15:11:33.000",
    "request_status": "Pending",
    "responsible_agency": "Department of Sanitation",
    "final_address": "7801 Duke Ct",
    "address_councildis": "E",
    "status": "Assigned to Contractor",
    "contractor": "Waste Pro",
    "rowid": "1282694",
    "final_x": "3700165.73303",
    "final_y": "561123.083806",
    "longitude": "-90.0080499022507",
    "latitude": "30.036313233962787",
    "geocoded_column": {
      "latitude": "30.036313233962787",
      "longitude": "-90.0080499022507"
    }
  },
  {
    "service_request": "2026-1282693",
    "request_type": "Trash/Recycling",
    "request_reason": "Dead Animal Pick Up",
    "date_created": "2026-05-19T15:11:18.000",
    "date_modified": "2026-05-19T15:11:20.000",
    "request_status": "Pending",
    "responsible_agency": "Department of Sanitation",
    "final_address": "1618 Rousselin Dr",
    "address_councildis": "D",
    "status": "Assigned to Contractor",
    "contractor": "IV Waste",
    "rowid": "1282693",
    "final_x": "3679513.85013",
    "final_y": "540056.167691",
    "longitude": "-90.07404563871349",
    "latitude": "29.979027379208247",
    "geocoded_column": {
      "latitude": "29.979027379208247",
      "longitude": "-90.07404563871349"
    }
  },
  {
    "service_request": "2026-1282692",
    "request_type": "Trash/Recycling",
    "request_reason": "MIssed Recycling Pick-Up",
    "date_created": "2026-05-19T15:10:41.000",
    "date_modified": "2026-05-19T15:10:44.000",
    "request_status": "Pending",
    "responsible_agency": "Department of Sanitation",
    "final_address": "7742 Scottwood Dr",
    "address_councildis": "E",
    "status": "Assigned to Contractor",
    "contractor": "Waste Pro",
    "rowid": "1282692",
    "final_x": "3716806.98252",
    "final_y": "571269.478376",
    "longitude": "-89.95507518424719",
    "latitude": "30.063671931463453",
    "geocoded_column": {
      "latitude": "30.063671931463453",
      "longitude": "-89.95507518424719"
    }
  },
  {
    "service_request": "2026-1282691",
    "request_type": "Roads and Streets",
    "request_reason": "Abandoned Service Cut",
    "date_created": "2026-05-19T15:05:28.000",
    "date_modified": "2026-05-19T15:08:30.000",
    "request_status": "Pending",
    "responsible_agency": "Department of Public Works",
    "final_address": "N ROCHEBLAVE ST & BARTHOLOMEW ST",
    "address_councildis": "D",
    "status": "Pending",
    "rowid": "1282691",
    "final_x": "3693021.7",
    "final_y": "540202.78",
    "longitude": "-90.03137757214527",
    "latitude": "29.97901540386858",
    "geocoded_column": {
      "latitude": "29.97901540386858",
      "longitude": "-90.03137757214527"
    }
  },
  {
    "service_request": "2026-1282690",
    "request_type": "Trash/Recycling",
    "request_reason": "Request a Large Item Pick Up",
    "date_created": "2026-05-19T15:04:19.000",
    "date_modified": "2026-05-19T15:04:22.000",
    "request_status": "Pending",
    "responsible_agency": "Department of Sanitation",
    "final_address": "1030 Gordon St",
    "address_councildis": "E",
    "status": "Assigned to Contractor",
    "contractor": "Waste Pro",
    "rowid": "1282690",
    "final_x": "3699065.49904",
    "final_y": "533319.297796",
    "longitude": "-90.01253965056752",
    "latitude": "29.959898093362458",
    "geocoded_column": {
      "latitude": "29.959898093362458",
      "longitude": "-90.01253965056752"
    }
  },
  {
    "service_request": "2026-1282689",
    "request_type": "Streetlights",
    "request_reason": "Streetlight Outage/Malfunction",
    "date_created": "2026-05-19T15:02:38.000",
    "date_modified": "2026-05-19T15:02:39.000",
    "request_status": "Pending",
    "responsible_agency": "Department of Public Works",
    "final_address": "5444 Pauline Dr",
    "address_councildis": "D",
    "status": "Pending",
    "rowid": "1282689",
    "final_x": "3692040.01187",
    "final_y": "554179.023704",
    "longitude": "-90.03397754504478",
    "latitude": "30.01747560356771",
    "geocoded_column": {
      "latitude": "30.01747560356771",
      "longitude": "-90.03397754504478"
    }
  },
  {
    "service_request": "2026-1282688",
    "request_type": "Trash/Recycling",
    "request_reason": "Request a Large Item Pick Up",
    "date_created": "2026-05-19T15:00:47.000",
    "date_modified": "2026-05-19T16:22:45.000",
    "request_status": "Pending",
    "responsible_agency": "Department of Sanitation",
    "final_address": "3615 Elysian Fields Ave",
    "address_councildis": "D",
    "status": "Assigned to Contractor",
    "contractor": "IV Waste",
    "rowid": "1282688",
    "final_x": "3684377.11714",
    "final_y": "546015.30152",
    "longitude": "-90.0584761911619",
    "latitude": "29.99526502865968",
    "geocoded_column": {
      "latitude": "29.99526502865968",
      "longitude": "-90.0584761911619"
    }
  },
  {
    "service_request": "2026-1282687",
    "request_type": "Trash/Recycling",
    "request_reason": "Request a Large Item Pick Up",
    "date_created": "2026-05-19T14:57:17.000",
    "date_modified": "2026-05-19T15:29:13.000",
    "case_close_date": "2026-05-19T10:29:12.000",
    "request_status": "Closed",
    "responsible_agency": "Department of Sanitation",
    "final_address": "11235 Waverly Dr",
    "address_councildis": "E",
    "status": "Duplicate Request",
    "contractor": "Waste Pro",
    "contractor_action": "Duplicate",
    "rowid": "1282687",
    "final_x": "3717194.09176",
    "final_y": "560157.229853",
    "longitude": "-89.95427427964802",
    "latitude": "30.03310499095509",
    "geocoded_column": {
      "latitude": "30.03310499095509",
      "longitude": "-89.95427427964802"
    }
  },
  {
    "service_request": "2026-1282686",
    "request_type": "Trash/Recycling",
    "request_reason": "Replace Trash Cart",
    "date_created": "2026-05-19T14:57:16.000",
    "date_modified": "2026-05-19T14:57:17.000",
    "request_status": "Pending",
    "responsible_agency": "Department of Sanitation",
    "final_address": "4911 Miles Dr",
    "address_councildis": "D",
    "status": "Assigned to Contractor",
    "contractor": "IV Waste",
    "rowid": "1282686",
    "final_x": "3680258.03989",
    "final_y": "549509.306579",
    "longitude": "-90.07136637701485",
    "latitude": "30.004997668215562",
    "geocoded_column": {
      "latitude": "30.004997668215562",
      "longitude": "-90.07136637701485"
    }
  },
  {
    "service_request": "2026-1282685",
    "request_type": "Streetlights",
    "request_reason": "Streetlight Outage/Malfunction",
    "date_created": "2026-05-19T14:51:32.000",
    "date_modified": "2026-05-19T14:51:33.000",
    "request_status": "Pending",
    "responsible_agency": "Department of Public Works",
    "final_address": "1201 Riviera Ave",
    "address_councildis": "D",
    "status": "Pending",
    "rowid": "1282685",
    "final_x": "3676821.97435",
    "final_y": "550909.154965",
    "longitude": "-90.0821733380724",
    "latitude": "30.008950360000725",
    "geocoded_column": {
      "latitude": "30.008950360000725",
      "longitude": "-90.0821733380724"
    }
  },
  {
    "service_request": "2026-1282684",
    "request_type": "Trash/Recycling",
    "request_reason": "Request a Large Item Pick Up",
    "date_created": "2026-05-19T14:49:58.000",
    "date_modified": "2026-05-19T14:49:59.000",
    "request_status": "Pending",
    "responsible_agency": "Department of Sanitation",
    "final_address": "839 St Ferdinand St",
    "address_councildis": "C",
    "status": "Assigned to Contractor",
    "contractor": "IV Waste",
    "rowid": "1282684",
    "final_x": "3687537.22569",
    "final_y": "535485.79911",
    "longitude": "-90.04886660993738",
    "latitude": "29.966215571903426",
    "geocoded_column": {
      "latitude": "29.966215571903426",
      "longitude": "-90.04886660993738"
    }
  },
  {
    "service_request": "2026-1282683",
    "request_type": "Trash/Recycling",
    "request_reason": "Request a Large Item Pick Up",
    "date_created": "2026-05-19T14:48:23.000",
    "date_modified": "2026-05-19T14:48:25.000",
    "request_status": "Pending",
    "responsible_agency": "Department of Sanitation",
    "final_address": "1621 Lamanche St",
    "address_councildis": "E",
    "status": "Assigned to Contractor",
    "contractor": "Waste Pro",
    "rowid": "1282683",
    "final_x": "3698990.52618",
    "final_y": "535692.897223",
    "longitude": "-90.01269000959418",
    "latitude": "29.96642702044575",
    "geocoded_column": {
      "latitude": "29.96642702044575",
      "longitude": "-90.01269000959418"
    }
  },
  {
    "service_request": "2026-1282682",
    "request_type": "Trash/Recycling",
    "request_reason": "Order Trash Cart",
    "date_created": "2026-05-19T14:47:42.000",
    "date_modified": "2026-05-19T14:47:43.000",
    "request_status": "Pending",
    "responsible_agency": "Department of Sanitation",
    "final_address": "3120 Washington Ave",
    "address_councildis": "B",
    "status": "Assigned to Contractor",
    "contractor": "IV Waste",
    "rowid": "1282682",
    "final_x": "3672806.82241",
    "final_y": "527159.083327",
    "longitude": "-90.0956690364537",
    "latitude": "29.943765682402507",
    "geocoded_column": {
      "latitude": "29.943765682402507",
      "longitude": "-90.0956690364537"
    }
  },
  {
    "service_request": "2026-1282681",
    "request_type": "Street and Traffic Signs",
    "request_reason": "Disabled Parking Sign Missing or Damaged",
    "date_created": "2026-05-19T14:47:13.000",
    "date_modified": "2026-05-19T14:47:15.000",
    "request_status": "Pending",
    "responsible_agency": "Department of Public Works",
    "final_address": "5342 St Charles Ave",
    "address_councildis": "B",
    "status": "Pending",
    "rowid": "1282681",
    "final_x": "3667474.89831",
    "final_y": "521397.581753",
    "longitude": "-90.11269719363567",
    "latitude": "29.928080680395222",
    "geocoded_column": {
      "latitude": "29.928080680395222",
      "longitude": "-90.11269719363567"
    }
  },
  {
    "service_request": "2026-1282680",
    "request_type": "Property Maintenance",
    "request_reason": "Property Maintenance",
    "date_created": "2026-05-19T14:46:28.000",
    "date_modified": "2026-05-19T14:46:35.000",
    "request_status": "Pending",
    "responsible_agency": "Department of Code Enforcement",
    "final_address": "4229 Jumonville St",
    "address_councildis": "D",
    "status": "Pending",
    "rowid": "1282680",
    "final_x": "3678053.37198",
    "final_y": "547840.607506",
    "longitude": "-90.07838911903373",
    "latitude": "30.000475918502744",
    "geocoded_column": {
      "latitude": "30.000475918502744",
      "longitude": "-90.07838911903373"
    }
  },
  {
    "service_request": "2026-1282679",
    "request_type": "Trash/Recycling",
    "request_reason": "Request a Large Item Pick Up",
    "date_created": "2026-05-19T14:44:28.000",
    "date_modified": "2026-05-19T14:44:29.000",
    "request_status": "Pending",
    "responsible_agency": "Department of Sanitation",
    "final_address": "5751 Wright Rd",
    "address_councildis": "E",
    "status": "Assigned to Contractor",
    "contractor": "Waste Pro",
    "rowid": "1282679",
    "final_x": "3714499.85535",
    "final_y": "561211.025886",
    "longitude": "-89.96274840171503",
    "latitude": "30.03609139180335",
    "geocoded_column": {
      "latitude": "30.03609139180335",
      "longitude": "-89.96274840171503"
    }
  },
  {
    "service_request": "2026-1282678",
    "request_type": "Trash/Recycling",
    "request_reason": "Repair Trash Cart",
    "date_created": "2026-05-19T14:43:35.000",
    "date_modified": "2026-05-19T14:43:37.000",
    "request_status": "Pending",
    "responsible_agency": "Department of Sanitation",
    "final_address": "2915 Mistletoe St",
    "address_councildis": "A",
    "status": "Assigned to Contractor",
    "contractor": "IV Waste",
    "rowid": "1282678",
    "final_x": "3663329.56858",
    "final_y": "535582.959814",
    "longitude": "-90.12531101654825",
    "latitude": "29.96720668470938",
    "geocoded_column": {
      "latitude": "29.96720668470938",
      "longitude": "-90.12531101654825"
    }
  },
  {
    "service_request": "2026-1282677",
    "request_type": "Trash/Recycling",
    "request_reason": "Illegal Dumping",
    "date_created": "2026-05-19T14:43:34.000",
    "date_modified": "2026-05-19T14:43:36.000",
    "request_status": "Pending",
    "responsible_agency": "Department of Sanitation",
    "final_address": "4700 BLK S Saratoga St",
    "address_councildis": "B",
    "status": "Pending",
    "rowid": "1282677",
    "final_x": "3669383.76618",
    "final_y": "522515.294652",
    "longitude": "-90.10663354041928",
    "latitude": "29.931097981948888",
    "geocoded_column": {
      "latitude": "29.931097981948888",
      "longitude": "-90.10663354041928"
    }
  },
  {
    "service_request": "2026-1282676",
    "request_type": "Trash/Recycling",
    "request_reason": "Order Second Trash Cart",
    "date_created": "2026-05-19T14:40:29.000",
    "date_modified": "2026-05-19T14:40:32.000",
    "request_status": "Pending",
    "responsible_agency": "Department of Sanitation",
    "final_address": "1821 Erato St",
    "address_councildis": "B",
    "status": "Assigned to Contractor",
    "contractor": "IV Waste",
    "rowid": "1282676",
    "final_x": "3678617.20181",
    "final_y": "526659.547454",
    "longitude": "-90.0773413913633",
    "latitude": "29.94221827634417",
    "geocoded_column": {
      "latitude": "29.94221827634417",
      "longitude": "-90.0773413913633"
    }
  },
  {
    "service_request": "2026-1282675",
    "request_type": "Trash/Recycling",
    "request_reason": "Repair Recycling Cart",
    "date_created": "2026-05-19T14:37:25.000",
    "date_modified": "2026-05-19T14:37:27.000",
    "request_status": "Pending",
    "responsible_agency": "Department of Sanitation",
    "final_address": "5606 Bellaire Dr",
    "address_councildis": "A",
    "status": "Pending",
    "rowid": "1282675",
    "final_x": "3664040.51629",
    "final_y": "545074.919823",
    "longitude": "-90.12274913135253",
    "latitude": "29.99328577056706",
    "geocoded_column": {
      "latitude": "29.99328577056706",
      "longitude": "-90.12274913135253"
    }
  },
  {
    "service_request": "2026-1282674",
    "request_type": "Trash/Recycling",
    "request_reason": "Order Recycling Cart",
    "date_created": "2026-05-19T14:32:12.000",
    "date_modified": "2026-05-19T14:32:14.000",
    "request_status": "Pending",
    "responsible_agency": "Department of Sanitation",
    "final_address": "1815 Desire St",
    "address_councildis": "D",
    "status": "Pending",
    "rowid": "1282674",
    "final_x": "3690905.53788",
    "final_y": "538458.496585",
    "longitude": "-90.03812347398859",
    "latitude": "29.974285189380026",
    "geocoded_column": {
      "latitude": "29.974285189380026",
      "longitude": "-90.03812347398859"
    }
  },
  {
    "service_request": "2026-1282673",
    "request_type": "Property Maintenance",
    "request_reason": "Property Maintenance",
    "date_created": "2026-05-19T14:32:07.000",
    "date_modified": "2026-05-19T14:32:08.000",
    "request_status": "Pending",
    "responsible_agency": "Department of Code Enforcement",
    "final_address": "4301 Annette St",
    "address_councildis": "D",
    "status": "Pending",
    "rowid": "1282673",
    "final_x": "3682221.0838",
    "final_y": "548353.32789",
    "longitude": "-90.06520513789978",
    "latitude": "30.0017595487197",
    "geocoded_column": {
      "latitude": "30.0017595487197",
      "longitude": "-90.06520513789978"
    }
  },
  {
    "service_request": "2026-1282672",
    "request_type": "Property Maintenance",
    "request_reason": "Property Maintenance",
    "date_created": "2026-05-19T14:30:40.000",
    "date_modified": "2026-05-19T14:30:41.000",
    "request_status": "Pending",
    "responsible_agency": "Department of Code Enforcement",
    "final_address": "3524 Robert St",
    "address_councildis": "B",
    "status": "Pending",
    "rowid": "1282672",
    "final_x": "3668897.11732",
    "final_y": "527827.780927",
    "longitude": "-90.10799048685394",
    "latitude": "29.945719923620853",
    "geocoded_column": {
      "latitude": "29.945719923620853",
      "longitude": "-90.10799048685394"
    }
  },
  {
    "service_request": "2026-1282671",
    "request_type": "Trash/Recycling",
    "request_reason": "Request a Large Item Pick Up",
    "date_created": "2026-05-19T14:29:19.000",
    "date_modified": "2026-05-19T14:29:22.000",
    "request_status": "Pending",
    "responsible_agency": "Department of Sanitation",
    "final_address": "11235 Waverly Dr",
    "address_councildis": "E",
    "status": "Assigned to Contractor",
    "contractor": "Waste Pro",
    "rowid": "1282671",
    "final_x": "3717194.09176",
    "final_y": "560157.229853",
    "longitude": "-89.95427427964802",
    "latitude": "30.03310499095509",
    "geocoded_column": {
      "latitude": "30.03310499095509",
      "longitude": "-89.95427427964802"
    }
  },
  {
    "service_request": "2026-1282670",
    "request_type": "Roads and Streets",
    "request_reason": "Pothole",
    "date_created": "2026-05-19T14:27:14.000",
    "date_modified": "2026-05-19T14:48:03.000",
    "request_status": "Pending",
    "responsible_agency": "Department of Public Works",
    "final_address": "500 BLK Evelina St",
    "address_councildis": "C",
    "status": "Pending",
    "rowid": "1282670",
    "final_x": "3687151.59548",
    "final_y": "529488.40669",
    "longitude": "-90.0502964926305",
    "latitude": "29.949736691409722",
    "geocoded_column": {
      "latitude": "29.949736691409722",
      "longitude": "-90.0502964926305"
    }
  },
  {
    "service_request": "2026-1282669",
    "request_type": "Roads and Streets",
    "request_reason": "Pothole",
    "date_created": "2026-05-19T14:27:11.000",
    "date_modified": "2026-05-19T14:48:01.000",
    "request_status": "Pending",
    "responsible_agency": "Department of Public Works",
    "final_address": "600 BLK Evelina St",
    "address_councildis": "C",
    "status": "Pending",
    "rowid": "1282669",
    "final_x": "3687398.04577",
    "final_y": "529495.284629",
    "longitude": "-90.04951809489775",
    "latitude": "29.94974801315236",
    "geocoded_column": {
      "latitude": "29.94974801315236",
      "longitude": "-90.04951809489775"
    }
  },
  {
    "service_request": "2026-1282668",
    "request_type": "Trash/Recycling",
    "request_reason": "Request a Large Item Pick Up",
    "date_created": "2026-05-19T14:23:46.000",
    "date_modified": "2026-05-19T14:23:48.000",
    "request_status": "Pending",
    "responsible_agency": "Department of Sanitation",
    "final_address": "7930 Unity Dr",
    "address_councildis": "E",
    "status": "Assigned to Contractor",
    "contractor": "Waste Pro",
    "rowid": "1282668",
    "final_x": "3711453.87192",
    "final_y": "567858.245028",
    "longitude": "-89.97212464927337",
    "latitude": "30.05446839426302",
    "geocoded_column": {
      "latitude": "30.05446839426302",
      "longitude": "-89.97212464927337"
    }
  },
  {
    "service_request": "2026-1282667",
    "request_type": "Streetlights",
    "request_reason": "Streetlight Outage/Malfunction",
    "date_created": "2026-05-19T14:15:58.000",
    "date_modified": "2026-05-19T14:15:59.000",
    "request_status": "Pending",
    "responsible_agency": "Department of Public Works",
    "final_address": "1512 Audubon St",
    "address_councildis": "A",
    "status": "Pending",
    "rowid": "1282667",
    "final_x": "3665060.85274",
    "final_y": "527354.346751",
    "longitude": "-90.12011872023237",
    "latitude": "29.9445303779126",
    "geocoded_column": {
      "latitude": "29.9445303779126",
      "longitude": "-90.12011872023237"
    }
  },