[
  {
    "service_request": "2025-1183553",
    "request_type": "Streetlights",
    "request_reason": "Streetlight Outage/Malfunction",
    "date_created": "2025-04-13T23:12:47.000",
    "date_modified": "2025-04-13T23:12:49.000",
    "request_status": "Pending",
    "responsible_agency": "Department of Public Works",
    "final_address": "1415 Soniat St",
    "address_councildis": "B",
    "status": "Pending",
    "contractor": "Legacy Professional Services",
    "rowid": "1183553",
    "final_x": "3668477.77351",
    "final_y": "520294.472888",
    "longitude": "-90.10956852527573",
    "latitude": "29.92501806744032",
    "geocoded_column": {
      "latitude": "29.92501806744032",
      "longitude": "-90.10956852527573"
    }
  },
  {
    "service_request": "2025-1183552",
    "request_type": "Trash/Recycling",
    "request_reason": "Order Trash Cart",
    "date_created": "2025-04-13T23:01:28.000",
    "date_modified": "2025-04-13T23:01:30.000",
    "request_status": "Pending",
    "responsible_agency": "Department of Sanitation",
    "final_address": "1928 Joliet St",
    "address_councildis": "A",
    "status": "Assigned to Contractor",
    "contractor": "IV Waste",
    "rowid": "1183552",
    "final_x": "3662676.13568",
    "final_y": "531337.74029",
    "longitude": "-90.12751565674253",
    "latitude": "29.95555264091527",
    "geocoded_column": {
      "latitude": "29.95555264091527",
      "longitude": "-90.12751565674253"
    }
  },
  {
    "service_request": "2025-1183551",
    "request_type": "Trash/Recycling",
    "request_reason": "Order Recycling Cart",
    "date_created": "2025-04-13T22:55:38.000",
    "date_modified": "2025-04-13T22:55:39.000",
    "request_status": "Pending",
    "responsible_agency": "Department of Sanitation",
    "final_address": "1928 Joliet St",
    "address_councildis": "A",
    "status": "Pending",
    "rowid": "1183551",
    "final_x": "3662676.13568",
    "final_y": "531337.74029",
    "longitude": "-90.12751565674253",
    "latitude": "29.95555264091527",
    "geocoded_column": {
      "latitude": "29.95555264091527",
      "longitude": "-90.12751565674253"
    }
  },
  {
    "service_request": "2025-1183550",
    "request_type": "Trash/Recycling",
    "request_reason": "Replace Trash Cart",
    "date_created": "2025-04-13T22:46:27.000",
    "date_modified": "2025-04-13T22:46:29.000",
    "request_status": "Pending",
    "responsible_agency": "Department of Sanitation",
    "final_address": "5766 Pasteur Blvd",
    "address_councildis": "D",
    "status": "Assigned to Contractor",
    "contractor": "IV Waste",
    "rowid": "1183550",
    "final_x": "3682659.17186",
    "final_y": "554610.203544",
    "longitude": "-90.06360214073291",
    "latitude": "30.01895035086976",
    "geocoded_column": {
      "latitude": "30.01895035086976",
      "longitude": "-90.06360214073291"
    }
  },
  {
    "service_request": "2025-1183549",
    "request_type": "Streetlights",
    "request_reason": "Streetlight Outage/Malfunction",
    "date_created": "2025-04-13T22:35:58.000",
    "date_modified": "2025-04-13T22:36:00.000",
    "request_status": "Pending",
    "responsible_agency": "Department of Public Works",
    "final_address": "5766 Pasteur Blvd",
    "address_councildis": "D",
    "status": "Pending",
    "contractor": "Legacy Professional Services",
    "rowid": "1183549",
    "final_x": "3682659.17186",
    "final_y": "554610.203544",
    "longitude": "-90.06360214073291",
    "latitude": "30.01895035086976",
    "geocoded_column": {
      "latitude": "30.01895035086976",
      "longitude": "-90.06360214073291"
    }
  },
  {
    "service_request": "2025-1183548",
    "request_type": "Streetlights",
    "request_reason": "Streetlight Outage/Malfunction",
    "date_created": "2025-04-13T22:27:21.000",
    "date_modified": "2025-04-13T22:27:23.000",
    "request_status": "Pending",
    "responsible_agency": "Department of Public Works",
    "final_address": "5766 Pasteur Blvd",
    "address_councildis": "D",
    "status": "Pending",
    "contractor": "Legacy Professional Services",
    "rowid": "1183548",
    "final_x": "3682659.17186",
    "final_y": "554610.203544",
    "longitude": "-90.06360214073291",
    "latitude": "30.01895035086976",
    "geocoded_column": {
      "latitude": "30.01895035086976",
      "longitude": "-90.06360214073291"
    }
  },
  {
    "service_request": "2025-1183547",
    "request_type": "Streetlights",
    "request_reason": "Streetlight Outage/Malfunction",
    "date_created": "2025-04-13T22:22:49.000",
    "date_modified": "2025-04-13T22:22:50.000",
    "request_status": "Pending",
    "responsible_agency": "Department of Public Works",
    "final_address": "5766 Pasteur Blvd",
    "address_councildis": "D",
    "status": "Pending",
    "contractor": "Legacy Professional Services",
    "rowid": "1183547",
    "final_x": "3682659.17186",
    "final_y": "554610.203544",
    "longitude": "-90.06360214073291",
    "latitude": "30.01895035086976",
    "geocoded_column": {
      "latitude": "30.01895035086976",
      "longitude": "-90.06360214073291"
    }
  },
  {
    "service_request": "2025-1183546",
    "request_type": "Streetlights",
    "request_reason": "Streetlight Outage/Malfunction",
    "date_created": "2025-04-13T22:12:32.000",
    "date_modified": "2025-04-13T22:12:34.000",
    "request_status": "Pending",
    "responsible_agency": "Department of Public Works",
    "final_address": "1115 Crete St",
    "address_councildis": "A",
    "status": "Pending",
    "contractor": "Legacy Professional Services",
    "rowid": "1183546",
    "final_x": "3677617.11163",
    "final_y": "538827.812617",
    "longitude": "-90.08007870441617",
    "latitude": "29.9757070068908",
    "geocoded_column": {
      "latitude": "29.9757070068908",
      "longitude": "-90.08007870441617"
    }
  },
  {
    "service_request": "2025-1183545",
    "request_type": "Streetlights",
    "request_reason": "Streetlight Outage/Malfunction",
    "date_created": "2025-04-13T22:08:45.000",
    "date_modified": "2025-04-13T22:08:47.000",
    "request_status": "Pending",
    "responsible_agency": "Department of Public Works",
    "final_address": "1115 Crete St",
    "address_councildis": "A",
    "status": "Pending",
    "contractor": "Legacy Professional Services",
    "rowid": "1183545",
    "final_x": "3677617.11163",
    "final_y": "538827.812617",
    "longitude": "-90.08007870441617",
    "latitude": "29.9757070068908",
    "geocoded_column": {
      "latitude": "29.9757070068908",
      "longitude": "-90.08007870441617"
    }
  },
  {
    "service_request": "2025-1183544",
    "request_type": "Trash/Recycling",
    "request_reason": "Order Trash Cart",
    "date_created": "2025-04-13T21:09:28.000",
    "date_modified": "2025-04-13T21:09:31.000",
    "request_status": "Pending",
    "responsible_agency": "Department of Sanitation",
    "final_address": "2511 Independence St",
    "address_councildis": "D",
    "status": "Assigned to Contractor",
    "contractor": "IV Waste",
    "rowid": "1183544",
    "final_x": "3692331.38921",
    "final_y": "540834.065803",
    "longitude": "-90.0335352127006",
    "latitude": "29.98077276306353",
    "geocoded_column": {
      "latitude": "29.98077276306353",
      "longitude": "-90.0335352127006"
    }
  },
  {
    "service_request": "2025-1183543",
    "request_type": "Health Related Request",
    "request_reason": "Noise Ordinance Complaint",
    "date_created": "2025-04-13T21:07:39.000",
    "date_modified": "2025-04-13T21:07:41.000",
    "request_status": "Pending",
    "responsible_agency": "Health Department",
    "final_address": "3517 4th street",
    "status": "Pending",
    "rowid": "1183543",
    "longitude": "0.0",
    "latitude": "0.0",
    "geocoded_column": {
      "latitude": "0.0",
      "longitude": "0.0"
    }
  },
  {
    "service_request": "2025-1183542",
    "request_type": "Streetlights",
    "request_reason": "Streetlight Outage/Malfunction",
    "date_created": "2025-04-13T20:56:25.000",
    "date_modified": "2025-04-13T20:56:26.000",
    "request_status": "Pending",
    "responsible_agency": "Department of Public Works",
    "final_address": "7301 West End Blvd A",
    "address_councildis": "D",
    "status": "Pending",
    "contractor": "Legacy Professional Services",
    "rowid": "1183542",
    "final_x": "3667086.86535",
    "final_y": "555596.152153",
    "longitude": "-90.11277215807408",
    "latitude": "30.022126645304215",
    "geocoded_column": {
      "latitude": "30.022126645304215",
      "longitude": "-90.11277215807408"
    }
  },
  {
    "service_request": "2025-1183541",
    "request_type": "Abandoned Vehicles",
    "request_reason": "Abandoned/Junk Vehicles",
    "date_created": "2025-04-13T20:49:21.000",
    "date_modified": "2025-04-13T20:49:23.000",
    "request_status": "Pending",
    "responsible_agency": "Department of Public Works",
    "final_address": "7301 West End Blvd A",
    "address_councildis": "D",
    "status": "Pending",
    "rowid": "1183541",
    "final_x": "3667086.86535",
    "final_y": "555596.152153",
    "longitude": "-90.11277215807408",
    "latitude": "30.022126645304215",
    "geocoded_column": {
      "latitude": "30.022126645304215",
      "longitude": "-90.11277215807408"
    }
  },
  {
    "service_request": "2025-1183540",
    "request_type": "Trash/Recycling",
    "request_reason": "Request a Large Item Pick Up",
    "date_created": "2025-04-13T20:41:20.000",
    "date_modified": "2025-04-13T20:41:22.000",
    "request_status": "Pending",
    "responsible_agency": "Department of Sanitation",
    "final_address": "6942 Argonne Blvd",
    "address_councildis": "A",
    "status": "Assigned to Contractor",
    "contractor": "IV Waste",
    "rowid": "1183540",
    "final_x": "3670673.50907",
    "final_y": "553540.415319",
    "longitude": "-90.10150906345078",
    "latitude": "30.016368562910554",
    "geocoded_column": {
      "latitude": "30.016368562910554",
      "longitude": "-90.10150906345078"
    }
  },
  {
    "service_request": "2025-1183539",
    "request_type": "Health Related Request",
    "request_reason": "Noise Ordinance Complaint",
    "date_created": "2025-04-13T20:31:17.000",
    "date_modified": "2025-04-13T20:31:20.000",
    "request_status": "Pending",
    "responsible_agency": "Health Department",
    "final_address": "3111 Grand-Route St John St",
    "address_councildis": "A",
    "status": "Pending",
    "rowid": "1183539",
    "final_x": "3676507.66805",
    "final_y": "540406.357323",
    "longitude": "-90.0835282619005",
    "latitude": "29.980080781175236",
    "geocoded_column": {
      "latitude": "29.980080781175236",
      "longitude": "-90.0835282619005"
    }
  },
  {
    "service_request": "2025-1183538",
    "request_type": "Trash/Recycling",
    "request_reason": "Request a Large Item Pick Up",
    "date_created": "2025-04-13T20:11:03.000",
    "date_modified": "2025-04-13T20:11:04.000",
    "request_status": "Pending",
    "responsible_agency": "Department of Sanitation",
    "final_address": "3623 Touro St",
    "address_councildis": "D",
    "status": "Assigned to Contractor",
    "contractor": "IV Waste",
    "rowid": "1183538",
    "final_x": "3683492.17756",
    "final_y": "545980.3828",
    "longitude": "-90.0612728466023",
    "latitude": "29.99519605741199",
    "geocoded_column": {
      "latitude": "29.99519605741199",
      "longitude": "-90.0612728466023"
    }
  },
  {
    "service_request": "2025-1183537",
    "request_type": "Trash/Recycling",
    "request_reason": "Request a Large Item Pick Up",
    "date_created": "2025-04-13T20:10:23.000",
    "date_modified": "2025-04-13T20:10:25.000",
    "request_status": "Pending",
    "responsible_agency": "Department of Sanitation",
    "final_address": "80 Yosemite Dr",
    "address_councildis": "C",
    "status": "Assigned to Contractor",
    "contractor": "Richards Disposal",
    "rowid": "1183537",
    "final_x": "3699493.14826",
    "final_y": "516061.934196",
    "longitude": "-90.01181773451229",
    "latitude": "29.912432775643875",
    "geocoded_column": {
      "latitude": "29.912432775643875",
      "longitude": "-90.01181773451229"
    }
  },
  {
    "service_request": "2025-1183536",
    "request_type": "Trash/Recycling",
    "request_reason": "Request a Large Item Pick Up",
    "date_created": "2025-04-13T19:52:16.000",
    "date_modified": "2025-04-13T19:52:18.000",
    "request_status": "Pending",
    "responsible_agency": "Department of Sanitation",
    "final_address": "9933 E Wheaton Cir",
    "address_councildis": "E",
    "status": "Assigned to Contractor",
    "contractor": "Waste Pro",
    "rowid": "1183536",
    "final_x": "3708933.22328",
    "final_y": "562402.814687",
    "longitude": "-89.98029539098256",
    "latitude": "30.03955024513202",
    "geocoded_column": {
      "latitude": "30.03955024513202",
      "longitude": "-89.98029539098256"
    }
  },
  {
    "service_request": "2025-1183534",
    "request_type": "Drainage",
    "request_reason": "Catch Basin Clogged",
    "date_created": "2025-04-13T19:36:11.000",
    "date_modified": "2025-04-13T19:36:13.000",
    "request_status": "Pending",
    "responsible_agency": "Sewerage & Water Board ",
    "final_address": "3915 St Charles Ave",
    "address_councildis": "B",
    "status": "Pending",
    "rowid": "1183534",
    "final_x": "3672549.50183",
    "final_y": "521103.606969",
    "longitude": "-90.09668780728617",
    "latitude": "29.927122725406615",
    "geocoded_column": {
      "latitude": "29.927122725406615",
      "longitude": "-90.09668780728617"
    }
  },
  {
    "service_request": "2025-1183530",
    "request_type": "Drainage",
    "request_reason": "Catch Basin Clogged",
    "date_created": "2025-04-13T19:36:11.000",
    "date_modified": "2025-04-13T19:36:13.000",
    "request_status": "Pending",
    "responsible_agency": "Sewerage & Water Board ",
    "final_address": "3915 St Charles Ave",
    "address_councildis": "B",
    "status": "Pending",
    "rowid": "1183530",
    "final_x": "3672549.50183",
    "final_y": "521103.606969",
    "longitude": "-90.09668780728617",
    "latitude": "29.927122725406615",
    "geocoded_column": {
      "latitude": "29.927122725406615",
      "longitude": "-90.09668780728617"
    }
  },
  {
    "service_request": "2025-1183535",
    "request_type": "Drainage",
    "request_reason": "Catch Basin Clogged",
    "date_created": "2025-04-13T19:36:11.000",
    "date_modified": "2025-04-13T19:36:13.000",
    "request_status": "Pending",
    "responsible_agency": "Sewerage & Water Board ",
    "final_address": "3915 St Charles Ave",
    "address_councildis": "B",
    "status": "Pending",
    "rowid": "1183535",
    "final_x": "3672549.50183",
    "final_y": "521103.606969",
    "longitude": "-90.09668780728617",
    "latitude": "29.927122725406615",
    "geocoded_column": {
      "latitude": "29.927122725406615",
      "longitude": "-90.09668780728617"
    }
  },
  {
    "service_request": "2025-1183531",
    "request_type": "Drainage",
    "request_reason": "Catch Basin Clogged",
    "date_created": "2025-04-13T19:36:11.000",
    "date_modified": "2025-04-13T19:36:12.000",
    "request_status": "Pending",
    "responsible_agency": "Sewerage & Water Board ",
    "final_address": "3915 St Charles Ave",
    "address_councildis": "B",
    "status": "Pending",
    "rowid": "1183531",
    "final_x": "3672549.50183",
    "final_y": "521103.606969",
    "longitude": "-90.09668780728617",
    "latitude": "29.927122725406615",
    "geocoded_column": {
      "latitude": "29.927122725406615",
      "longitude": "-90.09668780728617"
    }
  },
  {
    "service_request": "2025-1183532",
    "request_type": "Drainage",
    "request_reason": "Catch Basin Clogged",
    "date_created": "2025-04-13T19:36:11.000",
    "date_modified": "2025-04-13T19:36:12.000",
    "request_status": "Pending",
    "responsible_agency": "Sewerage & Water Board ",
    "final_address": "3915 St Charles Ave",
    "address_councildis": "B",
    "status": "Pending",
    "rowid": "1183532",
    "final_x": "3672549.50183",
    "final_y": "521103.606969",
    "longitude": "-90.09668780728617",
    "latitude": "29.927122725406615",
    "geocoded_column": {
      "latitude": "29.927122725406615",
      "longitude": "-90.09668780728617"
    }
  },
  {
    "service_request": "2025-1183533",
    "request_type": "Drainage",
    "request_reason": "Catch Basin Clogged",
    "date_created": "2025-04-13T19:36:11.000",
    "date_modified": "2025-04-13T19:36:13.000",
    "request_status": "Pending",
    "responsible_agency": "Sewerage & Water Board ",
    "final_address": "3915 St Charles Ave",
    "address_councildis": "B",
    "status": "Pending",
    "rowid": "1183533",
    "final_x": "3672549.50183",
    "final_y": "521103.606969",
    "longitude": "-90.09668780728617",
    "latitude": "29.927122725406615",
    "geocoded_column": {
      "latitude": "29.927122725406615",
      "longitude": "-90.09668780728617"
    }
  },
  {
    "service_request": "2025-1183528",
    "request_type": "Drainage",
    "request_reason": "Catch Basin Clogged",
    "date_created": "2025-04-13T19:36:10.000",
    "date_modified": "2025-04-13T19:36:12.000",
    "request_status": "Pending",
    "responsible_agency": "Sewerage & Water Board ",
    "final_address": "3915 St Charles Ave",
    "address_councildis": "B",
    "status": "Pending",
    "rowid": "1183528",
    "final_x": "3672549.50183",
    "final_y": "521103.606969",
    "longitude": "-90.09668780728617",
    "latitude": "29.927122725406615",
    "geocoded_column": {
      "latitude": "29.927122725406615",
      "longitude": "-90.09668780728617"
    }
  },
  {
    "service_request": "2025-1183529",
    "request_type": "Drainage",
    "request_reason": "Catch Basin Clogged",
    "date_created": "2025-04-13T19:36:10.000",
    "date_modified": "2025-04-13T19:36:12.000",
    "request_status": "Pending",
    "responsible_agency": "Sewerage & Water Board ",
    "final_address": "3915 St Charles Ave",
    "address_councildis": "B",
    "status": "Pending",
    "rowid": "1183529",
    "final_x": "3672549.50183",
    "final_y": "521103.606969",
    "longitude": "-90.09668780728617",
    "latitude": "29.927122725406615",
    "geocoded_column": {
      "latitude": "29.927122725406615",
      "longitude": "-90.09668780728617"
    }
  },
  {
    "service_request": "2025-1183527",
    "request_type": "Trash/Recycling",
    "request_reason": "Replace Recycling Cart",
    "date_created": "2025-04-13T19:23:59.000",
    "date_modified": "2025-04-13T19:24:01.000",
    "request_status": "Pending",
    "responsible_agency": "Department of Sanitation",
    "final_address": "820 Turquoise St",
    "address_councildis": "D",
    "status": "Pending",
    "rowid": "1183527",
    "final_x": "3670424.79719",
    "final_y": "555082.906009",
    "longitude": "-90.10224252537509",
    "latitude": "30.020617213084925",
    "geocoded_column": {
      "latitude": "30.020617213084925",
      "longitude": "-90.10224252537509"
    }
  },
  {
    "service_request": "2025-1183526",
    "request_type": "Trash/Recycling",
    "request_reason": "Order Recycling Cart",
    "date_created": "2025-04-13T19:06:46.000",
    "date_modified": "2025-04-13T19:06:47.000",
    "request_status": "Pending",
    "responsible_agency": "Department of Sanitation",
    "final_address": "1339 Lamanche St",
    "address_councildis": "E",
    "status": "Pending",
    "rowid": "1183526",
    "final_x": "3698697.82416",
    "final_y": "534730.019014",
    "longitude": "-90.01364937367012",
    "latitude": "29.96378872245283",
    "geocoded_column": {
      "latitude": "29.96378872245283",
      "longitude": "-90.01364937367012"
    }
  },
  {
    "service_request": "2025-1183525",
    "request_type": "Trash/Recycling",
    "request_reason": "Return Trash Cart",
    "date_created": "2025-04-13T19:05:58.000",
    "date_modified": "2025-04-13T19:06:00.000",
    "request_status": "Pending",
    "responsible_agency": "Department of Sanitation",
    "final_address": "616 Bellecastle St",
    "address_councildis": "B",
    "status": "Assigned to Contractor",
    "contractor": "IV Waste",
    "rowid": "1183525",
    "final_x": "3667627.83508",
    "final_y": "517723.556918",
    "longitude": "-90.1123379931836",
    "latitude": "29.91797379127887",
    "geocoded_column": {
      "latitude": "29.91797379127887",
      "longitude": "-90.1123379931836"
    }
  },
  {
    "service_request": "2025-1183524",
    "request_type": "Abandoned Vehicles",
    "request_reason": "Abandoned/Junk Vehicles",
    "date_created": "2025-04-13T18:53:32.000",
    "date_modified": "2025-04-13T18:53:34.000",
    "request_status": "Pending",
    "responsible_agency": "Department of Public Works",
    "final_address": "8901 Olive St",
    "address_councildis": "A",
    "status": "Pending",
    "rowid": "1183524",
    "final_x": "3665157.47668",
    "final_y": "536126.898567",
    "longitude": "-90.11952024281686",
    "latitude": "29.968649221048647",
    "geocoded_column": {
      "latitude": "29.968649221048647",
      "longitude": "-90.11952024281686"
    }
  },
  {
    "service_request": "2025-1183523",
    "request_type": "Traffic Signals",
    "request_reason": "Traffic Signal Malfunctioning or Damaged",
    "date_created": "2025-04-13T18:51:16.000",
    "date_modified": "2025-04-13T18:51:18.000",
    "request_status": "Pending",
    "responsible_agency": "Department of Public Works",
    "final_address": "1111 Canal St",
    "address_councildis": "C",
    "status": "Pending",
    "rowid": "1183523",
    "final_x": "3679986.71823",
    "final_y": "531707.587395",
    "longitude": "-90.07284220329849",
    "latitude": "29.956057344840524",
    "geocoded_column": {
      "latitude": "29.956057344840524",
      "longitude": "-90.07284220329849"
    }
  },
  {
    "service_request": "2025-1183522",
    "request_type": "Parks & Parkways",
    "request_reason": "Request Tree Service (Right of Way/Public Property)",
    "date_created": "2025-04-13T18:45:25.000",
    "date_modified": "2025-04-13T18:45:27.000",
    "request_status": "Pending",
    "responsible_agency": "Department of Parks & Parkway",
    "final_address": "4634 Coronado Dr",
    "address_councildis": "E",
    "status": "Pending",
    "rowid": "1183522",
    "final_x": "3714111.83947",
    "final_y": "555930.223897",
    "longitude": "-89.96417400049198",
    "latitude": "30.02158404344024",
    "geocoded_column": {
      "latitude": "30.02158404344024",
      "longitude": "-89.96417400049198"
    }
  },
  {
    "service_request": "2025-1183521",
    "request_type": "Trash/Recycling",
    "request_reason": "Replace Trash Cart",
    "date_created": "2025-04-13T18:44:19.000",
    "date_modified": "2025-04-13T18:44:22.000",
    "request_status": "Pending",
    "responsible_agency": "Department of Sanitation",
    "final_address": "3312 Dumaine St",
    "address_councildis": "A",
    "status": "Assigned to Contractor",
    "contractor": "IV Waste",
    "rowid": "1183521",
    "final_x": "3674997.3764",
    "final_y": "539119.257162",
    "longitude": "-90.08834256995574",
    "latitude": "29.976586906038893",
    "geocoded_column": {
      "latitude": "29.976586906038893",
      "longitude": "-90.08834256995574"
    }
  },
  {
    "service_request": "2025-1183520",
    "request_type": "Roads and Streets",
    "request_reason": "Street Subsidence (Sinking)",
    "date_created": "2025-04-13T18:37:06.000",
    "date_modified": "2025-04-13T18:37:09.000",
    "request_status": "Pending",
    "responsible_agency": "Department of Public Works",
    "final_address": "5779 E Louis Prima Dr",
    "address_councildis": "E",
    "status": "Pending",
    "rowid": "1183520",
    "final_x": "3715974.67903",
    "final_y": "562631.569952",
    "longitude": "-89.95803384841089",
    "latitude": "30.03994872615379",
    "geocoded_column": {
      "latitude": "30.03994872615379",
      "longitude": "-89.95803384841089"
    }
  },
  {
    "service_request": "2025-1183519",
    "request_type": "Trash/Recycling",
    "request_reason": "Order Recycling Cart",
    "date_created": "2025-04-13T18:26:11.000",
    "date_modified": "2025-04-13T18:26:13.000",
    "request_status": "Pending",
    "responsible_agency": "Department of Sanitation",
    "final_address": "3049 Grand-Route St John St",
    "address_councildis": "A",
    "status": "Pending",
    "rowid": "1183519",
    "final_x": "3676778.8827",
    "final_y": "540350.284939",
    "longitude": "-90.08267358505064",
    "latitude": "29.9799184645689",
    "geocoded_column": {
      "latitude": "29.9799184645689",
      "longitude": "-90.08267358505064"
    }
  },
  {
    "service_request": "2025-1183518",
    "request_type": "Safety & Permits",
    "request_reason": "Zoning Enforcement",
    "date_created": "2025-04-13T18:17:27.000",
    "date_modified": "2025-04-13T18:17:29.000",
    "request_status": "Pending",
    "responsible_agency": "Safety and Permits",
    "final_address": "4948 Rosalia Dr",
    "address_councildis": "E",
    "status": "Pending",
    "rowid": "1183518",
    "final_x": "3710997.26398",
    "final_y": "557180.330907",
    "longitude": "-89.97396826636813",
    "latitude": "30.025123308925984",
    "geocoded_column": {
      "latitude": "30.025123308925984",
      "longitude": "-89.97396826636813"
    }
  },
  {
    "service_request": "2025-1183517",
    "request_type": "Healthy Homes",
    "request_reason": "Healthy Homes",
    "date_created": "2025-04-13T18:11:11.000",
    "date_modified": "2025-04-13T18:11:13.000",
    "request_status": "Pending",
    "responsible_agency": "Department of Code Enforcement",
    "final_address": "625 S Cortez St",
    "address_councildis": "B",
    "status": "Pending",
    "rowid": "1183517",
    "final_x": "3670718.20699",
    "final_y": "535875.861255",
    "longitude": "-90.1019676191967",
    "latitude": "29.96779580937164",
    "geocoded_column": {
      "latitude": "29.96779580937164",
      "longitude": "-90.1019676191967"
    }
  },
  {
    "service_request": "2025-1183516",
    "request_type": "Abandoned Vehicles",
    "request_reason": "Abandoned/Junk Vehicles",
    "date_created": "2025-04-13T18:03:12.000",
    "date_modified": "2025-04-13T18:03:13.000",
    "request_status": "Pending",
    "responsible_agency": "Department of Public Works",
    "final_address": "4943 Citrus Dr",
    "address_councildis": "E",
    "status": "Pending",
    "rowid": "1183516",
    "final_x": "3710712.18622",
    "final_y": "557135.65577",
    "longitude": "-89.97487073244176",
    "latitude": "30.025009766050502",
    "geocoded_column": {
      "latitude": "30.025009766050502",
      "longitude": "-89.97487073244176"
    }
  },
  {
    "service_request": "2025-1183515",
    "request_type": "Street and Traffic Signs",
    "request_reason": "Stop Sign Missing or Damaged",
    "date_created": "2025-04-13T18:01:09.000",
    "date_modified": "2025-04-13T18:01:10.000",
    "request_status": "Pending",
    "responsible_agency": "Department of Public Works",
    "final_address": "1801 Short St",
    "address_councildis": "A",
    "status": "Pending",
    "rowid": "1183515",
    "final_x": "3663767.84032",
    "final_y": "529627.961025",
    "longitude": "-90.12412540331714",
    "latitude": "29.950819666709425",
    "geocoded_column": {
      "latitude": "29.950819666709425",
      "longitude": "-90.12412540331714"
    }
  },
  {
    "service_request": "2025-1183514",
    "request_type": "Abandoned Vehicles",
    "request_reason": "Abandoned/Junk Vehicles",
    "date_created": "2025-04-13T17:52:52.000",
    "date_modified": "2025-04-13T17:52:53.000",
    "request_status": "Pending",
    "responsible_agency": "Department of Public Works",
    "final_address": "4943 Citrus Dr",
    "address_councildis": "E",
    "status": "Pending",
    "rowid": "1183514",
    "final_x": "3710712.18622",
    "final_y": "557135.65577",
    "longitude": "-89.97487073244176",
    "latitude": "30.025009766050502",
    "geocoded_column": {
      "latitude": "30.025009766050502",
      "longitude": "-89.97487073244176"
    }
  },
  {
    "service_request": "2025-1183513",
    "request_type": "Trash/Recycling",
    "request_reason": "Request a Large Item Pick Up",
    "date_created": "2025-04-13T17:43:37.000",
    "date_modified": "2025-04-13T17:43:39.000",
    "request_status": "Pending",
    "responsible_agency": "Department of Sanitation",
    "final_address": "3831 Lennox Blvd",
    "address_councildis": "C",
    "status": "Assigned to Contractor",
    "contractor": "Richards Disposal",
    "rowid": "1183513",
    "final_x": "3700465.48061",
    "final_y": "517125.426165",
    "longitude": "-90.00870999961347",
    "latitude": "29.915326146081327",
    "geocoded_column": {
      "latitude": "29.915326146081327",
      "longitude": "-90.00870999961347"
    }
  },
  {
    "service_request": "2025-1183512",
    "request_type": "Trash/Recycling",
    "request_reason": "Replace Recycling Cart",
    "date_created": "2025-04-13T17:26:13.000",
    "date_modified": "2025-04-13T17:26:15.000",
    "request_status": "Pending",
    "responsible_agency": "Department of Sanitation",
    "final_address": "2921 Lepage St",
    "address_councildis": "A",
    "status": "Pending",
    "rowid": "1183512",
    "final_x": "3677068.44258",
    "final_y": "540036.027403",
    "longitude": "-90.08176987616348",
    "latitude": "29.979045671297992",
    "geocoded_column": {
      "latitude": "29.979045671297992",
      "longitude": "-90.08176987616348"
    }
  },
  {
    "service_request": "2025-1183511",
    "request_type": "Property Maintenance",
    "request_reason": "Property Maintenance",
    "date_created": "2025-04-13T16:58:18.000",
    "date_modified": "2025-04-13T16:58:20.000",
    "request_status": "Pending",
    "responsible_agency": "Department of Code Enforcement",
    "final_address": "3511 Danneel St",
    "address_councildis": "B",
    "status": "Pending",
    "rowid": "1183511",
    "final_x": "3673146.75137",
    "final_y": "522710.908282",
    "longitude": "-90.09474759571928",
    "latitude": "29.931524548416622",
    "geocoded_column": {
      "latitude": "29.931524548416622",
      "longitude": "-90.09474759571928"
    }
  },
  {
    "service_request": "2025-1183510",
    "request_type": "Trash/Recycling",
    "request_reason": "Replace Trash Cart",
    "date_created": "2025-04-13T16:53:54.000",
    "date_modified": "2025-04-13T16:53:56.000",
    "request_status": "Pending",
    "responsible_agency": "Department of Sanitation",
    "final_address": "6959 Canal Blvd",
    "address_councildis": "A",
    "status": "Assigned to Contractor",
    "contractor": "IV Waste",
    "rowid": "1183510",
    "final_x": "3669231.66388",
    "final_y": "553772.636311",
    "longitude": "-90.1060568251218",
    "latitude": "30.017049630181123",
    "geocoded_column": {
      "latitude": "30.017049630181123",
      "longitude": "-90.1060568251218"
    }
  },
  {
    "service_request": "2025-1183509",
    "request_type": "Trash/Recycling",
    "request_reason": "Request a Large Item Pick Up",
    "date_created": "2025-04-13T16:47:36.000",
    "date_modified": "2025-04-13T16:47:38.000",
    "request_status": "Pending",
    "responsible_agency": "Department of Sanitation",
    "final_address": "3661 Plymouth Pl",
    "address_councildis": "C",
    "status": "Assigned to Contractor",
    "contractor": "Richards Disposal",
    "rowid": "1183509",
    "final_x": "3702688.25585",
    "final_y": "517129.575989",
    "longitude": "-90.00169399889872",
    "latitude": "29.915266714296404",
    "geocoded_column": {
      "latitude": "29.915266714296404",
      "longitude": "-90.00169399889872"
    }
  },
  {
    "service_request": "2025-1183508",
    "request_type": "Safety & Permits",
    "request_reason": "Licenses & Permits",
    "date_created": "2025-04-13T16:33:10.000",
    "date_modified": "2025-04-13T16:33:12.000",
    "request_status": "Pending",
    "responsible_agency": "Safety and Permits",
    "final_address": "7400 Lakeshore Dr",
    "address_councildis": "D",
    "status": "Pending",
    "rowid": "1183508",
    "final_x": "3666808.79802",
    "final_y": "556202.373082",
    "longitude": "-90.11363039460369",
    "latitude": "30.023801679293893",
    "geocoded_column": {
      "latitude": "30.023801679293893",
      "longitude": "-90.11363039460369"
    }
  },
  {
    "service_request": "2025-1183507",
    "request_type": "Trash/Recycling",
    "request_reason": "Order Trash Cart",
    "date_created": "2025-04-13T16:32:04.000",
    "date_modified": "2025-04-13T16:32:06.000",
    "request_status": "Pending",
    "responsible_agency": "Department of Sanitation",
    "final_address": "2256 N Villere St",
    "address_councildis": "C",
    "status": "Assigned to Contractor",
    "contractor": "IV Waste",
    "rowid": "1183507",
    "final_x": "3685489.90985",
    "final_y": "537417.8386",
    "longitude": "-90.05526392394118",
    "latitude": "29.971590954724142",
    "geocoded_column": {
      "latitude": "29.971590954724142",
      "longitude": "-90.05526392394118"
    }
  },
  {
    "service_request": "2025-1183506",
    "request_type": "Abandoned Vehicles",
    "request_reason": "Abandoned/Junk Vehicles",
    "date_created": "2025-04-13T16:16:44.000",
    "date_modified": "2025-04-13T16:16:49.000",
    "request_status": "Pending",
    "responsible_agency": "Department of Public Works",
    "final_address": "2801 N Rampart St",
    "address_councildis": "C",
    "status": "Pending",
    "rowid": "1183506",
    "final_x": "3687649.23913",
    "final_y": "535905.843783",
    "longitude": "-90.04849800074929",
    "latitude": "29.96736709522254",
    "geocoded_column": {
      "latitude": "29.96736709522254",
      "longitude": "-90.04849800074929"
    }
  },
  {
    "service_request": "2025-1183505",
    "request_type": "Trash/Recycling",
    "request_reason": "Request a Large Item Pick Up",
    "date_created": "2025-04-13T16:05:42.000",
    "date_modified": "2025-04-13T16:05:44.000",
    "request_status": "Pending",
    "responsible_agency": "Department of Sanitation",
    "final_address": "7000 W Tamaron Blvd",
    "address_councildis": "E",
    "status": "Assigned to Contractor",
    "contractor": "Waste Pro",
    "rowid": "1183505",
    "final_x": "3718849.73874",
    "final_y": "568144.118117",
    "longitude": "-89.94873735727423",
    "latitude": "30.055010772635498",
    "geocoded_column": {
      "latitude": "30.055010772635498",
      "longitude": "-89.94873735727423"
    }
  },
  {
    "service_request": "2025-1183504",
    "request_type": "Health Related Request",
    "request_reason": "Noise Ordinance Complaint",
    "date_created": "2025-04-13T16:00:32.000",
    "date_modified": "2025-04-13T16:00:33.000",
    "request_status": "Pending",
    "responsible_agency": "Health Department",
    "final_address": "7400 Lakeshore Dr",
    "address_councildis": "D",
    "status": "Pending",
    "rowid": "1183504",
    "final_x": "3666808.79802",
    "final_y": "556202.373082",
    "longitude": "-90.11363039460369",
    "latitude": "30.023801679293893",
    "geocoded_column": {
      "latitude": "30.023801679293893",
      "longitude": "-90.11363039460369"
    }
  },
  {
    "service_request": "2025-1183503",
    "request_type": "Health Related Request",
    "request_reason": "Noise Ordinance Complaint",
    "date_created": "2025-04-13T15:44:45.000",
    "date_modified": "2025-04-13T15:44:48.000",
    "request_status": "Pending",
    "responsible_agency": "Health Department",
    "final_address": "7400 Lakeshore Dr",
    "address_councildis": "D",
    "status": "Pending",
    "rowid": "1183503",
    "final_x": "3666808.79802",
    "final_y": "556202.373082",
    "longitude": "-90.11363039460369",
    "latitude": "30.023801679293893",
    "geocoded_column": {
      "latitude": "30.023801679293893",
      "longitude": "-90.11363039460369"
    }
  },
  {
    "service_request": "2025-1183502",
    "request_type": "Parks & Parkways",
    "request_reason": "Request Tree Service (Right of Way/Public Property)",
    "date_created": "2025-04-13T15:33:54.000",
    "date_modified": "2025-04-13T15:33:56.000",
    "request_status": "Pending",
    "responsible_agency": "Department of Parks & Parkway",
    "final_address": "4001 General De Gaulle Dr",
    "address_councildis": "C",
    "status": "Pending",
    "rowid": "1183502",
    "final_x": "3698622.86826",
    "final_y": "518977.851127",
    "longitude": "-90.01445863110955",
    "latitude": "29.920478127557015",
    "geocoded_column": {
      "latitude": "29.920478127557015",
      "longitude": "-90.01445863110955"
    }
  },
  {
    "service_request": "2025-1183501",
    "request_type": "Trash/Recycling",
    "request_reason": "Repair Trash Cart",
    "date_created": "2025-04-13T15:33:22.000",
    "date_modified": "2025-04-13T15:33:29.000",
    "request_status": "Pending",
    "responsible_agency": "Department of Sanitation",
    "final_address": "1724 Nie Prkwy",
    "address_councildis": "C",
    "status": "Assigned to Contractor",
    "contractor": "Richards Disposal",
    "rowid": "1183501",
    "final_x": "3701258.86813",
    "final_y": "524411.534076",
    "longitude": "-90.00593937809985",
    "latitude": "29.935335187044284",
    "geocoded_column": {
      "latitude": "29.935335187044284",
      "longitude": "-90.00593937809985"
    }
  },
  {
    "service_request": "2025-1183500",
    "request_type": "Trash/Recycling",
    "request_reason": "Missed Trash Pick-Up",
    "date_created": "2025-04-13T15:30:51.000",
    "date_modified": "2025-04-13T15:30:53.000",
    "request_status": "Pending",
    "responsible_agency": "Department of Sanitation",
    "final_address": "4400 Fort Macomb Rd",
    "address_councildis": "E",
    "status": "Assigned to Contractor",
    "contractor": "Waste Pro",
    "rowid": "1183500",
    "final_x": "3763391.5615",
    "final_y": "573194.008873",
    "longitude": "-89.80774135395338",
    "latitude": "30.067340498088733",
    "geocoded_column": {
      "latitude": "30.067340498088733",
      "longitude": "-89.80774135395338"
    }
  },
  {
    "service_request": "2025-1183499",
    "request_type": "Street and Traffic Signs",
    "request_reason": "Traffic or Parking Sign Damaged or Missing",
    "date_created": "2025-04-13T15:26:44.000",
    "date_modified": "2025-04-13T15:26:46.000",
    "request_status": "Pending",
    "responsible_agency": "Department of Public Works",
    "final_address": "4001 General De Gaulle Dr",
    "address_councildis": "C",
    "status": "Pending",
    "rowid": "1183499",
    "final_x": "3698622.86826",
    "final_y": "518977.851127",
    "longitude": "-90.01445863110955",
    "latitude": "29.920478127557015",
    "geocoded_column": {
      "latitude": "29.920478127557015",
      "longitude": "-90.01445863110955"
    }
  },
  {
    "service_request": "2025-1183498",
    "request_type": "Property Maintenance",
    "request_reason": "Property Maintenance",
    "date_created": "2025-04-13T15:03:12.000",
    "date_modified": "2025-04-13T15:03:13.000",
    "request_status": "Pending",
    "responsible_agency": "Department of Code Enforcement",
    "final_address": "735 Washington Ave",
    "address_councildis": "B",
    "status": "Pending",
    "rowid": "1183498",
    "final_x": "3677763.81627",
    "final_y": "519831.099448",
    "longitude": "-90.08027148113962",
    "latitude": "29.923467974233546",
    "geocoded_column": {
      "latitude": "29.923467974233546",
      "longitude": "-90.08027148113962"
    }
  },
  {
    "service_request": "2025-1183497",
    "request_type": "Trash/Recycling",
    "request_reason": "Request a Large Item Pick Up",
    "date_created": "2025-04-13T14:38:51.000",
    "date_modified": "2025-04-13T14:38:52.000",
    "request_status": "Pending",
    "responsible_agency": "Department of Sanitation",
    "final_address": "13020 Ashland Dr",
    "address_councildis": "E",
    "status": "Assigned to Contractor",
    "contractor": "Waste Pro",
    "rowid": "1183497",
    "final_x": "3717576.75954",
    "final_y": "567553.200996",
    "longitude": "-89.95278343391202",
    "latitude": "30.053428228146448",
    "geocoded_column": {
      "latitude": "30.053428228146448",
      "longitude": "-89.95278343391202"
    }
  },
  {
    "service_request": "2025-1183496",
    "request_type": "Roads and Streets",
    "request_reason": "Pothole",
    "date_created": "2025-04-13T14:09:43.000",
    "date_modified": "2025-04-13T14:09:45.000",
    "request_status": "Pending",
    "responsible_agency": "Department of Public Works",
    "final_address": "13415 Curran Rd",
    "address_councildis": "E",
    "status": "Pending",
    "rowid": "1183496",
    "final_x": "3716815.36792",
    "final_y": "570862.823207",
    "longitude": "-89.95506413984445",
    "latitude": "30.06255352163054",
    "geocoded_column": {
      "latitude": "30.06255352163054",
      "longitude": "-89.95506413984445"
    }
  },
  {
    "service_request": "2025-1183495",
    "request_type": "Trash/Recycling",
    "request_reason": "Request a Large Item Pick Up",
    "date_created": "2025-04-13T13:59:51.000",
    "date_modified": "2025-04-13T13:59:55.000",
    "request_status": "Pending",
    "responsible_agency": "Department of Sanitation",
    "final_address": "7507 Scottwood Dr",
    "address_councildis": "E",
    "status": "Assigned to Contractor",
    "contractor": "Waste Pro",
    "rowid": "1183495",
    "final_x": "3717783.20146",
    "final_y": "570185.366375",
    "longitude": "-89.95203064061042",
    "latitude": "30.060658752170845",
    "geocoded_column": {
      "latitude": "30.060658752170845",
      "longitude": "-89.95203064061042"
    }
  },
  {
    "service_request": "2025-1183494",
    "request_type": "Trash/Recycling",
    "request_reason": "Replace Trash Cart",
    "date_created": "2025-04-13T13:55:11.000",
    "date_modified": "2025-04-13T13:55:13.000",
    "request_status": "Pending",
    "responsible_agency": "Department of Sanitation",
    "final_address": "876 Lane St",
    "address_councildis": "A",
    "status": "Assigned to Contractor",
    "contractor": "IV Waste",
    "rowid": "1183494",
    "final_x": "3670039.39073",
    "final_y": "550535.798164",
    "longitude": "-90.10361449077892",
    "latitude": "30.00812565467583",
    "geocoded_column": {
      "latitude": "30.00812565467583",
      "longitude": "-90.10361449077892"
    }
  },
  {
    "service_request": "2025-1183493",
    "request_type": "Parks & Parkways",
    "request_reason": "Request Tree Service (Right of Way/Public Property)",
    "date_created": "2025-04-13T13:52:39.000",
    "date_modified": "2025-04-13T13:52:42.000",
    "request_status": "Pending",
    "responsible_agency": "Department of Parks & Parkway",
    "final_address": "5129 Elysian Fields Ave",
    "address_councildis": "D",
    "status": "Pending",
    "rowid": "1183493",
    "final_x": "3683895.82396",
    "final_y": "551603.474709",
    "longitude": "-90.05980034881786",
    "latitude": "30.010645206988904",
    "geocoded_column": {
      "latitude": "30.010645206988904",
      "longitude": "-90.05980034881786"
    }
  },
  {
    "service_request": "2025-1183492",
    "request_type": "Parks & Parkways",
    "request_reason": "Request Tree Service (Right of Way/Public Property)",
    "date_created": "2025-04-13T13:52:39.000",
    "date_modified": "2025-04-13T13:52:42.000",
    "request_status": "Pending",
    "responsible_agency": "Department of Parks & Parkway",
    "final_address": "5129 Elysian Fields Ave",
    "address_councildis": "D",
    "status": "Pending",
    "rowid": "1183492",
    "final_x": "3683895.82396",
    "final_y": "551603.474709",
    "longitude": "-90.05980034881786",
    "latitude": "30.010645206988904",
    "geocoded_column": {
      "latitude": "30.010645206988904",
      "longitude": "-90.05980034881786"
    }
  },
  {
    "service_request": "2025-1183491",
    "request_type": "Trash/Recycling",
    "request_reason": "Missed Trash Pick-Up",
    "date_created": "2025-04-13T13:51:35.000",
    "date_modified": "2025-04-13T13:51:36.000",
    "request_status": "Pending",
    "responsible_agency": "Department of Sanitation",
    "final_address": "876 Lane St",
    "address_councildis": "A",
    "status": "Assigned to Contractor",
    "contractor": "IV Waste",
    "rowid": "1183491",
    "final_x": "3670039.39073",
    "final_y": "550535.798164",
    "longitude": "-90.10361449077892",
    "latitude": "30.00812565467583",
    "geocoded_column": {
      "latitude": "30.00812565467583",
      "longitude": "-90.10361449077892"
    }
  },
  {
    "service_request": "2025-1183490",
    "request_type": "Abandoned Vehicles",
    "request_reason": "Abandoned/Junk Vehicles",
    "date_created": "2025-04-13T13:50:58.000",
    "date_modified": "2025-04-13T13:51:00.000",
    "request_status": "Pending",
    "responsible_agency": "Department of Public Works",
    "final_address": "2225 St Philip St",
    "address_councildis": "D",
    "status": "Pending",
    "rowid": "1183490",
    "final_x": "3678899.54427",
    "final_y": "536749.298631",
    "longitude": "-90.07610045020826",
    "latitude": "29.96995317736456",
    "geocoded_column": {
      "latitude": "29.96995317736456",
      "longitude": "-90.07610045020826"
    }
  },
  {
    "service_request": "2025-1183489",
    "request_type": "Safety & Permits",
    "request_reason": "Licenses & Permits",
    "date_created": "2025-04-13T13:45:30.000",
    "date_modified": "2025-04-13T13:45:32.000",
    "request_status": "Pending",
    "responsible_agency": "Safety and Permits",
    "final_address": "1723 Governor Nicholls St",
    "address_councildis": "D",
    "status": "Pending",
    "rowid": "1183489",
    "final_x": "3680684.02248",
    "final_y": "536249.720263",
    "longitude": "-90.07048228499086",
    "latitude": "29.968525550849744",
    "geocoded_column": {
      "latitude": "29.968525550849744",
      "longitude": "-90.07048228499086"
    }
  },
  {
    "service_request": "2025-1183488",
    "request_type": "Parks & Parkways",
    "request_reason": "Park Maintenance/Clean Up",
    "date_created": "2025-04-13T13:27:21.000",
    "date_modified": "2025-04-13T13:27:23.000",
    "request_status": "Pending",
    "responsible_agency": "Department of Parks & Parkway",
    "final_address": "56 Dreyfous Dr",
    "address_councildis": "A",
    "status": "Pending",
    "rowid": "1183488",
    "final_x": "3672826.17595",
    "final_y": "542291.105229",
    "longitude": "-90.09509164636906",
    "latitude": "29.985373091427377",
    "geocoded_column": {
      "latitude": "29.985373091427377",
      "longitude": "-90.09509164636906"
    }
  },
  {
    "service_request": "2025-1183487",
    "request_type": "Trash/Recycling",
    "request_reason": "Request a Large Item Pick Up",
    "date_created": "2025-04-13T13:23:39.000",
    "date_modified": "2025-04-13T13:23:40.000",
    "request_status": "Pending",
    "responsible_agency": "Department of Sanitation",
    "final_address": "5201 Toulon St",
    "address_councildis": "E",
    "status": "Assigned to Contractor",
    "contractor": "Waste Pro",
    "rowid": "1183487",
    "final_x": "3723657.85055",
    "final_y": "562511.322079",
    "longitude": "-89.93375759795696",
    "latitude": "30.039362292773784",
    "geocoded_column": {
      "latitude": "30.039362292773784",
      "longitude": "-89.93375759795696"
    }
  },
  {
    "service_request": "2025-1183486",
    "request_type": "Trash/Recycling",
    "request_reason": "Missed Trash Pick-Up",
    "date_created": "2025-04-13T13:18:09.000",
    "date_modified": "2025-04-13T13:18:11.000",
    "request_status": "Pending",
    "responsible_agency": "Department of Sanitation",
    "final_address": "3811 Havana Pl, New Orleans, Louisiana, 70122",
    "address_councildis": "D",
    "status": "Assigned to Contractor",
    "contractor": "IV Waste",
    "rowid": "1183486",
    "final_x": "3680698.53442",
    "final_y": "546114.628752",
    "longitude": "-90.0700929971573",
    "latitude": "29.995650167292066",
    "geocoded_column": {
      "latitude": "29.995650167292066",
      "longitude": "-90.0700929971573"
    }
  },
  {
    "service_request": "2025-1183485",
    "request_type": "Property Maintenance",
    "request_reason": "Property Maintenance",
    "date_created": "2025-04-13T13:00:49.000",
    "date_modified": "2025-04-13T13:00:51.000",
    "request_status": "Pending",
    "responsible_agency": "Department of Code Enforcement",
    "final_address": "626 First St",
    "address_councildis": "B",
    "status": "Pending",
    "rowid": "1183485",
    "final_x": "3678925.85506",
    "final_y": "520160.4894",
    "longitude": "-90.07659195405276",
    "latitude": "29.92433869612065",
    "geocoded_column": {
      "latitude": "29.92433869612065",
      "longitude": "-90.07659195405276"
    }
  },
  {
    "service_request": "2025-1183484",
    "request_type": "Trash/Recycling",
    "request_reason": "Replace Trash Cart",
    "date_created": "2025-04-13T12:53:25.000",
    "date_modified": "2025-04-13T12:53:27.000",
    "request_status": "Pending",
    "responsible_agency": "Department of Sanitation",
    "final_address": "1926 Foucher St",
    "address_councildis": "B",
    "status": "Assigned to Contractor",
    "contractor": "IV Waste",
    "rowid": "1183484",
    "final_x": "3673024.7083",
    "final_y": "522516.695866",
    "longitude": "-90.09513949717329",
    "latitude": "29.930994153850232",
    "geocoded_column": {
      "latitude": "29.930994153850232",
      "longitude": "-90.09513949717329"
    }
  },
  {
    "service_request": "2025-1183483",
    "request_type": "Traffic Signals",
    "request_reason": "Traffic Signal Malfunctioning or Damaged",
    "date_created": "2025-04-13T12:34:55.000",
    "date_modified": "2025-04-13T12:34:57.000",
    "request_status": "Pending",
    "responsible_agency": "Department of Public Works",
    "final_address": "4532 Crowder Blvd",
    "address_councildis": "E",
    "status": "Pending",
    "rowid": "1183483",
    "final_x": "3706426.34052",
    "final_y": "554556.5958",
    "longitude": "-89.98850885385117",
    "latitude": "30.018057366864394",
    "geocoded_column": {
      "latitude": "30.018057366864394",
      "longitude": "-89.98850885385117"
    }
  },
  {
    "service_request": "2025-1183482",
    "request_type": "Street and Traffic Signs",
    "request_reason": "Stop Sign Missing or Damaged",
    "date_created": "2025-04-13T12:25:27.000",
    "date_modified": "2025-04-13T12:25:29.000",
    "request_status": "Pending",
    "responsible_agency": "Department of Public Works",
    "final_address": "PINE ST & GARFIELD ST",
    "address_councildis": "A",
    "status": "Pending",
    "rowid": "1183482",
    "final_x": "3661792.8",
    "final_y": "523488.48",
    "longitude": "-90.13056509451562",
    "latitude": "29.933995209309163",
    "geocoded_column": {
      "latitude": "29.933995209309163",
      "longitude": "-90.13056509451562"
    }
  },
  {
    "service_request": "2025-1183481",
    "request_type": "Trash/Recycling",
    "request_reason": "Replace Recycling Cart",
    "date_created": "2025-04-13T11:54:25.000",
    "date_modified": "2025-04-13T11:54:28.000",
    "request_status": "Pending",
    "responsible_agency": "Department of Sanitation",
    "final_address": "615 Henry Clay Ave",
    "address_councildis": "A",
    "status": "Pending",
    "rowid": "1183481",
    "final_x": "3663642.46701",
    "final_y": "519055.358647",
    "longitude": "-90.12487334355423",
    "latitude": "29.92175200226555",
    "geocoded_column": {
      "latitude": "29.92175200226555",
      "longitude": "-90.12487334355423"
    }
  },
  {
    "service_request": "2025-1183480",
    "request_type": "Property Maintenance",
    "request_reason": "Property Maintenance",
    "date_created": "2025-04-13T11:50:54.000",
    "date_modified": "2025-04-13T11:50:55.000",
    "request_status": "Pending",
    "responsible_agency": "Department of Code Enforcement",
    "final_address": "1307 S Gayoso St",
    "address_councildis": "B",
    "status": "Pending",
    "rowid": "1183480",
    "final_x": "3671026.35649",
    "final_y": "531238.836098",
    "longitude": "-90.10115194481833",
    "latitude": "29.955036423923318",
    "geocoded_column": {
      "latitude": "29.955036423923318",
      "longitude": "-90.10115194481833"
    }
  },
  {
    "service_request": "2025-1183479",
    "request_type": "Trash/Recycling",
    "request_reason": "Order Trash Cart",
    "date_created": "2025-04-13T11:50:09.000",
    "date_modified": "2025-04-13T11:50:11.000",
    "request_status": "Pending",
    "responsible_agency": "Department of Sanitation",
    "final_address": "926 Spain St",
    "address_councildis": "C",
    "status": "Assigned to Contractor",
    "contractor": "IV Waste",
    "rowid": "1183479",
    "final_x": "3686137.31759",
    "final_y": "535901.672967",
    "longitude": "-90.05327280955518",
    "latitude": "29.967402155877114",
    "geocoded_column": {
      "latitude": "29.967402155877114",
      "longitude": "-90.05327280955518"
    }
  },
  {
    "service_request": "2025-1183478",
    "request_type": "Safety & Permits",
    "request_reason": "Licenses & Permits",
    "date_created": "2025-04-13T11:49:33.000",
    "date_modified": "2025-04-13T11:49:35.000",
    "request_status": "Pending",
    "responsible_agency": "Safety and Permits",
    "final_address": "5021 Constance St",
    "address_councildis": "B",
    "status": "Pending",
    "rowid": "1183478",
    "final_x": "3668451.89831",
    "final_y": "518269.540278",
    "longitude": "-90.10971846442192",
    "latitude": "29.91945090262264",
    "geocoded_column": {
      "latitude": "29.91945090262264",
      "longitude": "-90.10971846442192"
    }
  },
  {
    "service_request": "2025-1183477",
    "request_type": "Trash/Recycling",
    "request_reason": "Repair Recycling Cart",
    "date_created": "2025-04-13T11:41:48.000",
    "date_modified": "2025-04-13T11:41:50.000",
    "request_status": "Pending",
    "responsible_agency": "Department of Sanitation",
    "final_address": "618 Peniston St",
    "address_councildis": "B",
    "status": "Pending",
    "rowid": "1183477",
    "final_x": "3673555.60347",
    "final_y": "518208.731126",
    "longitude": "-90.09361066933421",
    "latitude": "29.91913284954132",
    "geocoded_column": {
      "latitude": "29.91913284954132",
      "longitude": "-90.09361066933421"
    }
  },
  {
    "service_request": "2025-1183476",
    "request_type": "Roads and Streets",
    "request_reason": "Pothole",
    "date_created": "2025-04-13T11:41:26.000",
    "date_modified": "2025-04-13T11:41:29.000",
    "request_status": "Pending",
    "responsible_agency": "Department of Public Works",
    "final_address": "1225 N Dupre St",
    "address_councildis": "A",
    "status": "Pending",
    "rowid": "1183476",
    "final_x": "3676991.10126",
    "final_y": "539498.372746",
    "longitude": "-90.08203269412525",
    "latitude": "29.97756962870873",
    "geocoded_column": {
      "latitude": "29.97756962870873",
      "longitude": "-90.08203269412525"
    }
  },
  {
    "service_request": "2025-1183475",
    "request_type": "Trash/Recycling",
    "request_reason": "Repair Trash Cart",
    "date_created": "2025-04-13T11:36:25.000",
    "date_modified": "2025-04-13T11:36:27.000",
    "request_status": "Pending",
    "responsible_agency": "Department of Sanitation",
    "final_address": "505 S Cortez St",
    "address_councildis": "B",
    "status": "Assigned to Contractor",
    "contractor": "IV Waste",
    "rowid": "1183475",
    "final_x": "3671027.91822",
    "final_y": "536292.444487",
    "longitude": "-90.10097539054233",
    "latitude": "29.968932118250816",
    "geocoded_column": {
      "latitude": "29.968932118250816",
      "longitude": "-90.10097539054233"
    }
  },
  {
    "service_request": "2025-1183474",
    "request_type": "Trash/Recycling",
    "request_reason": "Illegal Dumping",
    "date_created": "2025-04-13T11:28:48.000",
    "date_modified": "2025-04-13T11:28:50.000",
    "request_status": "Pending",
    "responsible_agency": "Department of Sanitation",
    "final_address": "0 BLK Harrison Ave",
    "address_councildis": "A",
    "status": "Pending",
    "rowid": "1183474",
    "final_x": "3673630.10087",
    "final_y": "548283.480977",
    "longitude": "-90.09234738560748",
    "latitude": "30.001826128532535",
    "geocoded_column": {
      "latitude": "30.001826128532535",
      "longitude": "-90.09234738560748"
    }
  },
  {
    "service_request": "2025-1183473",
    "request_type": "Parks & Parkways",
    "request_reason": "Park Maintenance/Clean Up",
    "date_created": "2025-04-13T11:14:42.000",
    "date_modified": "2025-04-13T11:14:43.000",
    "request_status": "Pending",
    "responsible_agency": "Department of Parks & Parkway",
    "final_address": "334 Belleville St",
    "address_councildis": "C",
    "status": "Pending",
    "rowid": "1183473",
    "final_x": "3687931.48297",
    "final_y": "530476.257026",
    "longitude": "-90.047799043923",
    "latitude": "29.952428906248247",
    "geocoded_column": {
      "latitude": "29.952428906248247",
      "longitude": "-90.047799043923"
    }
  },
  {
    "service_request": "2025-1183472",
    "request_type": "Trash/Recycling",
    "request_reason": "Illegal Dumping",
    "date_created": "2025-04-13T11:12:10.000",
    "date_modified": "2025-04-13T11:12:12.000",
    "request_status": "Pending",
    "responsible_agency": "Department of Sanitation",
    "final_address": "6780 Bundy Rd",
    "address_councildis": "E",
    "status": "Pending",
    "rowid": "1183472",
    "final_x": "3707667.36056",
    "final_y": "559399.082141",
    "longitude": "-89.98440761470137",
    "latitude": "30.031332206853786",
    "geocoded_column": {
      "latitude": "30.031332206853786",
      "longitude": "-89.98440761470137"
    }
  },
  {
    "service_request": "2025-1183471",
    "request_type": "Drainage",
    "request_reason": "Drainage Manhole Cover Missing or Damaged",
    "date_created": "2025-04-13T10:51:29.000",
    "date_modified": "2025-04-13T10:51:31.000",
    "request_status": "Pending",
    "responsible_agency": "Sewerage & Water Board ",
    "final_address": "6325 N Tonti St",
    "address_councildis": "E",
    "status": "Pending",
    "rowid": "1183471",
    "final_x": "3702153.67933",
    "final_y": "537274.908104",
    "longitude": "-90.0026428690543",
    "latitude": "29.970676354532113",
    "geocoded_column": {
      "latitude": "29.970676354532113",
      "longitude": "-90.0026428690543"
    }
  },
  {
    "service_request": "2025-1183470",
    "request_type": "Health Related Request",
    "request_reason": "Homeless Encampment Complaint",
    "date_created": "2025-04-13T10:43:56.000",
    "date_modified": "2025-04-13T10:43:57.000",
    "request_status": "Pending",
    "responsible_agency": "Health Department",
    "final_address": "400 BLK Spain St",
    "address_councildis": "C",
    "status": "Pending",
    "rowid": "1183470",
    "final_x": "3686318.27759",
    "final_y": "534107.487347",
    "longitude": "-90.0527646589072",
    "latitude": "29.96246320776603",
    "geocoded_column": {
      "latitude": "29.96246320776603",
      "longitude": "-90.0527646589072"
    }
  },
  {
    "service_request": "2025-1183469",
    "request_type": "Trash/Recycling",
    "request_reason": "Replace Trash Cart",
    "date_created": "2025-04-13T10:41:05.000",
    "date_modified": "2025-04-13T10:41:08.000",
    "request_status": "Pending",
    "responsible_agency": "Department of Sanitation",
    "final_address": "2815 Mistletoe St",
    "address_councildis": "A",
    "status": "Assigned to Contractor",
    "contractor": "IV Waste",
    "rowid": "1183469",
    "final_x": "3663091.6688",
    "final_y": "535326.179206",
    "longitude": "-90.12607085399863",
    "latitude": "29.966507516658194",
    "geocoded_column": {
      "latitude": "29.966507516658194",
      "longitude": "-90.12607085399863"
    }
  },
  {
    "service_request": "2025-1183467",
    "request_type": "Trash/Recycling",
    "request_reason": "Replace Trash Cart",
    "date_created": "2025-04-13T10:39:11.000",
    "date_modified": "2025-04-13T10:39:12.000",
    "request_status": "Pending",
    "responsible_agency": "Department of Sanitation",
    "final_address": "245 Belleville St",
    "address_councildis": "C",
    "status": "Assigned to Contractor",
    "contractor": "Richards Disposal",
    "rowid": "1183467",
    "final_x": "3687865.86998",
    "final_y": "531091.340674",
    "longitude": "-90.04798443308074",
    "latitude": "29.954122198857434",
    "geocoded_column": {
      "latitude": "29.954122198857434",
      "longitude": "-90.04798443308074"
    }
  },
  {
    "service_request": "2025-1183468",
    "request_type": "Trash/Recycling",
    "request_reason": "Replace Trash Cart",
    "date_created": "2025-04-13T10:39:11.000",
    "date_modified": "2025-04-13T10:39:15.000",
    "request_status": "Pending",
    "responsible_agency": "Department of Sanitation",
    "final_address": "245 Belleville St",
    "address_councildis": "C",
    "status": "Assigned to Contractor",
    "contractor": "Richards Disposal",
    "rowid": "1183468",
    "final_x": "3687865.86998",
    "final_y": "531091.340674",
    "longitude": "-90.04798443308074",
    "latitude": "29.954122198857434",
    "geocoded_column": {
      "latitude": "29.954122198857434",
      "longitude": "-90.04798443308074"
    }
  },
  {
    "service_request": "2025-1183466",
    "request_type": "Abandoned Vehicles",
    "request_reason": "Abandoned/Junk Vehicles",
    "date_created": "2025-04-13T10:36:18.000",
    "date_modified": "2025-04-13T10:36:20.000",
    "request_status": "Pending",
    "responsible_agency": "Department of Public Works",
    "final_address": "3124 Orleans Ave",
    "address_councildis": "A",
    "status": "Pending",
    "rowid": "1183466",
    "final_x": "3675096.60417",
    "final_y": "538200.329481",
    "longitude": "-90.08806071882115",
    "latitude": "29.974057203867606",
    "geocoded_column": {
      "latitude": "29.974057203867606",
      "longitude": "-90.08806071882115"
    }
  },
  {
    "service_request": "2025-1183465",
    "request_type": "Trash/Recycling",
    "request_reason": "Order Trash Cart",
    "date_created": "2025-04-13T10:30:19.000",
    "date_modified": "2025-04-13T10:30:21.000",
    "request_status": "Pending",
    "responsible_agency": "Department of Sanitation",
    "final_address": "2815 Mistletoe St",
    "address_councildis": "A",
    "status": "Assigned to Contractor",
    "contractor": "IV Waste",
    "rowid": "1183465",
    "final_x": "3663091.6688",
    "final_y": "535326.179206",
    "longitude": "-90.12607085399863",
    "latitude": "29.966507516658194",
    "geocoded_column": {
      "latitude": "29.966507516658194",
      "longitude": "-90.12607085399863"
    }
  },
  {
    "service_request": "2025-1183464",
    "request_type": "General Services",
    "request_reason": "General Service Request",
    "date_created": "2025-04-13T10:09:38.000",
    "date_modified": "2025-04-13T10:09:40.000",
    "request_status": "Pending",
    "responsible_agency": "Orleans Parish Communication District",
    "final_address": "0 BLK Acadiana Pl",
    "address_councildis": "E",
    "status": "Pending",
    "rowid": "1183464",
    "final_x": "3725131.4083",
    "final_y": "564393.680055",
    "longitude": "-89.92902788187175",
    "latitude": "30.04448842646984",
    "geocoded_column": {
      "latitude": "30.04448842646984",
      "longitude": "-89.92902788187175"
    }
  },
  {
    "service_request": "2025-1183463",
    "request_type": "General Services",
    "request_reason": "General Service Request",
    "date_created": "2025-04-13T10:09:08.000",
    "date_modified": "2025-04-13T10:09:10.000",
    "request_status": "Pending",
    "responsible_agency": "Orleans Parish Communication District",
    "final_address": "5725 General Diaz St",
    "address_councildis": "A",
    "status": "Pending",
    "rowid": "1183463",
    "final_x": "3669398.32666",
    "final_y": "545538.721616",
    "longitude": "-90.10580894181041",
    "latitude": "29.99440433255263",
    "geocoded_column": {
      "latitude": "29.99440433255263",
      "longitude": "-90.10580894181041"
    }
  },
  {
    "service_request": "2025-1183462",
    "request_type": "Abandoned Vehicles",
    "request_reason": "Abandoned/Junk Vehicles",
    "date_created": "2025-04-13T10:08:10.000",
    "date_modified": "2025-04-13T10:08:12.000",
    "request_status": "Pending",
    "responsible_agency": "Department of Public Works",
    "final_address": "4430 S Derbigny St",
    "address_councildis": "B",
    "status": "Pending",
    "rowid": "1183462",
    "final_x": "3669991.52974",
    "final_y": "526185.59539",
    "longitude": "-90.10459065607371",
    "latitude": "29.941172221120723",
    "geocoded_column": {
      "latitude": "29.941172221120723",
      "longitude": "-90.10459065607371"
    }
  },
  {
    "service_request": "2025-1183461",
    "request_type": "Trash/Recycling",
    "request_reason": "Request a Large Item Pick Up",
    "date_created": "2025-04-13T10:08:09.000",
    "date_modified": "2025-04-13T10:08:11.000",
    "request_status": "Pending",
    "responsible_agency": "Department of Sanitation",
    "final_address": "4300 Annette St",
    "address_councildis": "D",
    "status": "Assigned to Contractor",
    "contractor": "IV Waste",
    "rowid": "1183461",
    "final_x": "3682089.48719",
    "final_y": "548351.186002",
    "longitude": "-90.06562093982961",
    "latitude": "30.001757663247243",
    "geocoded_column": {
      "latitude": "30.001757663247243",
      "longitude": "-90.06562093982961"
    }
  },
  {
    "service_request": "2025-1183460",
    "request_type": "Abandoned Vehicles",
    "request_reason": "Abandoned/Junk Vehicles",
    "date_created": "2025-04-13T10:07:07.000",
    "date_modified": "2025-04-13T10:07:09.000",
    "request_status": "Pending",
    "responsible_agency": "Department of Public Works",
    "final_address": "3101 Jena St",
    "address_councildis": "B",
    "status": "Pending",
    "rowid": "1183460",
    "final_x": "3669952.55054",
    "final_y": "526250.123838",
    "longitude": "-90.10471153655884",
    "latitude": "29.941350802720606",
    "geocoded_column": {
      "latitude": "29.941350802720606",
      "longitude": "-90.10471153655884"
    }
  },
  {
    "service_request": "2025-1183459",
    "request_type": "Trash/Recycling",
    "request_reason": "Request a Large Item Pick Up",
    "date_created": "2025-04-13T09:24:54.000",
    "date_modified": "2025-04-13T09:24:56.000",
    "request_status": "Pending",
    "responsible_agency": "Department of Sanitation",
    "final_address": "7641 Branch Dr",
    "address_councildis": "E",
    "status": "Assigned to Contractor",
    "contractor": "Waste Pro",
    "rowid": "1183459",
    "final_x": "3714763.30661",
    "final_y": "568716.664549",
    "longitude": "-89.96163190903437",
    "latitude": "30.05672018006747",
    "geocoded_column": {
      "latitude": "30.05672018006747",
      "longitude": "-89.96163190903437"
    }
  },
  {
    "service_request": "2025-1183458",
    "request_type": "Trash/Recycling",
    "request_reason": "Order Recycling Cart",
    "date_created": "2025-04-13T09:14:12.000",
    "date_modified": "2025-04-13T09:14:15.000",
    "request_status": "Pending",
    "responsible_agency": "Department of Sanitation",
    "final_address": "6368 Louis Xiv St",
    "address_councildis": "A",
    "status": "Pending",
    "rowid": "1183458",
    "final_x": "3668267.76455",
    "final_y": "549925.18562",
    "longitude": "-90.10923222712283",
    "latitude": "30.00649884378015",
    "geocoded_column": {
      "latitude": "30.00649884378015",
      "longitude": "-90.10923222712283"
    }
  },
  {
    "service_request": "2025-1183457",
    "request_type": "Roads and Streets",
    "request_reason": "Street Subsidence (Sinking)",
    "date_created": "2025-04-13T09:08:25.000",
    "date_modified": "2025-04-13T09:08:26.000",
    "request_status": "Pending",
    "responsible_agency": "Department of Public Works",
    "final_address": "624 Wagner St",
    "address_councildis": "C",
    "status": "Pending",
    "rowid": "1183457",
    "final_x": "3690610.86505",
    "final_y": "529148.283712",
    "longitude": "-90.03938616085576",
    "latitude": "29.94869450986183",
    "geocoded_column": {
      "latitude": "29.94869450986183",
      "longitude": "-90.03938616085576"
    }
  },
  {
    "service_request": "2025-1183456",
    "request_type": "Street and Traffic Signs",
    "request_reason": "Stop Sign Missing or Damaged",
    "date_created": "2025-04-13T08:52:53.000",
    "date_modified": "2025-04-13T08:52:55.000",
    "request_status": "Pending",
    "responsible_agency": "Department of Public Works",
    "final_address": "7100 Colapissa St",
    "address_councildis": "B",
    "status": "Pending",
    "rowid": "1183456",
    "final_x": "3668088.45588",
    "final_y": "531951.059331",
    "longitude": "-90.11040476270401",
    "latitude": "29.95708134652548",
    "geocoded_column": {
      "latitude": "29.95708134652548",
      "longitude": "-90.11040476270401"
    }
  },
  {
    "service_request": "2025-1183455",
    "request_type": "Trash/Recycling",
    "request_reason": "Request a Large Item Pick Up",
    "date_created": "2025-04-13T08:45:37.000",
    "date_modified": "2025-04-13T08:45:39.000",
    "request_status": "Pending",
    "responsible_agency": "Department of Sanitation",
    "final_address": "5815 Sutton Pl",
    "address_councildis": "C",
    "status": "Assigned to Contractor",
    "contractor": "Richards Disposal",
    "rowid": "1183455",
    "final_x": "3705369.62231",
    "final_y": "518630.926327",
    "longitude": "-89.99317526575108",
    "latitude": "29.919308952679504",
    "geocoded_column": {
      "latitude": "29.919308952679504",
      "longitude": "-89.99317526575108"
    }
  },
  {
    "service_request": "2025-1183454",
    "request_type": "Healthy Homes",
    "request_reason": "Healthy Homes",
    "date_created": "2025-04-13T08:31:30.000",
    "date_modified": "2025-04-13T08:31:32.000",
    "request_status": "Pending",
    "responsible_agency": "Department of Code Enforcement",
    "final_address": "5217 Tchoupitoulas St",
    "address_councildis": "B",
    "status": "Pending",
    "rowid": "1183454",
    "final_x": "3667836.76628",
    "final_y": "517243.756469",
    "longitude": "-90.11169465593656",
    "latitude": "29.916648367221562",
    "geocoded_column": {
      "latitude": "29.916648367221562",
      "longitude": "-90.11169465593656"
    }
  },
  {
    "service_request": "2025-1183453",
    "request_type": "Trash/Recycling",
    "request_reason": "Repair Trash Cart",
    "date_created": "2025-04-13T08:28:18.000",
    "date_modified": "2025-04-13T08:28:20.000",
    "request_status": "Pending",
    "responsible_agency": "Department of Sanitation",
    "final_address": "4533 Annunciation St",
    "address_councildis": "B",
    "status": "Assigned to Contractor",
    "contractor": "IV Waste",
    "rowid": "1183453",
    "final_x": "3670486.7874",
    "final_y": "517717.789622",
    "longitude": "-90.10331401610286",
    "latitude": "29.917873855352216",
    "geocoded_column": {
      "latitude": "29.917873855352216",
      "longitude": "-90.10331401610286"
    }
  },
  {
    "service_request": "2025-1183452",
    "request_type": "Abandoned Vehicles",
    "request_reason": "Abandoned/Junk Vehicles",
    "date_created": "2025-04-13T06:57:38.000",
    "date_modified": "2025-04-13T06:57:40.000",
    "request_status": "Pending",
    "responsible_agency": "Department of Public Works",
    "final_address": "3312 Thalia St",
    "address_councildis": "B",
    "status": "Pending",
    "rowid": "1183452",
    "final_x": "3674153.52244",
    "final_y": "529033.930048",
    "longitude": "-90.09135297548642",
    "latitude": "29.948880827175575",
    "geocoded_column": {
      "latitude": "29.948880827175575",
      "longitude": "-90.09135297548642"
    }
  },
  {
    "service_request": "2025-1183450",
    "request_type": "Property Maintenance",
    "request_reason": "Property Maintenance",
    "date_created": "2025-04-13T04:06:52.000",
    "date_modified": "2025-04-13T04:06:54.000",
    "request_status": "Pending",
    "responsible_agency": "Department of Code Enforcement",
    "final_address": "419 N Prieur St",
    "address_councildis": "B",
    "status": "Pending",
    "rowid": "1183450",
    "final_x": "3678319.28277",
    "final_y": "534533.484741",
    "longitude": "-90.07800963687157",
    "latitude": "29.963877937985835",
    "geocoded_column": {
      "latitude": "29.963877937985835",
      "longitude": "-90.07800963687157"
    }
  },
  {
    "service_request": "2025-1183451",
    "request_type": "Property Maintenance",
    "request_reason": "Property Maintenance",
    "date_created": "2025-04-13T04:06:52.000",
    "date_modified": "2025-04-13T04:06:54.000",
    "request_status": "Pending",
    "responsible_agency": "Department of Code Enforcement",
    "final_address": "419 N Prieur St",
    "address_councildis": "B",
    "status": "Pending",
    "rowid": "1183451",
    "final_x": "3678319.28277",
    "final_y": "534533.484741",
    "longitude": "-90.07800963687157",
    "latitude": "29.963877937985835",
    "geocoded_column": {
      "latitude": "29.963877937985835",
      "longitude": "-90.07800963687157"
    }
  },
  {
    "service_request": "2025-1183449",
    "request_type": "Trash/Recycling",
    "request_reason": "Request a Large Item Pick Up",
    "date_created": "2025-04-13T00:37:02.000",
    "date_modified": "2025-04-13T00:37:04.000",
    "request_status": "Pending",
    "responsible_agency": "Department of Sanitation",
    "final_address": "214 Porteous St",
    "address_councildis": "A",
    "status": "Assigned to Contractor",
    "contractor": "IV Waste",
    "rowid": "1183449",
    "final_x": "3667369.57978",
    "final_y": "551619.140373",
    "longitude": "-90.11201278973255",
    "latitude": "30.011182981097097",
    "geocoded_column": {
      "latitude": "30.011182981097097",
      "longitude": "-90.11201278973255"
    }
  },
  {
    "service_request": "2025-1183448",
    "request_type": "Trash/Recycling",
    "request_reason": "Request a Large Item Pick Up",
    "date_created": "2025-04-13T00:21:32.000",
    "date_modified": "2025-04-13T00:21:34.000",
    "request_status": "Pending",
    "responsible_agency": "Department of Sanitation",
    "final_address": "6242 Rhodes Ave",
    "address_councildis": "C",
    "status": "Assigned to Contractor",
    "contractor": "Richards Disposal",
    "rowid": "1183448",
    "final_x": "3707270.72004",
    "final_y": "519451.263863",
    "longitude": "-89.98714409102969",
    "latitude": "29.92150331947366",
    "geocoded_column": {
      "latitude": "29.92150331947366",
      "longitude": "-89.98714409102969"
    }
  },
  {
    "service_request": "2025-1183447",
    "request_type": "Street and Traffic Signs",
    "request_reason": "Street Name Sign Damaged or Missing",
    "date_created": "2025-04-13T00:17:29.000",
    "date_modified": "2025-04-13T00:17:31.000",
    "request_status": "Pending",
    "responsible_agency": "Department of Public Works",
    "final_address": "7TH ST & S LIBERTY ST",
    "address_councildis": "B",
    "status": "Pending",
    "rowid": "1183447",
    "final_x": "3673877.9",
    "final_y": "524167.28",
    "longitude": "-90.09238965047423",
    "latitude": "29.93550734628811",
    "geocoded_column": {
      "latitude": "29.93550734628811",
      "longitude": "-90.09238965047423"
    }
  },
  {
    "service_request": "2025-1183446",
    "request_type": "Streetlights",
    "request_reason": "Streetlight Outage/Malfunction",
    "date_created": "2025-04-12T23:49:02.000",
    "date_modified": "2025-04-12T23:49:04.000",
    "request_status": "Pending",
    "responsible_agency": "Department of Public Works",
    "final_address": "1339 Tennessee St",
    "address_councildis": "E",
    "status": "Pending",
    "contractor": "Legacy Professional Services",
    "rowid": "1183446",
    "final_x": "3696054.26774",
    "final_y": "535322.558022",
    "longitude": "-90.02197600846553",
    "latitude": "29.965501446335917",
    "geocoded_column": {
      "latitude": "29.965501446335917",
      "longitude": "-90.02197600846553"
    }
  },
  {
    "service_request": "2025-1183445",
    "request_type": "Street and Traffic Signs",
    "request_reason": "Street Name Sign Damaged or Missing",
    "date_created": "2025-04-12T22:59:42.000",
    "date_modified": "2025-04-12T22:59:44.000",
    "request_status": "Pending",
    "responsible_agency": "Department of Public Works",
    "final_address": "HARMONY ST & S LIBERTY ST",
    "address_councildis": "B",
    "status": "Pending",
    "rowid": "1183445",
    "final_x": "3673724.0",
    "final_y": "524066.28",
    "longitude": "-90.09287896660568",
    "latitude": "29.935234211199866",
    "geocoded_column": {
      "latitude": "29.935234211199866",
      "longitude": "-90.09287896660568"
    }
  },
  {
    "service_request": "2025-1183444",
    "request_type": "Street and Traffic Signs",
    "request_reason": "Stop Sign Missing or Damaged",
    "date_created": "2025-04-12T22:49:18.000",
    "date_modified": "2025-04-12T22:49:20.000",
    "request_status": "Pending",
    "responsible_agency": "Department of Public Works",
    "final_address": "TERPSICHORE ST & CARONDELET ST",
    "address_councildis": "B",
    "status": "Pending",
    "rowid": "1183444",
    "final_x": "3678643.5",
    "final_y": "525520.38",
    "longitude": "-90.0772977870439",
    "latitude": "29.939085150375867",
    "geocoded_column": {
      "latitude": "29.939085150375867",
      "longitude": "-90.0772977870439"
    }
  },
  {
    "service_request": "2025-1183443",
    "request_type": "General Services",
    "request_reason": "General Service Request",
    "date_created": "2025-04-12T22:33:55.000",
    "date_modified": "2025-04-12T22:33:57.000",
    "request_status": "Pending",
    "responsible_agency": "Orleans Parish Communication District",
    "final_address": "702 River Oaks Dr",
    "address_councildis": "C",
    "status": "Pending",
    "rowid": "1183443",
    "final_x": "3701522.6209",
    "final_y": "520052.737016",
    "longitude": "-90.00526620688225",
    "latitude": "29.92334160145821",
    "geocoded_column": {
      "latitude": "29.92334160145821",
      "longitude": "-90.00526620688225"
    }
  },
  {
    "service_request": "2025-1183442",
    "request_type": "Trash/Recycling",
    "request_reason": "Request a Large Item Pick Up",
    "date_created": "2025-04-12T22:25:21.000",
    "date_modified": "2025-04-12T22:25:23.000",
    "request_status": "Pending",
    "responsible_agency": "Department of Sanitation",
    "final_address": "2000 S Carrollton Ave",
    "address_councildis": "A",
    "status": "Assigned to Contractor",
    "contractor": "IV Waste",
    "rowid": "1183442",
    "final_x": "3663869.15655",
    "final_y": "530500.026242",
    "longitude": "-90.12377643009548",
    "latitude": "29.953214623781495",
    "geocoded_column": {
      "latitude": "29.953214623781495",
      "longitude": "-90.12377643009548"
    }
  },
  {
    "service_request": "2025-1183441",
    "request_type": "Law Enforcement Services",
    "request_reason": "Off Duty Officer for Hire",
    "date_created": "2025-04-12T22:10:42.000",
    "date_modified": "2025-04-12T22:10:44.000",
    "request_status": "Pending",
    "responsible_agency": "Office of Police Secondary Employment",
    "final_address": "3133 General Meyer Ave",
    "address_councildis": "C",
    "status": "Pending",
    "rowid": "1183441",
    "final_x": "3695713.54173",
    "final_y": "526273.20275",
    "longitude": "-90.02337870546731",
    "latitude": "29.94062960685906",
    "geocoded_column": {
      "latitude": "29.94062960685906",
      "longitude": "-90.02337870546731"
    }
  },
  {
    "service_request": "2025-1183439",
    "request_type": "Law Enforcement Services",
    "request_reason": "Off Duty Officer for Hire",
    "date_created": "2025-04-12T22:01:38.000",
    "date_modified": "2025-04-12T22:01:40.000",
    "request_status": "Pending",
    "responsible_agency": "Office of Police Secondary Employment",
    "final_address": "3133 General Meyer Ave",
    "address_councildis": "C",
    "status": "Pending",
    "rowid": "1183439",
    "final_x": "3695713.54173",
    "final_y": "526273.20275",
    "longitude": "-90.02337870546731",
    "latitude": "29.94062960685906",
    "geocoded_column": {
      "latitude": "29.94062960685906",
      "longitude": "-90.02337870546731"
    }
  },
  {
    "service_request": "2025-1183438",
    "request_type": "Abandoned Vehicles",
    "request_reason": "Abandoned/Junk Vehicles",
    "date_created": "2025-04-12T21:57:50.000",
    "date_modified": "2025-04-12T21:57:53.000",
    "request_status": "Pending",
    "responsible_agency": "Department of Public Works",
    "final_address": "10 Charbonnet St",
    "address_councildis": "E",
    "status": "Pending",
    "rowid": "1183438",
    "final_x": "3699864.69399",
    "final_y": "537898.375945",
    "longitude": "-90.00984897134633",
    "latitude": "29.972463560036303",
    "geocoded_column": {
      "latitude": "29.972463560036303",
      "longitude": "-90.00984897134633"
    }
  },
  {
    "service_request": "2025-1183437",
    "request_type": "Health Related Request",
    "request_reason": "Noise Ordinance Complaint",
    "date_created": "2025-04-12T21:24:21.000",
    "date_modified": "2025-04-12T21:24:23.000",
    "request_status": "Pending",
    "responsible_agency": "Health Department",
    "final_address": "600 N Broad St",
    "address_councildis": "D",
    "status": "Pending",
    "rowid": "1183437",
    "final_x": "3676514.68328",
    "final_y": "536431.051079",
    "longitude": "-90.0836430411453",
    "latitude": "29.969149839828454",
    "geocoded_column": {
      "latitude": "29.969149839828454",
      "longitude": "-90.0836430411453"
    }
  },
  {
    "service_request": "2025-1183436",
    "request_type": "Parks & Parkways",
    "request_reason": "Request Tree Service (Right of Way/Public Property)",
    "date_created": "2025-04-12T20:55:41.000",
    "date_modified": "2025-04-12T20:55:42.000",
    "request_status": "Pending",
    "responsible_agency": "Department of Parks & Parkway",
    "final_address": "1515 St Charles Ave Ste 101",
    "address_councildis": "B",
    "status": "Pending",
    "rowid": "1183436",
    "final_x": "3679060.44232",
    "final_y": "525443.861181",
    "longitude": "-90.07598410062714",
    "latitude": "29.93886217527874",
    "geocoded_column": {
      "latitude": "29.93886217527874",
      "longitude": "-90.07598410062714"
    }
  },
  {
    "service_request": "2025-1183435",
    "request_type": "General Services",
    "request_reason": "General Service Request",
    "date_created": "2025-04-12T20:51:05.000",
    "date_modified": "2025-04-12T20:51:07.000",
    "request_status": "Pending",
    "responsible_agency": "Orleans Parish Communication District",
    "final_address": "1447 Euterpe St",
    "address_councildis": "B",
    "status": "Pending",
    "rowid": "1183435",
    "final_x": "3679417.93039",
    "final_y": "524712.076924",
    "longitude": "-90.07488084404304",
    "latitude": "29.93683921940913",
    "geocoded_column": {
      "latitude": "29.93683921940913",
      "longitude": "-90.07488084404304"
    }
  },
  {
    "service_request": "2025-1183434",
    "request_type": "Graffiti Removal",
    "request_reason": "Graffiti Removal",
    "date_created": "2025-04-12T20:36:38.000",
    "date_modified": "2025-04-12T20:36:41.000",
    "request_status": "Pending",
    "responsible_agency": "Department of Code Enforcement",
    "final_address": "108 Roosevelt Way",
    "address_councildis": "B",
    "status": "Pending",
    "rowid": "1183434",
    "final_x": "3680279.08687",
    "final_y": "531225.76621",
    "longitude": "-90.07193575212628",
    "latitude": "29.95472365267522",
    "geocoded_column": {
      "latitude": "29.95472365267522",
      "longitude": "-90.07193575212628"
    }
  },
  {
    "service_request": "2025-1183433",
    "request_type": "Trash/Recycling",
    "request_reason": "Request a Large Item Pick Up",
    "date_created": "2025-04-12T20:34:37.000",
    "date_modified": "2025-04-12T20:34:39.000",
    "request_status": "Pending",
    "responsible_agency": "Department of Sanitation",
    "final_address": "7024 Whitmore Pl",
    "address_councildis": "E",
    "status": "Assigned to Contractor",
    "contractor": "Waste Pro",
    "rowid": "1183433",
    "final_x": "3719000.72985",
    "final_y": "569207.648166",
    "longitude": "-89.9482194763946",
    "latitude": "30.05793002132162",
    "geocoded_column": {
      "latitude": "30.05793002132162",
      "longitude": "-89.9482194763946"
    }
  },
  {
    "service_request": "2025-1183432",
    "request_type": "Trash/Recycling",
    "request_reason": "Request a Large Item Pick Up",
    "date_created": "2025-04-12T20:29:12.000",
    "date_modified": "2025-04-12T20:29:14.000",
    "request_status": "Pending",
    "responsible_agency": "Department of Sanitation",
    "final_address": "7040 Queensway Dr",
    "address_councildis": "E",
    "status": "Assigned to Contractor",
    "contractor": "Waste Pro",
    "rowid": "1183432",
    "final_x": "3719143.7742",
    "final_y": "569435.856358",
    "longitude": "-89.94775861293397",
    "latitude": "30.05855274367395",
    "geocoded_column": {
      "latitude": "30.05855274367395",
      "longitude": "-89.94775861293397"
    }
  },
  {
    "service_request": "2025-1183431",
    "request_type": "Traffic Signals",
    "request_reason": "Traffic Signal Malfunctioning or Damaged",
    "date_created": "2025-04-12T19:49:01.000",
    "date_modified": "2025-04-12T19:49:03.000",
    "request_status": "Pending",
    "responsible_agency": "Department of Public Works",
    "final_address": "3300 S Claiborne Ave",
    "address_councildis": "B",
    "status": "Pending",
    "rowid": "1183431",
    "final_x": "3672553.49697",
    "final_y": "526110.318398",
    "longitude": "-90.09650459627572",
    "latitude": "29.9408894428693",
    "geocoded_column": {
      "latitude": "29.9408894428693",
      "longitude": "-90.09650459627572"
    }
  },
  {
    "service_request": "2025-1183430",
    "request_type": "Streetlights",
    "request_reason": "Streetlight Outage/Malfunction",
    "date_created": "2025-04-12T19:23:47.000",
    "date_modified": "2025-04-12T19:23:49.000",
    "request_status": "Pending",
    "responsible_agency": "Department of Public Works",
    "final_address": "6400 Avenue A",
    "address_councildis": "A",
    "status": "Pending",
    "contractor": "Legacy Professional Services",
    "rowid": "1183430",
    "final_x": "3665911.45204",
    "final_y": "550725.667797",
    "longitude": "-90.11664959470032",
    "latitude": "30.008768896604284",
    "geocoded_column": {
      "latitude": "30.008768896604284",
      "longitude": "-90.11664959470032"
    }
  },
  {
    "service_request": "2025-1183429",
    "request_type": "Streetlights",
    "request_reason": "Streetlight Outage/Malfunction",
    "date_created": "2025-04-12T19:21:32.000",
    "date_modified": "2025-04-12T19:21:36.000",
    "request_status": "Pending",
    "responsible_agency": "Department of Public Works",
    "final_address": "6400 Avenue A",
    "address_councildis": "A",
    "status": "Pending",
    "contractor": "Legacy Professional Services",
    "rowid": "1183429",
    "final_x": "3665911.45204",
    "final_y": "550725.667797",
    "longitude": "-90.11664959470032",
    "latitude": "30.008768896604284",
    "geocoded_column": {
      "latitude": "30.008768896604284",
      "longitude": "-90.11664959470032"
    }
  },
  {
    "service_request": "2025-1183428",
    "request_type": "Trash/Recycling",
    "request_reason": "Request a Large Item Pick Up",
    "date_created": "2025-04-12T19:17:30.000",
    "date_modified": "2025-04-12T19:17:32.000",
    "request_status": "Pending",
    "responsible_agency": "Department of Sanitation",
    "final_address": "322 Alix St",
    "address_councildis": "C",
    "status": "Assigned to Contractor",
    "contractor": "Richards Disposal",
    "rowid": "1183428",
    "final_x": "3686540.80905",
    "final_y": "530085.101249",
    "longitude": "-90.05220395578007",
    "latitude": "29.951396189025203",
    "geocoded_column": {
      "latitude": "29.951396189025203",
      "longitude": "-90.05220395578007"
    }
  },
  {
    "service_request": "2025-1183427",
    "request_type": "Trash/Recycling",
    "request_reason": "Request a Large Item Pick Up",
    "date_created": "2025-04-12T19:14:38.000",
    "date_modified": "2025-04-12T19:14:40.000",
    "request_status": "Pending",
    "responsible_agency": "Department of Sanitation",
    "final_address": "320 Alix St",
    "address_councildis": "C",
    "status": "Assigned to Contractor",
    "contractor": "Richards Disposal",
    "rowid": "1183427",
    "final_x": "3686532.61436",
    "final_y": "530078.590081",
    "longitude": "-90.05223006039935",
    "latitude": "29.95137853746635",
    "geocoded_column": {
      "latitude": "29.95137853746635",
      "longitude": "-90.05223006039935"
    }
  },
  {
    "service_request": "2025-1183426",
    "request_type": "Street and Traffic Signs",
    "request_reason": "Stop Sign Missing or Damaged",
    "date_created": "2025-04-12T18:44:25.000",
    "date_modified": "2025-04-12T18:44:27.000",
    "request_status": "Pending",
    "responsible_agency": "Department of Public Works",
    "final_address": "1455 Gardena Dr",
    "address_councildis": "D",
    "status": "Pending",
    "rowid": "1183426",
    "final_x": "3677901.9812",
    "final_y": "551542.530453",
    "longitude": "-90.07873932667688",
    "latitude": "30.010659445701254",
    "geocoded_column": {
      "latitude": "30.010659445701254",
      "longitude": "-90.07873932667688"
    }
  },
  {
    "service_request": "2025-1183425",
    "request_type": "Roads and Streets",
    "request_reason": "Push-up/Pavement Expansion",
    "date_created": "2025-04-12T18:39:46.000",
    "date_modified": "2025-04-12T18:39:48.000",
    "request_status": "Pending",
    "responsible_agency": "Department of Public Works",
    "final_address": "5101 Painters St",
    "address_councildis": "D",
    "status": "Pending",
    "rowid": "1183425",
    "final_x": "3686209.01673",
    "final_y": "551591.624469",
    "longitude": "-90.05249251441604",
    "latitude": "30.010541727791015",
    "geocoded_column": {
      "latitude": "30.010541727791015",
      "longitude": "-90.05249251441604"
    }
  },
  {
    "service_request": "2025-1183424",
    "request_type": "Trash/Recycling",
    "request_reason": "Illegal Dumping",
    "date_created": "2025-04-12T18:28:28.000",
    "date_modified": "2025-04-12T18:28:30.000",
    "request_status": "Pending",
    "responsible_agency": "Department of Sanitation",
    "final_address": "3800 BLK Metropolitan St",
    "address_councildis": "D",
    "status": "Pending",
    "rowid": "1183424",
    "final_x": "3691538.34392",
    "final_y": "547380.108111",
    "longitude": "-90.03580586646181",
    "latitude": "29.998796726717714",
    "geocoded_column": {
      "latitude": "29.998796726717714",
      "longitude": "-90.03580586646181"
    }
  },
  {
    "service_request": "2025-1183423",
    "request_type": "General Services",
    "request_reason": "General Service Request",
    "date_created": "2025-04-12T18:25:44.000",
    "date_modified": "2025-04-12T18:25:45.000",
    "request_status": "Pending",
    "responsible_agency": "Orleans Parish Communication District",
    "final_address": "1423 Dufossat St",
    "address_councildis": "B",
    "status": "Pending",
    "rowid": "1183423",
    "final_x": "3668174.01178",
    "final_y": "520369.628984",
    "longitude": "-90.11052487395027",
    "latitude": "29.925233639881142",
    "geocoded_column": {
      "latitude": "29.925233639881142",
      "longitude": "-90.11052487395027"
    }
  },
  {
    "service_request": "2025-1183422",
    "request_type": "Health Related Request",
    "request_reason": "Noise Ordinance Complaint",
    "date_created": "2025-04-12T18:18:15.000",
    "date_modified": "2025-04-12T18:18:17.000",
    "request_status": "Pending",
    "responsible_agency": "Health Department",
    "final_address": "7400 Lakeshore Dr",
    "address_councildis": "D",
    "status": "Pending",
    "rowid": "1183422",
    "final_x": "3666808.79802",
    "final_y": "556202.373082",
    "longitude": "-90.11363039460369",
    "latitude": "30.023801679293893",
    "geocoded_column": {
      "latitude": "30.023801679293893",
      "longitude": "-90.11363039460369"
    }
  },
  {
    "service_request": "2025-1183421",
    "request_type": "Property Maintenance",
    "request_reason": "Property Maintenance",
    "date_created": "2025-04-12T18:11:53.000",
    "date_modified": "2025-04-12T18:11:56.000",
    "request_status": "Pending",
    "responsible_agency": "Department of Code Enforcement",
    "final_address": "203 Fairfax Pl",
    "address_councildis": "C",
    "status": "Pending",
    "rowid": "1183421",
    "final_x": "3706132.38078",
    "final_y": "517360.447861",
    "longitude": "-89.9908146283407",
    "latitude": "29.91579102482397",
    "geocoded_column": {
      "latitude": "29.91579102482397",
      "longitude": "-89.9908146283407"
    }
  },
  {
    "service_request": "2025-1183420",
    "request_type": "Property Maintenance",
    "request_reason": "Property Maintenance",
    "date_created": "2025-04-12T18:02:25.000",
    "date_modified": "2025-04-12T18:02:27.000",
    "request_status": "Pending",
    "responsible_agency": "Department of Code Enforcement",
    "final_address": "203 Fairfax Pl",
    "address_councildis": "C",
    "status": "Pending",
    "rowid": "1183420",
    "final_x": "3706132.38078",
    "final_y": "517360.447861",
    "longitude": "-89.9908146283407",
    "latitude": "29.91579102482397",
    "geocoded_column": {
      "latitude": "29.91579102482397",
      "longitude": "-89.9908146283407"
    }
  },
  {
    "service_request": "2025-1183419",
    "request_type": "Trash/Recycling",
    "request_reason": "Request a Large Item Pick Up",
    "date_created": "2025-04-12T17:59:29.000",
    "date_modified": "2025-04-12T17:59:31.000",
    "request_status": "Pending",
    "responsible_agency": "Department of Sanitation",
    "final_address": "8630 Chase St",
    "address_councildis": "E",
    "status": "Assigned to Contractor",
    "contractor": "Waste Pro",
    "rowid": "1183419",
    "final_x": "3703787.19479",
    "final_y": "563447.751584",
    "longitude": "-89.99651974193881",
    "latitude": "30.042589487952732",
    "geocoded_column": {
      "latitude": "30.042589487952732",
      "longitude": "-89.99651974193881"
    }
  },
  {
    "service_request": "2025-1183418",
    "request_type": "Trash/Recycling",
    "request_reason": "Request a Large Item Pick Up",
    "date_created": "2025-04-12T17:50:38.000",
    "date_modified": "2025-04-12T17:50:41.000",
    "request_status": "Pending",
    "responsible_agency": "Department of Sanitation",
    "final_address": "7441 Primrose Dr",
    "address_councildis": "E",
    "status": "Assigned to Contractor",
    "contractor": "Waste Pro",
    "rowid": "1183418",
    "final_x": "3702017.15153",
    "final_y": "560759.869726",
    "longitude": "-90.00221242696189",
    "latitude": "30.03525552773139",
    "geocoded_column": {
      "latitude": "30.03525552773139",
      "longitude": "-90.00221242696189"
    }
  },
  {
    "service_request": "2025-1183417",
    "request_type": "Trash/Recycling",
    "request_reason": "Request a Large Item Pick Up",
    "date_created": "2025-04-12T17:47:25.000",
    "date_modified": "2025-04-12T17:47:28.000",
    "request_status": "Pending",
    "responsible_agency": "Department of Sanitation",
    "final_address": "7441 Primrose Dr",
    "address_councildis": "E",
    "status": "Assigned to Contractor",
    "contractor": "Waste Pro",
    "rowid": "1183417",
    "final_x": "3702017.15153",
    "final_y": "560759.869726",
    "longitude": "-90.00221242696189",
    "latitude": "30.03525552773139",
    "geocoded_column": {
      "latitude": "30.03525552773139",
      "longitude": "-90.00221242696189"
    }
  },
  {
    "service_request": "2025-1183416",
    "request_type": "Safety & Permits",
    "request_reason": "Licenses & Permits",
    "date_created": "2025-04-12T17:44:02.000",
    "date_modified": "2025-04-12T17:44:05.000",
    "request_status": "Pending",
    "responsible_agency": "Safety and Permits",
    "final_address": "7400 Lakeshore Dr",
    "address_councildis": "D",
    "status": "Pending",
    "rowid": "1183416",
    "final_x": "3666808.79802",
    "final_y": "556202.373082",
    "longitude": "-90.11363039460369",
    "latitude": "30.023801679293893",
    "geocoded_column": {
      "latitude": "30.023801679293893",
      "longitude": "-90.11363039460369"
    }
  },
  {
    "service_request": "2025-1183415",
    "request_type": "Trash/Recycling",
    "request_reason": "Request a Large Item Pick Up",
    "date_created": "2025-04-12T17:33:58.000",
    "date_modified": "2025-04-12T17:34:00.000",
    "request_status": "Pending",
    "responsible_agency": "Department of Sanitation",
    "final_address": "6318 Carlson Dr",
    "address_councildis": "D",
    "status": "Assigned to Contractor",
    "contractor": "IV Waste",
    "rowid": "1183415",
    "final_x": "3679353.33781",
    "final_y": "556895.299866",
    "longitude": "-90.07396806094755",
    "latitude": "30.025333844572998",
    "geocoded_column": {
      "latitude": "30.025333844572998",
      "longitude": "-90.07396806094755"
    }
  },
  {
    "service_request": "2025-1183414",
    "request_type": "New Orleans Recreation Development Commission (NORDC)",
    "request_reason": "Facilities and Parks Maintenance/Clean Up",
    "date_created": "2025-04-12T17:24:53.000",
    "date_modified": "2025-04-12T17:24:55.000",
    "request_status": "Pending",
    "responsible_agency": "New Orleans Recreation Development Commission",
    "final_address": "627 Lyons St",
    "address_councildis": "B",
    "status": "Pending",
    "rowid": "1183414",
    "final_x": "3669358.83098",
    "final_y": "517792.243638",
    "longitude": "-90.10687184910451",
    "latitude": "29.918111825938762",
    "geocoded_column": {
      "latitude": "29.918111825938762",
      "longitude": "-90.10687184910451"
    }
  },
  {
    "service_request": "2025-1183413",
    "request_type": "Traffic Signals",
    "request_reason": "Traffic Signal Malfunctioning or Damaged",
    "date_created": "2025-04-12T17:10:20.000",
    "date_modified": "2025-04-12T17:10:22.000",
    "request_status": "Pending",
    "responsible_agency": "Department of Public Works",
    "final_address": "1452 Louisiana Ave",
    "address_councildis": "B",
    "status": "Pending",
    "rowid": "1183413",
    "final_x": "3674361.54088",
    "final_y": "520967.956601",
    "longitude": "-90.09097230128546",
    "latitude": "29.926695832574822",
    "geocoded_column": {
      "latitude": "29.926695832574822",
      "longitude": "-90.09097230128546"
    }
  },