[
  {
    "service_request": "2026-1257880",
    "request_type": "Trash/Recycling",
    "request_reason": "Replace Recycling Cart",
    "date_created": "2026-02-10T23:22:26.000",
    "date_modified": "2026-02-10T23:22:29.000",
    "request_status": "Pending",
    "responsible_agency": "Department of Sanitation",
    "final_address": "2016 Filmore Ave",
    "address_councildis": "D",
    "status": "Pending",
    "rowid": "1257880",
    "final_x": "3682406.57794",
    "final_y": "552073.845014",
    "longitude": "-90.06448899096704",
    "latitude": "30.011983982962214",
    "geocoded_column": {
      "latitude": "30.011983982962214",
      "longitude": "-90.06448899096704"
    }
  },
  {
    "service_request": "2026-1257879",
    "request_type": "Trash/Recycling",
    "request_reason": "Request a Large Item Pick Up",
    "date_created": "2026-02-10T22:14:17.000",
    "date_modified": "2026-02-10T22:14:19.000",
    "request_status": "Pending",
    "responsible_agency": "Department of Sanitation",
    "final_address": "2627 Chartres St",
    "address_councildis": "C",
    "status": "Assigned to Contractor",
    "contractor": "IV Waste",
    "rowid": "1257879",
    "final_x": "3686886.02351",
    "final_y": "534592.539717",
    "longitude": "-90.05095465830449",
    "latitude": "29.96377947484409",
    "geocoded_column": {
      "latitude": "29.96377947484409",
      "longitude": "-90.05095465830449"
    }
  },
  {
    "service_request": "2026-1257878",
    "request_type": "Abandoned Vehicles",
    "request_reason": "Abandoned/Junk Vehicles",
    "date_created": "2026-02-10T22:05:21.000",
    "date_modified": "2026-02-10T22:05:23.000",
    "request_status": "Pending",
    "responsible_agency": "Department of Public Works",
    "final_address": "1901 Piety St",
    "address_councildis": "D",
    "status": "Pending",
    "rowid": "1257878",
    "final_x": "3690622.97059",
    "final_y": "538821.249033",
    "longitude": "-90.03900294341278",
    "latitude": "29.975291409491657",
    "geocoded_column": {
      "latitude": "29.975291409491657",
      "longitude": "-90.03900294341278"
    }
  },
  {
    "service_request": "2026-1257877",
    "request_type": "Trash/Recycling",
    "request_reason": "Request a Large Item Pick Up",
    "date_created": "2026-02-10T22:01:36.000",
    "date_modified": "2026-02-10T22:01:38.000",
    "request_status": "Pending",
    "responsible_agency": "Department of Sanitation",
    "final_address": "2515 Palmer Ave",
    "address_councildis": "A",
    "status": "Assigned to Contractor",
    "contractor": "IV Waste",
    "rowid": "1257877",
    "final_x": "3666549.1698",
    "final_y": "526015.268286",
    "longitude": "-90.11546458584183",
    "latitude": "29.940804929248216",
    "geocoded_column": {
      "latitude": "29.940804929248216",
      "longitude": "-90.11546458584183"
    }
  },
  {
    "service_request": "2026-1257876",
    "request_type": "Trash/Recycling",
    "request_reason": "Replace Trash Cart",
    "date_created": "2026-02-10T21:52:02.000",
    "date_modified": "2026-02-10T21:52:05.000",
    "request_status": "Pending",
    "responsible_agency": "Department of Sanitation",
    "final_address": "2324 Ursulines Ave",
    "address_councildis": "D",
    "status": "Assigned to Contractor",
    "contractor": "IV Waste",
    "rowid": "1257876",
    "final_x": "3678771.74715",
    "final_y": "537171.885704",
    "longitude": "-90.07648940743557",
    "latitude": "29.97111900198369",
    "geocoded_column": {
      "latitude": "29.97111900198369",
      "longitude": "-90.07648940743557"
    }
  },
  {
    "service_request": "2026-1257875",
    "request_type": "EMS",
    "request_reason": "EMS General",
    "date_created": "2026-02-10T21:42:40.000",
    "date_modified": "2026-02-10T21:42:42.000",
    "request_status": "Pending",
    "responsible_agency": "Emergency Medical Services",
    "final_address": "4544 Rosemont Pl",
    "address_councildis": "E",
    "status": "Pending",
    "rowid": "1257875",
    "final_x": "3702730.85092",
    "final_y": "553875.629463",
    "longitude": "-90.00021014614391",
    "latitude": "30.016303710308215",
    "geocoded_column": {
      "latitude": "30.016303710308215",
      "longitude": "-90.00021014614391"
    }
  },
  {
    "service_request": "2026-1257874",
    "request_type": "Roads and Streets",
    "request_reason": "Pothole",
    "date_created": "2026-02-10T21:39:49.000",
    "date_modified": "2026-02-10T21:39:51.000",
    "request_status": "Pending",
    "responsible_agency": "Department of Public Works",
    "final_address": "2900 Behrman Hwy",
    "address_councildis": "C",
    "status": "Pending",
    "rowid": "1257874",
    "final_x": "3693603.32829",
    "final_y": "520128.089784",
    "longitude": "-90.03026161120532",
    "latitude": "29.923798805360452",
    "geocoded_column": {
      "latitude": "29.923798805360452",
      "longitude": "-90.03026161120532"
    }
  },
  {
    "service_request": "2026-1257873",
    "request_type": "Streetlights",
    "request_reason": "Streetlight Outage/Malfunction",
    "date_created": "2026-02-10T21:31:36.000",
    "date_modified": "2026-02-10T21:31:38.000",
    "request_status": "Pending",
    "responsible_agency": "Department of Public Works",
    "final_address": "7431 Spruce St",
    "address_councildis": "A",
    "status": "Pending",
    "rowid": "1257873",
    "final_x": "3665083.13588",
    "final_y": "529382.918465",
    "longitude": "-90.1199805438177",
    "latitude": "29.950107647106048",
    "geocoded_column": {
      "latitude": "29.950107647106048",
      "longitude": "-90.1199805438177"
    }
  },
  {
    "service_request": "2026-1257872",
    "request_type": "Health Related Request",
    "request_reason": "Noise Ordinance Complaint",
    "date_created": "2026-02-10T21:27:56.000",
    "date_modified": "2026-02-10T21:27:57.000",
    "request_status": "Pending",
    "responsible_agency": "Health Department",
    "final_address": "3711 Saint Charles Avenue",
    "status": "Pending",
    "rowid": "1257872",
    "longitude": "0.0",
    "latitude": "0.0",
    "geocoded_column": {
      "latitude": "0.0",
      "longitude": "0.0"
    }
  },
  {
    "service_request": "2026-1257871",
    "request_type": "Health Related Request",
    "request_reason": "Noise Ordinance Complaint",
    "date_created": "2026-02-10T21:24:39.000",
    "date_modified": "2026-02-10T21:24:41.000",
    "request_status": "Pending",
    "responsible_agency": "Health Department",
    "final_address": "St Charles Ave",
    "address_councildis": "B",
    "status": "Pending",
    "rowid": "1257871",
    "final_x": "3678017.69902",
    "final_y": "524100.331324",
    "longitude": "-90.07932258198856",
    "latitude": "29.935199331585935",
    "geocoded_column": {
      "latitude": "29.935199331585935",
      "longitude": "-90.07932258198856"
    }
  },
  {
    "service_request": "2026-1257870",
    "request_type": "Streetlights",
    "request_reason": "Streetlight Outage/Malfunction",
    "date_created": "2026-02-10T20:40:45.000",
    "date_modified": "2026-02-10T20:40:47.000",
    "request_status": "Pending",
    "responsible_agency": "Department of Public Works",
    "final_address": "536 Seguin St",
    "address_councildis": "C",
    "status": "Pending",
    "rowid": "1257870",
    "final_x": "3686637.19913",
    "final_y": "529724.984705",
    "longitude": "-90.05191231994695",
    "latitude": "29.95040302787896",
    "geocoded_column": {
      "latitude": "29.95040302787896",
      "longitude": "-90.05191231994695"
    }
  },
  {
    "service_request": "2026-1257869",
    "request_type": "Trash/Recycling",
    "request_reason": "Request a Large Item Pick Up",
    "date_created": "2026-02-10T20:35:18.000",
    "date_modified": "2026-02-10T20:35:20.000",
    "request_status": "Pending",
    "responsible_agency": "Department of Sanitation",
    "final_address": "4700 Cardenas Dr",
    "address_councildis": "E",
    "status": "Assigned to Contractor",
    "contractor": "Waste Pro",
    "rowid": "1257869",
    "final_x": "3713644.22271",
    "final_y": "556044.230809",
    "longitude": "-89.965647228498",
    "latitude": "30.021912872819005",
    "geocoded_column": {
      "latitude": "30.021912872819005",
      "longitude": "-89.965647228498"
    }
  },
  {
    "service_request": "2026-1257868",
    "request_type": "Trash/Recycling",
    "request_reason": "Replace Trash Cart",
    "date_created": "2026-02-10T20:33:53.000",
    "date_modified": "2026-02-10T20:33:55.000",
    "request_status": "Pending",
    "responsible_agency": "Department of Sanitation",
    "final_address": "211 Forest Oaks Dr",
    "address_councildis": "C",
    "status": "Assigned to Contractor",
    "contractor": "Richards Disposal",
    "rowid": "1257868",
    "final_x": "3722385.82348",
    "final_y": "511057.878448",
    "longitude": "-89.93975516594118",
    "latitude": "29.897927579491384",
    "geocoded_column": {
      "latitude": "29.897927579491384",
      "longitude": "-89.93975516594118"
    }
  },
  {
    "service_request": "2026-1257867",
    "request_type": "Trash/Recycling",
    "request_reason": "Replace Trash Cart",
    "date_created": "2026-02-10T19:38:13.000",
    "date_modified": "2026-02-10T19:38:14.000",
    "request_status": "Pending",
    "responsible_agency": "Department of Sanitation",
    "final_address": "227 20Th St",
    "address_councildis": "A",
    "status": "Assigned to Contractor",
    "contractor": "IV Waste",
    "rowid": "1257867",
    "final_x": "3665457.31405",
    "final_y": "549080.751827",
    "longitude": "-90.1181394845195",
    "latitude": "30.00425919915823",
    "geocoded_column": {
      "latitude": "30.00425919915823",
      "longitude": "-90.1181394845195"
    }
  },
  {
    "service_request": "2026-1257866",
    "request_type": "Streetlights",
    "request_reason": "Streetlight Outage/Malfunction",
    "date_created": "2026-02-10T19:36:16.000",
    "date_modified": "2026-02-10T19:36:18.000",
    "request_status": "Pending",
    "responsible_agency": "Department of Public Works",
    "final_address": "6719 Louisville St",
    "address_councildis": "A",
    "status": "Pending",
    "rowid": "1257866",
    "final_x": "3668256.61703",
    "final_y": "552239.22159",
    "longitude": "-90.10918934283818",
    "latitude": "30.012861959830417",
    "geocoded_column": {
      "latitude": "30.012861959830417",
      "longitude": "-90.10918934283818"
    }
  },
  {
    "service_request": "2026-1257865",
    "request_type": "Trash/Recycling",
    "request_reason": "Request a Large Item Pick Up",
    "date_created": "2026-02-10T19:35:05.000",
    "date_modified": "2026-02-10T19:35:07.000",
    "request_status": "Pending",
    "responsible_agency": "Department of Sanitation",
    "final_address": "4730 Virgilian St",
    "address_councildis": "D",
    "status": "Assigned to Contractor",
    "contractor": "Waste Pro",
    "rowid": "1257865",
    "final_x": "3697401.53783",
    "final_y": "553739.819415",
    "longitude": "-90.0170532922721",
    "latitude": "30.016099694533985",
    "geocoded_column": {
      "latitude": "30.016099694533985",
      "longitude": "-90.0170532922721"
    }
  },
  {
    "service_request": "2026-1257864",
    "request_type": "Streetlights",
    "request_reason": "Streetlight Outage/Malfunction",
    "date_created": "2026-02-10T18:57:56.000",
    "date_modified": "2026-02-10T18:57:57.000",
    "request_status": "Pending",
    "responsible_agency": "Department of Public Works",
    "final_address": "754 Topaz St",
    "address_councildis": "D",
    "status": "Pending",
    "rowid": "1257864",
    "final_x": "3670107.69025",
    "final_y": "556361.584986",
    "longitude": "-90.10320111684338",
    "latitude": "30.02414248773799",
    "geocoded_column": {
      "latitude": "30.02414248773799",
      "longitude": "-90.10320111684338"
    }
  },
  {
    "service_request": "2026-1257863",
    "request_type": "General Services",
    "request_reason": "General Service Request",
    "date_created": "2026-02-10T18:49:50.000",
    "date_modified": "2026-02-10T18:49:53.000",
    "request_status": "Pending",
    "responsible_agency": "Orleans Parish Communication District",
    "final_address": "1300 Perdido St, New Orleans, LA 70112",
    "address_councildis": "B",
    "status": "Pending",
    "rowid": "1257863",
    "final_x": "3678683.48347",
    "final_y": "530227.987073",
    "longitude": "-90.07700859883013",
    "latitude": "29.952028297123956",
    "geocoded_column": {
      "latitude": "29.952028297123956",
      "longitude": "-90.07700859883013"
    }
  },
  {
    "service_request": "2026-1257862",
    "request_type": "Trash/Recycling",
    "request_reason": "Damaged Caused By Contractor",
    "date_created": "2026-02-10T18:29:26.000",
    "date_modified": "2026-02-10T18:29:27.000",
    "request_status": "Pending",
    "responsible_agency": "Department of Sanitation",
    "final_address": "51 Fontainebleau Dr",
    "address_councildis": "A",
    "status": "Assigned to Contractor",
    "contractor": "IV Waste",
    "rowid": "1257862",
    "final_x": "3666390.59917",
    "final_y": "531300.914114",
    "longitude": "-90.11578790275965",
    "latitude": "29.95534337673907",
    "geocoded_column": {
      "latitude": "29.95534337673907",
      "longitude": "-90.11578790275965"
    }
  },
  {
    "service_request": "2026-1257861",
    "request_type": "Streetlights",
    "request_reason": "Streetlight Outage/Malfunction",
    "date_created": "2026-02-10T18:28:52.000",
    "date_modified": "2026-02-10T18:28:54.000",
    "request_status": "Pending",
    "responsible_agency": "Department of Public Works",
    "final_address": "1011 Joliet St",
    "address_councildis": "A",
    "status": "Pending",
    "rowid": "1257861",
    "final_x": "3660530.2201",
    "final_y": "528861.301632",
    "longitude": "-90.1343735490156",
    "latitude": "29.94880514853095",
    "geocoded_column": {
      "latitude": "29.94880514853095",
      "longitude": "-90.1343735490156"
    }
  },
  {
    "service_request": "2026-1257860",
    "request_type": "Trash/Recycling",
    "request_reason": "Request a Large Item Pick Up",
    "date_created": "2026-02-10T18:26:38.000",
    "date_modified": "2026-02-10T18:26:40.000",
    "request_status": "Pending",
    "responsible_agency": "Department of Sanitation",
    "final_address": "4114 Mithra St",
    "address_councildis": "D",
    "status": "Assigned to Contractor",
    "contractor": "IV Waste",
    "rowid": "1257860",
    "final_x": "3689135.97404",
    "final_y": "552989.121687",
    "longitude": "-90.04319545225509",
    "latitude": "30.01429404233397",
    "geocoded_column": {
      "latitude": "30.01429404233397",
      "longitude": "-90.04319545225509"
    }
  },
  {
    "service_request": "2026-1257859",
    "request_type": "Trash/Recycling",
    "request_reason": "Request a Large Item Pick Up",
    "date_created": "2026-02-10T17:59:29.000",
    "date_modified": "2026-02-10T17:59:31.000",
    "request_status": "Pending",
    "responsible_agency": "Department of Sanitation",
    "final_address": "5470 Stillwater Dr",
    "address_councildis": "E",
    "status": "Assigned to Contractor",
    "contractor": "Waste Pro",
    "rowid": "1257859",
    "final_x": "3716601.62776",
    "final_y": "560582.610014",
    "longitude": "-89.956130344825",
    "latitude": "30.034294208137506",
    "geocoded_column": {
      "latitude": "30.034294208137506",
      "longitude": "-89.956130344825"
    }
  },
  {
    "service_request": "2026-1257858",
    "request_type": "Trash/Recycling",
    "request_reason": "Request a Large Item Pick Up",
    "date_created": "2026-02-10T17:48:46.000",
    "date_modified": "2026-02-10T17:48:48.000",
    "request_status": "Pending",
    "responsible_agency": "Department of Sanitation",
    "final_address": "4911 Lurline St",
    "address_councildis": "E",
    "status": "Assigned to Contractor",
    "contractor": "Waste Pro",
    "rowid": "1257858",
    "final_x": "3711946.8085",
    "final_y": "557117.77481",
    "longitude": "-89.97097023447138",
    "latitude": "30.02492029589231",
    "geocoded_column": {
      "latitude": "30.02492029589231",
      "longitude": "-89.97097023447138"
    }
  },
  {
    "service_request": "2026-1257857",
    "request_type": "Trash/Recycling",
    "request_reason": "Request a Large Item Pick Up",
    "date_created": "2026-02-10T17:40:51.000",
    "date_modified": "2026-02-10T17:40:53.000",
    "request_status": "Pending",
    "responsible_agency": "Department of Sanitation",
    "final_address": "1359 Annette St",
    "address_councildis": "C",
    "status": "Assigned to Contractor",
    "contractor": "IV Waste",
    "rowid": "1257857",
    "final_x": "3683103.46101",
    "final_y": "537039.526344",
    "longitude": "-90.06281392433549",
    "latitude": "29.970623702809853",
    "geocoded_column": {
      "latitude": "29.970623702809853",
      "longitude": "-90.06281392433549"
    }
  },
  {
    "service_request": "2026-1257856",
    "request_type": "Trash/Recycling",
    "request_reason": "Order Trash Cart",
    "date_created": "2026-02-10T17:27:33.000",
    "date_modified": "2026-02-10T17:27:34.000",
    "request_status": "Pending",
    "responsible_agency": "Department of Sanitation",
    "final_address": "4227 St Ann St",
    "address_councildis": "A",
    "status": "Assigned to Contractor",
    "contractor": "IV Waste",
    "rowid": "1257856",
    "final_x": "3671998.61742",
    "final_y": "540996.485707",
    "longitude": "-90.09774966080678",
    "latitude": "29.98183789493854",
    "geocoded_column": {
      "latitude": "29.98183789493854",
      "longitude": "-90.09774966080678"
    }
  },
  {
    "service_request": "2026-1257855",
    "request_type": "Trash/Recycling",
    "request_reason": "Replace Trash Cart",
    "date_created": "2026-02-10T17:23:45.000",
    "date_modified": "2026-02-10T17:23:47.000",
    "request_status": "Pending",
    "responsible_agency": "Department of Sanitation",
    "final_address": "316 Vallette St",
    "address_councildis": "C",
    "status": "Assigned to Contractor",
    "contractor": "Richards Disposal",
    "rowid": "1257855",
    "final_x": "3687596.45756",
    "final_y": "530627.611778",
    "longitude": "-90.04885154096822",
    "latitude": "29.95285541077239",
    "geocoded_column": {
      "latitude": "29.95285541077239",
      "longitude": "-90.04885154096822"
    }
  },
  {
    "service_request": "2026-1257854",
    "request_type": "General Services",
    "request_reason": "General Service Request",
    "date_created": "2026-02-10T17:09:53.000",
    "date_modified": "2026-02-10T17:09:54.000",
    "request_status": "Pending",
    "responsible_agency": "Orleans Parish Communication District",
    "final_address": "0 BLK Acadiana Pl",
    "address_councildis": "E",
    "status": "Pending",
    "rowid": "1257854",
    "final_x": "3725131.4083",
    "final_y": "564393.680055",
    "longitude": "-89.92902788187175",
    "latitude": "30.04448842646984",
    "geocoded_column": {
      "latitude": "30.04448842646984",
      "longitude": "-89.92902788187175"
    }
  },
  {
    "service_request": "2026-1257853",
    "request_type": "Roads and Streets",
    "request_reason": "Pothole",
    "date_created": "2026-02-10T16:59:11.000",
    "date_modified": "2026-02-10T16:59:12.000",
    "request_status": "Pending",
    "responsible_agency": "Department of Public Works",
    "final_address": "1501 Robert St",
    "address_councildis": "B",
    "status": "Pending",
    "rowid": "1257853",
    "final_x": "3668743.96052",
    "final_y": "520439.31244",
    "longitude": "-90.1087233701214",
    "latitude": "29.92540851051796",
    "geocoded_column": {
      "latitude": "29.92540851051796",
      "longitude": "-90.1087233701214"
    }
  },
  {
    "service_request": "2026-1257851",
    "request_type": "Trash/Recycling",
    "request_reason": "Repair Recycling Cart",
    "date_created": "2026-02-10T16:55:51.000",
    "date_modified": "2026-02-10T16:55:52.000",
    "request_status": "Pending",
    "responsible_agency": "Department of Sanitation",
    "final_address": "323 32Nd St",
    "address_councildis": "A",
    "status": "Pending",
    "rowid": "1257851",
    "final_x": "3665088.41223",
    "final_y": "550796.076949",
    "longitude": "-90.11924750010266",
    "latitude": "30.008986501490984",
    "geocoded_column": {
      "latitude": "30.008986501490984",
      "longitude": "-90.11924750010266"
    }
  },
  {
    "service_request": "2026-1257850",
    "request_type": "Health Related Request",
    "request_reason": "Noise Ordinance Complaint",
    "date_created": "2026-02-10T16:48:47.000",
    "date_modified": "2026-02-10T16:48:49.000",
    "request_status": "Pending",
    "responsible_agency": "Health Department",
    "final_address": "5130 Arts St, New Orleans, Louisiana, 70122",
    "address_councildis": "D",
    "status": "Pending",
    "rowid": "1257850",
    "final_x": "3685736.10473",
    "final_y": "551777.650581",
    "longitude": "-90.05398005928335",
    "latitude": "30.011067758595686",
    "geocoded_column": {
      "latitude": "30.011067758595686",
      "longitude": "-90.05398005928335"
    }
  },
  {
    "service_request": "2026-1257849",
    "request_type": "Trash/Recycling",
    "request_reason": "Request a Large Item Pick Up",
    "date_created": "2026-02-10T16:46:22.000",
    "date_modified": "2026-02-10T16:46:23.000",
    "request_status": "Pending",
    "responsible_agency": "Department of Sanitation",
    "final_address": "6024 S Robertson St",
    "address_councildis": "A",
    "status": "Assigned to Contractor",
    "contractor": "IV Waste",
    "rowid": "1257849",
    "final_x": "3666283.741",
    "final_y": "524781.710268",
    "longitude": "-90.11634395817154",
    "latitude": "29.937420794504234",
    "geocoded_column": {
      "latitude": "29.937420794504234",
      "longitude": "-90.11634395817154"
    }
  },
  {
    "service_request": "2026-1257848",
    "request_type": "Parks & Parkways",
    "request_reason": "Request Tree Service (Right of Way/Public Property)",
    "date_created": "2026-02-10T16:34:37.000",
    "date_modified": "2026-02-10T16:34:38.000",
    "request_status": "Pending",
    "responsible_agency": "Department of Parks & Parkway",
    "final_address": "2642 Elysian Fields Ave",
    "address_councildis": "D",
    "status": "Pending",
    "rowid": "1257848",
    "final_x": "3684408.96124",
    "final_y": "542126.538253",
    "longitude": "-90.0585122686791",
    "latitude": "29.984571336816888",
    "geocoded_column": {
      "latitude": "29.984571336816888",
      "longitude": "-90.0585122686791"
    }
  },
  {
    "service_request": "2026-1257847",
    "request_type": "Trash/Recycling",
    "request_reason": "Request a Large Item Pick Up",
    "date_created": "2026-02-10T16:33:55.000",
    "date_modified": "2026-02-10T16:33:58.000",
    "request_status": "Pending",
    "responsible_agency": "Department of Sanitation",
    "final_address": "5143 Cameron Blvd",
    "address_councildis": "D",
    "status": "Assigned to Contractor",
    "contractor": "IV Waste",
    "rowid": "1257847",
    "final_x": "3682727.03944",
    "final_y": "551745.662869",
    "longitude": "-90.06348800771954",
    "latitude": "30.011071839832514",
    "geocoded_column": {
      "latitude": "30.011071839832514",
      "longitude": "-90.06348800771954"
    }
  },
  {
    "service_request": "2026-1257846",
    "request_type": "Trash/Recycling",
    "request_reason": "Request a Large Item Pick Up",
    "date_created": "2026-02-10T16:24:02.000",
    "date_modified": "2026-02-10T16:24:04.000",
    "request_status": "Pending",
    "responsible_agency": "Department of Sanitation",
    "final_address": "7617 Oak St",
    "address_councildis": "A",
    "status": "Assigned to Contractor",
    "contractor": "IV Waste",
    "rowid": "1257846",
    "final_x": "3663217.64551",
    "final_y": "527288.093887",
    "longitude": "-90.12594049724188",
    "latitude": "29.944401737220215",
    "geocoded_column": {
      "latitude": "29.944401737220215",
      "longitude": "-90.12594049724188"
    }
  },
  {
    "service_request": "2026-1257845",
    "request_type": "Trash/Recycling",
    "request_reason": "Request a Large Item Pick Up",
    "date_created": "2026-02-10T16:22:06.000",
    "date_modified": "2026-02-10T16:22:08.000",
    "request_status": "Pending",
    "responsible_agency": "Department of Sanitation",
    "final_address": "5634 Chamberlain Dr",
    "address_councildis": "D",
    "status": "Assigned to Contractor",
    "contractor": "IV Waste",
    "rowid": "1257845",
    "final_x": "3679312.0772",
    "final_y": "553247.768599",
    "longitude": "-90.07422508815736",
    "latitude": "30.015305707665224",
    "geocoded_column": {
      "latitude": "30.015305707665224",
      "longitude": "-90.07422508815736"
    }
  },
  {
    "service_request": "2026-1257844",
    "request_type": "Trash/Recycling",
    "request_reason": "Request a Large Item Pick Up",
    "date_created": "2026-02-10T16:16:05.000",
    "date_modified": "2026-02-10T16:16:06.000",
    "request_status": "Pending",
    "responsible_agency": "Department of Sanitation",
    "final_address": "7210 Voyageur Ct",
    "address_councildis": "E",
    "status": "Assigned to Contractor",
    "contractor": "Waste Pro",
    "rowid": "1257844",
    "final_x": "3726468.16973",
    "final_y": "568641.215909",
    "longitude": "-89.92463813168372",
    "latitude": "30.056122255878826",
    "geocoded_column": {
      "latitude": "30.056122255878826",
      "longitude": "-89.92463813168372"
    }
  },
  {
    "service_request": "2026-1257843",
    "request_type": "Trash/Recycling",
    "request_reason": "Damaged Caused By Contractor",
    "date_created": "2026-02-10T16:15:26.000",
    "date_modified": "2026-02-10T16:15:27.000",
    "request_status": "Pending",
    "responsible_agency": "Department of Sanitation",
    "final_address": "Cleveland Avenue & South Gayoso Street",
    "address_councildis": "B",
    "status": "Assigned to Contractor",
    "contractor": "Richards Disposal",
    "rowid": "1257843",
    "final_x": "3674089.26203",
    "final_y": "535533.599622",
    "longitude": "-90.09133342854493",
    "latitude": "29.966754663691404",
    "geocoded_column": {
      "latitude": "29.966754663691404",
      "longitude": "-90.09133342854493"
    }
  },
  {
    "service_request": "2026-1257842",
    "request_type": "Street and Traffic Signs",
    "request_reason": "Additional Signage Request",
    "date_created": "2026-02-10T16:14:06.000",
    "date_modified": "2026-02-10T16:14:15.000",
    "request_status": "Pending",
    "responsible_agency": "Department of Public Works",
    "final_address": "917 Dublin St",
    "address_councildis": "A",
    "status": "Pending",
    "rowid": "1257842",
    "final_x": "3661124.53811",
    "final_y": "527920.493951",
    "longitude": "-90.13252815283674",
    "latitude": "29.946201115182895",
    "geocoded_column": {
      "latitude": "29.946201115182895",
      "longitude": "-90.13252815283674"
    }
  },
  {
    "service_request": "2026-1257841",
    "request_type": "Health Related Request",
    "request_reason": "Homeless Encampment Complaint",
    "date_created": "2026-02-10T16:10:00.000",
    "date_modified": "2026-02-10T16:39:23.000",
    "request_status": "Pending",
    "responsible_agency": "Office Of Homeless Services And Strategy",
    "final_address": "1301 Clouet St",
    "address_councildis": "C",
    "status": "Pending",
    "rowid": "1257841",
    "final_x": "3689271.92054",
    "final_y": "536822.90772",
    "longitude": "-90.04334095899789",
    "latitude": "29.96983856912688",
    "geocoded_column": {
      "latitude": "29.96983856912688",
      "longitude": "-90.04334095899789"
    }
  },
  {
    "service_request": "2026-1257840",
    "request_type": "Trash/Recycling",
    "request_reason": "Request a Large Item Pick Up",
    "date_created": "2026-02-10T16:06:43.000",
    "date_modified": "2026-02-10T16:06:44.000",
    "request_status": "Pending",
    "responsible_agency": "Department of Sanitation",
    "final_address": "735 Hendee St",
    "address_councildis": "C",
    "status": "Assigned to Contractor",
    "contractor": "Richards Disposal",
    "rowid": "1257840",
    "final_x": "3690787.29008",
    "final_y": "528678.702784",
    "longitude": "-90.03884586415445",
    "latitude": "29.947397844592828",
    "geocoded_column": {
      "latitude": "29.947397844592828",
      "longitude": "-90.03884586415445"
    }
  },
  {
    "service_request": "2026-1257839",
    "request_type": "Street and Traffic Signs",
    "request_reason": "One Way Sign Missing or Damaged",
    "date_created": "2026-02-10T16:05:21.000",
    "date_modified": "2026-02-10T16:05:23.000",
    "request_status": "Pending",
    "responsible_agency": "Department of Public Works",
    "final_address": "BERMUDA ST & VERRET ST & ELIZA ST",
    "address_councildis": "C",
    "status": "Pending",
    "rowid": "1257839",
    "final_x": "3686961.4",
    "final_y": "529891.28",
    "longitude": "-90.05088278826737",
    "latitude": "29.95085030989243",
    "geocoded_column": {
      "latitude": "29.95085030989243",
      "longitude": "-90.05088278826737"
    }
  },
  {
    "service_request": "2026-1257838",
    "request_type": "Trash/Recycling",
    "request_reason": "Request a Large Item Pick Up",
    "date_created": "2026-02-10T16:05:12.000",
    "date_modified": "2026-02-10T16:05:14.000",
    "request_status": "Pending",
    "responsible_agency": "Department of Sanitation",
    "final_address": "3700 Utah St",
    "address_councildis": "C",
    "status": "Assigned to Contractor",
    "contractor": "Richards Disposal",
    "rowid": "1257838",
    "final_x": "3695344.7473",
    "final_y": "517871.160374",
    "longitude": "-90.02484596590459",
    "latitude": "29.9175384437162",
    "geocoded_column": {
      "latitude": "29.9175384437162",
      "longitude": "-90.02484596590459"
    }
  },
  {
    "service_request": "2026-1257837",
    "request_type": "Trash/Recycling",
    "request_reason": "MIssed Recycling Pick-Up",
    "date_created": "2026-02-10T16:03:37.000",
    "date_modified": "2026-02-10T16:03:39.000",
    "request_status": "Pending",
    "responsible_agency": "Department of Sanitation",
    "final_address": "617 Leboeuf St",
    "address_councildis": "C",
    "status": "Assigned to Contractor",
    "contractor": "Richards Disposal",
    "rowid": "1257837",
    "final_x": "3689779.25686",
    "final_y": "529264.494337",
    "longitude": "-90.04200775746186",
    "latitude": "29.94903984499282",
    "geocoded_column": {
      "latitude": "29.94903984499282",
      "longitude": "-90.04200775746186"
    }
  },
  {
    "service_request": "2026-1257836",
    "request_type": "Trash/Recycling",
    "request_reason": "Request a Large Item Pick Up",
    "date_created": "2026-02-10T16:02:25.000",
    "date_modified": "2026-02-10T16:02:26.000",
    "request_status": "Pending",
    "responsible_agency": "Department of Sanitation",
    "final_address": "5220 Forest Park Ln",
    "address_councildis": "C",
    "status": "Assigned to Contractor",
    "contractor": "Richards Disposal",
    "rowid": "1257836",
    "final_x": "3703834.30711",
    "final_y": "510568.634415",
    "longitude": "-89.99831794393147",
    "latitude": "29.897189686252663",
    "geocoded_column": {
      "latitude": "29.897189686252663",
      "longitude": "-89.99831794393147"
    }
  },
  {
    "service_request": "2026-1257835",
    "request_type": "Trash/Recycling",
    "request_reason": "Replace Recycling Cart",
    "date_created": "2026-02-10T16:02:13.000",
    "date_modified": "2026-02-10T16:02:15.000",
    "request_status": "Pending",
    "responsible_agency": "Department of Sanitation",
    "final_address": "411 S St Patrick St",
    "address_councildis": "A",
    "status": "Pending",
    "rowid": "1257835",
    "final_x": "3668263.48135",
    "final_y": "538813.642313",
    "longitude": "-90.10962065833124",
    "latitude": "29.975946030565265",
    "geocoded_column": {
      "latitude": "29.975946030565265",
      "longitude": "-90.10962065833124"
    }
  },
  {
    "service_request": "2026-1257834",
    "request_type": "Trash/Recycling",
    "request_reason": "Repair Trash Cart",
    "date_created": "2026-02-10T16:01:16.000",
    "date_modified": "2026-02-10T16:01:18.000",
    "request_status": "Pending",
    "responsible_agency": "Department of Sanitation",
    "final_address": "411 S St Patrick St",
    "address_councildis": "A",
    "status": "Assigned to Contractor",
    "contractor": "IV Waste",
    "rowid": "1257834",
    "final_x": "3668263.48135",
    "final_y": "538813.642313",
    "longitude": "-90.10962065833124",
    "latitude": "29.975946030565265",
    "geocoded_column": {
      "latitude": "29.975946030565265",
      "longitude": "-90.10962065833124"
    }
  },
  {
    "service_request": "2026-1257833",
    "request_type": "Trash/Recycling",
    "request_reason": "Request a Large Item Pick Up",
    "date_created": "2026-02-10T15:58:22.000",
    "date_modified": "2026-02-10T15:58:24.000",
    "request_status": "Pending",
    "responsible_agency": "Department of Sanitation",
    "final_address": "4949 Chrysler St",
    "address_councildis": "E",
    "status": "Assigned to Contractor",
    "contractor": "Waste Pro",
    "rowid": "1257833",
    "final_x": "3715285.84504",
    "final_y": "557820.083547",
    "longitude": "-89.96039295010296",
    "latitude": "30.026741783059006",
    "geocoded_column": {
      "latitude": "30.026741783059006",
      "longitude": "-89.96039295010296"
    }
  },
  {
    "service_request": "2026-1257832",
    "request_type": "Abandoned Vehicles",
    "request_reason": "Abandoned/Junk Vehicles",
    "date_created": "2026-02-10T15:58:10.000",
    "date_modified": "2026-02-10T15:58:51.000",
    "request_status": "Pending",
    "responsible_agency": "Department of Public Works",
    "final_address": "5642 Woodlawn Pl",
    "address_councildis": "A",
    "status": "Pending",
    "rowid": "1257832",
    "final_x": "3667447.62132",
    "final_y": "545013.549519",
    "longitude": "-90.11198867362258",
    "latitude": "29.993017606341606",
    "geocoded_column": {
      "latitude": "29.993017606341606",
      "longitude": "-90.11198867362258"
    }
  },
  {
    "service_request": "2026-1257831",
    "request_type": "Roads and Streets",
    "request_reason": "Pothole",
    "date_created": "2026-02-10T15:53:30.000",
    "date_modified": "2026-02-10T15:53:31.000",
    "request_status": "Pending",
    "responsible_agency": "Department of Public Works",
    "final_address": "ELYSIAN FIELDS AV OVER & ELYSIAN FIELDS AVE & ABUNDANCE ST",
    "address_councildis": "D",
    "status": "Pending",
    "rowid": "1257831",
    "final_x": "3684376.2",
    "final_y": "543672.68",
    "longitude": "-90.05856141600397",
    "latitude": "29.98882368167206",
    "geocoded_column": {
      "latitude": "29.98882368167206",
      "longitude": "-90.05856141600397"
    }
  },
  {
    "service_request": "2026-1257830",
    "request_type": "Health Related Request",
    "request_reason": "Homeless Encampment Complaint",
    "date_created": "2026-02-10T15:53:18.000",
    "date_modified": "2026-02-10T15:53:20.000",
    "request_status": "Pending",
    "responsible_agency": "Office Of Homeless Services And Strategy",
    "final_address": "CONTI ST & N NORMAN C FRANCIS PKWY",
    "address_councildis": "B",
    "status": "Pending",
    "rowid": "1257830",
    "final_x": "3673840.9",
    "final_y": "537716.58",
    "longitude": "-90.0920430750219",
    "latitude": "29.9727645211337",
    "geocoded_column": {
      "latitude": "29.9727645211337",
      "longitude": "-90.0920430750219"
    }
  },
  {
    "service_request": "2026-1257829",
    "request_type": "Trash/Recycling",
    "request_reason": "Order Trash Cart",
    "date_created": "2026-02-10T15:51:09.000",
    "date_modified": "2026-02-10T16:00:32.000",
    "request_status": "Pending",
    "responsible_agency": "Department of Sanitation",
    "final_address": "1910 N Tonti St",
    "address_councildis": "D",
    "status": "Assigned to Contractor",
    "contractor": "IV Waste",
    "rowid": "1257829",
    "final_x": "3682176.4573",
    "final_y": "540494.498443",
    "longitude": "-90.06562079206356",
    "latitude": "29.98015190601771",
    "geocoded_column": {
      "latitude": "29.98015190601771",
      "longitude": "-90.06562079206356"
    }
  },
  {
    "service_request": "2026-1257828",
    "request_type": "Safety & Permits",
    "request_reason": "Zoning Enforcement",
    "date_created": "2026-02-10T15:51:00.000",
    "date_modified": "2026-02-10T15:51:02.000",
    "request_status": "Pending",
    "responsible_agency": "Safety and Permits",
    "final_address": "7040 Boston Dr",
    "address_councildis": "E",
    "status": "Pending",
    "rowid": "1257828",
    "final_x": "3706344.9219",
    "final_y": "560703.88195",
    "longitude": "-89.98853814859741",
    "latitude": "30.034962634211933",
    "geocoded_column": {
      "latitude": "30.034962634211933",
      "longitude": "-89.98853814859741"
    }
  },
  {
    "service_request": "2026-1257827",
    "request_type": "Abandoned Vehicles",
    "request_reason": "Abandoned/Junk Vehicles",
    "date_created": "2026-02-10T15:49:41.000",
    "date_modified": "2026-02-10T15:50:51.000",
    "request_status": "Pending",
    "responsible_agency": "Department of Public Works",
    "final_address": "631 Clouet St",
    "address_councildis": "C",
    "status": "Pending",
    "rowid": "1257827",
    "final_x": "3688632.8303",
    "final_y": "534405.522117",
    "longitude": "-90.04544506747351",
    "latitude": "29.963211371355364",
    "geocoded_column": {
      "latitude": "29.963211371355364",
      "longitude": "-90.04544506747351"
    }
  },
  {
    "service_request": "2026-1257826",
    "request_type": "Property Maintenance",
    "request_reason": "Property Maintenance",
    "date_created": "2026-02-10T15:49:17.000",
    "date_modified": "2026-02-10T15:49:19.000",
    "request_status": "Pending",
    "responsible_agency": "Department of Code Enforcement",
    "final_address": "7030 Boston Dr",
    "address_councildis": "E",
    "status": "Pending",
    "rowid": "1257826",
    "final_x": "3706367.73963",
    "final_y": "560652.00067",
    "longitude": "-89.98846796591668",
    "latitude": "30.034819244756914",
    "geocoded_column": {
      "latitude": "30.034819244756914",
      "longitude": "-89.98846796591668"
    }
  },
  {
    "service_request": "2026-1257825",
    "request_type": "Street and Traffic Signs",
    "request_reason": "Stop Sign Missing or Damaged",
    "date_created": "2026-02-10T15:49:02.000",
    "date_modified": "2026-02-10T15:49:04.000",
    "request_status": "Pending",
    "responsible_agency": "Department of Public Works",
    "final_address": "917 Dublin St",
    "address_councildis": "A",
    "status": "Pending",
    "rowid": "1257825",
    "final_x": "3661124.53811",
    "final_y": "527920.493951",
    "longitude": "-90.13252815283674",
    "latitude": "29.946201115182895",
    "geocoded_column": {
      "latitude": "29.946201115182895",
      "longitude": "-90.13252815283674"
    }
  },
  {
    "service_request": "2026-1257824",
    "request_type": "Safety & Permits",
    "request_reason": "Zoning Enforcement",
    "date_created": "2026-02-10T15:39:33.000",
    "date_modified": "2026-02-10T15:39:34.000",
    "request_status": "Pending",
    "responsible_agency": "Safety and Permits",
    "final_address": "2111 Baronne St",
    "address_councildis": "B",
    "status": "Pending",
    "rowid": "1257824",
    "final_x": "3677184.97672",
    "final_y": "524688.76614",
    "longitude": "-90.0819311977922",
    "latitude": "29.936842366613075",
    "geocoded_column": {
      "latitude": "29.936842366613075",
      "longitude": "-90.0819311977922"
    }
  },
  {
    "service_request": "2026-1257823",
    "request_type": "Trash/Recycling",
    "request_reason": "Order Recycling Cart",
    "date_created": "2026-02-10T15:38:27.000",
    "date_modified": "2026-02-10T15:38:29.000",
    "request_status": "Pending",
    "responsible_agency": "Department of Sanitation",
    "final_address": "1004 Octavia St",
    "address_councildis": "A",
    "status": "Pending",
    "rowid": "1257823",
    "final_x": "3666583.91092",
    "final_y": "519670.93324",
    "longitude": "-90.11556777672223",
    "latitude": "29.92335901068143",
    "geocoded_column": {
      "latitude": "29.92335901068143",
      "longitude": "-90.11556777672223"
    }
  },
  {
    "service_request": "2026-1257822",
    "request_type": "Drainage",
    "request_reason": "Catch Basin Frame and Cover Missing or Damaged",
    "date_created": "2026-02-10T15:36:57.000",
    "date_modified": "2026-02-10T15:37:18.000",
    "request_status": "Pending",
    "responsible_agency": "Sewerage & Water Board",
    "final_address": "3217 Luna St",
    "address_councildis": "C",
    "status": "Pending",
    "rowid": "1257822",
    "final_x": "3696321.14096",
    "final_y": "527927.084351",
    "longitude": "-90.02140063726169",
    "latitude": "29.945158093669953",
    "geocoded_column": {
      "latitude": "29.945158093669953",
      "longitude": "-90.02140063726169"
    }
  },
  {
    "service_request": "2026-1257821",
    "request_type": "Trash/Recycling",
    "request_reason": "Request a Large Item Pick Up",
    "date_created": "2026-02-10T15:33:52.000",
    "date_modified": "2026-02-10T15:51:41.000",
    "request_status": "Pending",
    "responsible_agency": "Department of Sanitation",
    "final_address": "4641 De Montluzin St",
    "address_councildis": "D",
    "status": "Assigned to Contractor",
    "contractor": "IV Waste",
    "rowid": "1257821",
    "final_x": "3687233.8982",
    "final_y": "550080.853396",
    "longitude": "-90.04930801689552",
    "latitude": "30.006356118835825",
    "geocoded_column": {
      "latitude": "30.006356118835825",
      "longitude": "-90.04930801689552"
    }
  },
  {
    "service_request": "2026-1257820",
    "request_type": "Trash/Recycling",
    "request_reason": "Request a Large Item Pick Up",
    "date_created": "2026-02-10T15:32:11.000",
    "date_modified": "2026-02-10T15:32:13.000",
    "request_status": "Pending",
    "responsible_agency": "Department of Sanitation",
    "final_address": "4610 Lancelot Dr",
    "address_councildis": "E",
    "status": "Assigned to Contractor",
    "contractor": "Waste Pro",
    "rowid": "1257820",
    "final_x": "3707474.7436",
    "final_y": "554524.211672",
    "longitude": "-89.98519753103969",
    "latitude": "30.017934448117064",
    "geocoded_column": {
      "latitude": "30.017934448117064",
      "longitude": "-89.98519753103969"
    }
  },
  {
    "service_request": "2026-1257819",
    "request_type": "Mosquito, Termite & Rodent Control",
    "request_reason": "Non-Rodent Complaint (Possums & Snakes)",
    "date_created": "2026-02-10T15:25:28.000",
    "date_modified": "2026-02-10T15:25:29.000",
    "request_status": "Pending",
    "responsible_agency": "Mosquito, Termite & Rodent Control Board",
    "final_address": "2244 Allen Toussaint Blvd",
    "address_councildis": "D",
    "status": "Pending",
    "rowid": "1257819",
    "final_x": "3683975.86876",
    "final_y": "555648.610713",
    "longitude": "-90.05940536913327",
    "latitude": "30.021765404088402",
    "geocoded_column": {
      "latitude": "30.021765404088402",
      "longitude": "-90.05940536913327"
    }
  },
  {
    "service_request": "2026-1257818",
    "request_type": "Trash/Recycling",
    "request_reason": "Replace Recycling Cart",
    "date_created": "2026-02-10T15:23:38.000",
    "date_modified": "2026-02-10T15:23:40.000",
    "request_status": "Pending",
    "responsible_agency": "Department of Sanitation",
    "final_address": "621 Pelican Ave",
    "address_councildis": "C",
    "status": "Pending",
    "rowid": "1257818",
    "final_x": "3687394.2806",
    "final_y": "530739.84237",
    "longitude": "-90.0494859539611",
    "latitude": "29.953170236662285",
    "geocoded_column": {
      "latitude": "29.953170236662285",
      "longitude": "-90.0494859539611"
    }
  },
  {
    "service_request": "2026-1257817",
    "request_type": "Abandoned Vehicles",
    "request_reason": "Abandoned/Junk Vehicles",
    "date_created": "2026-02-10T15:23:32.000",
    "date_modified": "2026-02-10T15:26:39.000",
    "request_status": "Pending",
    "responsible_agency": "Department of Public Works",
    "final_address": "MORRISON RD & CAMBERLEY DR",
    "address_councildis": "E",
    "status": "Pending",
    "rowid": "1257817",
    "final_x": "3712548.4",
    "final_y": "565833.68",
    "longitude": "-89.96874133741179",
    "latitude": "30.048865866851212",
    "geocoded_column": {
      "latitude": "30.048865866851212",
      "longitude": "-89.96874133741179"
    }
  },
  {
    "service_request": "2026-1257816",
    "request_type": "Trash/Recycling",
    "request_reason": "Missed Trash Pick-Up",
    "date_created": "2026-02-10T15:23:22.000",
    "date_modified": "2026-02-10T15:23:24.000",
    "request_status": "Pending",
    "responsible_agency": "Department of Sanitation",
    "final_address": "7618 Scottwood Dr",
    "address_councildis": "E",
    "status": "Assigned to Contractor",
    "contractor": "Waste Pro",
    "rowid": "1257816",
    "final_x": "3717295.31122",
    "final_y": "570571.526631",
    "longitude": "-89.95355813038663",
    "latitude": "30.061736695104063",
    "geocoded_column": {
      "latitude": "30.061736695104063",
      "longitude": "-89.95355813038663"
    }
  },
  {
    "service_request": "2026-1257815",
    "request_type": "Trash/Recycling",
    "request_reason": "Repair Trash Cart",
    "date_created": "2026-02-10T15:22:54.000",
    "date_modified": "2026-02-10T15:22:55.000",
    "request_status": "Pending",
    "responsible_agency": "Department of Sanitation",
    "final_address": "1120 Arabella St",
    "address_councildis": "A",
    "status": "Assigned to Contractor",
    "contractor": "IV Waste",
    "rowid": "1257815",
    "final_x": "3666032.10176",
    "final_y": "520089.123064",
    "longitude": "-90.11729562784089",
    "latitude": "29.92452501494254",
    "geocoded_column": {
      "latitude": "29.92452501494254",
      "longitude": "-90.11729562784089"
    }
  },
  {
    "service_request": "2026-1257814",
    "request_type": "Trash/Recycling",
    "request_reason": "Replace Trash Cart",
    "date_created": "2026-02-10T15:22:06.000",
    "date_modified": "2026-02-10T15:22:09.000",
    "request_status": "Pending",
    "responsible_agency": "Department of Sanitation",
    "final_address": "3811 Dauphine St",
    "address_councildis": "C",
    "status": "Assigned to Contractor",
    "contractor": "IV Waste",
    "rowid": "1257814",
    "final_x": "3691039.12579",
    "final_y": "534307.949125",
    "longitude": "-90.03784977656446",
    "latitude": "29.962868493183244",
    "geocoded_column": {
      "latitude": "29.962868493183244",
      "longitude": "-90.03784977656446"
    }
  },
  {
    "service_request": "2026-1257813",
    "request_type": "Trash/Recycling",
    "request_reason": "Request a Large Item Pick Up",
    "date_created": "2026-02-10T15:19:22.000",
    "date_modified": "2026-02-10T15:19:23.000",
    "request_status": "Pending",
    "responsible_agency": "Department of Sanitation",
    "final_address": "4641 Murano Rd",
    "address_councildis": "E",
    "status": "Assigned to Contractor",
    "contractor": "Waste Pro",
    "rowid": "1257813",
    "final_x": "3761556.66064",
    "final_y": "574237.20113",
    "longitude": "-89.81349791075753",
    "latitude": "30.070275840367778",
    "geocoded_column": {
      "latitude": "30.070275840367778",
      "longitude": "-89.81349791075753"
    }
  },
  {
    "service_request": "2026-1257812",
    "request_type": "Trash/Recycling",
    "request_reason": "Return Trash Cart",
    "date_created": "2026-02-10T15:11:51.000",
    "date_modified": "2026-02-10T15:11:54.000",
    "request_status": "Pending",
    "responsible_agency": "Department of Sanitation",
    "final_address": "2844 Magazine St",
    "address_councildis": "B",
    "status": "Assigned to Contractor",
    "contractor": "IV Waste",
    "rowid": "1257812",
    "final_x": "3676804.04129",
    "final_y": "520547.0142",
    "longitude": "-90.08327648062173",
    "latitude": "29.925465333362045",
    "geocoded_column": {
      "latitude": "29.925465333362045",
      "longitude": "-90.08327648062173"
    }
  },
  {
    "service_request": "2026-1257811",
    "request_type": "Trash/Recycling",
    "request_reason": "Request a Large Item Pick Up",
    "date_created": "2026-02-10T15:11:01.000",
    "date_modified": "2026-02-10T15:11:03.000",
    "request_status": "Pending",
    "responsible_agency": "Department of Sanitation",
    "final_address": "5300 Stillwater Dr",
    "address_councildis": "E",
    "status": "Assigned to Contractor",
    "contractor": "Waste Pro",
    "rowid": "1257811",
    "final_x": "3717208.99288",
    "final_y": "559741.413789",
    "longitude": "-89.95424300620195",
    "latitude": "30.031961170962315",
    "geocoded_column": {
      "latitude": "30.031961170962315",
      "longitude": "-89.95424300620195"
    }
  },
  {
    "service_request": "2026-1257810",
    "request_type": "Streetlights",
    "request_reason": "Streetlight Outage/Malfunction",
    "date_created": "2026-02-10T15:09:28.000",
    "date_modified": "2026-02-10T15:10:05.000",
    "request_status": "Pending",
    "responsible_agency": "Department of Public Works",
    "final_address": "4900 Hickerson Dr",
    "address_councildis": "E",
    "status": "Pending",
    "rowid": "1257810",
    "final_x": "3710133.2988",
    "final_y": "556702.845402",
    "longitude": "-89.97671609859478",
    "latitude": "30.0238385654841",
    "geocoded_column": {
      "latitude": "30.0238385654841",
      "longitude": "-89.97671609859478"
    }
  },
  {
    "service_request": "2026-1257809",
    "request_type": "Abandoned Vehicles",
    "request_reason": "Abandoned/Junk Vehicles",
    "date_created": "2026-02-10T15:07:08.000",
    "date_modified": "2026-02-10T15:07:10.000",
    "request_status": "Pending",
    "responsible_agency": "Department of Public Works",
    "final_address": "1016 Dufossat St",
    "address_councildis": "B",
    "status": "Pending",
    "rowid": "1257809",
    "final_x": "3668007.28065",
    "final_y": "519115.464439",
    "longitude": "-90.11109342269981",
    "latitude": "29.921789975369453",
    "geocoded_column": {
      "latitude": "29.921789975369453",
      "longitude": "-90.11109342269981"
    }
  },
  {
    "service_request": "2026-1257808",
    "request_type": "Abandoned Vehicles",
    "request_reason": "Abandoned/Junk Vehicles",
    "date_created": "2026-02-10T15:06:06.000",
    "date_modified": "2026-02-10T15:06:07.000",
    "request_status": "Pending",
    "responsible_agency": "Department of Public Works",
    "final_address": "3518 Camphor St",
    "address_councildis": "A",
    "status": "Pending",
    "rowid": "1257808",
    "final_x": "3663750.77223",
    "final_y": "538098.184841",
    "longitude": "-90.12389700516864",
    "latitude": "29.97411050544048",
    "geocoded_column": {
      "latitude": "29.97411050544048",
      "longitude": "-90.12389700516864"
    }
  },
  {
    "service_request": "2026-1257807",
    "request_type": "Trash/Recycling",
    "request_reason": "Request a Large Item Pick Up",
    "date_created": "2026-02-10T15:05:18.000",
    "date_modified": "2026-02-10T15:05:20.000",
    "request_status": "Pending",
    "responsible_agency": "Department of Sanitation",
    "final_address": "2844 Magazine St",
    "address_councildis": "B",
    "status": "Assigned to Contractor",
    "contractor": "IV Waste",
    "rowid": "1257807",
    "final_x": "3676804.04129",
    "final_y": "520547.0142",
    "longitude": "-90.08327648062173",
    "latitude": "29.925465333362045",
    "geocoded_column": {
      "latitude": "29.925465333362045",
      "longitude": "-90.08327648062173"
    }
  },
  {
    "service_request": "2026-1257806",
    "request_type": "Property Maintenance",
    "request_reason": "Property Maintenance",
    "date_created": "2026-02-10T14:55:50.000",
    "date_modified": "2026-02-10T14:55:52.000",
    "request_status": "Pending",
    "responsible_agency": "Department of Code Enforcement",
    "final_address": "1911 Dauphine St",
    "address_councildis": "C",
    "status": "Pending",
    "rowid": "1257806",
    "final_x": "3684057.51209",
    "final_y": "535169.818374",
    "longitude": "-90.05986654668686",
    "latitude": "29.965453530955582",
    "geocoded_column": {
      "latitude": "29.965453530955582",
      "longitude": "-90.05986654668686"
    }
  },
  {
    "service_request": "2026-1257805",
    "request_type": "Trash/Recycling",
    "request_reason": "Repair Recycling Cart",
    "date_created": "2026-02-10T14:53:59.000",
    "date_modified": "2026-02-10T14:54:01.000",
    "request_status": "Pending",
    "responsible_agency": "Department of Sanitation",
    "final_address": "1132 Melpomene St",
    "address_councildis": "B",
    "status": "Pending",
    "rowid": "1257805",
    "final_x": "3680167.47842",
    "final_y": "524921.35942",
    "longitude": "-90.07250721416742",
    "latitude": "29.93739202007242",
    "geocoded_column": {
      "latitude": "29.93739202007242",
      "longitude": "-90.07250721416742"
    }
  },
  {
    "service_request": "2026-1257804",
    "request_type": "Trash/Recycling",
    "request_reason": "Request a Large Item Pick Up",
    "date_created": "2026-02-10T14:47:42.000",
    "date_modified": "2026-02-10T14:48:09.000",
    "request_status": "Pending",
    "responsible_agency": "Department of Sanitation",
    "final_address": "4936 Perrier St",
    "address_councildis": "B",
    "status": "Assigned to Contractor",
    "contractor": "IV Waste",
    "rowid": "1257804",
    "final_x": "3668724.73057",
    "final_y": "519852.752056",
    "longitude": "-90.10880386072266",
    "latitude": "29.9237962205746",
    "geocoded_column": {
      "latitude": "29.9237962205746",
      "longitude": "-90.10880386072266"
    }
  },
  {
    "service_request": "2026-1257803",
    "request_type": "Trash/Recycling",
    "request_reason": "Order Recycling Cart",
    "date_created": "2026-02-10T14:46:16.000",
    "date_modified": "2026-02-10T14:46:19.000",
    "request_status": "Pending",
    "responsible_agency": "Department of Sanitation",
    "final_address": "607 Elysian Fields Ave",
    "address_councildis": "C",
    "status": "Pending",
    "rowid": "1257803",
    "final_x": "3685227.05788",
    "final_y": "534596.961414",
    "longitude": "-90.05619334398699",
    "latitude": "29.96384258016294",
    "geocoded_column": {
      "latitude": "29.96384258016294",
      "longitude": "-90.05619334398699"
    }
  },
  {
    "service_request": "2026-1257802",
    "request_type": "Trash/Recycling",
    "request_reason": "Repair Recycling Cart",
    "date_created": "2026-02-10T14:45:21.000",
    "date_modified": "2026-02-10T16:02:10.000",
    "request_status": "Pending",
    "responsible_agency": "Department of Sanitation",
    "final_address": "2112 Dublin St",
    "address_councildis": "A",
    "status": "Pending",
    "rowid": "1257802",
    "final_x": "3663874.11923",
    "final_y": "531056.444866",
    "longitude": "-90.12374221320748",
    "latitude": "29.954744450628773",
    "geocoded_column": {
      "latitude": "29.954744450628773",
      "longitude": "-90.12374221320748"
    }
  },
  {
    "service_request": "2026-1257801",
    "request_type": "Trash/Recycling",
    "request_reason": "Repair Trash Cart",
    "date_created": "2026-02-10T14:45:16.000",
    "date_modified": "2026-02-10T14:45:17.000",
    "request_status": "Pending",
    "responsible_agency": "Department of Sanitation",
    "final_address": "1132 Melpomene St",
    "address_councildis": "B",
    "status": "Assigned to Contractor",
    "contractor": "IV Waste",
    "rowid": "1257801",
    "final_x": "3680167.47842",
    "final_y": "524921.35942",
    "longitude": "-90.07250721416742",
    "latitude": "29.93739202007242",
    "geocoded_column": {
      "latitude": "29.93739202007242",
      "longitude": "-90.07250721416742"
    }
  },
  {
    "service_request": "2026-1257800",
    "request_type": "Trash/Recycling",
    "request_reason": "Repair Trash Cart",
    "date_created": "2026-02-10T14:43:09.000",
    "date_modified": "2026-02-10T14:43:11.000",
    "request_status": "Pending",
    "responsible_agency": "Department of Sanitation",
    "final_address": "1314 Jackson Ave",
    "address_councildis": "B",
    "status": "Assigned to Contractor",
    "contractor": "IV Waste",
    "rowid": "1257800",
    "final_x": "3678285.92808",
    "final_y": "522726.153146",
    "longitude": "-90.07852329167453",
    "latitude": "29.931412718073265",
    "geocoded_column": {
      "latitude": "29.931412718073265",
      "longitude": "-90.07852329167453"
    }
  },
  {
    "service_request": "2026-1257799",
    "request_type": "Trash/Recycling",
    "request_reason": "Request a Large Item Pick Up",
    "date_created": "2026-02-10T14:41:46.000",
    "date_modified": "2026-02-10T14:41:49.000",
    "request_status": "Pending",
    "responsible_agency": "Department of Sanitation",
    "final_address": "827 Poland Ave",
    "address_councildis": "C",
    "status": "Assigned to Contractor",
    "contractor": "IV Waste",
    "rowid": "1257799",
    "final_x": "3692863.02985",
    "final_y": "534058.086277",
    "longitude": "-90.03209910340858",
    "latitude": "29.962124631446876",
    "geocoded_column": {
      "latitude": "29.962124631446876",
      "longitude": "-90.03209910340858"
    }
  },
  {
    "service_request": "2026-1257798",
    "request_type": "Property Maintenance",
    "request_reason": "Property Maintenance",
    "date_created": "2026-02-10T14:38:39.000",
    "date_modified": "2026-02-10T14:38:41.000",
    "request_status": "Pending",
    "responsible_agency": "Department of Code Enforcement",
    "final_address": "2004 Pauger St",
    "address_councildis": "C",
    "status": "Pending",
    "rowid": "1257798",
    "final_x": "3683744.50639",
    "final_y": "537017.386888",
    "longitude": "-90.06079020627139",
    "latitude": "29.970543266927216",
    "geocoded_column": {
      "latitude": "29.970543266927216",
      "longitude": "-90.06079020627139"
    }
  },
  {
    "service_request": "2026-1257797",
    "request_type": "Street and Traffic Signs",
    "request_reason": "Stop Sign Missing or Damaged",
    "date_created": "2026-02-10T14:36:37.000",
    "date_modified": "2026-02-10T14:36:38.000",
    "request_status": "Pending",
    "responsible_agency": "Department of Public Works",
    "final_address": "6200 BLK Vicksburg St",
    "address_councildis": "A",
    "status": "Pending",
    "rowid": "1257797",
    "final_x": "3669016.83614",
    "final_y": "548878.134315",
    "longitude": "-90.10690111773037",
    "latitude": "30.003597793073272",
    "geocoded_column": {
      "latitude": "30.003597793073272",
      "longitude": "-90.10690111773037"
    }
  },
  {
    "service_request": "2026-1257796",
    "request_type": "Trash/Recycling",
    "request_reason": "Replace Recycling Cart",
    "date_created": "2026-02-10T14:35:58.000",
    "date_modified": "2026-02-10T14:36:00.000",
    "request_status": "Pending",
    "responsible_agency": "Department of Sanitation",
    "final_address": "1519 Governor Nicholls St",
    "address_councildis": "C",
    "status": "Pending",
    "rowid": "1257796",
    "final_x": "3681367.60706",
    "final_y": "535836.836423",
    "longitude": "-90.06833788560158",
    "latitude": "29.967369528873355",
    "geocoded_column": {
      "latitude": "29.967369528873355",
      "longitude": "-90.06833788560158"
    }
  },
  {
    "service_request": "2026-1257795",
    "request_type": "Trash/Recycling",
    "request_reason": "Request a Large Item Pick Up",
    "date_created": "2026-02-10T14:33:52.000",
    "date_modified": "2026-02-10T14:33:54.000",
    "request_status": "Pending",
    "responsible_agency": "Department of Sanitation",
    "final_address": "3765 Inwood Ave",
    "address_councildis": "C",
    "status": "Assigned to Contractor",
    "contractor": "Richards Disposal",
    "rowid": "1257795",
    "final_x": "3704885.12523",
    "final_y": "514588.910131",
    "longitude": "-89.99485360176823",
    "latitude": "29.90821037078622",
    "geocoded_column": {
      "latitude": "29.90821037078622",
      "longitude": "-89.99485360176823"
    }
  },
  {
    "service_request": "2026-1257794",
    "request_type": "Streetlights",
    "request_reason": "Streetlight Outage/Malfunction",
    "date_created": "2026-02-10T14:33:10.000",
    "date_modified": "2026-02-10T14:33:14.000",
    "request_status": "Pending",
    "responsible_agency": "Department of Public Works",
    "final_address": "9250 Lincoln Beach Blvd",
    "address_councildis": "E",
    "status": "Pending",
    "rowid": "1257794",
    "final_x": "3705392.32612",
    "final_y": "564577.143905",
    "longitude": "-89.99140512821155",
    "latitude": "30.045643279990717",
    "geocoded_column": {
      "latitude": "30.045643279990717",
      "longitude": "-89.99140512821155"
    }
  },
  {
    "service_request": "2026-1257793",
    "request_type": "Trash/Recycling",
    "request_reason": "Order Second Trash Cart",
    "date_created": "2026-02-10T14:28:38.000",
    "date_modified": "2026-02-10T14:28:39.000",
    "request_status": "Pending",
    "responsible_agency": "Department of Sanitation",
    "final_address": "7105 Foch Rd",
    "address_councildis": "D",
    "status": "Assigned to Contractor",
    "contractor": "Waste Pro",
    "rowid": "1257793",
    "final_x": "3696593.33488",
    "final_y": "556851.142746",
    "longitude": "-90.0194941262665",
    "latitude": "30.02468015908366",
    "geocoded_column": {
      "latitude": "30.02468015908366",
      "longitude": "-90.0194941262665"
    }
  },
  {
    "service_request": "2026-1257792",
    "request_type": "Trash/Recycling",
    "request_reason": "Order Trash Cart",
    "date_created": "2026-02-10T14:27:47.000",
    "date_modified": "2026-02-10T14:27:49.000",
    "request_status": "Pending",
    "responsible_agency": "Department of Sanitation",
    "final_address": "410 N Tonti St",
    "address_councildis": "B",
    "status": "Assigned to Contractor",
    "contractor": "IV Waste",
    "rowid": "1257792",
    "final_x": "3677257.98683",
    "final_y": "535283.551366",
    "longitude": "-90.08133522989658",
    "latitude": "29.965972294425352",
    "geocoded_column": {
      "latitude": "29.965972294425352",
      "longitude": "-90.08133522989658"
    }
  },
  {
    "service_request": "2026-1257791",
    "request_type": "Trash/Recycling",
    "request_reason": "Order Recycling Cart",
    "date_created": "2026-02-10T14:27:03.000",
    "date_modified": "2026-02-10T14:27:05.000",
    "request_status": "Pending",
    "responsible_agency": "Department of Sanitation",
    "final_address": "410 N Tonti St",
    "address_councildis": "B",
    "status": "Pending",
    "rowid": "1257791",
    "final_x": "3677257.98683",
    "final_y": "535283.551366",
    "longitude": "-90.08133522989658",
    "latitude": "29.965972294425352",
    "geocoded_column": {
      "latitude": "29.965972294425352",
      "longitude": "-90.08133522989658"
    }
  },
  {
    "service_request": "2026-1257790",
    "request_type": "Trash/Recycling",
    "request_reason": "Request a Large Item Pick Up",
    "date_created": "2026-02-10T14:26:56.000",
    "date_modified": "2026-02-10T14:26:59.000",
    "request_status": "Pending",
    "responsible_agency": "Department of Sanitation",
    "final_address": "5852 Tullis Dr",
    "address_councildis": "C",
    "status": "Assigned to Contractor",
    "contractor": "Richards Disposal",
    "rowid": "1257790",
    "final_x": "3705602.59019",
    "final_y": "513185.322482",
    "longitude": "-89.99264102963106",
    "latitude": "29.9043279206597",
    "geocoded_column": {
      "latitude": "29.9043279206597",
      "longitude": "-89.99264102963106"
    }
  },
  {
    "service_request": "2026-1257789",
    "request_type": "Trash/Recycling",
    "request_reason": "Request a Large Item Pick Up",
    "date_created": "2026-02-10T14:24:59.000",
    "date_modified": "2026-02-10T15:29:52.000",
    "request_status": "Pending",
    "responsible_agency": "Department of Sanitation",
    "final_address": "2927 Broadway St",
    "address_councildis": "B",
    "status": "Assigned to Contractor",
    "contractor": "IV Waste",
    "rowid": "1257789",
    "final_x": "3667656.27693",
    "final_y": "531733.883779",
    "longitude": "-90.11177676547739",
    "latitude": "29.95649686090995",
    "geocoded_column": {
      "latitude": "29.95649686090995",
      "longitude": "-90.11177676547739"
    }
  },
  {
    "service_request": "2026-1257788",
    "request_type": "Trash/Recycling",
    "request_reason": "Request a Large Item Pick Up",
    "date_created": "2026-02-10T14:21:00.000",
    "date_modified": "2026-02-10T14:21:01.000",
    "request_status": "Pending",
    "responsible_agency": "Department of Sanitation",
    "final_address": "4803 Pauger St",
    "address_councildis": "D",
    "status": "Assigned to Contractor",
    "contractor": "IV Waste",
    "rowid": "1257788",
    "final_x": "3682786.0374",
    "final_y": "550256.36322",
    "longitude": "-90.06335376037308",
    "latitude": "30.00697500682224",
    "geocoded_column": {
      "latitude": "30.00697500682224",
      "longitude": "-90.06335376037308"
    }
  },
  {
    "service_request": "2026-1257787",
    "request_type": "Street and Traffic Signs",
    "request_reason": "Stop Sign Missing or Damaged",
    "date_created": "2026-02-10T14:19:19.000",
    "date_modified": "2026-02-10T14:23:33.000",
    "request_status": "Pending",
    "responsible_agency": "Department of Public Works",
    "final_address": "7503 Maple St",
    "address_councildis": "A",
    "status": "Pending",
    "rowid": "1257787",
    "final_x": "3662589.58029",
    "final_y": "525958.273917",
    "longitude": "-90.12796765783932",
    "latitude": "29.94076333867967",
    "geocoded_column": {
      "latitude": "29.94076333867967",
      "longitude": "-90.12796765783932"
    }
  },
  {
    "service_request": "2026-1257786",
    "request_type": "Trash/Recycling",
    "request_reason": "Order Second Trash Cart",
    "date_created": "2026-02-10T14:17:27.000",
    "date_modified": "2026-02-10T14:24:02.000",
    "request_status": "Pending",
    "responsible_agency": "Department of Sanitation",
    "final_address": "3000 Monroe St",
    "address_councildis": "A",
    "status": "Assigned to Contractor",
    "contractor": "IV Waste",
    "rowid": "1257786",
    "final_x": "3664728.42324",
    "final_y": "534628.54855",
    "longitude": "-90.12092529129444",
    "latitude": "29.964541742813314",
    "geocoded_column": {
      "latitude": "29.964541742813314",
      "longitude": "-90.12092529129444"
    }
  },
  {
    "service_request": "2026-1257785",
    "request_type": "Trash/Recycling",
    "request_reason": "Request a Large Item Pick Up",
    "date_created": "2026-02-10T14:13:27.000",
    "date_modified": "2026-02-10T14:13:29.000",
    "request_status": "Pending",
    "responsible_agency": "Department of Sanitation",
    "final_address": "4409 Skyview Dr",
    "address_councildis": "D",
    "status": "Assigned to Contractor",
    "contractor": "Waste Pro",
    "rowid": "1257785",
    "final_x": "3696898.62589",
    "final_y": "552607.031318",
    "longitude": "-90.01868332725606",
    "latitude": "30.013000829117143",
    "geocoded_column": {
      "latitude": "30.013000829117143",
      "longitude": "-90.01868332725606"
    }
  },
  {
    "service_request": "2026-1257784",
    "request_type": "Abandoned Vehicles",
    "request_reason": "Abandoned/Junk Vehicles",
    "date_created": "2026-02-10T14:07:29.000",
    "date_modified": "2026-02-10T14:07:30.000",
    "request_status": "Pending",
    "responsible_agency": "Department of Public Works",
    "final_address": "2510 Dauphine St",
    "address_councildis": "C",
    "status": "Pending",
    "rowid": "1257784",
    "final_x": "3686695.71695",
    "final_y": "535327.084422",
    "longitude": "-90.05152967780191",
    "latitude": "29.96580507279653",
    "geocoded_column": {
      "latitude": "29.96580507279653",
      "longitude": "-90.05152967780191"
    }
  },
  {
    "service_request": "2026-1257783",
    "request_type": "Trash/Recycling",
    "request_reason": "Return Trash Cart",
    "date_created": "2026-02-10T14:07:10.000",
    "date_modified": "2026-02-10T14:46:08.000",
    "request_status": "Pending",
    "responsible_agency": "Department of Sanitation",
    "final_address": "8601 Oak St",
    "address_councildis": "A",
    "status": "Assigned to Contractor",
    "contractor": "IV Waste",
    "rowid": "1257783",
    "final_x": "3660636.13114",
    "final_y": "529631.878337",
    "longitude": "-90.13401367466253",
    "latitude": "29.950920940301675",
    "geocoded_column": {
      "latitude": "29.950920940301675",
      "longitude": "-90.13401367466253"
    }
  },
  {
    "service_request": "2026-1257782",
    "request_type": "Trash/Recycling",
    "request_reason": "Request a Large Item Pick Up",
    "date_created": "2026-02-10T14:05:20.000",
    "date_modified": "2026-02-10T14:05:22.000",
    "request_status": "Pending",
    "responsible_agency": "Department of Sanitation",
    "final_address": "11110 Ivy Ln",
    "address_councildis": "E",
    "status": "Assigned to Contractor",
    "contractor": "Waste Pro",
    "rowid": "1257782",
    "final_x": "3716024.41765",
    "final_y": "559739.394013",
    "longitude": "-89.95798636936546",
    "latitude": "30.031994765798473",
    "geocoded_column": {
      "latitude": "30.031994765798473",
      "longitude": "-89.95798636936546"
    }
  },
  {
    "service_request": "2026-1257781",
    "request_type": "Trash/Recycling",
    "request_reason": "Request a Large Item Pick Up",
    "date_created": "2026-02-10T14:04:40.000",
    "date_modified": "2026-02-10T14:04:42.000",
    "request_status": "Pending",
    "responsible_agency": "Department of Sanitation",
    "final_address": "2570 Benefit St",
    "address_councildis": "D",
    "status": "Assigned to Contractor",
    "contractor": "IV Waste",
    "rowid": "1257781",
    "final_x": "3686840.55516",
    "final_y": "544559.407055",
    "longitude": "-90.0507459367528",
    "latitude": "29.991186248432616",
    "geocoded_column": {
      "latitude": "29.991186248432616",
      "longitude": "-90.0507459367528"
    }
  },
  {
    "service_request": "2026-1257780",
    "request_type": "Safety & Permits",
    "request_reason": "Licenses & Permits",
    "date_created": "2026-02-10T14:03:22.000",
    "date_modified": "2026-02-10T14:03:24.000",
    "request_status": "Pending",
    "responsible_agency": "Safety and Permits",
    "final_address": "4321 Iberville St",
    "address_councildis": "A",
    "status": "Pending",
    "rowid": "1257780",
    "final_x": "3670415.35457",
    "final_y": "539451.305034",
    "longitude": "-90.10280277926499",
    "latitude": "29.977636021546804",
    "geocoded_column": {
      "latitude": "29.977636021546804",
      "longitude": "-90.10280277926499"
    }
  },
  {
    "service_request": "2026-1257779",
    "request_type": "Trash/Recycling",
    "request_reason": "Request a Large Item Pick Up",
    "date_created": "2026-02-10T14:02:21.000",
    "date_modified": "2026-02-10T14:02:24.000",
    "request_status": "Pending",
    "responsible_agency": "Department of Sanitation",
    "final_address": "4500 Cerise Ave",
    "address_councildis": "E",
    "status": "Assigned to Contractor",
    "contractor": "Waste Pro",
    "rowid": "1257779",
    "final_x": "3708693.1516",
    "final_y": "554115.44732",
    "longitude": "-89.98136310307707",
    "latitude": "30.01677103210524",
    "geocoded_column": {
      "latitude": "30.01677103210524",
      "longitude": "-89.98136310307707"
    }
  },
  {
    "service_request": "2026-1257778",
    "request_type": "Trash/Recycling",
    "request_reason": "Request a Large Item Pick Up",
    "date_created": "2026-02-10T13:59:08.000",
    "date_modified": "2026-02-10T13:59:10.000",
    "request_status": "Pending",
    "responsible_agency": "Department of Sanitation",
    "final_address": "5810 Winchester Park Dr",
    "address_councildis": "E",
    "status": "Assigned to Contractor",
    "contractor": "Waste Pro",
    "rowid": "1257778",
    "final_x": "3715112.51333",
    "final_y": "562127.235167",
    "longitude": "-89.96077762416469",
    "latitude": "30.03859043433516",
    "geocoded_column": {
      "latitude": "30.03859043433516",
      "longitude": "-89.96077762416469"
    }
  },
  {
    "service_request": "2026-1257777",
    "request_type": "Trash/Recycling",
    "request_reason": "Request a Large Item Pick Up",
    "date_created": "2026-02-10T13:54:13.000",
    "date_modified": "2026-02-10T13:54:16.000",
    "request_status": "Pending",
    "responsible_agency": "Department of Sanitation",
    "final_address": "2730 Jefferson Ave",
    "address_councildis": "A",
    "status": "Assigned to Contractor",
    "contractor": "IV Waste",
    "rowid": "1257777",
    "final_x": "3668149.83988",
    "final_y": "525559.197053",
    "longitude": "-90.110426340811",
    "latitude": "29.939504003429434",
    "geocoded_column": {
      "latitude": "29.939504003429434",
      "longitude": "-90.110426340811"
    }
  },
  {
    "service_request": "2026-1257776",
    "request_type": "Abandoned Vehicles",
    "request_reason": "Abandoned/Junk Vehicles",
    "date_created": "2026-02-10T13:52:49.000",
    "date_modified": "2026-02-10T14:16:54.000",
    "request_status": "Pending",
    "responsible_agency": "Department of Public Works",
    "final_address": "3400 BLK General Ogden St",
    "address_councildis": "A",
    "status": "Pending",
    "rowid": "1257776",
    "final_x": "3665272.54311",
    "final_y": "536207.117006",
    "longitude": "-90.11915417062721",
    "latitude": "29.968866443081584",
    "geocoded_column": {
      "latitude": "29.968866443081584",
      "longitude": "-90.11915417062721"
    }
  },
  {
    "service_request": "2026-1257775",
    "request_type": "Drainage",
    "request_reason": "Ditch and Culvert Maintenance",
    "date_created": "2026-02-10T13:51:06.000",
    "date_modified": "2026-02-10T13:51:08.000",
    "request_status": "Pending",
    "responsible_agency": "Department of Public Works",
    "final_address": "5850 Brunswick Ct",
    "address_councildis": "C",
    "status": "Pending",
    "rowid": "1257775",
    "final_x": "3705376.68599",
    "final_y": "517165.143733",
    "longitude": "-89.99320708164562",
    "latitude": "29.91527832997381",
    "geocoded_column": {
      "latitude": "29.91527832997381",
      "longitude": "-89.99320708164562"
    }
  },
  {
    "service_request": "2026-1257774",
    "request_type": "Trash/Recycling",
    "request_reason": "Repair Trash Cart",
    "date_created": "2026-02-10T13:48:01.000",
    "date_modified": "2026-02-10T13:50:08.000",
    "request_status": "Pending",
    "responsible_agency": "Department of Sanitation",
    "final_address": "721 River Oaks Dr",
    "address_councildis": "C",
    "status": "Assigned to Contractor",
    "contractor": "Richards Disposal",
    "rowid": "1257774",
    "final_x": "3701410.63537",
    "final_y": "519575.217464",
    "longitude": "-90.00563716628086",
    "latitude": "29.922032155424308",
    "geocoded_column": {
      "latitude": "29.922032155424308",
      "longitude": "-90.00563716628086"
    }
  },
  {
    "service_request": "2026-1257773",
    "request_type": "Trash/Recycling",
    "request_reason": "Request a Large Item Pick Up",
    "date_created": "2026-02-10T13:45:43.000",
    "date_modified": "2026-02-10T13:45:44.000",
    "request_status": "Pending",
    "responsible_agency": "Department of Sanitation",
    "final_address": "2806 St Andrew St",
    "address_councildis": "B",
    "status": "Assigned to Contractor",
    "contractor": "IV Waste",
    "rowid": "1257773",
    "final_x": "3675392.50747",
    "final_y": "527421.334911",
    "longitude": "-90.08749632175058",
    "latitude": "29.94440973921649",
    "geocoded_column": {
      "latitude": "29.94440973921649",
      "longitude": "-90.08749632175058"
    }
  },
  {
    "service_request": "2026-1257772",
    "request_type": "Trash/Recycling",
    "request_reason": "Request a Large Item Pick Up",
    "date_created": "2026-02-10T13:41:28.000",
    "date_modified": "2026-02-10T15:29:14.000",
    "request_status": "Pending",
    "responsible_agency": "Department of Sanitation",
    "final_address": "2416 Broadway St",
    "address_councildis": "A",
    "status": "Assigned to Contractor",
    "contractor": "IV Waste",
    "rowid": "1257772",
    "final_x": "3666634.66746",
    "final_y": "530275.214657",
    "longitude": "-90.11505165675878",
    "latitude": "29.952515904601903",
    "geocoded_column": {
      "latitude": "29.952515904601903",
      "longitude": "-90.11505165675878"
    }
  },
  {
    "service_request": "2026-1257771",
    "request_type": "Trash/Recycling",
    "request_reason": "Illegal Dumping",
    "date_created": "2026-02-10T13:40:48.000",
    "date_modified": "2026-02-10T13:40:50.000",
    "request_status": "Pending",
    "responsible_agency": "Department of Sanitation",
    "final_address": "CANAL ST & N CLAIBORNE AVE & S CLAIBORNE AVE",
    "address_councildis": "B",
    "status": "Pending",
    "rowid": "1257771",
    "final_x": "3678370.6",
    "final_y": "532873.28",
    "longitude": "-90.07790502374995",
    "latitude": "29.959311391496197",
    "geocoded_column": {
      "latitude": "29.959311391496197",
      "longitude": "-90.07790502374995"
    }
  },
  {
    "service_request": "2026-1257770",
    "request_type": "Utility Poles",
    "request_reason": "Wires Sagging/Hanging Low",
    "date_created": "2026-02-10T13:38:29.000",
    "date_modified": "2026-02-10T13:41:12.000",
    "request_status": "Pending",
    "responsible_agency": "Utility Company Collective",
    "final_address": "1310 Touro St",
    "address_councildis": "C",
    "status": "Pending",
    "rowid": "1257770",
    "final_x": "3684134.16469",
    "final_y": "537079.62932",
    "longitude": "-90.05955743680934",
    "latitude": "29.970702507248582",
    "geocoded_column": {
      "latitude": "29.970702507248582",
      "longitude": "-90.05955743680934"
    }
  },
  {
    "service_request": "2026-1257769",
    "request_type": "Trash/Recycling",
    "request_reason": "Request a Large Item Pick Up",
    "date_created": "2026-02-10T13:37:59.000",
    "date_modified": "2026-02-10T15:28:07.000",
    "request_status": "Pending",
    "responsible_agency": "Department of Sanitation",
    "final_address": "4329 Spain St",
    "address_councildis": "D",
    "status": "Assigned to Contractor",
    "contractor": "IV Waste",
    "rowid": "1257769",
    "final_x": "3685211.08815",
    "final_y": "548796.378643",
    "longitude": "-90.05574381349781",
    "latitude": "30.002886450824953",
    "geocoded_column": {
      "latitude": "30.002886450824953",
      "longitude": "-90.05574381349781"
    }
  },
  {
    "service_request": "2026-1257768",
    "request_type": "Trash/Recycling",
    "request_reason": "Repair Trash Cart",
    "date_created": "2026-02-10T13:32:03.000",
    "date_modified": "2026-02-10T13:32:05.000",
    "request_status": "Pending",
    "responsible_agency": "Department of Sanitation",
    "final_address": "5238 Annunciation St",
    "address_councildis": "B",
    "status": "Assigned to Contractor",
    "contractor": "IV Waste",
    "rowid": "1257768",
    "final_x": "3667692.49089",
    "final_y": "517534.421494",
    "longitude": "-90.11214027202483",
    "latitude": "29.917451833631596",
    "geocoded_column": {
      "latitude": "29.917451833631596",
      "longitude": "-90.11214027202483"
    }
  },
  {
    "service_request": "2026-1257767",
    "request_type": "Streetlights",
    "request_reason": "Streetlight Outage/Malfunction",
    "date_created": "2026-02-10T13:30:25.000",
    "date_modified": "2026-02-10T13:30:28.000",
    "request_status": "Pending",
    "responsible_agency": "Department of Public Works",
    "final_address": "5825 Music St",
    "address_councildis": "D",
    "status": "Pending",
    "rowid": "1257767",
    "final_x": "3685431.1526",
    "final_y": "554584.882136",
    "longitude": "-90.0548445639846",
    "latitude": "30.01879597465425",
    "geocoded_column": {
      "latitude": "30.01879597465425",
      "longitude": "-90.0548445639846"
    }
  },
  {
    "service_request": "2026-1257766",
    "request_type": "Trash/Recycling",
    "request_reason": "Request a Large Item Pick Up",
    "date_created": "2026-02-10T13:27:36.000",
    "date_modified": "2026-02-10T13:27:37.000",
    "request_status": "Pending",
    "responsible_agency": "Department of Sanitation",
    "final_address": "4827 Citrus Dr",
    "address_councildis": "E",
    "status": "Assigned to Contractor",
    "contractor": "Waste Pro",
    "rowid": "1257766",
    "final_x": "3710777.17137",
    "final_y": "556476.750042",
    "longitude": "-89.97469007874844",
    "latitude": "30.02319591553002",
    "geocoded_column": {
      "latitude": "30.02319591553002",
      "longitude": "-89.97469007874844"
    }
  },
  {
    "service_request": "2026-1257765",
    "request_type": "Trash/Recycling",
    "request_reason": "Order Trash Cart",
    "date_created": "2026-02-10T13:27:23.000",
    "date_modified": "2026-02-10T13:54:11.000",
    "request_status": "Pending",
    "responsible_agency": "Department of Sanitation",
    "final_address": "2028 Marais St",
    "address_councildis": "C",
    "status": "Assigned to Contractor",
    "contractor": "IV Waste",
    "rowid": "1257765",
    "final_x": "3684431.6109",
    "final_y": "536599.916423",
    "longitude": "-90.05863492076256",
    "latitude": "29.969374368068074",
    "geocoded_column": {
      "latitude": "29.969374368068074",
      "longitude": "-90.05863492076256"
    }
  },
  {
    "service_request": "2026-1257764",
    "request_type": "Abandoned Vehicles",
    "request_reason": "Abandoned/Junk Vehicles",
    "date_created": "2026-02-10T13:24:02.000",
    "date_modified": "2026-02-10T13:24:03.000",
    "request_status": "Pending",
    "responsible_agency": "Department of Public Works",
    "final_address": "6040 Hurst St",
    "address_councildis": "A",
    "status": "Pending",
    "rowid": "1257764",
    "final_x": "3665195.6738",
    "final_y": "521850.888762",
    "longitude": "-90.11987706297116",
    "latitude": "29.929393696979513",
    "geocoded_column": {
      "latitude": "29.929393696979513",
      "longitude": "-90.11987706297116"
    }
  },
  {
    "service_request": "2026-1257763",
    "request_type": "Roads and Streets",
    "request_reason": "Sidewalk Damaged or Missing",
    "date_created": "2026-02-10T13:16:35.000",
    "date_modified": "2026-02-10T13:16:37.000",
    "request_status": "Pending",
    "responsible_agency": "Department of Public Works",
    "final_address": "2214 Franklin Ave",
    "address_councildis": "D",
    "status": "Pending",
    "rowid": "1257763",
    "final_x": "3687509.44335",
    "final_y": "540713.186315",
    "longitude": "-90.04876928039",
    "latitude": "29.980589907407015",
    "geocoded_column": {
      "latitude": "29.980589907407015",
      "longitude": "-90.04876928039"
    }
  },
  {
    "service_request": "2026-1257762",
    "request_type": "Safety & Permits",
    "request_reason": "Zoning Enforcement",
    "date_created": "2026-02-10T13:13:55.000",
    "date_modified": "2026-02-10T13:13:57.000",
    "request_status": "Pending",
    "responsible_agency": "Safety and Permits",
    "final_address": "4027 Tchoupitoulas St",
    "address_councildis": "B",
    "status": "Pending",
    "rowid": "1257762",
    "final_x": "3672429.29422",
    "final_y": "517626.287798",
    "longitude": "-90.09718569391603",
    "latitude": "29.917564774854082",
    "geocoded_column": {
      "latitude": "29.917564774854082",
      "longitude": "-90.09718569391603"
    }
  },
  {
    "service_request": "2026-1257761",
    "request_type": "Abandoned Vehicles",
    "request_reason": "Abandoned/Junk Vehicles",
    "date_created": "2026-02-10T13:13:07.000",
    "date_modified": "2026-02-10T13:13:09.000",
    "request_status": "Pending",
    "responsible_agency": "Department of Public Works",
    "final_address": "9250 Lincoln Beach Blvd",
    "address_councildis": "E",
    "status": "Pending",
    "rowid": "1257761",
    "final_x": "3705392.32612",
    "final_y": "564577.143905",
    "longitude": "-89.99140512821155",
    "latitude": "30.045643279990717",
    "geocoded_column": {
      "latitude": "30.045643279990717",
      "longitude": "-89.99140512821155"
    }
  },
  {
    "service_request": "2026-1257760",
    "request_type": "Trash/Recycling",
    "request_reason": "MIssed Recycling Pick-Up",
    "date_created": "2026-02-10T13:08:06.000",
    "date_modified": "2026-02-10T15:15:33.000",
    "case_close_date": "2026-02-10T09:15:31.000",
    "request_status": "Closed",
    "responsible_agency": "Department of Sanitation",
    "final_address": "929 Ursulines Ave",
    "address_councildis": "C",
    "status": "Invalid Request",
    "contractor": "IV Waste",
    "contractor_action": "Invalid Request",
    "rowid": "1257760",
    "final_x": "3682669.08495",
    "final_y": "534256.570565",
    "longitude": "-90.06428307357129",
    "latitude": "29.962984769324628",
    "geocoded_column": {
      "latitude": "29.962984769324628",
      "longitude": "-90.06428307357129"
    }
  },
  {
    "service_request": "2026-1257759",
    "request_type": "Abandoned Vehicles",
    "request_reason": "Abandoned/Junk Vehicles",
    "date_created": "2026-02-10T13:01:47.000",
    "date_modified": "2026-02-10T13:01:49.000",
    "request_status": "Pending",
    "responsible_agency": "Department of Public Works",
    "final_address": "4434 Plum Orchard St",
    "address_councildis": "E",
    "status": "Pending",
    "rowid": "1257759",
    "final_x": "3701764.08119",
    "final_y": "552871.440663",
    "longitude": "-90.00330152472462",
    "latitude": "30.013573465451962",
    "geocoded_column": {
      "latitude": "30.013573465451962",
      "longitude": "-90.00330152472462"
    }
  },
  {
    "service_request": "2026-1257758",
    "request_type": "Trash/Recycling",
    "request_reason": "Request a Large Item Pick Up",
    "date_created": "2026-02-10T12:51:15.000",
    "date_modified": "2026-02-10T12:51:17.000",
    "request_status": "Pending",
    "responsible_agency": "Department of Sanitation",
    "final_address": "2249 Carondelet St",
    "address_councildis": "B",
    "status": "Assigned to Contractor",
    "contractor": "IV Waste",
    "rowid": "1257758",
    "final_x": "3677035.35298",
    "final_y": "523798.931323",
    "longitude": "-90.08243423595431",
    "latitude": "29.93440010499193",
    "geocoded_column": {
      "latitude": "29.93440010499193",
      "longitude": "-90.08243423595431"
    }
  },
  {
    "service_request": "2026-1257757",
    "request_type": "Property Maintenance",
    "request_reason": "Property Maintenance",
    "date_created": "2026-02-10T12:36:07.000",
    "date_modified": "2026-02-10T13:41:52.000",
    "case_close_date": "2026-02-10T07:41:51.000",
    "request_status": "Closed",
    "responsible_agency": "Department of Code Enforcement",
    "final_address": "5889 Eastover Dr",
    "address_councildis": "E",
    "status": "Referred to Code Enforcement",
    "rowid": "1257757",
    "final_x": "3719392.46213",
    "final_y": "564002.861089",
    "longitude": "-89.94718029179847",
    "latitude": "30.043605978681516",
    "geocoded_column": {
      "latitude": "30.043605978681516",
      "longitude": "-89.94718029179847"
    }
  },
  {
    "service_request": "2026-1257756",
    "request_type": "Trash/Recycling",
    "request_reason": "Repair Trash Cart",
    "date_created": "2026-02-10T12:35:46.000",
    "date_modified": "2026-02-10T12:35:56.000",
    "request_status": "Pending",
    "responsible_agency": "Department of Sanitation",
    "final_address": "4223 N Johnson St",
    "address_councildis": "D",
    "status": "Assigned to Contractor",
    "contractor": "IV Waste",
    "rowid": "1257756",
    "final_x": "3693404.41245",
    "final_y": "538543.855945",
    "longitude": "-90.03022841069804",
    "latitude": "29.974441993271462",
    "geocoded_column": {
      "latitude": "29.974441993271462",
      "longitude": "-90.03022841069804"
    }
  },
  {
    "service_request": "2026-1257755",
    "request_type": "Trash/Recycling",
    "request_reason": "Request a Large Item Pick Up",
    "date_created": "2026-02-10T12:33:31.000",
    "date_modified": "2026-02-10T12:33:33.000",
    "request_status": "Pending",
    "responsible_agency": "Department of Sanitation",
    "final_address": "2474 Hyman Pl",
    "address_councildis": "C",
    "status": "Assigned to Contractor",
    "contractor": "Richards Disposal",
    "rowid": "1257755",
    "final_x": "3701123.01495",
    "final_y": "521809.65689",
    "longitude": "-90.00646338243607",
    "latitude": "29.928185254416967",
    "geocoded_column": {
      "latitude": "29.928185254416967",
      "longitude": "-90.00646338243607"
    }
  },
  {
    "service_request": "2026-1257754",
    "request_type": "Trash/Recycling",
    "request_reason": "Request a Large Item Pick Up",
    "date_created": "2026-02-10T12:33:14.000",
    "date_modified": "2026-02-10T12:33:16.000",
    "request_status": "Pending",
    "responsible_agency": "Department of Sanitation",
    "final_address": "6221 Eastover Dr",
    "address_councildis": "E",
    "status": "Assigned to Contractor",
    "contractor": "Waste Pro",
    "rowid": "1257754",
    "final_x": "3717518.17656",
    "final_y": "564556.787169",
    "longitude": "-89.95308268083468",
    "latitude": "30.045191260159086",
    "geocoded_column": {
      "latitude": "30.045191260159086",
      "longitude": "-89.95308268083468"
    }
  },
  {
    "service_request": "2026-1257753",
    "request_type": "Trash/Recycling",
    "request_reason": "Return Trash Cart",
    "date_created": "2026-02-10T12:30:41.000",
    "date_modified": "2026-02-10T14:45:23.000",
    "request_status": "Pending",
    "responsible_agency": "Department of Sanitation",
    "final_address": "810 N Miro St",
    "address_councildis": "D",
    "status": "Assigned to Contractor",
    "contractor": "IV Waste",
    "rowid": "1257753",
    "final_x": "3678372.63182",
    "final_y": "536231.592455",
    "longitude": "-90.07778240657235",
    "latitude": "29.968545548586615",
    "geocoded_column": {
      "latitude": "29.968545548586615",
      "longitude": "-90.07778240657235"
    }
  },
  {
    "service_request": "2026-1257752",
    "request_type": "Trash/Recycling",
    "request_reason": "Request a Large Item Pick Up",
    "date_created": "2026-02-10T12:27:05.000",
    "date_modified": "2026-02-10T12:27:07.000",
    "request_status": "Pending",
    "responsible_agency": "Department of Sanitation",
    "final_address": "4921 Werner Dr",
    "address_councildis": "E",
    "status": "Assigned to Contractor",
    "contractor": "Waste Pro",
    "rowid": "1257752",
    "final_x": "3704720.91671",
    "final_y": "556210.503258",
    "longitude": "-89.99383621421042",
    "latitude": "30.022659900275247",
    "geocoded_column": {
      "latitude": "30.022659900275247",
      "longitude": "-89.99383621421042"
    }
  },
  {
    "service_request": "2026-1257751",
    "request_type": "Abandoned Vehicles",
    "request_reason": "Abandoned/Junk Vehicles",
    "date_created": "2026-02-10T12:21:21.000",
    "date_modified": "2026-02-10T12:21:43.000",
    "request_status": "Pending",
    "responsible_agency": "Department of Public Works",
    "final_address": "8021 Green St",
    "address_councildis": "A",
    "status": "Pending",
    "rowid": "1257751",
    "final_x": "3663346.08109",
    "final_y": "529533.056769",
    "longitude": "-90.12546026978166",
    "latitude": "29.95057094218469",
    "geocoded_column": {
      "latitude": "29.95057094218469",
      "longitude": "-90.12546026978166"
    }
  },
  {
    "service_request": "2026-1257750",
    "request_type": "Roads and Streets",
    "request_reason": "Street Subsidence (Sinking)",
    "date_created": "2026-02-10T12:17:39.000",
    "date_modified": "2026-02-10T12:17:45.000",
    "request_status": "Pending",
    "responsible_agency": "Sewerage & Water Board",
    "final_address": "2837 Napoleon Ave",
    "address_councildis": "B",
    "status": "Pending",
    "rowid": "1257750",
    "final_x": "3670500.32731",
    "final_y": "525383.936125",
    "longitude": "-90.10301145890591",
    "latitude": "29.938952905764097",
    "geocoded_column": {
      "latitude": "29.938952905764097",
      "longitude": "-90.10301145890591"
    }
  },
  {
    "service_request": "2026-1257749",
    "request_type": "Trash/Recycling",
    "request_reason": "Replace Trash Cart",
    "date_created": "2026-02-10T12:15:49.000",
    "date_modified": "2026-02-10T12:16:01.000",
    "request_status": "Pending",
    "responsible_agency": "Department of Sanitation",
    "final_address": "330 Pacific Ave",
    "address_councildis": "C",
    "status": "Assigned to Contractor",
    "contractor": "Richards Disposal",
    "rowid": "1257749",
    "final_x": "3688572.87235",
    "final_y": "530485.968258",
    "longitude": "-90.04577349070668",
    "latitude": "29.95243580709775",
    "geocoded_column": {
      "latitude": "29.95243580709775",
      "longitude": "-90.04577349070668"
    }
  },
  {
    "service_request": "2026-1257748",
    "request_type": "Traffic Signals",
    "request_reason": "Traffic Signal Malfunctioning or Damaged",
    "date_created": "2026-02-10T12:14:18.000",
    "date_modified": "2026-02-10T12:14:20.000",
    "request_status": "Pending",
    "responsible_agency": "Department of Public Works",
    "final_address": "134 N Alexander St",
    "address_councildis": "A",
    "status": "Pending",
    "rowid": "1257748",
    "final_x": "3670253.93831",
    "final_y": "539432.27457",
    "longitude": "-90.10331323336244",
    "latitude": "29.97758845966334",
    "geocoded_column": {
      "latitude": "29.97758845966334",
      "longitude": "-90.10331323336244"
    }
  },
  {
    "service_request": "2026-1257747",
    "request_type": "Trash/Recycling",
    "request_reason": "Request a Large Item Pick Up",
    "date_created": "2026-02-10T12:12:50.000",
    "date_modified": "2026-02-10T12:12:51.000",
    "request_status": "Pending",
    "responsible_agency": "Department of Sanitation",
    "final_address": "4716 Wright Rd",
    "address_councildis": "E",
    "status": "Assigned to Contractor",
    "contractor": "Waste Pro",
    "rowid": "1257747",
    "final_x": "3716611.95564",
    "final_y": "556884.449178",
    "longitude": "-89.95623816024403",
    "latitude": "30.024125405022623",
    "geocoded_column": {
      "latitude": "30.024125405022623",
      "longitude": "-89.95623816024403"
    }
  },
  {
    "service_request": "2026-1257746",
    "request_type": "Trash/Recycling",
    "request_reason": "Repair Trash Cart",
    "date_created": "2026-02-10T12:12:16.000",
    "date_modified": "2026-02-10T12:35:48.000",
    "request_status": "Pending",
    "responsible_agency": "Department of Sanitation",
    "final_address": "1521 Owens Blvd",
    "address_councildis": "D",
    "status": "Assigned to Contractor",
    "contractor": "IV Waste",
    "rowid": "1257746",
    "final_x": "3679001.80226",
    "final_y": "549119.364371",
    "longitude": "-90.0753486167169",
    "latitude": "30.003963449200196",
    "geocoded_column": {
      "latitude": "30.003963449200196",
      "longitude": "-90.0753486167169"
    }
  },
  {
    "service_request": "2026-1257745",
    "request_type": "Road Striping",
    "request_reason": "Lane Striping or other Pavement Markings",
    "date_created": "2026-02-10T12:10:02.000",
    "date_modified": "2026-02-10T12:10:04.000",
    "request_status": "Pending",
    "responsible_agency": "Department of Public Works",
    "final_address": "8400 Palmetto St",
    "address_councildis": "A",
    "status": "Pending",
    "rowid": "1257745",
    "final_x": "3667179.54196",
    "final_y": "535935.402631",
    "longitude": "-90.11314086420057",
    "latitude": "29.968063617725733",
    "geocoded_column": {
      "latitude": "29.968063617725733",
      "longitude": "-90.11314086420057"
    }
  },
  {
    "service_request": "2026-1257744",
    "request_type": "Trash/Recycling",
    "request_reason": "Repair Trash Cart",
    "date_created": "2026-02-10T12:08:42.000",
    "date_modified": "2026-02-10T12:08:44.000",
    "request_status": "Pending",
    "responsible_agency": "Department of Sanitation",
    "final_address": "11950 Lakeland Ct Unit D",
    "address_councildis": "E",
    "status": "Assigned to Contractor",
    "contractor": "Waste Pro",
    "rowid": "1257744",
    "final_x": "3712595.59941",
    "final_y": "568519.359909",
    "longitude": "-89.9684910539122",
    "latitude": "30.056248846999292",
    "geocoded_column": {
      "latitude": "30.056248846999292",
      "longitude": "-89.9684910539122"
    }
  },
  {
    "service_request": "2026-1257743",
    "request_type": "Trash/Recycling",
    "request_reason": "Order Trash Cart",
    "date_created": "2026-02-10T12:08:28.000",
    "date_modified": "2026-02-10T13:54:01.000",
    "case_close_date": "2026-02-10T07:54:00.000",
    "request_status": "Closed",
    "responsible_agency": "Department of Sanitation",
    "final_address": "136 S Broad St",
    "address_councildis": "B",
    "status": "Assigned to Contractor",
    "contractor": "IV Waste",
    "contractor_action": "Duplicate",
    "rowid": "1257743",
    "final_x": "3675174.29973",
    "final_y": "534754.140806",
    "longitude": "-90.08793363350685",
    "latitude": "29.964579032013017",
    "geocoded_column": {
      "latitude": "29.964579032013017",
      "longitude": "-90.08793363350685"
    }
  },
  {
    "service_request": "2026-1257742",
    "request_type": "Trash/Recycling",
    "request_reason": "Repair Trash Cart",
    "date_created": "2026-02-10T12:06:07.000",
    "date_modified": "2026-02-10T12:34:33.000",
    "request_status": "Pending",
    "responsible_agency": "Department of Sanitation",
    "final_address": "8731 Pritchard Pl",
    "address_councildis": "A",
    "status": "Assigned to Contractor",
    "contractor": "IV Waste",
    "rowid": "1257742",
    "final_x": "3664308.39904",
    "final_y": "534537.692037",
    "longitude": "-90.12225473511182",
    "latitude": "29.96430413076553",
    "geocoded_column": {
      "latitude": "29.96430413076553",
      "longitude": "-90.12225473511182"
    }
  },
  {
    "service_request": "2026-1257741",
    "request_type": "Safety & Permits",
    "request_reason": "Licenses & Permits",
    "date_created": "2026-02-10T12:02:10.000",
    "date_modified": "2026-02-10T16:04:11.000",
    "request_status": "Pending",
    "responsible_agency": "Safety and Permits",
    "final_address": "4321 Alba Rd",
    "address_councildis": "E",
    "status": "Pending",
    "rowid": "1257741",
    "final_x": "3761681.03446",
    "final_y": "572579.119401",
    "longitude": "-89.81317428077861",
    "latitude": "30.065712344265126",
    "geocoded_column": {
      "latitude": "30.065712344265126",
      "longitude": "-89.81317428077861"
    }
  },