[
  {
    "service_request": "2023-970437",
    "request_type": "Traffic Signals/Signs/Striping/Streetlights",
    "request_reason": "Street Name Sign Damaged or Missing",
    "date_created": "2023-01-25T23:55:51.000",
    "date_modified": "2023-01-25T23:55:51.000",
    "request_status": "Pending",
    "responsible_agency": "Department of Public Works",
    "final_address": "LAKE WILLOW DR & WESTHAVEN DR",
    "address_councildis": "E",
    "status": "Pending",
    "rowid": "970437",
    "final_x": "3703955.5",
    "final_y": "559512.18",
    "longitude": "-89.9961329858544",
    "latitude": "30.03176281086291",
    "geocoded_column": {
      "latitude": "30.03176281086291",
      "longitude": "-89.9961329858544"
    }
  },
  {
    "service_request": "2023-970436",
    "request_type": "Traffic Signals/Signs/Striping/Streetlights",
    "request_reason": "Street Light Outage/Malfunction",
    "date_created": "2023-01-25T23:49:31.000",
    "date_modified": "2023-01-25T23:49:32.000",
    "request_status": "Pending",
    "responsible_agency": "Department of Public Works",
    "final_address": "MORRISON RD & COLONY CT",
    "address_councildis": "E",
    "status": "Assigned to Contractor",
    "contractor": "Legacy Professional Services",
    "rowid": "970436",
    "final_x": "3703110.8",
    "final_y": "560520.08",
    "longitude": "-89.99876516828594",
    "latitude": "30.034561220661192",
    "geocoded_column": {
      "latitude": "30.034561220661192",
      "longitude": "-89.99876516828594"
    }
  },
  {
    "service_request": "2023-970435",
    "request_type": "Roads/Drainage",
    "request_reason": "Street Subsidence (Sinking)",
    "date_created": "2023-01-25T23:44:34.000",
    "date_modified": "2023-01-25T23:44:34.000",
    "request_status": "Pending",
    "responsible_agency": "Department of Public Works",
    "final_address": "MORRISON RD & COLONY CT",
    "address_councildis": "E",
    "status": "Pending",
    "rowid": "970435",
    "final_x": "3703110.8",
    "final_y": "560520.08",
    "longitude": "-89.99876516828594",
    "latitude": "30.034561220661192",
    "geocoded_column": {
      "latitude": "30.034561220661192",
      "longitude": "-89.99876516828594"
    }
  },
  {
    "service_request": "2023-970434",
    "request_type": "Trash/Recycling",
    "request_reason": "MIssed Recycling Pick-Up",
    "date_created": "2023-01-25T23:43:18.000",
    "date_modified": "2023-01-25T23:43:18.000",
    "request_status": "Pending",
    "responsible_agency": "Department of Sanitation",
    "final_address": "4935 Eunice Dr",
    "address_councildis": "E",
    "status": "Assigned to Contractor",
    "contractor": "Waste Pro",
    "rowid": "970434",
    "final_x": "3710491.94718",
    "final_y": "556991.430746",
    "longitude": "-89.9755720460466",
    "latitude": "30.024620381506185",
    "geocoded_column": {
      "latitude": "30.024620381506185",
      "longitude": "-89.9755720460466"
    }
  },
  {
    "service_request": "2023-970433",
    "request_type": "Health Related Request",
    "request_reason": "Noise Ordinance Complaint",
    "date_created": "2023-01-25T23:11:53.000",
    "date_modified": "2023-01-25T23:11:53.000",
    "request_status": "Pending",
    "responsible_agency": "Health Department",
    "final_address": "1775 Joseph Guillaume Pl",
    "address_councildis": "C",
    "status": "Pending",
    "rowid": "970433",
    "final_x": "3683462.43785",
    "final_y": "536121.270855",
    "longitude": "-90.06171241725919",
    "latitude": "29.96808786850646",
    "geocoded_column": {
      "latitude": "29.96808786850646",
      "longitude": "-90.06171241725919"
    }
  },
  {
    "service_request": "2023-970432",
    "request_type": "Health Related Request",
    "request_reason": "Noise Ordinance Complaint",
    "date_created": "2023-01-25T23:10:04.000",
    "date_modified": "2023-01-25T23:10:04.000",
    "request_status": "Pending",
    "responsible_agency": "Health Department",
    "final_address": "1775 Joseph Guillaume Pl",
    "address_councildis": "C",
    "status": "Pending",
    "rowid": "970432",
    "final_x": "3683462.43785",
    "final_y": "536121.270855",
    "longitude": "-90.06171241725919",
    "latitude": "29.96808786850646",
    "geocoded_column": {
      "latitude": "29.96808786850646",
      "longitude": "-90.06171241725919"
    }
  },
  {
    "service_request": "2023-970431",
    "request_type": "Health Related Request",
    "request_reason": "Noise Ordinance Complaint",
    "date_created": "2023-01-25T23:06:29.000",
    "date_modified": "2023-01-25T23:06:29.000",
    "request_status": "Pending",
    "responsible_agency": "Health Department",
    "final_address": "1775 Joseph Guillaume Pl",
    "address_councildis": "C",
    "status": "Pending",
    "rowid": "970431",
    "final_x": "3683462.43785",
    "final_y": "536121.270855",
    "longitude": "-90.06171241725919",
    "latitude": "29.96808786850646",
    "geocoded_column": {
      "latitude": "29.96808786850646",
      "longitude": "-90.06171241725919"
    }
  },
  {
    "service_request": "2023-970430",
    "request_type": "Health Related Request",
    "request_reason": "Noise Ordinance Complaint",
    "date_created": "2023-01-25T23:04:33.000",
    "date_modified": "2023-01-25T23:04:33.000",
    "request_status": "Pending",
    "responsible_agency": "Health Department",
    "final_address": "1775 Joseph Guillaume Pl",
    "address_councildis": "C",
    "status": "Pending",
    "rowid": "970430",
    "final_x": "3683462.43785",
    "final_y": "536121.270855",
    "longitude": "-90.06171241725919",
    "latitude": "29.96808786850646",
    "geocoded_column": {
      "latitude": "29.96808786850646",
      "longitude": "-90.06171241725919"
    }
  },
  {
    "service_request": "2023-970429",
    "request_type": "Parks & Parkways",
    "request_reason": "Request Tree Service (Right of Way/Public Property)",
    "date_created": "2023-01-25T23:00:21.000",
    "date_modified": "2023-01-25T23:00:21.000",
    "request_status": "Pending",
    "responsible_agency": "Department of Parks & Parkway",
    "final_address": "1459 Filmore Ave",
    "address_councildis": "D",
    "status": "Pending",
    "rowid": "970429",
    "final_x": "3678008.36962",
    "final_y": "551915.528022",
    "longitude": "-90.07839029793202",
    "latitude": "30.011681851807438",
    "geocoded_column": {
      "latitude": "30.011681851807438",
      "longitude": "-90.07839029793202"
    }
  },
  {
    "service_request": "2023-970428",
    "request_type": "Parks & Parkways",
    "request_reason": "Request Tree Service (Right of Way/Public Property)",
    "date_created": "2023-01-25T22:51:13.000",
    "date_modified": "2023-01-25T22:51:13.000",
    "request_status": "Pending",
    "responsible_agency": "Department of Parks & Parkway",
    "final_address": "100 Veterans Blvd",
    "address_councildis": "A",
    "status": "Pending",
    "rowid": "970428",
    "final_x": "3665782.41946",
    "final_y": "547184.399441",
    "longitude": "-90.11717599852675",
    "latitude": "29.99903539956277",
    "geocoded_column": {
      "latitude": "29.99903539956277",
      "longitude": "-90.11717599852675"
    }
  },
  {
    "service_request": "2023-970427",
    "request_type": "Traffic Signals/Signs/Striping/Streetlights",
    "request_reason": "Street Light Outage/Malfunction",
    "date_created": "2023-01-25T22:46:55.000",
    "date_modified": "2023-01-25T22:46:55.000",
    "request_status": "Pending",
    "responsible_agency": "Department of Public Works",
    "final_address": "204 W Brooks St",
    "address_councildis": "A",
    "status": "Assigned to Contractor",
    "contractor": "Legacy Professional Services",
    "rowid": "970427",
    "final_x": "3665502.21364",
    "final_y": "546557.949521",
    "longitude": "-90.1180821658897",
    "latitude": "29.997321051717698",
    "geocoded_column": {
      "latitude": "29.997321051717698",
      "longitude": "-90.1180821658897"
    }
  },
  {
    "service_request": "2023-970426",
    "request_type": "Traffic Signals/Signs/Striping/Streetlights",
    "request_reason": "Street Light Outage/Malfunction",
    "date_created": "2023-01-25T22:41:42.000",
    "date_modified": "2023-01-25T22:41:42.000",
    "request_status": "Pending",
    "responsible_agency": "Department of Public Works",
    "final_address": "204 W Brooks St",
    "address_councildis": "A",
    "status": "Assigned to Contractor",
    "contractor": "Legacy Professional Services",
    "rowid": "970426",
    "final_x": "3665502.21364",
    "final_y": "546557.949521",
    "longitude": "-90.1180821658897",
    "latitude": "29.997321051717698",
    "geocoded_column": {
      "latitude": "29.997321051717698",
      "longitude": "-90.1180821658897"
    }
  },
  {
    "service_request": "2023-970425",
    "request_type": "Traffic Signals/Signs/Striping/Streetlights",
    "request_reason": "Street Light Outage/Malfunction",
    "date_created": "2023-01-25T22:10:08.000",
    "date_modified": "2023-01-25T22:10:08.000",
    "request_status": "Pending",
    "responsible_agency": "Department of Public Works",
    "final_address": "5800 Macarthur Blvd",
    "address_councildis": "C",
    "status": "Assigned to Contractor",
    "contractor": "Legacy Professional Services",
    "rowid": "970425",
    "final_x": "3704640.44644",
    "final_y": "519438.578103",
    "longitude": "-89.99544712152299",
    "latitude": "29.92155314551032",
    "geocoded_column": {
      "latitude": "29.92155314551032",
      "longitude": "-89.99544712152299"
    }
  },
  {
    "service_request": "2023-970424",
    "request_type": "Traffic Signals/Signs/Striping/Streetlights",
    "request_reason": "Street Light Knocked Down/Leaning",
    "date_created": "2023-01-25T22:04:06.000",
    "date_modified": "2023-01-25T22:04:07.000",
    "request_status": "Pending",
    "responsible_agency": "Department of Public Works",
    "final_address": "8325 Belfast St",
    "address_councildis": "A",
    "status": "Pending",
    "contractor": "Legacy Professional Services",
    "rowid": "970424",
    "final_x": "3664916.47117",
    "final_y": "533034.879236",
    "longitude": "-90.1203847217516",
    "latitude": "29.960154202723597",
    "geocoded_column": {
      "latitude": "29.960154202723597",
      "longitude": "-90.1203847217516"
    }
  },
  {
    "service_request": "2023-970423",
    "request_type": "Health Related Request",
    "request_reason": "Noise Ordinance Complaint",
    "date_created": "2023-01-25T21:50:01.000",
    "date_modified": "2023-01-25T21:50:01.000",
    "request_status": "Pending",
    "responsible_agency": "Health Department",
    "final_address": "1775 Joseph Guillaume Pl",
    "address_councildis": "C",
    "status": "Pending",
    "rowid": "970423",
    "final_x": "3683462.43785",
    "final_y": "536121.270855",
    "longitude": "-90.06171241725919",
    "latitude": "29.96808786850646",
    "geocoded_column": {
      "latitude": "29.96808786850646",
      "longitude": "-90.06171241725919"
    }
  },
  {
    "service_request": "2023-970422",
    "request_type": "Property Maintenance",
    "request_reason": "Property Maintenance",
    "date_created": "2023-01-25T21:44:57.000",
    "date_modified": "2023-01-25T21:44:57.000",
    "request_status": "Pending",
    "responsible_agency": "Department of Code Enforcement",
    "final_address": "PERDIDO ST & CLARA ST",
    "address_councildis": "B",
    "status": "Pending",
    "rowid": "970422",
    "final_x": "3677409.9",
    "final_y": "531049.58",
    "longitude": "-90.08100162622792",
    "latitude": "29.95432573705637",
    "geocoded_column": {
      "latitude": "29.95432573705637",
      "longitude": "-90.08100162622792"
    }
  },
  {
    "service_request": "2023-970421",
    "request_type": "Trash/Recycling",
    "request_reason": "Illegal Dumping",
    "date_created": "2023-01-25T21:25:46.000",
    "date_modified": "2023-01-25T21:25:46.000",
    "request_status": "Pending",
    "responsible_agency": "Department of Sanitation",
    "final_address": "1264 Sere St",
    "address_councildis": "D",
    "status": "Pending",
    "rowid": "970421",
    "final_x": "3677203.60782",
    "final_y": "545269.233935",
    "longitude": "-90.08116234922579",
    "latitude": "29.993431109545565",
    "geocoded_column": {
      "latitude": "29.993431109545565",
      "longitude": "-90.08116234922579"
    }
  },
  {
    "service_request": "2023-970420",
    "request_type": "Trash/Recycling",
    "request_reason": "Missed Trash Pick-Up",
    "date_created": "2023-01-25T21:20:18.000",
    "date_modified": "2023-01-25T21:20:18.000",
    "request_status": "Pending",
    "responsible_agency": "Department of Sanitation",
    "final_address": "1516 Audubon St",
    "address_councildis": "A",
    "status": "Assigned to Contractor",
    "contractor": "Richards Disposal",
    "rowid": "970420",
    "final_x": "3665087.73882",
    "final_y": "527397.294079",
    "longitude": "-90.12003239683767",
    "latitude": "29.944647686482103",
    "geocoded_column": {
      "latitude": "29.944647686482103",
      "longitude": "-90.12003239683767"
    }
  },
  {
    "service_request": "2023-970419",
    "request_type": "Trash/Recycling",
    "request_reason": "Illegal Dumping",
    "date_created": "2023-01-25T21:14:12.000",
    "date_modified": "2023-01-25T21:14:12.000",
    "request_status": "Pending",
    "responsible_agency": "Department of Sanitation",
    "final_address": "1550 N Galvez St",
    "address_councildis": "D",
    "status": "Pending",
    "rowid": "970419",
    "final_x": "3680665.92987",
    "final_y": "538587.473161",
    "longitude": "-90.07045805427593",
    "latitude": "29.97495411371902",
    "geocoded_column": {
      "latitude": "29.97495411371902",
      "longitude": "-90.07045805427593"
    }
  },
  {
    "service_request": "2023-970418",
    "request_type": "Roads/Drainage",
    "request_reason": "Accessibility Ramps, Curbs and Sidewalk Repair",
    "date_created": "2023-01-25T20:42:44.000",
    "date_modified": "2023-01-25T20:42:44.000",
    "request_status": "Pending",
    "responsible_agency": "Department of Public Works",
    "final_address": "8603 Green St",
    "address_councildis": "A",
    "status": "Pending",
    "rowid": "970418",
    "final_x": "3661838.53479",
    "final_y": "530935.432578",
    "longitude": "-90.13017385277209",
    "latitude": "29.95447063478496",
    "geocoded_column": {
      "latitude": "29.95447063478496",
      "longitude": "-90.13017385277209"
    }
  },
  {
    "service_request": "2023-970417",
    "request_type": "Roads/Drainage",
    "request_reason": "Catch Basin - Broken/Damage",
    "date_created": "2023-01-25T20:39:40.000",
    "date_modified": "2023-01-25T20:39:40.000",
    "request_status": "Pending",
    "responsible_agency": "Department of Public Works",
    "final_address": "6047 General Diaz St",
    "address_councildis": "A",
    "status": "Pending",
    "rowid": "970417",
    "final_x": "3669631.45761",
    "final_y": "547555.54165",
    "longitude": "-90.10500421380162",
    "latitude": "29.999943020524483",
    "geocoded_column": {
      "latitude": "29.999943020524483",
      "longitude": "-90.10500421380162"
    }
  },
  {
    "service_request": "2023-970416",
    "request_type": "Health Related Request",
    "request_reason": "Noise Ordinance Complaint",
    "date_created": "2023-01-25T20:36:23.000",
    "date_modified": "2023-01-25T20:36:23.000",
    "request_status": "Pending",
    "responsible_agency": "Health Department",
    "final_address": "1775 Joseph Guillaume Pl",
    "address_councildis": "C",
    "status": "Pending",
    "rowid": "970416",
    "final_x": "3683462.43785",
    "final_y": "536121.270855",
    "longitude": "-90.06171241725919",
    "latitude": "29.96808786850646",
    "geocoded_column": {
      "latitude": "29.96808786850646",
      "longitude": "-90.06171241725919"
    }
  },
  {
    "service_request": "2023-970415",
    "request_type": "Health Related Request",
    "request_reason": "Noise Ordinance Complaint",
    "date_created": "2023-01-25T20:32:20.000",
    "date_modified": "2023-01-25T20:32:20.000",
    "request_status": "Pending",
    "responsible_agency": "Health Department",
    "final_address": "1775 Joseph Guillaume Pl",
    "address_councildis": "C",
    "status": "Pending",
    "rowid": "970415",
    "final_x": "3683462.43785",
    "final_y": "536121.270855",
    "longitude": "-90.06171241725919",
    "latitude": "29.96808786850646",
    "geocoded_column": {
      "latitude": "29.96808786850646",
      "longitude": "-90.06171241725919"
    }
  },
  {
    "service_request": "2023-970414",
    "request_type": "Health Related Request",
    "request_reason": "Noise Ordinance Complaint",
    "date_created": "2023-01-25T20:29:11.000",
    "date_modified": "2023-01-25T20:29:11.000",
    "request_status": "Pending",
    "responsible_agency": "Health Department",
    "final_address": "1775 Joseph Guillaume Pl",
    "address_councildis": "C",
    "status": "Pending",
    "rowid": "970414",
    "final_x": "3683462.43785",
    "final_y": "536121.270855",
    "longitude": "-90.06171241725919",
    "latitude": "29.96808786850646",
    "geocoded_column": {
      "latitude": "29.96808786850646",
      "longitude": "-90.06171241725919"
    }
  },
  {
    "service_request": "2023-970413",
    "request_type": "Roads/Drainage",
    "request_reason": "Street Subsidence (Sinking)",
    "date_created": "2023-01-25T20:26:23.000",
    "date_modified": "2023-01-25T20:26:23.000",
    "request_status": "Pending",
    "responsible_agency": "Department of Public Works",
    "final_address": "13913 Dwyer Blvd",
    "address_councildis": "E",
    "status": "Pending",
    "rowid": "970413",
    "final_x": "3727742.21491",
    "final_y": "562749.737824",
    "longitude": "-89.92084071192689",
    "latitude": "30.039880031570462",
    "geocoded_column": {
      "latitude": "30.039880031570462",
      "longitude": "-89.92084071192689"
    }
  },
  {
    "service_request": "2023-970412",
    "request_type": "Health Related Request",
    "request_reason": "Noise Ordinance Complaint",
    "date_created": "2023-01-25T20:26:05.000",
    "date_modified": "2023-01-25T20:26:05.000",
    "request_status": "Pending",
    "responsible_agency": "Health Department",
    "final_address": "1775 Joseph Guillaume Pl",
    "address_councildis": "C",
    "status": "Pending",
    "rowid": "970412",
    "final_x": "3683462.43785",
    "final_y": "536121.270855",
    "longitude": "-90.06171241725919",
    "latitude": "29.96808786850646",
    "geocoded_column": {
      "latitude": "29.96808786850646",
      "longitude": "-90.06171241725919"
    }
  },
  {
    "service_request": "2023-970411",
    "request_type": "Roads/Drainage",
    "request_reason": "Street Subsidence (Sinking)",
    "date_created": "2023-01-25T20:21:43.000",
    "date_modified": "2023-01-25T20:21:43.000",
    "request_status": "Pending",
    "responsible_agency": "Department of Public Works",
    "final_address": "13534 Lourdes St",
    "address_councildis": "E",
    "status": "Pending",
    "rowid": "970411",
    "final_x": "3726617.68057",
    "final_y": "561097.534366",
    "longitude": "-89.92445873809184",
    "latitude": "30.03537522297104",
    "geocoded_column": {
      "latitude": "30.03537522297104",
      "longitude": "-89.92445873809184"
    }
  },
  {
    "service_request": "2023-970410",
    "request_type": "Traffic Signals/Signs/Striping/Streetlights",
    "request_reason": "Traffic Sign Missing/Damaged",
    "date_created": "2023-01-25T20:20:03.000",
    "date_modified": "2023-01-25T20:20:03.000",
    "request_status": "Pending",
    "responsible_agency": "Department of Public Works",
    "final_address": "300 Burgundy St",
    "address_councildis": "C",
    "status": "Pending",
    "rowid": "970410",
    "final_x": "3680845.03631",
    "final_y": "531964.211715",
    "longitude": "-90.07012299662787",
    "latitude": "29.956736984539916",
    "geocoded_column": {
      "latitude": "29.956736984539916",
      "longitude": "-90.07012299662787"
    }
  },
  {
    "service_request": "2023-970409",
    "request_type": "Trash/Recycling",
    "request_reason": "MIssed Recycling Pick-Up",
    "date_created": "2023-01-25T20:12:55.000",
    "date_modified": "2023-01-25T20:12:56.000",
    "request_status": "Pending",
    "responsible_agency": "Department of Sanitation",
    "final_address": "1107 Napoleon Ave",
    "address_councildis": "B",
    "status": "Assigned to Contractor",
    "contractor": "Richards Disposal",
    "rowid": "970409",
    "final_x": "3671051.84206",
    "final_y": "519633.057976",
    "longitude": "-90.10146545166515",
    "latitude": "29.9231235443977",
    "geocoded_column": {
      "latitude": "29.9231235443977",
      "longitude": "-90.10146545166515"
    }
  },
  {
    "service_request": "2023-970408",
    "request_type": "Trash/Recycling",
    "request_reason": "Order Trash Cart",
    "date_created": "2023-01-25T20:01:06.000",
    "date_modified": "2023-01-25T20:01:07.000",
    "request_status": "Pending",
    "responsible_agency": "Department of Sanitation",
    "final_address": "4700 Mithra St",
    "address_councildis": "D",
    "status": "Assigned to Contractor",
    "contractor": "IV Waste",
    "rowid": "970408",
    "final_x": "3691133.04355",
    "final_y": "553457.592663",
    "longitude": "-90.0368689843811",
    "latitude": "30.015520184986656",
    "geocoded_column": {
      "latitude": "30.015520184986656",
      "longitude": "-90.0368689843811"
    }
  },
  {
    "service_request": "2023-970407",
    "request_type": "Roads/Drainage",
    "request_reason": "Street Subsidence (Sinking)",
    "date_created": "2023-01-25T19:58:39.000",
    "date_modified": "2023-01-25T19:58:39.000",
    "request_status": "Pending",
    "responsible_agency": "Department of Public Works",
    "final_address": "4700 Mithra St",
    "address_councildis": "D",
    "status": "Pending",
    "rowid": "970407",
    "final_x": "3691133.04355",
    "final_y": "553457.592663",
    "longitude": "-90.0368689843811",
    "latitude": "30.015520184986656",
    "geocoded_column": {
      "latitude": "30.015520184986656",
      "longitude": "-90.0368689843811"
    }
  },
  {
    "service_request": "2023-970406",
    "request_type": "Roads/Drainage",
    "request_reason": "Street Subsidence (Sinking)",
    "date_created": "2023-01-25T19:55:10.000",
    "date_modified": "2023-01-25T19:55:10.000",
    "request_status": "Pending",
    "responsible_agency": "Department of Public Works",
    "final_address": "4700 Mithra St",
    "address_councildis": "D",
    "status": "Pending",
    "rowid": "970406",
    "final_x": "3691133.04355",
    "final_y": "553457.592663",
    "longitude": "-90.0368689843811",
    "latitude": "30.015520184986656",
    "geocoded_column": {
      "latitude": "30.015520184986656",
      "longitude": "-90.0368689843811"
    }
  },
  {
    "service_request": "2023-970405",
    "request_type": "Roads/Drainage",
    "request_reason": "Man hole cover issue",
    "date_created": "2023-01-25T19:50:57.000",
    "date_modified": "2023-01-25T19:50:57.000",
    "request_status": "Pending",
    "responsible_agency": "Department of Public Works",
    "final_address": "4700 Mithra St",
    "address_councildis": "D",
    "status": "Pending",
    "rowid": "970405",
    "final_x": "3691133.04355",
    "final_y": "553457.592663",
    "longitude": "-90.0368689843811",
    "latitude": "30.015520184986656",
    "geocoded_column": {
      "latitude": "30.015520184986656",
      "longitude": "-90.0368689843811"
    }
  },
  {
    "service_request": "2023-970404",
    "request_type": "Trash/Recycling",
    "request_reason": "Missed Trash Pick-Up",
    "date_created": "2023-01-25T19:48:07.000",
    "date_modified": "2023-01-25T19:48:08.000",
    "request_status": "Pending",
    "responsible_agency": "Department of Sanitation",
    "final_address": "2217 Monterrey St",
    "address_councildis": "D",
    "status": "Assigned to Contractor",
    "contractor": "IV Waste",
    "rowid": "970404",
    "final_x": "3684383.46223",
    "final_y": "547081.023633",
    "longitude": "-90.05841869040094",
    "latitude": "29.998195188803773",
    "geocoded_column": {
      "latitude": "29.998195188803773",
      "longitude": "-90.05841869040094"
    }
  },
  {
    "service_request": "2023-970403",
    "request_type": "Traffic Signals/Signs/Striping/Streetlights",
    "request_reason": "Traffic Signal Malfunctioning/Damaged",
    "date_created": "2023-01-25T19:01:41.000",
    "date_modified": "2023-01-25T19:01:42.000",
    "request_status": "Pending",
    "responsible_agency": "Department of Public Works",
    "final_address": "POYDRAS ST & CAMP ST",
    "address_councildis": "B",
    "status": "Pending",
    "rowid": "970403",
    "final_x": "3681126.1",
    "final_y": "529304.08",
    "longitude": "-90.06932814891445",
    "latitude": "29.949413998119116",
    "geocoded_column": {
      "latitude": "29.949413998119116",
      "longitude": "-90.06932814891445"
    }
  },
  {
    "service_request": "2023-970402",
    "request_type": "Abandoned Vehicles",
    "request_reason": "Abandoned/Junk Vehicles",
    "date_created": "2023-01-25T18:42:52.000",
    "date_modified": "2023-01-25T18:42:52.000",
    "request_status": "Pending",
    "responsible_agency": "Department of Public Works",
    "final_address": "4655 Clara St, Apt C, New Orleans, Louisiana, 70115",
    "status": "Pending",
    "rowid": "970402",
    "longitude": "0.0",
    "latitude": "0.0",
    "geocoded_column": {
      "latitude": "0.0",
      "longitude": "0.0"
    }
  },
  {
    "service_request": "2023-970401",
    "request_type": "Property Maintenance",
    "request_reason": "Property Maintenance",
    "date_created": "2023-01-25T18:25:43.000",
    "date_modified": "2023-01-25T18:25:43.000",
    "request_status": "Pending",
    "responsible_agency": "Department of Code Enforcement",
    "final_address": "411 Bourbon St",
    "address_councildis": "C",
    "status": "Pending",
    "rowid": "970401",
    "final_x": "3681644.70562",
    "final_y": "531907.351619",
    "longitude": "-90.06759988269091",
    "latitude": "29.956556373879675",
    "geocoded_column": {
      "latitude": "29.956556373879675",
      "longitude": "-90.06759988269091"
    }
  },
  {
    "service_request": "2023-970400",
    "request_type": "Property Maintenance",
    "request_reason": "Property Maintenance",
    "date_created": "2023-01-25T18:19:44.000",
    "date_modified": "2023-01-25T18:28:53.000",
    "request_status": "Pending",
    "responsible_agency": "Department of Code Enforcement",
    "final_address": "739 Conti St",
    "address_councildis": "C",
    "status": "Pending",
    "rowid": "970400",
    "final_x": "3681662.79919",
    "final_y": "531797.144707",
    "longitude": "-90.0675465934039",
    "latitude": "29.95625279271357",
    "geocoded_column": {
      "latitude": "29.95625279271357",
      "longitude": "-90.0675465934039"
    }
  },
  {
    "service_request": "2023-970399",
    "request_type": "Trash/Recycling",
    "request_reason": "Replace Trash Cart",
    "date_created": "2023-01-25T18:16:13.000",
    "date_modified": "2023-01-25T18:16:14.000",
    "request_status": "Pending",
    "responsible_agency": "Department of Sanitation",
    "final_address": "1347 Moss St",
    "address_councildis": "A",
    "status": "Assigned to Contractor",
    "contractor": "Richards Disposal",
    "rowid": "970399",
    "final_x": "3674775.9876",
    "final_y": "540519.565323",
    "longitude": "-90.08899375693768",
    "latitude": "29.98044388613289",
    "geocoded_column": {
      "latitude": "29.98044388613289",
      "longitude": "-90.08899375693768"
    }
  },
  {
    "service_request": "2023-970398",
    "request_type": "Abandoned Vehicles",
    "request_reason": "Abandoned/Junk Vehicles",
    "date_created": "2023-01-25T17:54:22.000",
    "date_modified": "2023-01-25T17:54:23.000",
    "request_status": "Pending",
    "responsible_agency": "Department of Public Works",
    "final_address": "5337 Berkley Dr",
    "address_councildis": "C",
    "status": "Pending",
    "rowid": "970398",
    "final_x": "3703590.70033",
    "final_y": "518113.371638",
    "longitude": "-89.99880940867563",
    "latitude": "29.917942945371333",
    "geocoded_column": {
      "latitude": "29.917942945371333",
      "longitude": "-89.99880940867563"
    }
  },
  {
    "service_request": "2023-970397",
    "request_type": "Trash/Recycling",
    "request_reason": "MIssed Recycling Pick-Up",
    "date_created": "2023-01-25T17:50:02.000",
    "date_modified": "2023-01-25T17:50:03.000",
    "request_status": "Pending",
    "responsible_agency": "Department of Sanitation",
    "final_address": "4850 Read Blvd",
    "address_councildis": "E",
    "status": "Assigned to Contractor",
    "contractor": "Waste Pro",
    "rowid": "970397",
    "final_x": "3712602.74718",
    "final_y": "556810.45385",
    "longitude": "-89.96890915955319",
    "latitude": "30.02405382422736",
    "geocoded_column": {
      "latitude": "30.02405382422736",
      "longitude": "-89.96890915955319"
    }
  },
  {
    "service_request": "2023-970396",
    "request_type": "Trash/Recycling",
    "request_reason": "Missed Trash Pick-Up",
    "date_created": "2023-01-25T17:47:46.000",
    "date_modified": "2023-01-25T17:47:46.000",
    "request_status": "Pending",
    "responsible_agency": "Department of Sanitation",
    "final_address": "6553 Colbert St",
    "address_councildis": "A",
    "status": "Assigned to Contractor",
    "contractor": "IV Waste",
    "rowid": "970396",
    "final_x": "3667858.10285",
    "final_y": "551204.476309",
    "longitude": "-90.11048332470615",
    "latitude": "30.010028473614984",
    "geocoded_column": {
      "latitude": "30.010028473614984",
      "longitude": "-90.11048332470615"
    }
  },
  {
    "service_request": "2023-970395",
    "request_type": "Trash/Recycling",
    "request_reason": "Missed Trash Pick-Up",
    "date_created": "2023-01-25T17:41:09.000",
    "date_modified": "2023-01-25T17:41:10.000",
    "request_status": "Pending",
    "responsible_agency": "Department of Sanitation",
    "final_address": "1700 Leon C Simon Dr",
    "address_councildis": "D",
    "status": "Assigned to Contractor",
    "contractor": "IV Waste",
    "rowid": "970395",
    "final_x": "3679618.4324",
    "final_y": "555564.329369",
    "longitude": "-90.07317665411207",
    "latitude": "30.021666148226114",
    "geocoded_column": {
      "latitude": "30.021666148226114",
      "longitude": "-90.07317665411207"
    }
  },
  {
    "service_request": "2023-970394",
    "request_type": "Trash/Recycling",
    "request_reason": "Order Recycling Cart",
    "date_created": "2023-01-25T17:40:03.000",
    "date_modified": "2023-01-25T17:40:04.000",
    "request_status": "Pending",
    "responsible_agency": "Department of Sanitation",
    "final_address": "7420 Weaver Ave",
    "address_councildis": "E",
    "status": "Pending",
    "rowid": "970394",
    "final_x": "3707672.86104",
    "final_y": "563803.377441",
    "longitude": "-89.98422636662515",
    "latitude": "30.043442097015465",
    "geocoded_column": {
      "latitude": "30.043442097015465",
      "longitude": "-89.98422636662515"
    }
  },
  {
    "service_request": "2023-970393",
    "request_type": "Trash/Recycling",
    "request_reason": "Order Recycling Cart",
    "date_created": "2023-01-25T17:38:56.000",
    "date_modified": "2023-01-25T17:38:56.000",
    "request_status": "Pending",
    "responsible_agency": "Department of Sanitation",
    "final_address": "2415 Jefferson Ave",
    "address_councildis": "B",
    "status": "Pending",
    "rowid": "970393",
    "final_x": "3668111.28186",
    "final_y": "524461.736956",
    "longitude": "-90.11058504793853",
    "latitude": "29.93648747245749",
    "geocoded_column": {
      "latitude": "29.93648747245749",
      "longitude": "-90.11058504793853"
    }
  },
  {
    "service_request": "2023-970392",
    "request_type": "Trash/Recycling",
    "request_reason": "Missed Trash Pick-Up",
    "date_created": "2023-01-25T17:37:42.000",
    "date_modified": "2023-01-25T17:37:43.000",
    "request_status": "Pending",
    "responsible_agency": "Department of Sanitation",
    "final_address": "4227 St Charles Ave",
    "address_councildis": "B",
    "status": "Assigned to Contractor",
    "contractor": "Richards Disposal",
    "rowid": "970392",
    "final_x": "3671358.86478",
    "final_y": "521031.645369",
    "longitude": "-90.10044879479399",
    "latitude": "29.926960133461964",
    "geocoded_column": {
      "latitude": "29.926960133461964",
      "longitude": "-90.10044879479399"
    }
  },
  {
    "service_request": "2023-970391",
    "request_type": "Trash/Recycling",
    "request_reason": "Replace Trash Cart",
    "date_created": "2023-01-25T17:37:07.000",
    "date_modified": "2023-01-25T17:37:08.000",
    "request_status": "Pending",
    "responsible_agency": "Department of Sanitation",
    "final_address": "2415 Jefferson Ave",
    "address_councildis": "B",
    "status": "Assigned to Contractor",
    "contractor": "Richards Disposal",
    "rowid": "970391",
    "final_x": "3668111.28186",
    "final_y": "524461.736956",
    "longitude": "-90.11058504793853",
    "latitude": "29.93648747245749",
    "geocoded_column": {
      "latitude": "29.93648747245749",
      "longitude": "-90.11058504793853"
    }
  },
  {
    "service_request": "2023-970390",
    "request_type": "Traffic Signals/Signs/Striping/Streetlights",
    "request_reason": "Traffic Signal Malfunctioning/Damaged",
    "date_created": "2023-01-25T17:34:07.000",
    "date_modified": "2023-01-25T17:34:07.000",
    "request_status": "Pending",
    "responsible_agency": "Department of Public Works",
    "final_address": "1600 Alvar St",
    "address_councildis": "D",
    "status": "Pending",
    "rowid": "970390",
    "final_x": "3691924.30845",
    "final_y": "537295.804936",
    "longitude": "-90.03494757922743",
    "latitude": "29.971056496013823",
    "geocoded_column": {
      "latitude": "29.971056496013823",
      "longitude": "-90.03494757922743"
    }
  },
  {
    "service_request": "2023-970389",
    "request_type": "Trash/Recycling",
    "request_reason": "Missed Trash Pick-Up",
    "date_created": "2023-01-25T17:29:25.000",
    "date_modified": "2023-01-25T17:29:26.000",
    "request_status": "Pending",
    "responsible_agency": "Department of Sanitation",
    "final_address": "2481 Oriole St",
    "address_councildis": "D",
    "status": "Assigned to Contractor",
    "contractor": "IV Waste",
    "rowid": "970389",
    "final_x": "3685199.66511",
    "final_y": "558348.202972",
    "longitude": "-90.05544337004393",
    "latitude": "30.02915081283393",
    "geocoded_column": {
      "latitude": "30.02915081283393",
      "longitude": "-90.05544337004393"
    }
  },
  {
    "service_request": "2023-970388",
    "request_type": "Roads/Drainage",
    "request_reason": "Damaged Sidewalk",
    "date_created": "2023-01-25T17:26:59.000",
    "date_modified": "2023-01-25T17:26:59.000",
    "request_status": "Pending",
    "responsible_agency": "Department of Public Works",
    "final_address": "4234 N Rampart St",
    "address_councildis": "C",
    "status": "Pending",
    "rowid": "970388",
    "final_x": "3692551.11133",
    "final_y": "534618.754118",
    "longitude": "-90.03306399996477",
    "latitude": "29.963676007169074",
    "geocoded_column": {
      "latitude": "29.963676007169074",
      "longitude": "-90.03306399996477"
    }
  },
  {
    "service_request": "2023-970387",
    "request_type": "Trash/Recycling",
    "request_reason": "Replace Recycling Cart",
    "date_created": "2023-01-25T17:26:58.000",
    "date_modified": "2023-01-25T17:26:58.000",
    "request_status": "Pending",
    "responsible_agency": "Department of Sanitation",
    "final_address": "1505 Marengo St",
    "address_councildis": "B",
    "status": "Pending",
    "rowid": "970387",
    "final_x": "3672035.73556",
    "final_y": "520732.705273",
    "longitude": "-90.09832225812578",
    "latitude": "29.92611810106275",
    "geocoded_column": {
      "latitude": "29.92611810106275",
      "longitude": "-90.09832225812578"
    }
  },
  {
    "service_request": "2023-970386",
    "request_type": "Trash/Recycling",
    "request_reason": "Replace Trash Cart",
    "date_created": "2023-01-25T17:24:58.000",
    "date_modified": "2023-01-25T17:24:59.000",
    "request_status": "Pending",
    "responsible_agency": "Department of Sanitation",
    "final_address": "1120 N White St",
    "address_councildis": "A",
    "status": "Assigned to Contractor",
    "contractor": "Richards Disposal",
    "rowid": "970386",
    "final_x": "3677396.15502",
    "final_y": "538920.781194",
    "longitude": "-90.08077333786179",
    "latitude": "29.975969281763565",
    "geocoded_column": {
      "latitude": "29.975969281763565",
      "longitude": "-90.08077333786179"
    }
  },
  {
    "service_request": "2023-970385",
    "request_type": "Abandoned Vehicles",
    "request_reason": "Abandoned/Junk Vehicles",
    "date_created": "2023-01-25T17:09:20.000",
    "date_modified": "2023-01-25T17:09:20.000",
    "request_status": "Pending",
    "responsible_agency": "Department of Public Works",
    "final_address": "1501 Jefferson Ave",
    "address_councildis": "B",
    "status": "Pending",
    "rowid": "970385",
    "final_x": "3667259.05959",
    "final_y": "520580.582456",
    "longitude": "-90.1134060082456",
    "latitude": "29.92584051165135",
    "geocoded_column": {
      "latitude": "29.92584051165135",
      "longitude": "-90.1134060082456"
    }
  },
  {
    "service_request": "2023-970384",
    "request_type": "Trash/Recycling",
    "request_reason": "Replace Trash Cart",
    "date_created": "2023-01-25T17:08:39.000",
    "date_modified": "2023-01-25T17:08:39.000",
    "request_status": "Pending",
    "responsible_agency": "Department of Sanitation",
    "final_address": "5225 Timber Haven Ln",
    "address_councildis": "C",
    "status": "Assigned to Contractor",
    "contractor": "Richards Disposal",
    "rowid": "970384",
    "final_x": "3703518.45143",
    "final_y": "511372.944624",
    "longitude": "-89.99928516106226",
    "latitude": "29.89941138301566",
    "geocoded_column": {
      "latitude": "29.89941138301566",
      "longitude": "-89.99928516106226"
    }
  },
  {
    "service_request": "2023-970383",
    "request_type": "Trash/Recycling",
    "request_reason": "Replace Trash Cart",
    "date_created": "2023-01-25T17:05:37.000",
    "date_modified": "2023-01-25T17:05:38.000",
    "request_status": "Pending",
    "responsible_agency": "Department of Sanitation",
    "final_address": "2 Leeward Ct",
    "address_councildis": "C",
    "status": "Assigned to Contractor",
    "contractor": "Richards Disposal",
    "rowid": "970383",
    "final_x": "3704315.24529",
    "final_y": "522424.86233",
    "longitude": "-89.99636364521747",
    "latitude": "29.92977482559184",
    "geocoded_column": {
      "latitude": "29.92977482559184",
      "longitude": "-89.99636364521747"
    }
  },
  {
    "service_request": "2023-970382",
    "request_type": "Traffic Signals/Signs/Striping/Streetlights",
    "request_reason": "Street Light Outage/Malfunction",
    "date_created": "2023-01-25T17:01:15.000",
    "date_modified": "2023-01-25T17:01:16.000",
    "request_status": "Pending",
    "responsible_agency": "Department of Public Works",
    "final_address": "706 Carondelet St",
    "address_councildis": "B",
    "status": "Assigned to Contractor",
    "contractor": "Legacy Professional Services",
    "rowid": "970382",
    "final_x": "3680141.67362",
    "final_y": "528552.955392",
    "longitude": "-90.0724625198717",
    "latitude": "29.947378480404474",
    "geocoded_column": {
      "latitude": "29.947378480404474",
      "longitude": "-90.0724625198717"
    }
  },
  {
    "service_request": "2023-970381",
    "request_type": "Traffic Signals/Signs/Striping/Streetlights",
    "request_reason": "Street Light Outage/Malfunction",
    "date_created": "2023-01-25T17:00:24.000",
    "date_modified": "2023-01-25T17:00:25.000",
    "request_status": "Pending",
    "responsible_agency": "Department of Public Works",
    "final_address": "711 Carondelet St",
    "address_councildis": "B",
    "status": "Assigned to Contractor",
    "contractor": "Legacy Professional Services",
    "rowid": "970381",
    "final_x": "3680082.06677",
    "final_y": "528547.566592",
    "longitude": "-90.07265090867952",
    "latitude": "29.947365466400466",
    "geocoded_column": {
      "latitude": "29.947365466400466",
      "longitude": "-90.07265090867952"
    }
  },
  {
    "service_request": "2023-970380",
    "request_type": "Trash/Recycling",
    "request_reason": "Missed Trash Pick-Up",
    "date_created": "2023-01-25T16:59:44.000",
    "date_modified": "2023-01-25T16:59:45.000",
    "request_status": "Pending",
    "responsible_agency": "Department of Sanitation",
    "final_address": "5760 Press Dr",
    "address_councildis": "D",
    "status": "Assigned to Contractor",
    "contractor": "IV Waste",
    "rowid": "970380",
    "final_x": "3688854.93417",
    "final_y": "554871.719192",
    "longitude": "-90.04401646699257",
    "latitude": "30.01947918585284",
    "geocoded_column": {
      "latitude": "30.01947918585284",
      "longitude": "-90.04401646699257"
    }
  },
  {
    "service_request": "2023-970379",
    "request_type": "Property Maintenance",
    "request_reason": "Property Maintenance",
    "date_created": "2023-01-25T16:58:59.000",
    "date_modified": "2023-01-25T17:00:13.000",
    "request_status": "Pending",
    "responsible_agency": "Department of Code Enforcement",
    "final_address": "111 Allen Toussaint Blvd",
    "address_councildis": "D",
    "status": "Pending",
    "rowid": "970379",
    "final_x": "3667124.95469",
    "final_y": "555326.527193",
    "longitude": "-90.11266088073394",
    "latitude": "30.021384156574168",
    "geocoded_column": {
      "latitude": "30.021384156574168",
      "longitude": "-90.11266088073394"
    }
  },
  {
    "service_request": "2023-970378",
    "request_type": "Trash/Recycling",
    "request_reason": "Repair Recycling Cart",
    "date_created": "2023-01-25T16:58:39.000",
    "date_modified": "2023-01-25T16:58:39.000",
    "request_status": "Pending",
    "responsible_agency": "Department of Sanitation",
    "final_address": "2857 Annunciation St",
    "address_councildis": "B",
    "status": "Pending",
    "rowid": "970378",
    "final_x": "3677245.7764",
    "final_y": "519679.140728",
    "longitude": "-90.08191197942094",
    "latitude": "29.923065704093972",
    "geocoded_column": {
      "latitude": "29.923065704093972",
      "longitude": "-90.08191197942094"
    }
  },
  {
    "service_request": "2023-970377",
    "request_type": "Trash/Recycling",
    "request_reason": "Order Recycling Cart",
    "date_created": "2023-01-25T16:57:51.000",
    "date_modified": "2023-01-25T16:57:52.000",
    "request_status": "Pending",
    "responsible_agency": "Department of Sanitation",
    "final_address": "1424 Octavia St",
    "address_councildis": "A",
    "status": "Pending",
    "rowid": "970377",
    "final_x": "3666894.53729",
    "final_y": "521155.013177",
    "longitude": "-90.11453741306593",
    "latitude": "29.927430680619402",
    "geocoded_column": {
      "latitude": "29.927430680619402",
      "longitude": "-90.11453741306593"
    }
  },
  {
    "service_request": "2023-970376",
    "request_type": "Trash/Recycling",
    "request_reason": "Order Trash Cart",
    "date_created": "2023-01-25T16:57:09.000",
    "date_modified": "2023-01-25T16:57:10.000",
    "request_status": "Pending",
    "responsible_agency": "Department of Sanitation",
    "final_address": "1424 Octavia St",
    "address_councildis": "A",
    "status": "Assigned to Contractor",
    "contractor": "Richards Disposal",
    "rowid": "970376",
    "final_x": "3666894.53729",
    "final_y": "521155.013177",
    "longitude": "-90.11453741306593",
    "latitude": "29.927430680619402",
    "geocoded_column": {
      "latitude": "29.927430680619402",
      "longitude": "-90.11453741306593"
    }
  },
  {
    "service_request": "2023-970375",
    "request_type": "Traffic Signals/Signs/Striping/Streetlights",
    "request_reason": "Street Light Outage/Malfunction",
    "date_created": "2023-01-25T16:55:04.000",
    "date_modified": "2023-01-25T16:55:05.000",
    "request_status": "Pending",
    "responsible_agency": "Department of Public Works",
    "final_address": "746 Carondelet St",
    "address_councildis": "B",
    "status": "Assigned to Contractor",
    "contractor": "Legacy Professional Services",
    "rowid": "970375",
    "final_x": "3680082.85077",
    "final_y": "528299.8112",
    "longitude": "-90.07265703985459",
    "latitude": "29.946684198273655",
    "geocoded_column": {
      "latitude": "29.946684198273655",
      "longitude": "-90.07265703985459"
    }
  },
  {
    "service_request": "2023-970374",
    "request_type": "Traffic Signals/Signs/Striping/Streetlights",
    "request_reason": "Street Light Outage/Malfunction",
    "date_created": "2023-01-25T16:53:22.000",
    "date_modified": "2023-01-25T16:53:22.000",
    "request_status": "Pending",
    "responsible_agency": "Department of Public Works",
    "final_address": "727 Carondelet St",
    "address_councildis": "B",
    "status": "Assigned to Contractor",
    "contractor": "Legacy Professional Services",
    "rowid": "970374",
    "final_x": "3680032.01346",
    "final_y": "528442.223552",
    "longitude": "-90.07281260506386",
    "latitude": "29.947077322443604",
    "geocoded_column": {
      "latitude": "29.947077322443604",
      "longitude": "-90.07281260506386"
    }
  },
  {
    "service_request": "2023-970373",
    "request_type": "Traffic Signals/Signs/Striping/Streetlights",
    "request_reason": "Street Light Outage/Malfunction",
    "date_created": "2023-01-25T16:50:23.000",
    "date_modified": "2023-01-25T16:50:24.000",
    "request_status": "Pending",
    "responsible_agency": "Department of Public Works",
    "final_address": "750 Carondelet St",
    "address_councildis": "B",
    "status": "Assigned to Contractor",
    "contractor": "Legacy Professional Services",
    "rowid": "970373",
    "final_x": "3680057.00392",
    "final_y": "528199.866368",
    "longitude": "-90.0727421193128",
    "latitude": "29.94641016531836",
    "geocoded_column": {
      "latitude": "29.94641016531836",
      "longitude": "-90.0727421193128"
    }
  },
  {
    "service_request": "2023-970372",
    "request_type": "Parks & Parkways",
    "request_reason": "Request Tree Service (Right of Way/Public Property)",
    "date_created": "2023-01-25T16:50:04.000",
    "date_modified": "2023-01-25T16:50:04.000",
    "request_status": "Pending",
    "responsible_agency": "Department of Parks & Parkway",
    "final_address": "1126 N White St",
    "address_councildis": "A",
    "status": "Pending",
    "rowid": "970372",
    "final_x": "3677409.29269",
    "final_y": "538964.342858",
    "longitude": "-90.08073034130379",
    "latitude": "29.97608866647463",
    "geocoded_column": {
      "latitude": "29.97608866647463",
      "longitude": "-90.08073034130379"
    }
  },
  {
    "service_request": "2023-970371",
    "request_type": "Abandoned Vehicles",
    "request_reason": "Abandoned/Junk Vehicles",
    "date_created": "2023-01-25T16:47:59.000",
    "date_modified": "2023-01-25T16:47:59.000",
    "request_status": "Pending",
    "responsible_agency": "Department of Public Works",
    "final_address": "2840 Laurel St",
    "address_councildis": "B",
    "status": "Pending",
    "rowid": "970371",
    "final_x": "3677219.03502",
    "final_y": "519996.80172",
    "longitude": "-90.08198544105244",
    "latitude": "29.923939972024876",
    "geocoded_column": {
      "latitude": "29.923939972024876",
      "longitude": "-90.08198544105244"
    }
  },
  {
    "service_request": "2023-970370",
    "request_type": "Abandoned Vehicles",
    "request_reason": "Abandoned/Junk Vehicles",
    "date_created": "2023-01-25T16:46:12.000",
    "date_modified": "2023-01-25T16:46:12.000",
    "request_status": "Pending",
    "responsible_agency": "Department of Public Works",
    "final_address": "2823 Constance St",
    "address_councildis": "B",
    "status": "Pending",
    "rowid": "970370",
    "final_x": "3677073.46702",
    "final_y": "520431.680248",
    "longitude": "-90.08242996112584",
    "latitude": "29.92514011750468",
    "geocoded_column": {
      "latitude": "29.92514011750468",
      "longitude": "-90.08242996112584"
    }
  },
  {
    "service_request": "2023-970369",
    "request_type": "Trash/Recycling",
    "request_reason": "Request a Large Item Pick Up",
    "date_created": "2023-01-25T16:44:48.000",
    "date_modified": "2023-01-25T16:44:49.000",
    "request_status": "Pending",
    "responsible_agency": "Department of Sanitation",
    "final_address": "730 Austerlitz St",
    "address_councildis": "B",
    "status": "Assigned to Contractor",
    "contractor": "Richards Disposal",
    "rowid": "970369",
    "final_x": "3672871.35566",
    "final_y": "518492.042359",
    "longitude": "-90.09576083602622",
    "latitude": "29.91993220355427",
    "geocoded_column": {
      "latitude": "29.91993220355427",
      "longitude": "-90.09576083602622"
    }
  },
  {
    "service_request": "2023-970368",
    "request_type": "Roads/Drainage",
    "request_reason": "Pothole",
    "date_created": "2023-01-25T16:43:21.000",
    "date_modified": "2023-01-25T16:43:21.000",
    "request_status": "Pending",
    "responsible_agency": "Department of Public Works",
    "final_address": "1014 Eleonore St",
    "address_councildis": "A",
    "status": "Pending",
    "rowid": "970368",
    "final_x": "3665367.52608",
    "final_y": "519881.803832",
    "longitude": "-90.11940040938434",
    "latitude": "29.923974328672756",
    "geocoded_column": {
      "latitude": "29.923974328672756",
      "longitude": "-90.11940040938434"
    }
  },
  {
    "service_request": "2023-970367",
    "request_type": "Traffic Signals/Signs/Striping/Streetlights",
    "request_reason": "Street Light Outage/Malfunction",
    "date_created": "2023-01-25T16:43:20.000",
    "date_modified": "2023-01-25T16:43:21.000",
    "request_status": "Pending",
    "responsible_agency": "Department of Public Works",
    "final_address": "765 Carondelet St",
    "address_councildis": "B",
    "status": "Assigned to Contractor",
    "contractor": "Legacy Professional Services",
    "rowid": "970367",
    "final_x": "3679974.90645",
    "final_y": "528177.555456",
    "longitude": "-90.07300210472073",
    "latitude": "29.946351300989914",
    "geocoded_column": {
      "latitude": "29.946351300989914",
      "longitude": "-90.07300210472073"
    }
  },
  {
    "service_request": "2023-970366",
    "request_type": "Trash/Recycling",
    "request_reason": "Missed Trash Pick-Up",
    "date_created": "2023-01-25T16:41:03.000",
    "date_modified": "2023-01-25T16:41:04.000",
    "request_status": "Pending",
    "responsible_agency": "Department of Sanitation",
    "final_address": "4438 Elba St",
    "address_councildis": "B",
    "status": "Assigned to Contractor",
    "contractor": "Richards Disposal",
    "rowid": "970366",
    "final_x": "3669550.25198",
    "final_y": "530490.593922",
    "longitude": "-90.10583825371941",
    "latitude": "29.95302256762158",
    "geocoded_column": {
      "latitude": "29.95302256762158",
      "longitude": "-90.10583825371941"
    }
  },
  {
    "service_request": "2023-970365",
    "request_type": "Property Maintenance",
    "request_reason": "Property Maintenance",
    "date_created": "2023-01-25T16:38:40.000",
    "date_modified": "2023-01-25T16:38:41.000",
    "request_status": "Pending",
    "responsible_agency": "Department of Code Enforcement",
    "final_address": "5904 Annunciation St",
    "address_councildis": "A",
    "status": "Pending",
    "rowid": "970365",
    "final_x": "3664847.81332",
    "final_y": "517637.226678",
    "longitude": "-90.12111592177729",
    "latitude": "29.91781757278294",
    "geocoded_column": {
      "latitude": "29.91781757278294",
      "longitude": "-90.12111592177729"
    }
  },
  {
    "service_request": "2023-970364",
    "request_type": "Property Maintenance",
    "request_reason": "Property Maintenance",
    "date_created": "2023-01-25T16:38:23.000",
    "date_modified": "2023-01-25T16:38:23.000",
    "request_status": "Pending",
    "responsible_agency": "Department of Code Enforcement",
    "final_address": "3021 Bienville Ave",
    "address_councildis": "B",
    "status": "Pending",
    "rowid": "970364",
    "final_x": "3674699.41153",
    "final_y": "536660.782855",
    "longitude": "-90.089367931397",
    "latitude": "29.969835837055637",
    "geocoded_column": {
      "latitude": "29.969835837055637",
      "longitude": "-90.089367931397"
    }
  },
  {
    "service_request": "2023-970363",
    "request_type": "Trash/Recycling",
    "request_reason": "Missed Trash Pick-Up",
    "date_created": "2023-01-25T16:35:42.000",
    "date_modified": "2023-01-25T16:35:43.000",
    "request_status": "Pending",
    "responsible_agency": "Department of Sanitation",
    "final_address": "7801 Unity Dr",
    "address_councildis": "E",
    "status": "Assigned to Contractor",
    "contractor": "Waste Pro",
    "rowid": "970363",
    "final_x": "3711848.7141",
    "final_y": "567440.05898",
    "longitude": "-89.97089237145441",
    "latitude": "30.05330564983264",
    "geocoded_column": {
      "latitude": "30.05330564983264",
      "longitude": "-89.97089237145441"
    }
  },
  {
    "service_request": "2023-970362",
    "request_type": "Trash/Recycling",
    "request_reason": "MIssed Recycling Pick-Up",
    "date_created": "2023-01-25T16:29:21.000",
    "date_modified": "2023-01-25T16:29:21.000",
    "request_status": "Pending",
    "responsible_agency": "Department of Sanitation",
    "final_address": "1722 Napoleon Ave",
    "address_councildis": "B",
    "status": "Assigned to Contractor",
    "contractor": "Richards Disposal",
    "rowid": "970362",
    "final_x": "3670696.21083",
    "final_y": "521439.149369",
    "longitude": "-90.10252680681653",
    "latitude": "29.928100227501655",
    "geocoded_column": {
      "latitude": "29.928100227501655",
      "longitude": "-90.10252680681653"
    }
  },
  {
    "service_request": "2023-970360",
    "request_type": "Property Maintenance",
    "request_reason": "Property Maintenance",
    "date_created": "2023-01-25T16:21:38.000",
    "date_modified": "2023-01-25T16:21:38.000",
    "request_status": "Pending",
    "responsible_agency": "Department of Code Enforcement",
    "final_address": "5730 Providence Pl",
    "address_councildis": "D",
    "status": "Pending",
    "rowid": "970360",
    "final_x": "3688174.04316",
    "final_y": "554449.181912",
    "longitude": "-90.0461828462937",
    "latitude": "30.01833841368749",
    "geocoded_column": {
      "latitude": "30.01833841368749",
      "longitude": "-90.0461828462937"
    }
  },
  {
    "service_request": "2023-970359",
    "request_type": "Trash/Recycling",
    "request_reason": "Order Recycling Cart",
    "date_created": "2023-01-25T16:21:07.000",
    "date_modified": "2023-01-25T16:21:07.000",
    "request_status": "Pending",
    "responsible_agency": "Department of Sanitation",
    "final_address": "239 Stafford Pl",
    "address_councildis": "A",
    "status": "Pending",
    "rowid": "970359",
    "final_x": "3665700.24788",
    "final_y": "553991.679128",
    "longitude": "-90.11720734687815",
    "latitude": "30.01775545051568",
    "geocoded_column": {
      "latitude": "30.01775545051568",
      "longitude": "-90.11720734687815"
    }
  },
  {
    "service_request": "2023-970358",
    "request_type": "Abandoned Vehicles",
    "request_reason": "Abandoned/Junk Vehicles",
    "date_created": "2023-01-25T16:21:06.000",
    "date_modified": "2023-01-25T16:21:06.000",
    "request_status": "Pending",
    "responsible_agency": "Department of Public Works",
    "final_address": "7210 Fig St",
    "address_councildis": "B",
    "status": "Pending",
    "rowid": "970358",
    "final_x": "3667599.28237",
    "final_y": "531912.940163",
    "longitude": "-90.11195070942921",
    "latitude": "29.95699087780537",
    "geocoded_column": {
      "latitude": "29.95699087780537",
      "longitude": "-90.11195070942921"
    }
  },
  {
    "service_request": "2023-970357",
    "request_type": "Trash/Recycling",
    "request_reason": "Order Recycling Cart",
    "date_created": "2023-01-25T16:19:48.000",
    "date_modified": "2023-01-25T16:19:49.000",
    "request_status": "Pending",
    "responsible_agency": "Department of Sanitation",
    "final_address": "1516 Leontine St",
    "address_councildis": "B",
    "status": "Pending",
    "rowid": "970357",
    "final_x": "3667355.36103",
    "final_y": "520659.132217",
    "longitude": "-90.11309937166665",
    "latitude": "29.926053679092075",
    "geocoded_column": {
      "latitude": "29.926053679092075",
      "longitude": "-90.11309937166665"
    }
  },
  {
    "service_request": "2023-970356",
    "request_type": "Trash/Recycling",
    "request_reason": "Replace Trash Cart",
    "date_created": "2023-01-25T16:17:39.000",
    "date_modified": "2023-01-25T16:17:40.000",
    "request_status": "Pending",
    "responsible_agency": "Department of Sanitation",
    "final_address": "9325 Stroelitz St",
    "address_councildis": "A",
    "status": "Assigned to Contractor",
    "contractor": "Richards Disposal",
    "rowid": "970356",
    "final_x": "3664713.8432",
    "final_y": "537960.794505",
    "longitude": "-90.12085998483131",
    "latitude": "29.97370474163545",
    "geocoded_column": {
      "latitude": "29.97370474163545",
      "longitude": "-90.12085998483131"
    }
  },
  {
    "service_request": "2023-970355",
    "request_type": "Abandoned Vehicles",
    "request_reason": "Abandoned/Junk Vehicles",
    "date_created": "2023-01-25T16:16:46.000",
    "date_modified": "2023-01-25T16:16:46.000",
    "request_status": "Pending",
    "responsible_agency": "Department of Public Works",
    "final_address": "705 N Murat St",
    "address_councildis": "A",
    "status": "Pending",
    "rowid": "970355",
    "final_x": "3671008.52871",
    "final_y": "541184.991628",
    "longitude": "-90.10087043354254",
    "latitude": "29.982385541035487",
    "geocoded_column": {
      "latitude": "29.982385541035487",
      "longitude": "-90.10087043354254"
    }
  },
  {
    "service_request": "2023-970354",
    "request_type": "Trash/Recycling",
    "request_reason": "Repair Trash Cart",
    "date_created": "2023-01-25T16:14:11.000",
    "date_modified": "2023-01-25T16:14:12.000",
    "request_status": "Pending",
    "responsible_agency": "Department of Sanitation",
    "final_address": "6416 Louisville St",
    "address_councildis": "A",
    "status": "Assigned to Contractor",
    "contractor": "IV Waste",
    "rowid": "970354",
    "final_x": "3667966.55258",
    "final_y": "550276.707284",
    "longitude": "-90.11017198072554",
    "latitude": "30.007474250247903",
    "geocoded_column": {
      "latitude": "30.007474250247903",
      "longitude": "-90.11017198072554"
    }
  },
  {
    "service_request": "2023-970353",
    "request_type": "Abandoned Vehicles",
    "request_reason": "Abandoned/Junk Vehicles",
    "date_created": "2023-01-25T16:03:51.000",
    "date_modified": "2023-01-25T16:03:51.000",
    "request_status": "Pending",
    "responsible_agency": "Department of Public Works",
    "final_address": "227 S Olympia St",
    "address_councildis": "A",
    "status": "Pending",
    "rowid": "970353",
    "final_x": "3668935.47233",
    "final_y": "539137.679114",
    "longitude": "-90.10748736278403",
    "latitude": "29.976817272289782",
    "geocoded_column": {
      "latitude": "29.976817272289782",
      "longitude": "-90.10748736278403"
    }
  },
  {
    "service_request": "2023-970352",
    "request_type": "Trash/Recycling",
    "request_reason": "Request a Large Item Pick Up",
    "date_created": "2023-01-25T16:00:34.000",
    "date_modified": "2023-01-25T16:00:34.000",
    "request_status": "Pending",
    "responsible_agency": "Department of Sanitation",
    "final_address": "4222 Banks St",
    "address_councildis": "A",
    "status": "Assigned to Contractor",
    "contractor": "Richards Disposal",
    "rowid": "970352",
    "final_x": "3669645.00666",
    "final_y": "537790.72564",
    "longitude": "-90.10529201657494",
    "latitude": "29.97309271298747",
    "geocoded_column": {
      "latitude": "29.97309271298747",
      "longitude": "-90.10529201657494"
    }
  },
  {
    "service_request": "2023-970351",
    "request_type": "Abandoned Vehicles",
    "request_reason": "Abandoned/Junk Vehicles",
    "date_created": "2023-01-25T15:54:42.000",
    "date_modified": "2023-01-25T15:54:42.000",
    "request_status": "Pending",
    "responsible_agency": "Department of Public Works",
    "final_address": "1217 General Taylor St",
    "address_councildis": "B",
    "status": "Pending",
    "rowid": "970351",
    "final_x": "3672871.88136",
    "final_y": "520171.87884",
    "longitude": "-90.09570190464898",
    "latitude": "29.924551201278657",
    "geocoded_column": {
      "latitude": "29.924551201278657",
      "longitude": "-90.09570190464898"
    }
  },
  {
    "service_request": "2023-970350",
    "request_type": "Roads/Drainage",
    "request_reason": "Street Flooding / Drainage",
    "date_created": "2023-01-25T15:28:14.000",
    "date_modified": "2023-01-25T15:28:14.000",
    "request_status": "Pending",
    "responsible_agency": "Department of Public Works",
    "final_address": "1701 Louisa St",
    "address_councildis": "D",
    "status": "Pending",
    "rowid": "970350",
    "final_x": "3690175.39612",
    "final_y": "538147.157961",
    "longitude": "-90.04044051984286",
    "latitude": "29.973451791527623",
    "geocoded_column": {
      "latitude": "29.973451791527623",
      "longitude": "-90.04044051984286"
    }
  },
  {
    "service_request": "2023-970349",
    "request_type": "Trash/Recycling",
    "request_reason": "Illegal Dumping",
    "date_created": "2023-01-25T15:27:10.000",
    "date_modified": "2023-01-25T15:27:10.000",
    "request_status": "Pending",
    "responsible_agency": "Department of Sanitation",
    "final_address": "1827 Soniat St",
    "address_councildis": "B",
    "status": "Pending",
    "rowid": "970349",
    "final_x": "3668553.07559",
    "final_y": "522361.082938",
    "longitude": "-90.10926113004166",
    "latitude": "29.930698375977475",
    "geocoded_column": {
      "latitude": "29.930698375977475",
      "longitude": "-90.10926113004166"
    }
  },
  {
    "service_request": "2023-970347",
    "request_type": "Trash/Recycling",
    "request_reason": "Replace Trash Cart",
    "date_created": "2023-01-25T15:24:12.000",
    "date_modified": "2023-01-25T15:24:13.000",
    "request_status": "Pending",
    "responsible_agency": "Department of Sanitation",
    "final_address": "1235 St Denis St",
    "address_councildis": "D",
    "status": "Assigned to Contractor",
    "contractor": "IV Waste",
    "rowid": "970347",
    "final_x": "3676884.23554",
    "final_y": "545701.33224",
    "longitude": "-90.08215629200716",
    "latitude": "29.99462882103238",
    "geocoded_column": {
      "latitude": "29.99462882103238",
      "longitude": "-90.08215629200716"
    }
  },
  {
    "service_request": "2023-970346",
    "request_type": "Trash/Recycling",
    "request_reason": "Request a Large Item Pick Up",
    "date_created": "2023-01-25T15:23:39.000",
    "date_modified": "2023-01-25T15:23:40.000",
    "request_status": "Pending",
    "responsible_agency": "Department of Sanitation",
    "final_address": "7300 Lakeshore Dr",
    "address_councildis": "D",
    "status": "Assigned to Contractor",
    "contractor": "IV Waste",
    "rowid": "970346",
    "final_x": "3666802.36673",
    "final_y": "555876.255513",
    "longitude": "-90.11366168494405",
    "latitude": "30.02290515996475",
    "geocoded_column": {
      "latitude": "30.02290515996475",
      "longitude": "-90.11366168494405"
    }
  },
  {
    "service_request": "2023-970345",
    "request_type": "Abandoned Vehicles",
    "request_reason": "Abandoned/Junk Vehicles",
    "date_created": "2023-01-25T15:18:05.000",
    "date_modified": "2023-01-25T15:20:42.000",
    "request_status": "Pending",
    "responsible_agency": "Department of Public Works",
    "final_address": "2226 George Nick Connor Dr",
    "address_councildis": "D",
    "status": "Pending",
    "rowid": "970345",
    "final_x": "3681192.91048",
    "final_y": "540286.545803",
    "longitude": "-90.06873449312738",
    "latitude": "29.979609992598064",
    "geocoded_column": {
      "latitude": "29.979609992598064",
      "longitude": "-90.06873449312738"
    }
  },
  {
    "service_request": "2023-970344",
    "request_type": "Trash/Recycling",
    "request_reason": "Request a Large Item Pick Up",
    "date_created": "2023-01-25T15:16:20.000",
    "date_modified": "2023-01-25T15:16:21.000",
    "request_status": "Pending",
    "responsible_agency": "Department of Sanitation",
    "final_address": "2618 S Saratoga St",
    "address_councildis": "B",
    "status": "Assigned to Contractor",
    "contractor": "Richards Disposal",
    "rowid": "970344",
    "final_x": "3675329.83246",
    "final_y": "524244.9239",
    "longitude": "-90.0878032188674",
    "latitude": "29.935677524849268",
    "geocoded_column": {
      "latitude": "29.935677524849268",
      "longitude": "-90.0878032188674"
    }
  },
  {
    "service_request": "2023-970343",
    "request_type": "Trash/Recycling",
    "request_reason": "Illegal Dumping",
    "date_created": "2023-01-25T15:14:42.000",
    "date_modified": "2023-01-25T15:14:42.000",
    "request_status": "Pending",
    "responsible_agency": "Department of Sanitation",
    "final_address": "2618 S Saratoga St",
    "address_councildis": "B",
    "status": "Pending",
    "rowid": "970343",
    "final_x": "3675329.83246",
    "final_y": "524244.9239",
    "longitude": "-90.0878032188674",
    "latitude": "29.935677524849268",
    "geocoded_column": {
      "latitude": "29.935677524849268",
      "longitude": "-90.0878032188674"
    }
  },
  {
    "service_request": "2023-970342",
    "request_type": "Trash/Recycling",
    "request_reason": "Request a Large Item Pick Up",
    "date_created": "2023-01-25T15:10:30.000",
    "date_modified": "2023-01-25T15:10:30.000",
    "request_status": "Pending",
    "responsible_agency": "Department of Sanitation",
    "final_address": "5425 Vicksburg St",
    "address_councildis": "A",
    "status": "Assigned to Contractor",
    "contractor": "IV Waste",
    "rowid": "970342",
    "final_x": "3668666.04046",
    "final_y": "543050.316173",
    "longitude": "-90.10820619186633",
    "latitude": "29.987583620607044",
    "geocoded_column": {
      "latitude": "29.987583620607044",
      "longitude": "-90.10820619186633"
    }
  },
  {
    "service_request": "2023-970341",
    "request_type": "Trash/Recycling",
    "request_reason": "Return Trash Cart",
    "date_created": "2023-01-25T15:09:27.000",
    "date_modified": "2023-01-25T15:09:29.000",
    "request_status": "Pending",
    "responsible_agency": "Department of Sanitation",
    "final_address": "7700 Wave Dr",
    "address_councildis": "E",
    "status": "Assigned to Contractor",
    "contractor": "Waste Pro",
    "rowid": "970341",
    "final_x": "3714644.88549",
    "final_y": "569077.494182",
    "longitude": "-89.96199256599522",
    "latitude": "30.057716210539034",
    "geocoded_column": {
      "latitude": "30.057716210539034",
      "longitude": "-89.96199256599522"
    }
  },
  {
    "service_request": "2023-970340",
    "request_type": "Trash/Recycling",
    "request_reason": "Request a Large Item Pick Up",
    "date_created": "2023-01-25T15:08:24.000",
    "date_modified": "2023-01-25T15:29:57.000",
    "request_status": "Pending",
    "responsible_agency": "Department of Sanitation",
    "final_address": "2716 New Orleans St, New Orleans, Louisiana, 70119",
    "address_councildis": "D",
    "status": "Assigned to Contractor",
    "contractor": "IV Waste",
    "rowid": "970340",
    "final_x": "3681857.74901",
    "final_y": "542496.847309",
    "longitude": "-90.06655748857781",
    "latitude": "29.98566735576039",
    "geocoded_column": {
      "latitude": "29.98566735576039",
      "longitude": "-90.06655748857781"
    }
  },
  {
    "service_request": "2023-970339",
    "request_type": "Trash/Recycling",
    "request_reason": "Return Recycling Cart",
    "date_created": "2023-01-25T15:08:22.000",
    "date_modified": "2023-01-25T15:08:22.000",
    "request_status": "Pending",
    "responsible_agency": "Department of Sanitation",
    "final_address": "7700 Wave Dr",
    "address_councildis": "E",
    "status": "Pending",
    "rowid": "970339",
    "final_x": "3714644.88549",
    "final_y": "569077.494182",
    "longitude": "-89.96199256599522",
    "latitude": "30.057716210539034",
    "geocoded_column": {
      "latitude": "30.057716210539034",
      "longitude": "-89.96199256599522"
    }
  },
  {
    "service_request": "2023-970338",
    "request_type": "Trash/Recycling",
    "request_reason": "Order Trash Cart",
    "date_created": "2023-01-25T15:05:38.000",
    "date_modified": "2023-01-25T15:05:38.000",
    "request_status": "Pending",
    "responsible_agency": "Department of Sanitation",
    "final_address": "2506 S Galvez St",
    "address_councildis": "B",
    "status": "Assigned to Contractor",
    "contractor": "Richards Disposal",
    "rowid": "970338",
    "final_x": "3672973.37025",
    "final_y": "528552.407104",
    "longitude": "-90.09509566086565",
    "latitude": "29.947591917806708",
    "geocoded_column": {
      "latitude": "29.947591917806708",
      "longitude": "-90.09509566086565"
    }
  },
  {
    "service_request": "2023-970337",
    "request_type": "Trash/Recycling",
    "request_reason": "Request a Large Item Pick Up",
    "date_created": "2023-01-25T15:01:12.000",
    "date_modified": "2023-01-25T15:01:13.000",
    "request_status": "Pending",
    "responsible_agency": "Department of Sanitation",
    "final_address": "2218 Barracks St",
    "address_councildis": "D",
    "status": "Assigned to Contractor",
    "contractor": "Richards Disposal",
    "rowid": "970337",
    "final_x": "3679515.56674",
    "final_y": "537521.337608",
    "longitude": "-90.07412819745302",
    "latitude": "29.972057419826257",
    "geocoded_column": {
      "latitude": "29.972057419826257",
      "longitude": "-90.07412819745302"
    }
  },
  {
    "service_request": "2023-970336",
    "request_type": "Abandoned Vehicles",
    "request_reason": "Abandoned/Junk Vehicles",
    "date_created": "2023-01-25T14:54:38.000",
    "date_modified": "2023-01-25T14:54:39.000",
    "request_status": "Pending",
    "responsible_agency": "Department of Public Works",
    "final_address": "7740 Arcadia Ln",
    "address_councildis": "E",
    "status": "Pending",
    "rowid": "970336",
    "final_x": "3712085.13432",
    "final_y": "567457.441956",
    "longitude": "-89.97014446324373",
    "latitude": "30.053345714350694",
    "geocoded_column": {
      "latitude": "30.053345714350694",
      "longitude": "-89.97014446324373"
    }
  },
  {
    "service_request": "2023-970335",
    "request_type": "Traffic Signals/Signs/Striping/Streetlights",
    "request_reason": "Street Light Outage/Malfunction",
    "date_created": "2023-01-25T14:51:30.000",
    "date_modified": "2023-01-25T14:51:31.000",
    "request_status": "Pending",
    "responsible_agency": "Department of Public Works",
    "final_address": "BUTTERFIELD RD & WALES ST",
    "address_councildis": "E",
    "status": "Assigned to Contractor",
    "contractor": "Legacy Professional Services",
    "rowid": "970335",
    "final_x": "3699495.1",
    "final_y": "561087.98",
    "longitude": "-90.01017050383881",
    "latitude": "30.036238022709338",
    "geocoded_column": {
      "latitude": "30.036238022709338",
      "longitude": "-90.01017050383881"
    }
  },
  {
    "service_request": "2023-970334",
    "request_type": "Traffic Signals/Signs/Striping/Streetlights",
    "request_reason": "Street Light Outage/Malfunction",
    "date_created": "2023-01-25T14:51:19.000",
    "date_modified": "2023-01-25T14:51:19.000",
    "request_status": "Pending",
    "responsible_agency": "Department of Public Works",
    "final_address": "4830 Bienville Ave",
    "address_councildis": "A",
    "status": "Assigned to Contractor",
    "contractor": "Legacy Professional Services",
    "rowid": "970334",
    "final_x": "3669047.80014",
    "final_y": "540820.952075",
    "longitude": "-90.10707570094182",
    "latitude": "29.98144239903475",
    "geocoded_column": {
      "latitude": "29.98144239903475",
      "longitude": "-90.10707570094182"
    }
  },
  {
    "service_request": "2023-970333",
    "request_type": "Trash/Recycling",
    "request_reason": "Order Trash Cart",
    "date_created": "2023-01-25T14:50:27.000",
    "date_modified": "2023-01-25T14:50:28.000",
    "request_status": "Pending",
    "responsible_agency": "Department of Sanitation",
    "final_address": "3315 Mistletoe St",
    "address_councildis": "A",
    "status": "Assigned to Contractor",
    "contractor": "Richards Disposal",
    "rowid": "970333",
    "final_x": "3664272.14503",
    "final_y": "536594.927879",
    "longitude": "-90.12230056068212",
    "latitude": "29.96996190506129",
    "geocoded_column": {
      "latitude": "29.96996190506129",
      "longitude": "-90.12230056068212"
    }
  },
  {
    "service_request": "2023-970332",
    "request_type": "Trash/Recycling",
    "request_reason": "Order Trash Cart",
    "date_created": "2023-01-25T14:50:08.000",
    "date_modified": "2023-01-25T14:50:08.000",
    "request_status": "Pending",
    "responsible_agency": "Department of Sanitation",
    "final_address": "3313 Mistletoe St",
    "address_councildis": "A",
    "status": "Assigned to Contractor",
    "contractor": "Richards Disposal",
    "rowid": "970332",
    "final_x": "3664262.68301",
    "final_y": "536586.575239",
    "longitude": "-90.12233072158425",
    "latitude": "29.969939213035214",
    "geocoded_column": {
      "latitude": "29.969939213035214",
      "longitude": "-90.12233072158425"
    }
  },
  {
    "service_request": "2023-970331",
    "request_type": "Traffic Signals/Signs/Striping/Streetlights",
    "request_reason": "Street Light Outage/Malfunction",
    "date_created": "2023-01-25T14:49:46.000",
    "date_modified": "2023-01-25T14:49:47.000",
    "request_status": "Pending",
    "responsible_agency": "Department of Public Works",
    "final_address": "4804 Bienville Ave",
    "address_councildis": "A",
    "status": "Assigned to Contractor",
    "contractor": "Legacy Professional Services",
    "rowid": "970331",
    "final_x": "3669227.44026",
    "final_y": "540691.061835",
    "longitude": "-90.10651270539435",
    "latitude": "29.981079957553476",
    "geocoded_column": {
      "latitude": "29.981079957553476",
      "longitude": "-90.10651270539435"
    }
  },
  {
    "service_request": "2023-970330",
    "request_type": "Trash/Recycling",
    "request_reason": "Order Trash Cart",
    "date_created": "2023-01-25T14:44:48.000",
    "date_modified": "2023-01-25T14:44:49.000",
    "request_status": "Pending",
    "responsible_agency": "Department of Sanitation",
    "final_address": "6437 Colbert St",
    "address_councildis": "A",
    "status": "Assigned to Contractor",
    "contractor": "IV Waste",
    "rowid": "970330",
    "final_x": "3667789.50964",
    "final_y": "550441.300308",
    "longitude": "-90.110725763463",
    "latitude": "30.007932018987766",
    "geocoded_column": {
      "latitude": "30.007932018987766",
      "longitude": "-90.110725763463"
    }
  },
  {
    "service_request": "2023-970329",
    "request_type": "Trash/Recycling",
    "request_reason": "Order Trash Cart",
    "date_created": "2023-01-25T14:40:03.000",
    "date_modified": "2023-01-25T14:40:04.000",
    "request_status": "Pending",
    "responsible_agency": "Department of Sanitation",
    "final_address": "4712 N Robertson St B",
    "address_councildis": "E",
    "status": "Assigned to Contractor",
    "contractor": "Waste Pro",
    "rowid": "970329",
    "final_x": "3695184.46986",
    "final_y": "536013.496391",
    "longitude": "-90.02469785930398",
    "latitude": "29.96742862407662",
    "geocoded_column": {
      "latitude": "29.96742862407662",
      "longitude": "-90.02469785930398"
    }
  },
  {
    "service_request": "2023-970328",
    "request_type": "Abandoned Vehicles",
    "request_reason": "Abandoned/Junk Vehicles",
    "date_created": "2023-01-25T14:38:04.000",
    "date_modified": "2023-01-25T14:38:04.000",
    "request_status": "Pending",
    "responsible_agency": "Department of Public Works",
    "final_address": "300 BLK N Cortez St",
    "address_councildis": "A",
    "status": "Pending",
    "rowid": "970328",
    "final_x": "3672666.60509",
    "final_y": "538379.389236",
    "longitude": "-90.09572911536118",
    "latitude": "29.974621948468553",
    "geocoded_column": {
      "latitude": "29.974621948468553",
      "longitude": "-90.09572911536118"
    }
  },
  {
    "service_request": "2023-970327",
    "request_type": "Trash/Recycling",
    "request_reason": "Order Trash Cart",
    "date_created": "2023-01-25T14:33:06.000",
    "date_modified": "2023-01-25T14:33:07.000",
    "request_status": "Pending",
    "responsible_agency": "Department of Sanitation",
    "final_address": "2936 Dublin St",
    "address_councildis": "A",
    "status": "Assigned to Contractor",
    "contractor": "Richards Disposal",
    "rowid": "970327",
    "final_x": "3665990.24935",
    "final_y": "533376.214276",
    "longitude": "-90.11698250338773",
    "latitude": "29.961061463830443",
    "geocoded_column": {
      "latitude": "29.961061463830443",
      "longitude": "-90.11698250338773"
    }
  },
  {
    "service_request": "2023-970326",
    "request_type": "Trash/Recycling",
    "request_reason": "Request a Large Item Pick Up",
    "date_created": "2023-01-25T14:32:16.000",
    "date_modified": "2023-01-25T14:32:17.000",
    "request_status": "Pending",
    "responsible_agency": "Department of Sanitation",
    "final_address": "3637 Desaix Blvd",
    "address_councildis": "D",
    "status": "Assigned to Contractor",
    "contractor": "IV Waste",
    "rowid": "970326",
    "final_x": "3675467.35681",
    "final_y": "543794.89915",
    "longitude": "-90.08669756441621",
    "latitude": "29.989429259283128",
    "geocoded_column": {
      "latitude": "29.989429259283128",
      "longitude": "-90.08669756441621"
    }
  },
  {
    "service_request": "2023-970324",
    "request_type": "Abandoned Vehicles",
    "request_reason": "Abandoned/Junk Vehicles",
    "date_created": "2023-01-25T14:29:24.000",
    "date_modified": "2023-01-25T14:29:24.000",
    "request_status": "Pending",
    "responsible_agency": "Department of Public Works",
    "final_address": "8807 S Claiborne Ave",
    "address_councildis": "A",
    "status": "Pending",
    "rowid": "970324",
    "final_x": "3663044.92135",
    "final_y": "533388.878852",
    "longitude": "-90.12628293060797",
    "latitude": "29.961181928829376",
    "geocoded_column": {
      "latitude": "29.961181928829376",
      "longitude": "-90.12628293060797"
    }
  },
  {
    "service_request": "2023-970323",
    "request_type": "Trash/Recycling",
    "request_reason": "Request a Large Item Pick Up",
    "date_created": "2023-01-25T14:29:21.000",
    "date_modified": "2023-01-25T14:29:22.000",
    "request_status": "Pending",
    "responsible_agency": "Department of Sanitation",
    "final_address": "4972 Nottingham Dr",
    "address_councildis": "E",
    "status": "Assigned to Contractor",
    "contractor": "Waste Pro",
    "rowid": "970323",
    "final_x": "3716198.98386",
    "final_y": "558064.599515",
    "longitude": "-89.957498283125",
    "latitude": "30.027383988667037",
    "geocoded_column": {
      "latitude": "30.027383988667037",
      "longitude": "-89.957498283125"
    }
  },
  {
    "service_request": "2023-970322",
    "request_type": "Trash/Recycling",
    "request_reason": "Order Recycling Cart",
    "date_created": "2023-01-25T14:25:05.000",
    "date_modified": "2023-01-25T14:25:06.000",
    "request_status": "Pending",
    "responsible_agency": "Department of Sanitation",
    "final_address": "4827 Schindler Dr",
    "address_councildis": "E",
    "status": "Pending",
    "rowid": "970322",
    "final_x": "3714368.13445",
    "final_y": "557057.43945",
    "longitude": "-89.96332160103171",
    "latitude": "30.024675017190695",
    "geocoded_column": {
      "latitude": "30.024675017190695",
      "longitude": "-89.96332160103171"
    }
  },
  {
    "service_request": "2023-970321",
    "request_type": "Roads/Drainage",
    "request_reason": "Catch Basin - Broken/Damage",
    "date_created": "2023-01-25T14:24:50.000",
    "date_modified": "2023-01-25T14:24:50.000",
    "request_status": "Pending",
    "responsible_agency": "Department of Public Works",
    "final_address": "2123 Cambronne St",
    "address_councildis": "A",
    "status": "Pending",
    "rowid": "970321",
    "final_x": "3663443.70176",
    "final_y": "531547.111171",
    "longitude": "-90.12508497547998",
    "latitude": "29.95610611034164",
    "geocoded_column": {
      "latitude": "29.95610611034164",
      "longitude": "-90.12508497547998"
    }
  },
  {
    "service_request": "2023-970320",
    "request_type": "Trash/Recycling",
    "request_reason": "MIssed Recycling Pick-Up",
    "date_created": "2023-01-25T14:22:47.000",
    "date_modified": "2023-01-25T14:23:51.000",
    "request_status": "Pending",
    "responsible_agency": "Department of Sanitation",
    "final_address": "2929 Cambronne St",
    "address_councildis": "A",
    "status": "Assigned to Contractor",
    "contractor": "Richards Disposal",
    "rowid": "970320",
    "final_x": "3665474.91207",
    "final_y": "533772.949061",
    "longitude": "-90.1185965688917",
    "latitude": "29.962167386190533",
    "geocoded_column": {
      "latitude": "29.962167386190533",
      "longitude": "-90.1185965688917"
    }
  },
  {
    "service_request": "2023-970319",
    "request_type": "Trash/Recycling",
    "request_reason": "MIssed Recycling Pick-Up",
    "date_created": "2023-01-25T14:22:01.000",
    "date_modified": "2023-01-25T14:22:02.000",
    "request_status": "Pending",
    "responsible_agency": "Department of Sanitation",
    "final_address": "2833 S Liberty St",
    "address_councildis": "B",
    "status": "Assigned to Contractor",
    "contractor": "Richards Disposal",
    "rowid": "970319",
    "final_x": "3674286.65134",
    "final_y": "524479.15078",
    "longitude": "-90.09108854333479",
    "latitude": "29.936352710840243",
    "geocoded_column": {
      "latitude": "29.936352710840243",
      "longitude": "-90.09108854333479"
    }
  },
  {
    "service_request": "2023-970318",
    "request_type": "Trash/Recycling",
    "request_reason": "Return Recycling Cart",
    "date_created": "2023-01-25T14:20:20.000",
    "date_modified": "2023-01-25T14:20:39.000",
    "request_status": "Pending",
    "responsible_agency": "Department of Sanitation",
    "final_address": "7541 Briarheath Dr",
    "address_councildis": "E",
    "rowid": "970318",
    "final_x": "3714914.68735",
    "final_y": "566751.645731",
    "longitude": "-89.96122779905973",
    "latitude": "30.051312200476033",
    "geocoded_column": {
      "latitude": "30.051312200476033",
      "longitude": "-89.96122779905973"
    }
  },
  {
    "service_request": "2023-970317",
    "request_type": "Traffic Signals/Signs/Striping/Streetlights",
    "request_reason": "Street Light Outage/Malfunction",
    "date_created": "2023-01-25T14:19:57.000",
    "date_modified": "2023-01-25T14:20:40.000",
    "request_status": "Pending",
    "responsible_agency": "Department of Public Works",
    "final_address": "N DERBIGNY ST & CLOUET ST",
    "address_councildis": "D",
    "status": "Assigned to Contractor",
    "contractor": "Legacy Professional Services",
    "rowid": "970317",
    "final_x": "3689557.0",
    "final_y": "538243.18",
    "longitude": "-90.04239012071231",
    "latitude": "29.97373498968679",
    "geocoded_column": {
      "latitude": "29.97373498968679",
      "longitude": "-90.04239012071231"
    }
  },
  {
    "service_request": "2023-970316",
    "request_type": "Abandoned Vehicles",
    "request_reason": "Abandoned/Junk Vehicles",
    "date_created": "2023-01-25T14:19:17.000",
    "date_modified": "2023-01-25T14:19:17.000",
    "request_status": "Pending",
    "responsible_agency": "Department of Public Works",
    "final_address": "4100 St Charles Ave",
    "address_councildis": "B",
    "status": "Pending",
    "rowid": "970316",
    "final_x": "3671889.68308",
    "final_y": "520870.924729",
    "longitude": "-90.09877860355118",
    "latitude": "29.92650248798185",
    "geocoded_column": {
      "latitude": "29.92650248798185",
      "longitude": "-90.09877860355118"
    }
  },
  {
    "service_request": "2023-970315",
    "request_type": "Abandoned Vehicles",
    "request_reason": "Abandoned/Junk Vehicles",
    "date_created": "2023-01-25T14:19:11.000",
    "date_modified": "2023-01-25T14:21:20.000",
    "request_status": "Pending",
    "responsible_agency": "Department of Public Works",
    "final_address": "1219 Poland Ave",
    "address_councildis": "D",
    "status": "Pending",
    "rowid": "970315",
    "final_x": "3693233.59369",
    "final_y": "535514.436934",
    "longitude": "-90.03087664834719",
    "latitude": "29.966117506310955",
    "geocoded_column": {
      "latitude": "29.966117506310955",
      "longitude": "-90.03087664834719"
    }
  },
  {
    "service_request": "2023-970314",
    "request_type": "Trash/Recycling",
    "request_reason": "Order Recycling Cart",
    "date_created": "2023-01-25T14:15:51.000",
    "date_modified": "2023-01-25T14:15:52.000",
    "request_status": "Pending",
    "responsible_agency": "Department of Sanitation",
    "final_address": "7812 Hickman St",
    "address_councildis": "E",
    "status": "Pending",
    "rowid": "970314",
    "final_x": "3705788.56913",
    "final_y": "563807.772513",
    "longitude": "-89.99018131766108",
    "latitude": "30.043515048904457",
    "geocoded_column": {
      "latitude": "30.043515048904457",
      "longitude": "-89.99018131766108"
    }
  },
  {
    "service_request": "2023-970313",
    "request_type": "Trash/Recycling",
    "request_reason": "Order Trash Cart",
    "date_created": "2023-01-25T14:15:12.000",
    "date_modified": "2023-01-25T14:15:13.000",
    "request_status": "Pending",
    "responsible_agency": "Department of Sanitation",
    "final_address": "7812 Hickman St",
    "address_councildis": "E",
    "status": "Assigned to Contractor",
    "contractor": "Waste Pro",
    "rowid": "970313",
    "final_x": "3705788.56913",
    "final_y": "563807.772513",
    "longitude": "-89.99018131766108",
    "latitude": "30.043515048904457",
    "geocoded_column": {
      "latitude": "30.043515048904457",
      "longitude": "-89.99018131766108"
    }
  },
  {
    "service_request": "2023-970312",
    "request_type": "Abandoned Vehicles",
    "request_reason": "Abandoned/Junk Vehicles",
    "date_created": "2023-01-25T14:14:39.000",
    "date_modified": "2023-01-25T14:16:15.000",
    "request_status": "Pending",
    "responsible_agency": "Department of Public Works",
    "final_address": "PATTERSON DR & LENNOX CT",
    "address_councildis": "C",
    "status": "Pending",
    "rowid": "970312",
    "final_x": "3706656.7",
    "final_y": "521559.28",
    "longitude": "-89.98900420112363",
    "latitude": "29.927319448856764",
    "geocoded_column": {
      "latitude": "29.927319448856764",
      "longitude": "-89.98900420112363"
    }
  },
  {
    "service_request": "2023-970311",
    "request_type": "Trash/Recycling",
    "request_reason": "Replace Trash Cart",
    "date_created": "2023-01-25T14:12:53.000",
    "date_modified": "2023-01-25T14:12:54.000",
    "request_status": "Pending",
    "responsible_agency": "Department of Sanitation",
    "final_address": "9014 Palm St",
    "address_councildis": "A",
    "status": "Assigned to Contractor",
    "contractor": "Richards Disposal",
    "rowid": "970311",
    "final_x": "3665243.29383",
    "final_y": "536899.421256",
    "longitude": "-90.11922337601574",
    "latitude": "29.970770902580796",
    "geocoded_column": {
      "latitude": "29.970770902580796",
      "longitude": "-90.11922337601574"
    }
  },
  {
    "service_request": "2023-970310",
    "request_type": "Roads/Drainage",
    "request_reason": "Pothole",
    "date_created": "2023-01-25T14:10:41.000",
    "date_modified": "2023-01-25T14:10:41.000",
    "request_status": "Pending",
    "responsible_agency": "Department of Public Works",
    "final_address": "1702 Cambronne St",
    "address_councildis": "A",
    "status": "Pending",
    "rowid": "970310",
    "final_x": "3662347.30919",
    "final_y": "530459.34445",
    "longitude": "-90.12858314079769",
    "latitude": "29.953146846886618",
    "geocoded_column": {
      "latitude": "29.953146846886618",
      "longitude": "-90.12858314079769"
    }
  },
  {
    "service_request": "2023-970309",
    "request_type": "Trash/Recycling",
    "request_reason": "Repair Trash Cart",
    "date_created": "2023-01-25T14:10:02.000",
    "date_modified": "2023-01-25T14:10:03.000",
    "request_status": "Pending",
    "responsible_agency": "Department of Sanitation",
    "final_address": "1931 Columbus St",
    "address_councildis": "D",
    "status": "Assigned to Contractor",
    "contractor": "IV Waste",
    "rowid": "970309",
    "final_x": "3680685.75458",
    "final_y": "538028.937289",
    "longitude": "-90.07041488518153",
    "latitude": "29.973417732359565",
    "geocoded_column": {
      "latitude": "29.973417732359565",
      "longitude": "-90.07041488518153"
    }
  },
  {
    "service_request": "2023-970308",
    "request_type": "Roads/Drainage",
    "request_reason": "Pothole",
    "date_created": "2023-01-25T14:09:50.000",
    "date_modified": "2023-01-25T14:09:50.000",
    "request_status": "Pending",
    "responsible_agency": "Department of Public Works",
    "final_address": "7038 Milne Blvd",
    "address_councildis": "A",
    "status": "Pending",
    "rowid": "970308",
    "final_x": "3667599.45057",
    "final_y": "554356.155928",
    "longitude": "-90.1111943012857",
    "latitude": "30.01870207170555",
    "geocoded_column": {
      "latitude": "30.01870207170555",
      "longitude": "-90.1111943012857"
    }
  },
  {
    "service_request": "2023-970307",
    "request_type": "Trash/Recycling",
    "request_reason": "Replace Trash Cart",
    "date_created": "2023-01-25T14:04:41.000",
    "date_modified": "2023-01-25T14:04:43.000",
    "request_status": "Pending",
    "responsible_agency": "Department of Sanitation",
    "final_address": "3627 Dearmas St",
    "address_councildis": "C",
    "status": "Assigned to Contractor",
    "contractor": "Richards Disposal",
    "rowid": "970307",
    "final_x": "3697468.45123",
    "final_y": "526902.97139",
    "longitude": "-90.01781536277576",
    "latitude": "29.942305969824886",
    "geocoded_column": {
      "latitude": "29.942305969824886",
      "longitude": "-90.01781536277576"
    }
  },
  {
    "service_request": "2023-970306",
    "request_type": "Roads/Drainage",
    "request_reason": "Alley Way",
    "date_created": "2023-01-25T14:04:06.000",
    "date_modified": "2023-01-25T14:04:06.000",
    "request_status": "Pending",
    "responsible_agency": "Department of Public Works",
    "final_address": "5870 Catina St",
    "address_councildis": "A",
    "status": "Pending",
    "rowid": "970306",
    "final_x": "3666694.51617",
    "final_y": "546993.308689",
    "longitude": "-90.11430107990954",
    "latitude": "29.99848331573903",
    "geocoded_column": {
      "latitude": "29.99848331573903",
      "longitude": "-90.11430107990954"
    }
  },
  {
    "service_request": "2023-970305",
    "request_type": "Trash/Recycling",
    "request_reason": "Order Trash Cart",
    "date_created": "2023-01-25T14:03:34.000",
    "date_modified": "2023-01-25T14:03:35.000",
    "request_status": "Pending",
    "responsible_agency": "Department of Sanitation",
    "final_address": "50 Marywood Ct",
    "address_councildis": "E",
    "status": "Assigned to Contractor",
    "contractor": "Waste Pro",
    "rowid": "970305",
    "final_x": "3712193.67134",
    "final_y": "567000.374756",
    "longitude": "-89.96981860068878",
    "latitude": "30.052085414715172",
    "geocoded_column": {
      "latitude": "30.052085414715172",
      "longitude": "-89.96981860068878"
    }
  },
  {
    "service_request": "2023-970304",
    "request_type": "Roads/Drainage",
    "request_reason": "Pothole",
    "date_created": "2023-01-25T14:00:47.000",
    "date_modified": "2023-01-25T14:00:47.000",
    "request_status": "Pending",
    "responsible_agency": "Department of Public Works",
    "final_address": "5017 Chestnut St",
    "address_councildis": "B",
    "status": "Pending",
    "rowid": "970304",
    "final_x": "3668517.54702",
    "final_y": "519370.501623",
    "longitude": "-90.10947412553334",
    "latitude": "29.922476270966378",
    "geocoded_column": {
      "latitude": "29.922476270966378",
      "longitude": "-90.10947412553334"
    }
  },
  {
    "service_request": "2023-970303",
    "request_type": "Trash/Recycling",
    "request_reason": "Replace Trash Cart",
    "date_created": "2023-01-25T13:58:58.000",
    "date_modified": "2023-01-25T13:58:59.000",
    "request_status": "Pending",
    "responsible_agency": "Department of Sanitation",
    "final_address": "13016 Biscay St",
    "address_councildis": "E",
    "status": "Assigned to Contractor",
    "contractor": "Waste Pro",
    "rowid": "970303",
    "final_x": "3723844.23359",
    "final_y": "561521.446495",
    "longitude": "-89.93320680600559",
    "latitude": "30.036634280713503",
    "geocoded_column": {
      "latitude": "30.036634280713503",
      "longitude": "-89.93320680600559"
    }
  },
  {
    "service_request": "2023-970302",
    "request_type": "Trash/Recycling",
    "request_reason": "Request a Large Item Pick Up",
    "date_created": "2023-01-25T13:57:19.000",
    "date_modified": "2023-01-25T13:57:19.000",
    "request_status": "Pending",
    "responsible_agency": "Department of Sanitation",
    "final_address": "228 N Murat St",
    "address_councildis": "A",
    "status": "Assigned to Contractor",
    "contractor": "Richards Disposal",
    "rowid": "970302",
    "final_x": "3670152.56564",
    "final_y": "539931.311306",
    "longitude": "-90.10361648847163",
    "latitude": "29.97896363346918",
    "geocoded_column": {
      "latitude": "29.97896363346918",
      "longitude": "-90.10361648847163"
    }
  },
  {
    "service_request": "2023-970301",
    "request_type": "Property Maintenance",
    "request_reason": "Property Maintenance",
    "date_created": "2023-01-25T13:55:32.000",
    "date_modified": "2023-01-25T13:56:51.000",
    "request_status": "Pending",
    "responsible_agency": "Department of Code Enforcement",
    "final_address": "7260 Voyageur Ct",
    "address_councildis": "E",
    "status": "Pending",
    "rowid": "970301",
    "final_x": "3726256.3936",
    "final_y": "568909.851365",
    "longitude": "-89.92529707527724",
    "latitude": "30.056868047199657",
    "geocoded_column": {
      "latitude": "30.056868047199657",
      "longitude": "-89.92529707527724"
    }
  },
  {
    "service_request": "2023-970300",
    "request_type": "Trash/Recycling",
    "request_reason": "Replace Trash Cart",
    "date_created": "2023-01-25T13:53:39.000",
    "date_modified": "2023-01-25T13:53:39.000",
    "request_status": "Pending",
    "responsible_agency": "Department of Sanitation",
    "final_address": "2605 Washington Ave",
    "address_councildis": "B",
    "status": "Assigned to Contractor",
    "contractor": "Richards Disposal",
    "rowid": "970300",
    "final_x": "3673920.06734",
    "final_y": "525629.782781",
    "longitude": "-90.09220651676564",
    "latitude": "29.939527496326303",
    "geocoded_column": {
      "latitude": "29.939527496326303",
      "longitude": "-90.09220651676564"
    }
  },
  {
    "service_request": "2023-970299",
    "request_type": "Trash/Recycling",
    "request_reason": "Repair Trash Cart",
    "date_created": "2023-01-25T13:49:22.000",
    "date_modified": "2023-01-25T13:49:23.000",
    "request_status": "Pending",
    "responsible_agency": "Department of Sanitation",
    "final_address": "7530 Tricia Ct",
    "address_councildis": "E",
    "status": "Assigned to Contractor",
    "contractor": "Waste Pro",
    "rowid": "970299",
    "final_x": "3717972.5109",
    "final_y": "570625.429863",
    "longitude": "-89.95141547020961",
    "latitude": "30.06186246729532",
    "geocoded_column": {
      "latitude": "30.06186246729532",
      "longitude": "-89.95141547020961"
    }
  },
  {
    "service_request": "2023-970298",
    "request_type": "Abandoned Vehicles",
    "request_reason": "Abandoned/Junk Vehicles",
    "date_created": "2023-01-25T13:44:02.000",
    "date_modified": "2023-01-25T13:44:03.000",
    "request_status": "Pending",
    "responsible_agency": "Department of Public Works",
    "final_address": "1040 Montegut St",
    "address_councildis": "C",
    "status": "Pending",
    "rowid": "970298",
    "final_x": "3688379.06857",
    "final_y": "536038.046215",
    "longitude": "-90.04618850466305",
    "latitude": "29.9677080834166",
    "geocoded_column": {
      "latitude": "29.9677080834166",
      "longitude": "-90.04618850466305"
    }
  },
  {
    "service_request": "2023-970296",
    "request_type": "Traffic Signals/Signs/Striping/Streetlights",
    "request_reason": "Street Light Outage/Malfunction",
    "date_created": "2023-01-25T13:41:43.000",
    "date_modified": "2023-01-25T13:41:44.000",
    "request_status": "Pending",
    "responsible_agency": "Department of Public Works",
    "final_address": "1732 Benefit St",
    "address_councildis": "D",
    "status": "Assigned to Contractor",
    "contractor": "Legacy Professional Services",
    "rowid": "970296",
    "final_x": "3680834.594",
    "final_y": "544080.280974",
    "longitude": "-90.0697340648713",
    "latitude": "29.99005230473008",
    "geocoded_column": {
      "latitude": "29.99005230473008",
      "longitude": "-90.0697340648713"
    }
  },
  {
    "service_request": "2023-970295",
    "request_type": "Abandoned Vehicles",
    "request_reason": "Abandoned/Junk Vehicles",
    "date_created": "2023-01-25T13:36:49.000",
    "date_modified": "2023-01-25T13:36:49.000",
    "request_status": "Pending",
    "responsible_agency": "Department of Public Works",
    "final_address": "513 Warrington Dr",
    "address_councildis": "D",
    "status": "Pending",
    "rowid": "970295",
    "final_x": "3681296.1702",
    "final_y": "548609.985107",
    "longitude": "-90.06811808191462",
    "latitude": "30.002493377826603",
    "geocoded_column": {
      "latitude": "30.002493377826603",
      "longitude": "-90.06811808191462"
    }
  },