[
  {
    "service_request": "2025-1244995",
    "request_type": "Trash/Recycling",
    "request_reason": "Order Trash Cart",
    "date_created": "2025-12-10T22:56:05.000",
    "date_modified": "2025-12-10T22:56:07.000",
    "request_status": "Pending",
    "responsible_agency": "Department of Sanitation",
    "final_address": "4512 Freret St Apt 204",
    "address_councildis": "B",
    "status": "Assigned to Contractor",
    "contractor": "IV Waste",
    "rowid": "1244995",
    "final_x": "3670006.98478",
    "final_y": "523936.293692",
    "longitude": "-90.10461801247105",
    "latitude": "29.93498691239205",
    "geocoded_column": {
      "latitude": "29.93498691239205",
      "longitude": "-90.10461801247105"
    }
  },
  {
    "service_request": "2025-1244994",
    "request_type": "Trash/Recycling",
    "request_reason": "MIssed Recycling Pick-Up",
    "date_created": "2025-12-10T22:53:00.000",
    "date_modified": "2025-12-10T22:53:02.000",
    "request_status": "Pending",
    "responsible_agency": "Department of Sanitation",
    "final_address": "6226 Providence Pl",
    "address_councildis": "D",
    "status": "Assigned to Contractor",
    "contractor": "IV Waste",
    "rowid": "1244994",
    "final_x": "3688255.11503",
    "final_y": "556237.102362",
    "longitude": "-90.04586321576429",
    "latitude": "30.023252026175683",
    "geocoded_column": {
      "latitude": "30.023252026175683",
      "longitude": "-90.04586321576429"
    }
  },
  {
    "service_request": "2025-1244993",
    "request_type": "Health Related Request",
    "request_reason": "Noise Ordinance Complaint",
    "date_created": "2025-12-10T21:36:12.000",
    "date_modified": "2025-12-10T21:36:14.000",
    "request_status": "Pending",
    "responsible_agency": "Health Department",
    "final_address": "1906 Magazine St, New Orleans, Louisiana, 70130",
    "address_councildis": "B",
    "status": "Pending",
    "rowid": "1244993",
    "final_x": "3679728.28987",
    "final_y": "522728.293498",
    "longitude": "-90.07396985782103",
    "latitude": "29.931375092629494",
    "geocoded_column": {
      "latitude": "29.931375092629494",
      "longitude": "-90.07396985782103"
    }
  },
  {
    "service_request": "2025-1244992",
    "request_type": "Abandoned Vehicles",
    "request_reason": "Abandoned/Junk Vehicles",
    "date_created": "2025-12-10T20:53:46.000",
    "date_modified": "2025-12-10T20:53:48.000",
    "request_status": "Pending",
    "responsible_agency": "Department of Public Works",
    "final_address": "6311 St Roch Ave",
    "address_councildis": "D",
    "status": "Pending",
    "rowid": "1244992",
    "final_x": "3684975.02524",
    "final_y": "556467.65385",
    "longitude": "-90.05621945734437",
    "latitude": "30.0239868878123",
    "geocoded_column": {
      "latitude": "30.0239868878123",
      "longitude": "-90.05621945734437"
    }
  },
  {
    "service_request": "2025-1244991",
    "request_type": "Trash/Recycling",
    "request_reason": "Request a Large Item Pick Up",
    "date_created": "2025-12-10T20:10:35.000",
    "date_modified": "2025-12-10T20:10:37.000",
    "request_status": "Pending",
    "responsible_agency": "Department of Sanitation",
    "final_address": "3604 Palmyra St",
    "address_councildis": "B",
    "status": "Assigned to Contractor",
    "contractor": "IV Waste",
    "rowid": "1244991",
    "final_x": "3672003.30817",
    "final_y": "536547.514951",
    "longitude": "-90.09788635369412",
    "latitude": "29.969604595165293",
    "geocoded_column": {
      "latitude": "29.969604595165293",
      "longitude": "-90.09788635369412"
    }
  },
  {
    "service_request": "2025-1244989",
    "request_type": "Trash/Recycling",
    "request_reason": "Request a Large Item Pick Up",
    "date_created": "2025-12-10T19:20:17.000",
    "date_modified": "2025-12-10T19:20:18.000",
    "request_status": "Pending",
    "responsible_agency": "Department of Sanitation",
    "final_address": "4433 Annunciation St",
    "address_councildis": "B",
    "status": "Assigned to Contractor",
    "contractor": "IV Waste",
    "rowid": "1244989",
    "final_x": "3670825.7746",
    "final_y": "517754.372086",
    "longitude": "-90.10224277667008",
    "latitude": "29.91796443537043",
    "geocoded_column": {
      "latitude": "29.91796443537043",
      "longitude": "-90.10224277667008"
    }
  },
  {
    "service_request": "2025-1244988",
    "request_type": "Trash/Recycling",
    "request_reason": "Request a Large Item Pick Up",
    "date_created": "2025-12-10T19:16:15.000",
    "date_modified": "2025-12-10T19:16:17.000",
    "request_status": "Pending",
    "responsible_agency": "Department of Sanitation",
    "final_address": "1711 Milan St",
    "address_councildis": "B",
    "status": "Assigned to Contractor",
    "contractor": "IV Waste",
    "rowid": "1244988",
    "final_x": "3671586.28251",
    "final_y": "521441.770361",
    "longitude": "-90.09971695679681",
    "latitude": "29.92808111550677",
    "geocoded_column": {
      "latitude": "29.92808111550677",
      "longitude": "-90.09971695679681"
    }
  },
  {
    "service_request": "2025-1244987",
    "request_type": "Trash/Recycling",
    "request_reason": "Request a Large Item Pick Up",
    "date_created": "2025-12-10T18:57:52.000",
    "date_modified": "2025-12-10T18:57:54.000",
    "request_status": "Pending",
    "responsible_agency": "Department of Sanitation",
    "final_address": "500 Hillary St",
    "address_councildis": "A",
    "status": "Assigned to Contractor",
    "contractor": "IV Waste",
    "rowid": "1244987",
    "final_x": "3661652.97331",
    "final_y": "525410.668797",
    "longitude": "-90.1309428463612",
    "latitude": "29.93928465649899",
    "geocoded_column": {
      "latitude": "29.93928465649899",
      "longitude": "-90.1309428463612"
    }
  },
  {
    "service_request": "2025-1244986",
    "request_type": "Abandoned Vehicles",
    "request_reason": "Abandoned/Junk Vehicles",
    "date_created": "2025-12-10T18:43:35.000",
    "date_modified": "2025-12-10T18:43:36.000",
    "request_status": "Pending",
    "responsible_agency": "Department of Public Works",
    "final_address": "8407 Apple St",
    "address_councildis": "A",
    "status": "Pending",
    "rowid": "1244986",
    "final_x": "3664528.20423",
    "final_y": "532904.783172",
    "longitude": "-90.12161513586608",
    "latitude": "29.9598077766664",
    "geocoded_column": {
      "latitude": "29.9598077766664",
      "longitude": "-90.12161513586608"
    }
  },
  {
    "service_request": "2025-1244985",
    "request_type": "Trash/Recycling",
    "request_reason": "Repair Recycling Cart",
    "date_created": "2025-12-10T18:37:13.000",
    "date_modified": "2025-12-10T18:37:15.000",
    "request_status": "Pending",
    "responsible_agency": "Department of Sanitation",
    "final_address": "4515 S Rocheblave St",
    "address_councildis": "B",
    "status": "Pending",
    "rowid": "1244985",
    "final_x": "3669550.029",
    "final_y": "528463.536128",
    "longitude": "-90.10590752074253",
    "latitude": "29.947448828568124",
    "geocoded_column": {
      "latitude": "29.947448828568124",
      "longitude": "-90.10590752074253"
    }
  },
  {
    "service_request": "2025-1244984",
    "request_type": "Streetlights",
    "request_reason": "Streetlight Outage/Malfunction",
    "date_created": "2025-12-10T18:32:27.000",
    "date_modified": "2025-12-10T18:32:28.000",
    "request_status": "Pending",
    "responsible_agency": "Department of Public Works",
    "final_address": "4209 Canal St",
    "address_councildis": "A",
    "status": "Pending",
    "rowid": "1244984",
    "final_x": "3670571.79899",
    "final_y": "538876.339017",
    "longitude": "-90.10232818232302",
    "latitude": "29.976050439032683",
    "geocoded_column": {
      "latitude": "29.976050439032683",
      "longitude": "-90.10232818232302"
    }
  },
  {
    "service_request": "2025-1244983",
    "request_type": "Abandoned Vehicles",
    "request_reason": "Abandoned/Junk Vehicles",
    "date_created": "2025-12-10T18:08:05.000",
    "date_modified": "2025-12-10T18:08:06.000",
    "request_status": "Pending",
    "responsible_agency": "Department of Public Works",
    "final_address": "3626 Upperline St",
    "address_councildis": "B",
    "status": "Pending",
    "rowid": "1244983",
    "final_x": "3669260.32238",
    "final_y": "528252.769408",
    "longitude": "-90.10682936208244",
    "latitude": "29.946877818743157",
    "geocoded_column": {
      "latitude": "29.946877818743157",
      "longitude": "-90.10682936208244"
    }
  },
  {
    "service_request": "2025-1244982",
    "request_type": "Streetlights",
    "request_reason": "Streetlight Outage/Malfunction",
    "date_created": "2025-12-10T18:03:34.000",
    "date_modified": "2025-12-10T18:03:36.000",
    "request_status": "Pending",
    "responsible_agency": "Department of Public Works",
    "final_address": "1899 Tchoupitoulas St",
    "address_councildis": "B",
    "status": "Pending",
    "rowid": "1244982",
    "final_x": "3681671.31336",
    "final_y": "520932.437497",
    "longitude": "-90.06789858656255",
    "latitude": "29.926378217057515",
    "geocoded_column": {
      "latitude": "29.926378217057515",
      "longitude": "-90.06789858656255"
    }
  },
  {
    "service_request": "2025-1244981",
    "request_type": "Trash/Recycling",
    "request_reason": "Replace Recycling Cart",
    "date_created": "2025-12-10T17:53:59.000",
    "date_modified": "2025-12-10T17:54:01.000",
    "request_status": "Pending",
    "responsible_agency": "Department of Sanitation",
    "final_address": "1437 Calhoun St",
    "address_councildis": "A",
    "status": "Pending",
    "rowid": "1244981",
    "final_x": "3664406.91764",
    "final_y": "521847.104314",
    "longitude": "-90.12236715683007",
    "latitude": "29.92940623543677",
    "geocoded_column": {
      "latitude": "29.92940623543677",
      "longitude": "-90.12236715683007"
    }
  },
  {
    "service_request": "2025-1244980",
    "request_type": "Trash/Recycling",
    "request_reason": "Request a Large Item Pick Up",
    "date_created": "2025-12-10T17:43:09.000",
    "date_modified": "2025-12-10T17:43:11.000",
    "request_status": "Pending",
    "responsible_agency": "Department of Sanitation",
    "final_address": "1422 Lizardi St",
    "address_councildis": "E",
    "status": "Assigned to Contractor",
    "contractor": "Waste Pro",
    "rowid": "1244980",
    "final_x": "3696865.63914",
    "final_y": "535462.294854",
    "longitude": "-90.01940868671616",
    "latitude": "29.965860115338526",
    "geocoded_column": {
      "latitude": "29.965860115338526",
      "longitude": "-90.01940868671616"
    }
  },
  {
    "service_request": "2025-1244979",
    "request_type": "Trash/Recycling",
    "request_reason": "Return Trash Cart",
    "date_created": "2025-12-10T17:36:37.000",
    "date_modified": "2025-12-10T17:36:39.000",
    "request_status": "Pending",
    "responsible_agency": "Department of Sanitation",
    "final_address": "6889 Catina St",
    "address_councildis": "A",
    "status": "Assigned to Contractor",
    "contractor": "IV Waste",
    "rowid": "1244979",
    "final_x": "3667150.44314",
    "final_y": "553463.413847",
    "longitude": "-90.11264305880184",
    "latitude": "30.01626050634867",
    "geocoded_column": {
      "latitude": "30.01626050634867",
      "longitude": "-90.11264305880184"
    }
  },
  {
    "service_request": "2025-1244978",
    "request_type": "Trash/Recycling",
    "request_reason": "Damaged Caused By Contractor",
    "date_created": "2025-12-10T17:13:18.000",
    "date_modified": "2025-12-10T17:13:20.000",
    "request_status": "Pending",
    "responsible_agency": "Department of Sanitation",
    "final_address": "6424 Louis Xiv St",
    "address_councildis": "A",
    "status": "Assigned to Contractor",
    "contractor": "IV Waste",
    "rowid": "1244978",
    "final_x": "3668303.46471",
    "final_y": "550309.427412",
    "longitude": "-90.1091064712375",
    "latitude": "30.007554325857686",
    "geocoded_column": {
      "latitude": "30.007554325857686",
      "longitude": "-90.1091064712375"
    }
  },
  {
    "service_request": "2025-1244977",
    "request_type": "Abandoned Vehicles",
    "request_reason": "Abandoned/Junk Vehicles",
    "date_created": "2025-12-10T16:42:45.000",
    "date_modified": "2025-12-10T16:42:46.000",
    "request_status": "Pending",
    "responsible_agency": "Department of Public Works",
    "final_address": "918 Lyons St",
    "address_councildis": "B",
    "status": "Pending",
    "rowid": "1244977",
    "final_x": "3669157.11969",
    "final_y": "518760.842423",
    "longitude": "-90.10747583566132",
    "latitude": "29.920781101973933",
    "geocoded_column": {
      "latitude": "29.920781101973933",
      "longitude": "-90.10747583566132"
    }
  },
  {
    "service_request": "2025-1244976",
    "request_type": "Trash/Recycling",
    "request_reason": "Illegal Dumping",
    "date_created": "2025-12-10T16:42:31.000",
    "date_modified": "2025-12-10T22:18:00.000",
    "request_status": "Pending",
    "responsible_agency": "Department of Sanitation",
    "final_address": "HARRISON AVE & WISNER BLVD",
    "address_councildis": "A",
    "status": "Pending",
    "rowid": "1244976",
    "final_x": "3675576.82",
    "final_y": "547375.29",
    "longitude": "-90.08622871202311",
    "latitude": "29.99927080703189",
    "geocoded_column": {
      "latitude": "29.99927080703189",
      "longitude": "-90.08622871202311"
    }
  },
  {
    "service_request": "2025-1244975",
    "request_type": "Trash/Recycling",
    "request_reason": "Request a Large Item Pick Up",
    "date_created": "2025-12-10T16:36:14.000",
    "date_modified": "2025-12-10T16:36:17.000",
    "request_status": "Pending",
    "responsible_agency": "Department of Sanitation",
    "final_address": "640 Governor Nicholls St",
    "address_councildis": "C",
    "status": "Assigned to Contractor",
    "contractor": "IV Waste",
    "rowid": "1244975",
    "final_x": "3683706.3558",
    "final_y": "533838.545989",
    "longitude": "-90.06102216212089",
    "latitude": "29.961803716347145",
    "geocoded_column": {
      "latitude": "29.961803716347145",
      "longitude": "-90.06102216212089"
    }
  },
  {
    "service_request": "2025-1244974",
    "request_type": "Trash/Recycling",
    "request_reason": "Missed Trash Pick-Up",
    "date_created": "2025-12-10T16:32:30.000",
    "date_modified": "2025-12-10T16:32:32.000",
    "request_status": "Pending",
    "responsible_agency": "Department of Sanitation",
    "final_address": "9721 Irby St",
    "address_councildis": "E",
    "status": "Assigned to Contractor",
    "contractor": "Waste Pro",
    "rowid": "1244974",
    "final_x": "3707297.29598",
    "final_y": "564941.215522",
    "longitude": "-89.98537099770094",
    "latitude": "30.04658285078905",
    "geocoded_column": {
      "latitude": "30.04658285078905",
      "longitude": "-89.98537099770094"
    }
  },
  {
    "service_request": "2025-1244973",
    "request_type": "Trash/Recycling",
    "request_reason": "Request a Large Item Pick Up",
    "date_created": "2025-12-10T16:32:08.000",
    "date_modified": "2025-12-10T16:32:10.000",
    "request_status": "Pending",
    "responsible_agency": "Department of Sanitation",
    "final_address": "5731 E Louis Prima Dr",
    "address_councildis": "E",
    "status": "Assigned to Contractor",
    "contractor": "Waste Pro",
    "rowid": "1244973",
    "final_x": "3716262.13944",
    "final_y": "562250.220703",
    "longitude": "-89.95713986843228",
    "latitude": "30.03889068000365",
    "geocoded_column": {
      "latitude": "30.03889068000365",
      "longitude": "-89.95713986843228"
    }
  },
  {
    "service_request": "2025-1244972",
    "request_type": "Trash/Recycling",
    "request_reason": "Request a Large Item Pick Up",
    "date_created": "2025-12-10T16:24:31.000",
    "date_modified": "2025-12-10T16:24:33.000",
    "request_status": "Pending",
    "responsible_agency": "Department of Sanitation",
    "final_address": "721 Eighth St",
    "address_councildis": "B",
    "status": "Assigned to Contractor",
    "contractor": "IV Waste",
    "rowid": "1244972",
    "final_x": "3676881.06625",
    "final_y": "519133.622583",
    "longitude": "-90.08308201844969",
    "latitude": "29.921576652739812",
    "geocoded_column": {
      "latitude": "29.921576652739812",
      "longitude": "-90.08308201844969"
    }
  },
  {
    "service_request": "2025-1244971",
    "request_type": "Trash/Recycling",
    "request_reason": "Request a Large Item Pick Up",
    "date_created": "2025-12-10T16:23:20.000",
    "date_modified": "2025-12-10T16:23:23.000",
    "request_status": "Pending",
    "responsible_agency": "Department of Sanitation",
    "final_address": "7406 Scottsdale Dr",
    "address_councildis": "E",
    "status": "Assigned to Contractor",
    "contractor": "Waste Pro",
    "rowid": "1244971",
    "final_x": "3704243.38519",
    "final_y": "561516.535327",
    "longitude": "-89.99514928923045",
    "latitude": "30.037264762253667",
    "geocoded_column": {
      "latitude": "30.037264762253667",
      "longitude": "-89.99514928923045"
    }
  },
  {
    "service_request": "2025-1244970",
    "request_type": "Trash/Recycling",
    "request_reason": "Return Trash Cart",
    "date_created": "2025-12-10T16:21:49.000",
    "date_modified": "2025-12-10T16:21:52.000",
    "request_status": "Pending",
    "responsible_agency": "Department of Sanitation",
    "final_address": "3651 Post Oak Ave",
    "address_councildis": "C",
    "status": "Assigned to Contractor",
    "contractor": "IV Waste",
    "rowid": "1244970",
    "final_x": "3703891.78814",
    "final_y": "514395.539891",
    "longitude": "-89.99799580533414",
    "latitude": "29.90771053669274",
    "geocoded_column": {
      "latitude": "29.90771053669274",
      "longitude": "-89.99799580533414"
    }
  },
  {
    "service_request": "2025-1244969",
    "request_type": "Trash/Recycling",
    "request_reason": "Request a Large Item Pick Up",
    "date_created": "2025-12-10T16:15:26.000",
    "date_modified": "2025-12-10T16:15:27.000",
    "request_status": "Pending",
    "responsible_agency": "Department of Sanitation",
    "final_address": "6852 Glengary Rd",
    "address_councildis": "E",
    "status": "Assigned to Contractor",
    "contractor": "Waste Pro",
    "rowid": "1244969",
    "final_x": "3701597.28196",
    "final_y": "557451.059675",
    "longitude": "-90.00366061435173",
    "latitude": "30.0261709873782",
    "geocoded_column": {
      "latitude": "30.0261709873782",
      "longitude": "-90.00366061435173"
    }
  },
  {
    "service_request": "2025-1244968",
    "request_type": "Streetlights",
    "request_reason": "Streetlight Outage/Malfunction",
    "date_created": "2025-12-10T16:15:06.000",
    "date_modified": "2025-12-10T16:15:08.000",
    "request_status": "Pending",
    "responsible_agency": "Department of Public Works",
    "final_address": "14589 Duane Rd",
    "address_councildis": "E",
    "status": "Pending",
    "rowid": "1244968",
    "final_x": "3721125.04274",
    "final_y": "573595.029866",
    "longitude": "-89.9413363874586",
    "latitude": "30.06992269775349",
    "geocoded_column": {
      "latitude": "30.06992269775349",
      "longitude": "-89.9413363874586"
    }
  },
  {
    "service_request": "2025-1244967",
    "request_type": "Traffic Signals",
    "request_reason": "Traffic Signal Malfunctioning or Damaged",
    "date_created": "2025-12-10T16:13:23.000",
    "date_modified": "2025-12-10T16:13:27.000",
    "request_status": "Pending",
    "responsible_agency": "Department of Public Works",
    "final_address": "SERE ST & ST BERNARD AVE",
    "address_councildis": "D",
    "status": "Pending",
    "rowid": "1244967",
    "final_x": "3678376.5",
    "final_y": "545411.18",
    "longitude": "-90.0774524543106",
    "latitude": "29.993786116016025",
    "geocoded_column": {
      "latitude": "29.993786116016025",
      "longitude": "-90.0774524543106"
    }
  },
  {
    "service_request": "2025-1244966",
    "request_type": "Trash/Recycling",
    "request_reason": "Request a Large Item Pick Up",
    "date_created": "2025-12-10T16:07:00.000",
    "date_modified": "2025-12-10T16:07:02.000",
    "request_status": "Pending",
    "responsible_agency": "Department of Sanitation",
    "final_address": "4635 Gawain Dr",
    "address_councildis": "E",
    "status": "Assigned to Contractor",
    "contractor": "Waste Pro",
    "rowid": "1244966",
    "final_x": "3707122.87665",
    "final_y": "554669.191704",
    "longitude": "-89.9863039009194",
    "latitude": "30.01834446556006",
    "geocoded_column": {
      "latitude": "30.01834446556006",
      "longitude": "-89.9863039009194"
    }
  },
  {
    "service_request": "2025-1244965",
    "request_type": "Health Related Request",
    "request_reason": "Noise Ordinance Complaint",
    "date_created": "2025-12-10T16:05:12.000",
    "date_modified": "2025-12-10T16:05:14.000",
    "request_status": "Pending",
    "responsible_agency": "Health Department",
    "final_address": "4408 Perlita St",
    "address_councildis": "D",
    "status": "Pending",
    "rowid": "1244965",
    "final_x": "3678709.37666",
    "final_y": "548647.972179",
    "longitude": "-90.07628877765946",
    "latitude": "30.00267611287436",
    "geocoded_column": {
      "latitude": "30.00267611287436",
      "longitude": "-90.07628877765946"
    }
  },
  {
    "service_request": "2025-1244964",
    "request_type": "Trash/Recycling",
    "request_reason": "Request a Large Item Pick Up",
    "date_created": "2025-12-10T16:01:53.000",
    "date_modified": "2025-12-10T16:01:54.000",
    "request_status": "Pending",
    "responsible_agency": "Department of Sanitation",
    "final_address": "8543 Dinkins St",
    "address_councildis": "E",
    "status": "Assigned to Contractor",
    "contractor": "Waste Pro",
    "rowid": "1244964",
    "final_x": "3703671.13879",
    "final_y": "562949.009504",
    "longitude": "-89.9969049062209",
    "latitude": "30.041221866392632",
    "geocoded_column": {
      "latitude": "30.041221866392632",
      "longitude": "-89.9969049062209"
    }
  },
  {
    "service_request": "2025-1244963",
    "request_type": "Trash/Recycling",
    "request_reason": "Request a Large Item Pick Up",
    "date_created": "2025-12-10T16:01:35.000",
    "date_modified": "2025-12-10T16:01:36.000",
    "request_status": "Pending",
    "responsible_agency": "Department of Sanitation",
    "final_address": "7000 Mayo Rd",
    "address_councildis": "E",
    "status": "Assigned to Contractor",
    "contractor": "Waste Pro",
    "rowid": "1244963",
    "final_x": "3701546.50289",
    "final_y": "558623.15606",
    "longitude": "-90.00377809398978",
    "latitude": "30.029395419910685",
    "geocoded_column": {
      "latitude": "30.029395419910685",
      "longitude": "-90.00377809398978"
    }
  },
  {
    "service_request": "2025-1244962",
    "request_type": "Trash/Recycling",
    "request_reason": "Request a Large Item Pick Up",
    "date_created": "2025-12-10T16:01:20.000",
    "date_modified": "2025-12-10T16:01:22.000",
    "request_status": "Pending",
    "responsible_agency": "Department of Sanitation",
    "final_address": "4202 S Derbigny St",
    "address_councildis": "B",
    "status": "Assigned to Contractor",
    "contractor": "IV Waste",
    "rowid": "1244962",
    "final_x": "3671006.52052",
    "final_y": "526280.367678",
    "longitude": "-90.10138291576014",
    "latitude": "29.941402846952975",
    "geocoded_column": {
      "latitude": "29.941402846952975",
      "longitude": "-90.10138291576014"
    }
  },
  {
    "service_request": "2025-1244961",
    "request_type": "Roads and Streets",
    "request_reason": "Pothole",
    "date_created": "2025-12-10T15:59:33.000",
    "date_modified": "2025-12-10T15:59:34.000",
    "request_status": "Pending",
    "responsible_agency": "Department of Public Works",
    "final_address": "833 Voisin St",
    "address_councildis": "A",
    "status": "Pending",
    "rowid": "1244961",
    "final_x": "3668883.11348",
    "final_y": "543254.533006",
    "longitude": "-90.10751363010056",
    "latitude": "29.98813876360236",
    "geocoded_column": {
      "latitude": "29.98813876360236",
      "longitude": "-90.10751363010056"
    }
  },
  {
    "service_request": "2025-1244960",
    "request_type": "Trash/Recycling",
    "request_reason": "Request a Large Item Pick Up",
    "date_created": "2025-12-10T15:55:18.000",
    "date_modified": "2025-12-10T15:55:20.000",
    "request_status": "Pending",
    "responsible_agency": "Department of Sanitation",
    "final_address": "1509 Gordon St",
    "address_councildis": "E",
    "status": "Assigned to Contractor",
    "contractor": "Waste Pro",
    "rowid": "1244960",
    "final_x": "3699791.80528",
    "final_y": "534933.782342",
    "longitude": "-90.01018727991112",
    "latitude": "29.96431430885462",
    "geocoded_column": {
      "latitude": "29.96431430885462",
      "longitude": "-90.01018727991112"
    }
  },
  {
    "service_request": "2025-1244959",
    "request_type": "Trash/Recycling",
    "request_reason": "Request a Large Item Pick Up",
    "date_created": "2025-12-10T15:51:38.000",
    "date_modified": "2025-12-10T15:51:41.000",
    "request_status": "Pending",
    "responsible_agency": "Department of Sanitation",
    "final_address": "1012 Jefferson Ave",
    "address_councildis": "A",
    "status": "Assigned to Contractor",
    "contractor": "IV Waste",
    "rowid": "1244959",
    "final_x": "3666781.19469",
    "final_y": "519287.934583",
    "longitude": "-90.11495787901673",
    "latitude": "29.92230011833935",
    "geocoded_column": {
      "latitude": "29.92230011833935",
      "longitude": "-90.11495787901673"
    }
  },
  {
    "service_request": "2025-1244958",
    "request_type": "Traffic Signals",
    "request_reason": "Traffic Signal Malfunctioning or Damaged",
    "date_created": "2025-12-10T15:48:46.000",
    "date_modified": "2025-12-10T15:48:47.000",
    "request_status": "Pending",
    "responsible_agency": "Department of Public Works",
    "final_address": "4068 Tulane Ave",
    "address_councildis": "A",
    "status": "Pending",
    "rowid": "1244958",
    "final_x": "3669355.07086",
    "final_y": "536128.353543",
    "longitude": "-90.10626391643623",
    "latitude": "29.968530287658712",
    "geocoded_column": {
      "latitude": "29.968530287658712",
      "longitude": "-90.10626391643623"
    }
  },
  {
    "service_request": "2025-1244957",
    "request_type": "Roads and Streets",
    "request_reason": "Pothole",
    "date_created": "2025-12-10T15:48:15.000",
    "date_modified": "2025-12-10T15:48:17.000",
    "request_status": "Pending",
    "responsible_agency": "Department of Public Works",
    "final_address": "837 Voisin St",
    "address_councildis": "A",
    "status": "Pending",
    "rowid": "1244957",
    "final_x": "3668921.76974",
    "final_y": "543260.490894",
    "longitude": "-90.10739132589038",
    "latitude": "29.98815400859822",
    "geocoded_column": {
      "latitude": "29.98815400859822",
      "longitude": "-90.10739132589038"
    }
  },
  {
    "service_request": "2025-1244956",
    "request_type": "Roads and Streets",
    "request_reason": "Pothole",
    "date_created": "2025-12-10T15:46:58.000",
    "date_modified": "2025-12-10T15:47:00.000",
    "request_status": "Pending",
    "responsible_agency": "Department of Public Works",
    "final_address": "616 N Murat St",
    "address_councildis": "A",
    "status": "Pending",
    "rowid": "1244956",
    "final_x": "3670918.02862",
    "final_y": "540935.044299",
    "longitude": "-90.10116476731905",
    "latitude": "29.98170094731406",
    "geocoded_column": {
      "latitude": "29.98170094731406",
      "longitude": "-90.10116476731905"
    }
  },
  {
    "service_request": "2025-1244955",
    "request_type": "Roads and Streets",
    "request_reason": "Pothole",
    "date_created": "2025-12-10T15:45:56.000",
    "date_modified": "2025-12-10T15:45:59.000",
    "request_status": "Pending",
    "responsible_agency": "Department of Public Works",
    "final_address": "837 Voisin St",
    "address_councildis": "A",
    "status": "Pending",
    "rowid": "1244955",
    "final_x": "3668921.76974",
    "final_y": "543260.490894",
    "longitude": "-90.10739132589038",
    "latitude": "29.98815400859822",
    "geocoded_column": {
      "latitude": "29.98815400859822",
      "longitude": "-90.10739132589038"
    }
  },
  {
    "service_request": "2025-1244954",
    "request_type": "Trash/Recycling",
    "request_reason": "Request a Large Item Pick Up",
    "date_created": "2025-12-10T15:44:32.000",
    "date_modified": "2025-12-10T15:44:34.000",
    "request_status": "Pending",
    "responsible_agency": "Department of Sanitation",
    "final_address": "1823 Murl St",
    "address_councildis": "C",
    "status": "Assigned to Contractor",
    "contractor": "IV Waste",
    "rowid": "1244954",
    "final_x": "3695298.31818",
    "final_y": "524542.925244",
    "longitude": "-90.02475201647124",
    "latitude": "29.93588498549612",
    "geocoded_column": {
      "latitude": "29.93588498549612",
      "longitude": "-90.02475201647124"
    }
  },
  {
    "service_request": "2025-1244953",
    "request_type": "Abandoned Vehicles",
    "request_reason": "Abandoned/Junk Vehicles",
    "date_created": "2025-12-10T15:43:00.000",
    "date_modified": "2025-12-10T15:43:02.000",
    "request_status": "Pending",
    "responsible_agency": "Department of Public Works",
    "final_address": "2339 St Thomas St",
    "address_councildis": "B",
    "status": "Pending",
    "rowid": "1244953",
    "final_x": "3679386.70306",
    "final_y": "520227.349944",
    "longitude": "-90.0751348987686",
    "latitude": "29.92450863451932",
    "geocoded_column": {
      "latitude": "29.92450863451932",
      "longitude": "-90.0751348987686"
    }
  },
  {
    "service_request": "2025-1244952",
    "request_type": "Trash/Recycling",
    "request_reason": "Request a Large Item Pick Up",
    "date_created": "2025-12-10T15:41:00.000",
    "date_modified": "2025-12-10T15:41:02.000",
    "request_status": "Pending",
    "responsible_agency": "Department of Sanitation",
    "final_address": "1233 Ursulines Ave",
    "address_councildis": "C",
    "status": "Assigned to Contractor",
    "contractor": "IV Waste",
    "rowid": "1244952",
    "final_x": "3681754.21634",
    "final_y": "534991.015814",
    "longitude": "-90.06714648496964",
    "latitude": "29.96503207114525",
    "geocoded_column": {
      "latitude": "29.96503207114525",
      "longitude": "-90.06714648496964"
    }
  },
  {
    "service_request": "2025-1244951",
    "request_type": "Streetlights",
    "request_reason": "Streetlight Outage/Malfunction",
    "date_created": "2025-12-10T15:40:14.000",
    "date_modified": "2025-12-10T15:40:15.000",
    "request_status": "Pending",
    "responsible_agency": "Department of Public Works",
    "final_address": "FRANKLIN AVE & LEON C SIMON DR",
    "address_councildis": "D",
    "status": "Pending",
    "rowid": "1244951",
    "final_x": "3686215.6",
    "final_y": "557350.08",
    "longitude": "-90.05226831351399",
    "latitude": "30.026375154078544",
    "geocoded_column": {
      "latitude": "30.026375154078544",
      "longitude": "-90.05226831351399"
    }
  },
  {
    "service_request": "2025-1244950",
    "request_type": "Trash/Recycling",
    "request_reason": "Order Recycling Cart",
    "date_created": "2025-12-10T15:28:15.000",
    "date_modified": "2025-12-10T15:28:17.000",
    "request_status": "Pending",
    "responsible_agency": "Department of Sanitation",
    "final_address": "521 Governor Nicholls St",
    "address_councildis": "C",
    "status": "Pending",
    "rowid": "1244950",
    "final_x": "3684152.81685",
    "final_y": "533565.455109",
    "longitude": "-90.05962189804484",
    "latitude": "29.96103917158438",
    "geocoded_column": {
      "latitude": "29.96103917158438",
      "longitude": "-90.05962189804484"
    }
  },
  {
    "service_request": "2025-1244949",
    "request_type": "Trash/Recycling",
    "request_reason": "Request a Large Item Pick Up",
    "date_created": "2025-12-10T15:27:20.000",
    "date_modified": "2025-12-10T15:42:43.000",
    "request_status": "Pending",
    "responsible_agency": "Department of Sanitation",
    "final_address": "4993 Wright Rd",
    "address_councildis": "E",
    "status": "Assigned to Contractor",
    "contractor": "Waste Pro",
    "rowid": "1244949",
    "final_x": "3716533.31698",
    "final_y": "558307.1551",
    "longitude": "-89.95643262091579",
    "latitude": "30.028039877255857",
    "geocoded_column": {
      "latitude": "30.028039877255857",
      "longitude": "-89.95643262091579"
    }
  },
  {
    "service_request": "2025-1244948",
    "request_type": "Trash/Recycling",
    "request_reason": "Request a Large Item Pick Up",
    "date_created": "2025-12-10T15:27:18.000",
    "date_modified": "2025-12-10T15:27:20.000",
    "request_status": "Pending",
    "responsible_agency": "Department of Sanitation",
    "final_address": "728 Marigny St",
    "address_councildis": "C",
    "status": "Assigned to Contractor",
    "contractor": "IV Waste",
    "rowid": "1244948",
    "final_x": "3685482.19292",
    "final_y": "535135.428742",
    "longitude": "-90.05536868856711",
    "latitude": "29.965315357354065",
    "geocoded_column": {
      "latitude": "29.965315357354065",
      "longitude": "-90.05536868856711"
    }
  },
  {
    "service_request": "2025-1244947",
    "request_type": "Trash/Recycling",
    "request_reason": "Illegal Dumping",
    "date_created": "2025-12-10T15:24:17.000",
    "date_modified": "2025-12-10T15:24:19.000",
    "request_status": "Pending",
    "responsible_agency": "Department of Sanitation",
    "final_address": "3416 Hollygrove St",
    "address_councildis": "A",
    "status": "Pending",
    "rowid": "1244947",
    "final_x": "3665000.37274",
    "final_y": "536479.289607",
    "longitude": "-90.12000460378756",
    "latitude": "29.96962275496451",
    "geocoded_column": {
      "latitude": "29.96962275496451",
      "longitude": "-90.12000460378756"
    }
  },
  {
    "service_request": "2025-1244946",
    "request_type": "Trash/Recycling",
    "request_reason": "Request a Large Item Pick Up",
    "date_created": "2025-12-10T15:23:16.000",
    "date_modified": "2025-12-10T15:23:18.000",
    "request_status": "Pending",
    "responsible_agency": "Department of Sanitation",
    "final_address": "5318 Florida Ave",
    "address_councildis": "E",
    "status": "Assigned to Contractor",
    "contractor": "Waste Pro",
    "rowid": "1244946",
    "final_x": "3698654.68752",
    "final_y": "539971.976075",
    "longitude": "-90.01359493616758",
    "latitude": "29.978203584321427",
    "geocoded_column": {
      "latitude": "29.978203584321427",
      "longitude": "-90.01359493616758"
    }
  },
  {
    "service_request": "2025-1244945",
    "request_type": "Traffic Safety",
    "request_reason": "Request for Traffic Calming due to Speeding",
    "date_created": "2025-12-10T15:22:48.000",
    "date_modified": "2025-12-10T15:22:50.000",
    "request_status": "Pending",
    "responsible_agency": "Department of Public Works",
    "final_address": "5500 BLK Wickfield Dr",
    "address_councildis": "D",
    "status": "Pending",
    "rowid": "1244945",
    "final_x": "3681107.15022",
    "final_y": "553205.896",
    "longitude": "-90.06855495839079",
    "latitude": "30.015136213952257",
    "geocoded_column": {
      "latitude": "30.015136213952257",
      "longitude": "-90.06855495839079"
    }
  },
  {
    "service_request": "2025-1244944",
    "request_type": "Trash/Recycling",
    "request_reason": "Request a Large Item Pick Up",
    "date_created": "2025-12-10T15:22:13.000",
    "date_modified": "2025-12-10T15:22:15.000",
    "request_status": "Pending",
    "responsible_agency": "Department of Sanitation",
    "final_address": "1305 Pine St",
    "address_councildis": "A",
    "status": "Assigned to Contractor",
    "contractor": "IV Waste",
    "rowid": "1244944",
    "final_x": "3664194.0089",
    "final_y": "526991.741886",
    "longitude": "-90.12286770661363",
    "latitude": "29.943558539159696",
    "geocoded_column": {
      "latitude": "29.943558539159696",
      "longitude": "-90.12286770661363"
    }
  },
  {
    "service_request": "2025-1244943",
    "request_type": "Traffic Signals",
    "request_reason": "Traffic Signal Malfunctioning or Damaged",
    "date_created": "2025-12-10T15:21:45.000",
    "date_modified": "2025-12-10T15:21:47.000",
    "request_status": "Pending",
    "responsible_agency": "Department of Public Works",
    "final_address": "TULANE AVE & S CARROLLTON AVE",
    "address_councildis": "A",
    "status": "Pending",
    "rowid": "1244943",
    "final_x": "3669266.6",
    "final_y": "536338.58",
    "longitude": "-90.10653620474041",
    "latitude": "29.96911094496478",
    "geocoded_column": {
      "latitude": "29.96911094496478",
      "longitude": "-90.10653620474041"
    }
  },
  {
    "service_request": "2025-1244942",
    "request_type": "Traffic Signals",
    "request_reason": "Traffic Signal Malfunctioning or Damaged",
    "date_created": "2025-12-10T15:20:19.000",
    "date_modified": "2025-12-10T15:20:20.000",
    "request_status": "Pending",
    "responsible_agency": "Department of Public Works",
    "final_address": "BANKS ST & S CARROLLTON AVE",
    "address_councildis": "A",
    "status": "Pending",
    "rowid": "1244942",
    "final_x": "3670261.5",
    "final_y": "537432.88",
    "longitude": "-90.10335713538814",
    "latitude": "29.972090575948645",
    "geocoded_column": {
      "latitude": "29.972090575948645",
      "longitude": "-90.10335713538814"
    }
  },
  {
    "service_request": "2025-1244941",
    "request_type": "Traffic Signals",
    "request_reason": "Traffic Signal Malfunctioning or Damaged",
    "date_created": "2025-12-10T15:19:35.000",
    "date_modified": "2025-12-10T15:19:37.000",
    "request_status": "Pending",
    "responsible_agency": "Department of Public Works",
    "final_address": "S CARROLLTON AVE & TULANE AVE",
    "address_councildis": "A",
    "status": "Pending",
    "rowid": "1244941",
    "final_x": "3669337.8",
    "final_y": "536308.78",
    "longitude": "-90.10631235722039",
    "latitude": "29.96902690865695",
    "geocoded_column": {
      "latitude": "29.96902690865695",
      "longitude": "-90.10631235722039"
    }
  },
  {
    "service_request": "2025-1244940",
    "request_type": "Trash/Recycling",
    "request_reason": "Request a Large Item Pick Up",
    "date_created": "2025-12-10T15:19:09.000",
    "date_modified": "2025-12-10T15:19:11.000",
    "request_status": "Pending",
    "responsible_agency": "Department of Sanitation",
    "final_address": "8 Curtis Dr",
    "address_councildis": "E",
    "status": "Assigned to Contractor",
    "contractor": "Waste Pro",
    "rowid": "1244940",
    "final_x": "3697689.92637",
    "final_y": "560638.780766",
    "longitude": "-90.01589149649521",
    "latitude": "30.035060091539236",
    "geocoded_column": {
      "latitude": "30.035060091539236",
      "longitude": "-90.01589149649521"
    }
  },
  {
    "service_request": "2025-1244939",
    "request_type": "Trash/Recycling",
    "request_reason": "Request a Large Item Pick Up",
    "date_created": "2025-12-10T15:16:13.000",
    "date_modified": "2025-12-10T15:16:15.000",
    "request_status": "Pending",
    "responsible_agency": "Department of Sanitation",
    "final_address": "8513 Dinkins St",
    "address_councildis": "E",
    "status": "Assigned to Contractor",
    "contractor": "Waste Pro",
    "rowid": "1244939",
    "final_x": "3703505.87178",
    "final_y": "562865.413856",
    "longitude": "-89.99743028476344",
    "latitude": "30.040997310311237",
    "geocoded_column": {
      "latitude": "30.040997310311237",
      "longitude": "-89.99743028476344"
    }
  },
  {
    "service_request": "2025-1244938",
    "request_type": "Roads and Streets",
    "request_reason": "Pothole",
    "date_created": "2025-12-10T15:14:01.000",
    "date_modified": "2025-12-10T15:14:03.000",
    "request_status": "Pending",
    "responsible_agency": "Department of Public Works",
    "final_address": "LEAKE AVE & BROADWAY ST",
    "address_councildis": "A",
    "status": "Pending",
    "rowid": "1244938",
    "final_x": "3660855.01",
    "final_y": "521586.33",
    "longitude": "-90.13358855105726",
    "latitude": "29.92879192668333",
    "geocoded_column": {
      "latitude": "29.92879192668333",
      "longitude": "-90.13358855105726"
    }
  },
  {
    "service_request": "2025-1244937",
    "request_type": "Traffic Signals",
    "request_reason": "Traffic Signal Malfunctioning or Damaged",
    "date_created": "2025-12-10T15:13:07.000",
    "date_modified": "2025-12-10T15:13:09.000",
    "request_status": "Pending",
    "responsible_agency": "Department of Public Works",
    "final_address": "S CARROLLTON AVE & TULANE AVE",
    "address_councildis": "A",
    "status": "Pending",
    "rowid": "1244937",
    "final_x": "3669337.8",
    "final_y": "536308.78",
    "longitude": "-90.10631235722039",
    "latitude": "29.96902690865695",
    "geocoded_column": {
      "latitude": "29.96902690865695",
      "longitude": "-90.10631235722039"
    }
  },
  {
    "service_request": "2025-1244936",
    "request_type": "Trash/Recycling",
    "request_reason": "Return Recycling Cart",
    "date_created": "2025-12-10T15:12:44.000",
    "date_modified": "2025-12-10T15:12:45.000",
    "request_status": "Pending",
    "responsible_agency": "Department of Sanitation",
    "final_address": "7800 BLK S Claiborne Ave",
    "address_councildis": "A",
    "status": "Pending",
    "rowid": "1244936",
    "final_x": "3665510.35365",
    "final_y": "530856.6615",
    "longitude": "-90.11858227974788",
    "latitude": "29.954147515835913",
    "geocoded_column": {
      "latitude": "29.954147515835913",
      "longitude": "-90.11858227974788"
    }
  },
  {
    "service_request": "2025-1244935",
    "request_type": "Trash/Recycling",
    "request_reason": "Order Recycling Cart",
    "date_created": "2025-12-10T15:12:28.000",
    "date_modified": "2025-12-10T15:12:29.000",
    "request_status": "Pending",
    "responsible_agency": "Department of Sanitation",
    "final_address": "2522 S Tonti St",
    "address_councildis": "B",
    "status": "Pending",
    "rowid": "1244935",
    "final_x": "3672474.97665",
    "final_y": "529046.080768",
    "longitude": "-90.09665246398602",
    "latitude": "29.94896415784698",
    "geocoded_column": {
      "latitude": "29.94896415784698",
      "longitude": "-90.09665246398602"
    }
  },
  {
    "service_request": "2025-1244934",
    "request_type": "Trash/Recycling",
    "request_reason": "Return Trash Cart",
    "date_created": "2025-12-10T15:11:00.000",
    "date_modified": "2025-12-10T15:11:02.000",
    "request_status": "Pending",
    "responsible_agency": "Department of Sanitation",
    "final_address": "7800 BLK S Claiborne Ave",
    "address_councildis": "A",
    "status": "Assigned to Contractor",
    "contractor": "IV Waste",
    "rowid": "1244934",
    "final_x": "3665510.35365",
    "final_y": "530856.6615",
    "longitude": "-90.11858227974788",
    "latitude": "29.954147515835913",
    "geocoded_column": {
      "latitude": "29.954147515835913",
      "longitude": "-90.11858227974788"
    }
  },
  {
    "service_request": "2025-1244933",
    "request_type": "Roads and Streets",
    "request_reason": "Pothole",
    "date_created": "2025-12-10T15:05:35.000",
    "date_modified": "2025-12-10T15:05:37.000",
    "request_status": "Pending",
    "responsible_agency": "Department of Public Works",
    "final_address": "SIMON BOLIVAR AVE & MARTIN LUTHER KING JR BLVD",
    "address_councildis": "B",
    "status": "Pending",
    "rowid": "1244933",
    "final_x": "3677301.7",
    "final_y": "526780.18",
    "longitude": "-90.08149056119538",
    "latitude": "29.942589559602354",
    "geocoded_column": {
      "latitude": "29.942589559602354",
      "longitude": "-90.08149056119538"
    }
  },
  {
    "service_request": "2025-1244932",
    "request_type": "Trash/Recycling",
    "request_reason": "Request a Large Item Pick Up",
    "date_created": "2025-12-10T14:58:24.000",
    "date_modified": "2025-12-10T14:58:26.000",
    "request_status": "Pending",
    "responsible_agency": "Department of Sanitation",
    "final_address": "2465 Cumberland Ct",
    "address_councildis": "C",
    "status": "Assigned to Contractor",
    "contractor": "IV Waste",
    "rowid": "1244932",
    "final_x": "3704850.24913",
    "final_y": "522053.928058",
    "longitude": "-89.99468842460624",
    "latitude": "29.928737710493984",
    "geocoded_column": {
      "latitude": "29.928737710493984",
      "longitude": "-89.99468842460624"
    }
  },
  {
    "service_request": "2025-1244931",
    "request_type": "Trash/Recycling",
    "request_reason": "Order Recycling Cart",
    "date_created": "2025-12-10T14:54:35.000",
    "date_modified": "2025-12-10T14:54:36.000",
    "request_status": "Pending",
    "responsible_agency": "Department of Sanitation",
    "final_address": "2034 Deslonde St",
    "address_councildis": "E",
    "status": "Pending",
    "rowid": "1244931",
    "final_x": "3696369.31165",
    "final_y": "538060.129161",
    "longitude": "-90.02088209721155",
    "latitude": "29.97301887165099",
    "geocoded_column": {
      "latitude": "29.97301887165099",
      "longitude": "-90.02088209721155"
    }
  },
  {
    "service_request": "2025-1244930",
    "request_type": "Street and Traffic Signs",
    "request_reason": "Traffic or Parking Sign Damaged or Missing",
    "date_created": "2025-12-10T14:53:29.000",
    "date_modified": "2025-12-10T14:53:30.000",
    "request_status": "Pending",
    "responsible_agency": "Department of Public Works",
    "final_address": "LAUREL ST & HENRY CLAY AVE",
    "address_councildis": "A",
    "status": "Pending",
    "rowid": "1244930",
    "final_x": "3663398.4",
    "final_y": "518595.38",
    "longitude": "-90.12565906550772",
    "latitude": "29.920494279881094",
    "geocoded_column": {
      "latitude": "29.920494279881094",
      "longitude": "-90.12565906550772"
    }
  },
  {
    "service_request": "2025-1244929",
    "request_type": "Streetlights",
    "request_reason": "Streetlight Knocked Down/Leaning",
    "date_created": "2025-12-10T14:52:19.000",
    "date_modified": "2025-12-10T14:52:20.000",
    "request_status": "Pending",
    "responsible_agency": "Department of Public Works",
    "final_address": "4521 St Charles Ave",
    "address_councildis": "B",
    "status": "Pending",
    "rowid": "1244929",
    "final_x": "3670275.03783",
    "final_y": "520872.905593",
    "longitude": "-90.10387553753148",
    "latitude": "29.926555670871306",
    "geocoded_column": {
      "latitude": "29.926555670871306",
      "longitude": "-90.10387553753148"
    }
  },
  {
    "service_request": "2025-1244928",
    "request_type": "Streetlights",
    "request_reason": "Streetlight Outage/Malfunction",
    "date_created": "2025-12-10T14:52:17.000",
    "date_modified": "2025-12-10T14:54:16.000",
    "request_status": "Pending",
    "responsible_agency": "Department of Public Works",
    "final_address": "7421 Seven Oaks Rd",
    "address_councildis": "E",
    "status": "Pending",
    "rowid": "1244928",
    "final_x": "3712606.55256",
    "final_y": "565416.611554",
    "longitude": "-89.96857324281245",
    "latitude": "30.047717193329362",
    "geocoded_column": {
      "latitude": "30.047717193329362",
      "longitude": "-89.96857324281245"
    }
  },
  {
    "service_request": "2025-1244927",
    "request_type": "Trash/Recycling",
    "request_reason": "Missed Trash Pick-Up",
    "date_created": "2025-12-10T14:51:58.000",
    "date_modified": "2025-12-10T15:25:05.000",
    "case_close_date": "2025-12-10T09:25:05.000",
    "request_status": "Closed",
    "responsible_agency": "Department of Sanitation",
    "final_address": "523 Exposition Blvd",
    "address_councildis": "A",
    "status": "Invalid Request",
    "contractor": "IV Waste",
    "contractor_action": "Invalid",
    "rowid": "1244927",
    "final_x": "3662821.16775",
    "final_y": "519083.271415",
    "longitude": "-90.12746491960857",
    "latitude": "29.921852545389118",
    "geocoded_column": {
      "latitude": "29.921852545389118",
      "longitude": "-90.12746491960857"
    }
  },
  {
    "service_request": "2025-1244926",
    "request_type": "Trash/Recycling",
    "request_reason": "Missed Trash Pick-Up",
    "date_created": "2025-12-10T14:51:03.000",
    "date_modified": "2025-12-10T15:24:27.000",
    "case_close_date": "2025-12-10T09:24:25.000",
    "request_status": "Closed",
    "responsible_agency": "Department of Sanitation",
    "final_address": "521 Exposition Blvd",
    "address_councildis": "A",
    "status": "Invalid Request",
    "contractor": "IV Waste",
    "contractor_action": "Invalid",
    "rowid": "1244926",
    "final_x": "3662811.2137",
    "final_y": "519047.120311",
    "longitude": "-90.12749754136198",
    "latitude": "29.92175342914945",
    "geocoded_column": {
      "latitude": "29.92175342914945",
      "longitude": "-90.12749754136198"
    }
  },
  {
    "service_request": "2025-1244925",
    "request_type": "Trash/Recycling",
    "request_reason": "Request a Large Item Pick Up",
    "date_created": "2025-12-10T14:49:19.000",
    "date_modified": "2025-12-10T14:49:20.000",
    "request_status": "Pending",
    "responsible_agency": "Department of Sanitation",
    "final_address": "5419 N Claiborne Ave",
    "address_councildis": "E",
    "status": "Assigned to Contractor",
    "contractor": "Waste Pro",
    "rowid": "1244925",
    "final_x": "3697847.72919",
    "final_y": "535828.388231",
    "longitude": "-90.01629400737667",
    "latitude": "29.966835739471914",
    "geocoded_column": {
      "latitude": "29.966835739471914",
      "longitude": "-90.01629400737667"
    }
  },
  {
    "service_request": "2025-1244924",
    "request_type": "Trash/Recycling",
    "request_reason": "Request a Large Item Pick Up",
    "date_created": "2025-12-10T14:48:43.000",
    "date_modified": "2025-12-10T14:48:45.000",
    "request_status": "Pending",
    "responsible_agency": "Department of Sanitation",
    "final_address": "3330 Jefferson Ave",
    "address_councildis": "A",
    "status": "Assigned to Contractor",
    "contractor": "IV Waste",
    "rowid": "1244924",
    "final_x": "3668645.49396",
    "final_y": "527555.545535",
    "longitude": "-90.10879413322618",
    "latitude": "29.944978761138575",
    "geocoded_column": {
      "latitude": "29.944978761138575",
      "longitude": "-90.10879413322618"
    }
  },
  {
    "service_request": "2025-1244923",
    "request_type": "Trash/Recycling",
    "request_reason": "Request a Large Item Pick Up",
    "date_created": "2025-12-10T14:48:42.000",
    "date_modified": "2025-12-10T14:49:36.000",
    "request_status": "Pending",
    "responsible_agency": "Department of Sanitation",
    "final_address": "4627 Babylon St",
    "address_councildis": "D",
    "status": "Assigned to Contractor",
    "contractor": "Waste Pro",
    "rowid": "1244923",
    "final_x": "3696729.20746",
    "final_y": "553753.217815",
    "longitude": "-90.01917706247153",
    "latitude": "30.01615775438378",
    "geocoded_column": {
      "latitude": "30.01615775438378",
      "longitude": "-90.01917706247153"
    }
  },
  {
    "service_request": "2025-1244922",
    "request_type": "Trash/Recycling",
    "request_reason": "Request a Large Item Pick Up",
    "date_created": "2025-12-10T14:48:41.000",
    "date_modified": "2025-12-10T14:48:42.000",
    "request_status": "Pending",
    "responsible_agency": "Department of Sanitation",
    "final_address": "1614 Choctaw St",
    "address_councildis": "E",
    "status": "Assigned to Contractor",
    "contractor": "Waste Pro",
    "rowid": "1244922",
    "final_x": "3697949.86851",
    "final_y": "535929.724935",
    "longitude": "-90.01596777414807",
    "latitude": "29.96711115068736",
    "geocoded_column": {
      "latitude": "29.96711115068736",
      "longitude": "-90.01596777414807"
    }
  },
  {
    "service_request": "2025-1244921",
    "request_type": "Safety & Permits",
    "request_reason": "Zoning Enforcement",
    "date_created": "2025-12-10T14:48:25.000",
    "date_modified": "2025-12-10T14:48:27.000",
    "request_status": "Pending",
    "responsible_agency": "Safety and Permits",
    "final_address": "20520 E Alba Rd",
    "address_councildis": "E",
    "status": "Pending",
    "rowid": "1244921",
    "final_x": "3761903.36438",
    "final_y": "573175.801897",
    "longitude": "-89.81244645079275",
    "latitude": "30.06734483398873",
    "geocoded_column": {
      "latitude": "30.06734483398873",
      "longitude": "-89.81244645079275"
    }
  },
  {
    "service_request": "2025-1244920",
    "request_type": "Roads and Streets",
    "request_reason": "Pothole",
    "date_created": "2025-12-10T14:44:57.000",
    "date_modified": "2025-12-10T14:44:59.000",
    "request_status": "Pending",
    "responsible_agency": "Department of Public Works",
    "final_address": "500 BLK Chartres St",
    "address_councildis": "C",
    "status": "Pending",
    "rowid": "1244920",
    "final_x": "3682494.3899",
    "final_y": "531796.684882",
    "longitude": "-90.06492072817167",
    "latitude": "29.956226242619564",
    "geocoded_column": {
      "latitude": "29.956226242619564",
      "longitude": "-90.06492072817167"
    }
  },
  {
    "service_request": "2025-1244919",
    "request_type": "Trash/Recycling",
    "request_reason": "Request a Large Item Pick Up",
    "date_created": "2025-12-10T14:42:26.000",
    "date_modified": "2025-12-10T14:42:28.000",
    "request_status": "Pending",
    "responsible_agency": "Department of Sanitation",
    "final_address": "1511 Egania St",
    "address_councildis": "E",
    "status": "Assigned to Contractor",
    "contractor": "Waste Pro",
    "rowid": "1244919",
    "final_x": "3697285.79824",
    "final_y": "535622.505734",
    "longitude": "-90.01807603775082",
    "latitude": "29.966287383803177",
    "geocoded_column": {
      "latitude": "29.966287383803177",
      "longitude": "-90.01807603775082"
    }
  },
  {
    "service_request": "2025-1244918",
    "request_type": "Trash/Recycling",
    "request_reason": "Repair Trash Cart",
    "date_created": "2025-12-10T14:38:49.000",
    "date_modified": "2025-12-10T14:41:55.000",
    "request_status": "Pending",
    "responsible_agency": "Department of Sanitation",
    "final_address": "7118 Perrier St",
    "address_councildis": "A",
    "status": "Assigned to Contractor",
    "contractor": "IV Waste",
    "rowid": "1244918",
    "final_x": "3661547.42234",
    "final_y": "522373.385978",
    "longitude": "-90.13137667312174",
    "latitude": "29.93093613113799",
    "geocoded_column": {
      "latitude": "29.93093613113799",
      "longitude": "-90.13137667312174"
    }
  },
  {
    "service_request": "2025-1244917",
    "request_type": "Trash/Recycling",
    "request_reason": "Repair Trash Cart",
    "date_created": "2025-12-10T14:38:12.000",
    "date_modified": "2025-12-10T14:41:49.000",
    "request_status": "Pending",
    "responsible_agency": "Department of Sanitation",
    "final_address": "7116 Perrier St",
    "address_councildis": "A",
    "status": "Assigned to Contractor",
    "contractor": "IV Waste",
    "rowid": "1244917",
    "final_x": "3661571.91309",
    "final_y": "522359.006522",
    "longitude": "-90.13129983497815",
    "latitude": "29.930895885725345",
    "geocoded_column": {
      "latitude": "29.930895885725345",
      "longitude": "-90.13129983497815"
    }
  },
  {
    "service_request": "2025-1244916",
    "request_type": "Abandoned Vehicles",
    "request_reason": "Abandoned/Junk Vehicles",
    "date_created": "2025-12-10T14:37:39.000",
    "date_modified": "2025-12-10T14:39:10.000",
    "request_status": "Pending",
    "responsible_agency": "Department of Public Works",
    "final_address": "7720 Marquis St",
    "address_councildis": "E",
    "status": "Inspected",
    "rowid": "1244916",
    "final_x": "3710949.92587",
    "final_y": "566649.255011",
    "longitude": "-89.97376283437188",
    "latitude": "30.05116061388575",
    "geocoded_column": {
      "latitude": "30.05116061388575",
      "longitude": "-89.97376283437188"
    }
  },
  {
    "service_request": "2025-1244915",
    "request_type": "Roads and Streets",
    "request_reason": "Pothole",
    "date_created": "2025-12-10T14:36:26.000",
    "date_modified": "2025-12-10T14:36:27.000",
    "request_status": "Pending",
    "responsible_agency": "Department of Public Works",
    "final_address": "1401 Simon Bolivar Ave",
    "address_councildis": "B",
    "status": "Pending",
    "rowid": "1244915",
    "final_x": "3677343.08424",
    "final_y": "526954.159358",
    "longitude": "-90.08135389975078",
    "latitude": "29.943066702013905",
    "geocoded_column": {
      "latitude": "29.943066702013905",
      "longitude": "-90.08135389975078"
    }
  },
  {
    "service_request": "2025-1244914",
    "request_type": "Trash/Recycling",
    "request_reason": "Request a Large Item Pick Up",
    "date_created": "2025-12-10T14:35:10.000",
    "date_modified": "2025-12-10T14:35:13.000",
    "request_status": "Pending",
    "responsible_agency": "Department of Sanitation",
    "final_address": "4809 Ray Ave",
    "address_councildis": "E",
    "status": "Assigned to Contractor",
    "contractor": "Waste Pro",
    "rowid": "1244914",
    "final_x": "3698785.60541",
    "final_y": "554731.557656",
    "longitude": "-90.01264416021145",
    "latitude": "30.018782808405092",
    "geocoded_column": {
      "latitude": "30.018782808405092",
      "longitude": "-90.01264416021145"
    }
  },
  {
    "service_request": "2025-1244913",
    "request_type": "Trash/Recycling",
    "request_reason": "Request a Large Item Pick Up",
    "date_created": "2025-12-10T14:31:57.000",
    "date_modified": "2025-12-10T14:32:05.000",
    "request_status": "Pending",
    "responsible_agency": "Department of Sanitation",
    "final_address": "2044 Florida Ave",
    "address_councildis": "D",
    "status": "Assigned to Contractor",
    "contractor": "IV Waste",
    "rowid": "1244913",
    "final_x": "3683408.1997",
    "final_y": "542726.367053",
    "longitude": "-90.06165220349352",
    "latitude": "29.986251231522132",
    "geocoded_column": {
      "latitude": "29.986251231522132",
      "longitude": "-90.06165220349352"
    }
  },
  {
    "service_request": "2025-1244912",
    "request_type": "Safety & Permits",
    "request_reason": "Licenses & Permits",
    "date_created": "2025-12-10T14:30:48.000",
    "date_modified": "2025-12-10T14:30:49.000",
    "request_status": "Pending",
    "responsible_agency": "Safety and Permits",
    "final_address": "4551 Francesco Rd",
    "address_councildis": "E",
    "status": "Pending",
    "rowid": "1244912",
    "final_x": "3762239.28797",
    "final_y": "573674.898474",
    "longitude": "-89.81136360822383",
    "latitude": "30.068704854941917",
    "geocoded_column": {
      "latitude": "30.068704854941917",
      "longitude": "-89.81136360822383"
    }
  },
  {
    "service_request": "2025-1244911",
    "request_type": "Trash/Recycling",
    "request_reason": "Replace Trash Cart",
    "date_created": "2025-12-10T14:30:42.000",
    "date_modified": "2025-12-10T14:30:44.000",
    "request_status": "Pending",
    "responsible_agency": "Department of Sanitation",
    "final_address": "1508 Calhoun St",
    "address_councildis": "A",
    "status": "Assigned to Contractor",
    "contractor": "IV Waste",
    "rowid": "1244911",
    "final_x": "3664522.46375",
    "final_y": "522349.840698",
    "longitude": "-90.12198561980428",
    "latitude": "29.930785243540996",
    "geocoded_column": {
      "latitude": "29.930785243540996",
      "longitude": "-90.12198561980428"
    }
  },
  {
    "service_request": "2025-1244910",
    "request_type": "Abandoned Vehicles",
    "request_reason": "Abandoned/Junk Vehicles",
    "date_created": "2025-12-10T14:29:04.000",
    "date_modified": "2025-12-10T14:29:05.000",
    "request_status": "Pending",
    "responsible_agency": "Department of Public Works",
    "final_address": "6049 Wickfield Dr",
    "address_councildis": "D",
    "status": "Pending",
    "rowid": "1244910",
    "final_x": "3680982.70357",
    "final_y": "555175.275865",
    "longitude": "-90.06887948664821",
    "latitude": "30.02055506780057",
    "geocoded_column": {
      "latitude": "30.02055506780057",
      "longitude": "-90.06887948664821"
    }
  },
  {
    "service_request": "2025-1244909",
    "request_type": "Health Related Request",
    "request_reason": "Noise Ordinance Complaint",
    "date_created": "2025-12-10T14:28:21.000",
    "date_modified": "2025-12-10T14:28:23.000",
    "request_status": "Pending",
    "responsible_agency": "Health Department",
    "final_address": "1617 Marigny St",
    "address_councildis": "D",
    "status": "Pending",
    "rowid": "1244909",
    "final_x": "3685297.43791",
    "final_y": "538338.806985",
    "longitude": "-90.05583935054742",
    "latitude": "29.974129197949896",
    "geocoded_column": {
      "latitude": "29.974129197949896",
      "longitude": "-90.05583935054742"
    }
  },
  {
    "service_request": "2025-1244908",
    "request_type": "Trash/Recycling",
    "request_reason": "Request a Large Item Pick Up",
    "date_created": "2025-12-10T14:23:27.000",
    "date_modified": "2025-12-10T14:23:28.000",
    "request_status": "Pending",
    "responsible_agency": "Department of Sanitation",
    "final_address": "1420 Gordon St",
    "address_councildis": "E",
    "status": "Assigned to Contractor",
    "contractor": "Waste Pro",
    "rowid": "1244908",
    "final_x": "3699534.28285",
    "final_y": "534721.313478",
    "longitude": "-90.01100825274783",
    "latitude": "29.96373826966449",
    "geocoded_column": {
      "latitude": "29.96373826966449",
      "longitude": "-90.01100825274783"
    }
  },
  {
    "service_request": "2025-1244907",
    "request_type": "Safety & Permits",
    "request_reason": "Zoning Enforcement",
    "date_created": "2025-12-10T14:20:10.000",
    "date_modified": "2025-12-10T14:20:12.000",
    "request_status": "Pending",
    "responsible_agency": "Safety and Permits",
    "final_address": "4521 Francesco Rd",
    "address_councildis": "E",
    "status": "Pending",
    "rowid": "1244907",
    "final_x": "3762179.60893",
    "final_y": "573409.193002",
    "longitude": "-89.81156341710742",
    "latitude": "30.0679764671316",
    "geocoded_column": {
      "latitude": "30.0679764671316",
      "longitude": "-89.81156341710742"
    }
  },
  {
    "service_request": "2025-1244906",
    "request_type": "Trash/Recycling",
    "request_reason": "Request a Large Item Pick Up",
    "date_created": "2025-12-10T14:18:50.000",
    "date_modified": "2025-12-10T14:18:58.000",
    "request_status": "Pending",
    "responsible_agency": "Department of Sanitation",
    "final_address": "2780 Sage St",
    "address_councildis": "D",
    "status": "Assigned to Contractor",
    "contractor": "IV Waste",
    "rowid": "1244906",
    "final_x": "3688570.01948",
    "final_y": "545553.641168",
    "longitude": "-90.04524766889398",
    "latitude": "29.99386669178424",
    "geocoded_column": {
      "latitude": "29.99386669178424",
      "longitude": "-90.04524766889398"
    }
  },
  {
    "service_request": "2025-1244905",
    "request_type": "Healthy Homes",
    "request_reason": "Healthy Homes",
    "date_created": "2025-12-10T14:18:05.000",
    "date_modified": "2025-12-10T14:22:17.000",
    "case_close_date": "2025-12-10T08:22:16.000",
    "request_status": "Closed",
    "responsible_agency": "Department of Code Enforcement",
    "final_address": "2214 Milton St",
    "address_councildis": "D",
    "status": "Referred to Code Enforcement",
    "rowid": "1244905",
    "final_x": "3684399.99509",
    "final_y": "546591.351057",
    "longitude": "-90.05838367498465",
    "latitude": "29.996848258889386",
    "geocoded_column": {
      "latitude": "29.996848258889386",
      "longitude": "-90.05838367498465"
    }
  },
  {
    "service_request": "2025-1244904",
    "request_type": "Trash/Recycling",
    "request_reason": "Request a Large Item Pick Up",
    "date_created": "2025-12-10T14:13:12.000",
    "date_modified": "2025-12-10T14:13:14.000",
    "request_status": "Pending",
    "responsible_agency": "Department of Sanitation",
    "final_address": "7860 Means Ave",
    "address_councildis": "E",
    "status": "Assigned to Contractor",
    "contractor": "Waste Pro",
    "rowid": "1244904",
    "final_x": "3707652.16299",
    "final_y": "565376.757474",
    "longitude": "-89.98423323458805",
    "latitude": "30.047768933330353",
    "geocoded_column": {
      "latitude": "30.047768933330353",
      "longitude": "-89.98423323458805"
    }
  },
  {
    "service_request": "2025-1244903",
    "request_type": "Trash/Recycling",
    "request_reason": "Request a Large Item Pick Up",
    "date_created": "2025-12-10T14:12:12.000",
    "date_modified": "2025-12-10T14:12:13.000",
    "request_status": "Pending",
    "responsible_agency": "Department of Sanitation",
    "final_address": "4854 Warren Dr",
    "address_councildis": "E",
    "status": "Assigned to Contractor",
    "contractor": "Waste Pro",
    "rowid": "1244903",
    "final_x": "3713322.62104",
    "final_y": "556893.323994",
    "longitude": "-89.96663139572466",
    "latitude": "30.0242580949774",
    "geocoded_column": {
      "latitude": "30.0242580949774",
      "longitude": "-89.96663139572466"
    }
  },
  {
    "service_request": "2025-1244902",
    "request_type": "Trash/Recycling",
    "request_reason": "Order Trash Cart",
    "date_created": "2025-12-10T14:11:33.000",
    "date_modified": "2025-12-10T14:11:34.000",
    "request_status": "Pending",
    "responsible_agency": "Department of Sanitation",
    "final_address": "4958 Tulip St",
    "address_councildis": "E",
    "status": "Assigned to Contractor",
    "contractor": "Waste Pro",
    "rowid": "1244902",
    "final_x": "3701922.75421",
    "final_y": "555509.814681",
    "longitude": "-90.00270340235697",
    "latitude": "30.02082292125486",
    "geocoded_column": {
      "latitude": "30.02082292125486",
      "longitude": "-90.00270340235697"
    }
  },
  {
    "service_request": "2025-1244901",
    "request_type": "Trash/Recycling",
    "request_reason": "Request a Large Item Pick Up",
    "date_created": "2025-12-10T14:10:32.000",
    "date_modified": "2025-12-10T14:10:34.000",
    "request_status": "Pending",
    "responsible_agency": "Department of Sanitation",
    "final_address": "2112 Felicity St",
    "address_councildis": "B",
    "status": "Assigned to Contractor",
    "contractor": "IV Waste",
    "rowid": "1244901",
    "final_x": "3676837.31713",
    "final_y": "526171.55347",
    "longitude": "-90.08297769498618",
    "latitude": "29.940929979589512",
    "geocoded_column": {
      "latitude": "29.940929979589512",
      "longitude": "-90.08297769498618"
    }
  },
  {
    "service_request": "2025-1244900",
    "request_type": "Healthy Homes",
    "request_reason": "Healthy Homes",
    "date_created": "2025-12-10T14:10:05.000",
    "date_modified": "2025-12-10T14:18:16.000",
    "case_close_date": "2025-12-10T08:18:14.000",
    "request_status": "Closed",
    "responsible_agency": "Department of Code Enforcement",
    "final_address": "319 S Clark St",
    "address_councildis": "B",
    "status": "Referred to Code Enforcement",
    "rowid": "1244900",
    "final_x": "3672217.87572",
    "final_y": "536215.432711",
    "longitude": "-90.09722004309926",
    "latitude": "29.96868511782007",
    "geocoded_column": {
      "latitude": "29.96868511782007",
      "longitude": "-90.09722004309926"
    }
  },
  {
    "service_request": "2025-1244899",
    "request_type": "Trash/Recycling",
    "request_reason": "Request a Large Item Pick Up",
    "date_created": "2025-12-10T14:07:59.000",
    "date_modified": "2025-12-10T14:08:00.000",
    "request_status": "Pending",
    "responsible_agency": "Department of Sanitation",
    "final_address": "430 Aurora Oaks Dr",
    "address_councildis": "C",
    "status": "Assigned to Contractor",
    "contractor": "IV Waste",
    "rowid": "1244899",
    "final_x": "3701376.55159",
    "final_y": "522061.490746",
    "longitude": "-90.00565381816342",
    "latitude": "29.92886963511546",
    "geocoded_column": {
      "latitude": "29.92886963511546",
      "longitude": "-90.00565381816342"
    }
  },
  {
    "service_request": "2025-1244898",
    "request_type": "Trash/Recycling",
    "request_reason": "Illegal Dumping",
    "date_created": "2025-12-10T14:00:21.000",
    "date_modified": "2025-12-10T14:01:47.000",
    "request_status": "Pending",
    "responsible_agency": "Department of Sanitation",
    "final_address": "CITY PARK AVE & I 10 E & METAIRIE RD",
    "address_councildis": "A",
    "status": "Pending",
    "rowid": "1244898",
    "final_x": "3666908.3",
    "final_y": "540680.08",
    "longitude": "-90.11383798908375",
    "latitude": "29.981117832474713",
    "geocoded_column": {
      "latitude": "29.981117832474713",
      "longitude": "-90.11383798908375"
    }
  },
  {
    "service_request": "2025-1244897",
    "request_type": "Trash/Recycling",
    "request_reason": "Request a Large Item Pick Up",
    "date_created": "2025-12-10T13:53:04.000",
    "date_modified": "2025-12-10T13:53:06.000",
    "request_status": "Pending",
    "responsible_agency": "Department of Sanitation",
    "final_address": "603 Flood St",
    "address_councildis": "E",
    "status": "Assigned to Contractor",
    "contractor": "Waste Pro",
    "rowid": "1244897",
    "final_x": "3697261.92317",
    "final_y": "532031.200131",
    "longitude": "-90.0182815950377",
    "latitude": "29.956413321089446",
    "geocoded_column": {
      "latitude": "29.956413321089446",
      "longitude": "-90.0182815950377"
    }
  },
  {
    "service_request": "2025-1244896",
    "request_type": "Abandoned Vehicles",
    "request_reason": "Abandoned/Junk Vehicles",
    "date_created": "2025-12-10T13:50:47.000",
    "date_modified": "2025-12-10T13:52:21.000",
    "request_status": "Pending",
    "responsible_agency": "Department of Public Works",
    "final_address": "4700 BLK Pecan St",
    "address_councildis": "E",
    "status": "Inspected",
    "rowid": "1244896",
    "final_x": "3701813.53958",
    "final_y": "554219.614117",
    "longitude": "-90.00309581322144",
    "latitude": "30.017278850160604",
    "geocoded_column": {
      "latitude": "30.017278850160604",
      "longitude": "-90.00309581322144"
    }
  },
  {
    "service_request": "2025-1244895",
    "request_type": "Trash/Recycling",
    "request_reason": "Request a Large Item Pick Up",
    "date_created": "2025-12-10T13:50:08.000",
    "date_modified": "2025-12-10T13:50:10.000",
    "request_status": "Pending",
    "responsible_agency": "Department of Sanitation",
    "final_address": "7361 Hansbrough Ave",
    "address_councildis": "E",
    "status": "Assigned to Contractor",
    "contractor": "Waste Pro",
    "rowid": "1244895",
    "final_x": "3708085.26372",
    "final_y": "563764.082657",
    "longitude": "-89.98292447426105",
    "latitude": "30.043320694521288",
    "geocoded_column": {
      "latitude": "30.043320694521288",
      "longitude": "-89.98292447426105"
    }
  },
  {
    "service_request": "2025-1244894",
    "request_type": "Trash/Recycling",
    "request_reason": "Request a Large Item Pick Up",
    "date_created": "2025-12-10T13:47:43.000",
    "date_modified": "2025-12-10T13:47:45.000",
    "request_status": "Pending",
    "responsible_agency": "Department of Sanitation",
    "final_address": "8600 Lake Forest Blvd",
    "address_councildis": "E",
    "status": "Assigned to Contractor",
    "contractor": "Waste Pro",
    "rowid": "1244894",
    "final_x": "3706233.01867",
    "final_y": "557882.382491",
    "longitude": "-89.98899638685525",
    "latitude": "30.027208226926486",
    "geocoded_column": {
      "latitude": "30.027208226926486",
      "longitude": "-89.98899638685525"
    }
  },
  {
    "service_request": "2025-1244893",
    "request_type": "Property Maintenance",
    "request_reason": "Property Maintenance",
    "date_created": "2025-12-10T13:43:43.000",
    "date_modified": "2025-12-10T14:13:07.000",
    "case_close_date": "2025-12-10T08:13:05.000",
    "request_status": "Closed",
    "responsible_agency": "Department of Code Enforcement",
    "final_address": "1727 Columbus St",
    "address_councildis": "D",
    "status": "Referred to Code Enforcement",
    "rowid": "1244893",
    "final_x": "3681259.60245",
    "final_y": "537596.126664",
    "longitude": "-90.06861764305329",
    "latitude": "29.97221024919364",
    "geocoded_column": {
      "latitude": "29.97221024919364",
      "longitude": "-90.06861764305329"
    }
  },
  {
    "service_request": "2025-1244892",
    "request_type": "Property Maintenance",
    "request_reason": "Property Maintenance",
    "date_created": "2025-12-10T13:41:38.000",
    "date_modified": "2025-12-10T14:36:08.000",
    "case_close_date": "2025-12-10T08:36:08.000",
    "request_status": "Closed",
    "responsible_agency": "Department of Code Enforcement",
    "final_address": "2438 Tupelo St",
    "address_councildis": "E",
    "status": "Referred to Code Enforcement",
    "rowid": "1244892",
    "final_x": "3701402.66954",
    "final_y": "538306.034249",
    "longitude": "-90.0049768808069",
    "latitude": "29.973535537609898",
    "geocoded_column": {
      "latitude": "29.973535537609898",
      "longitude": "-90.0049768808069"
    }
  },
  {
    "service_request": "2025-1244891",
    "request_type": "Property Maintenance",
    "request_reason": "Property Maintenance",
    "date_created": "2025-12-10T13:41:13.000",
    "date_modified": "2025-12-10T14:42:57.000",
    "case_close_date": "2025-12-10T08:42:57.000",
    "request_status": "Closed",
    "responsible_agency": "Department of Code Enforcement",
    "final_address": "2441 Tupelo St",
    "address_councildis": "E",
    "status": "Referred to Code Enforcement",
    "rowid": "1244891",
    "final_x": "3701562.54167",
    "final_y": "538220.762889",
    "longitude": "-90.0044750976165",
    "latitude": "29.973295975249457",
    "geocoded_column": {
      "latitude": "29.973295975249457",
      "longitude": "-90.0044750976165"
    }
  },
  {
    "service_request": "2025-1244890",
    "request_type": "Trash/Recycling",
    "request_reason": "Order Trash Cart",
    "date_created": "2025-12-10T13:39:48.000",
    "date_modified": "2025-12-10T13:39:49.000",
    "request_status": "Pending",
    "responsible_agency": "Department of Sanitation",
    "final_address": "3448 Roger Williams St",
    "address_councildis": "D",
    "status": "Assigned to Contractor",
    "contractor": "IV Waste",
    "rowid": "1244890",
    "final_x": "3676448.59086",
    "final_y": "543891.082958",
    "longitude": "-90.08359481048586",
    "latitude": "29.98966434087399",
    "geocoded_column": {
      "latitude": "29.98966434087399",
      "longitude": "-90.08359481048586"
    }
  },
  {
    "service_request": "2025-1244889",
    "request_type": "Trash/Recycling",
    "request_reason": "Replace Trash Cart",
    "date_created": "2025-12-10T13:37:02.000",
    "date_modified": "2025-12-10T13:37:04.000",
    "request_status": "Pending",
    "responsible_agency": "Department of Sanitation",
    "final_address": "7713 Sycamore St",
    "address_councildis": "A",
    "status": "Assigned to Contractor",
    "contractor": "IV Waste",
    "rowid": "1244889",
    "final_x": "3665349.39616",
    "final_y": "530085.979137",
    "longitude": "-90.11911630801255",
    "latitude": "29.95203308072887",
    "geocoded_column": {
      "latitude": "29.95203308072887",
      "longitude": "-90.11911630801255"
    }
  },
  {
    "service_request": "2025-1244888",
    "request_type": "Trash/Recycling",
    "request_reason": "Order Trash Cart",
    "date_created": "2025-12-10T13:30:53.000",
    "date_modified": "2025-12-10T13:30:54.000",
    "request_status": "Pending",
    "responsible_agency": "Department of Sanitation",
    "final_address": "2517 Republic St",
    "address_councildis": "D",
    "status": "Assigned to Contractor",
    "contractor": "IV Waste",
    "rowid": "1244888",
    "final_x": "3680838.9156",
    "final_y": "541309.645004",
    "longitude": "-90.06981691894742",
    "latitude": "29.982433896465576",
    "geocoded_column": {
      "latitude": "29.982433896465576",
      "longitude": "-90.06981691894742"
    }
  },
  {
    "service_request": "2025-1244887",
    "request_type": "Streetlights",
    "request_reason": "Streetlight Outage/Malfunction",
    "date_created": "2025-12-10T13:30:02.000",
    "date_modified": "2025-12-10T13:33:01.000",
    "request_status": "Pending",
    "responsible_agency": "Department of Public Works",
    "final_address": "3153 Elmwood Park Dr",
    "address_councildis": "C",
    "status": "Pending",
    "rowid": "1244887",
    "final_x": "3694622.67504",
    "final_y": "518559.001399",
    "longitude": "-90.0271003820179",
    "latitude": "29.9194524281326",
    "geocoded_column": {
      "latitude": "29.9194524281326",
      "longitude": "-90.0271003820179"
    }
  },
  {
    "service_request": "2025-1244886",
    "request_type": "Trash/Recycling",
    "request_reason": "Order Second Trash Cart",
    "date_created": "2025-12-10T13:28:27.000",
    "date_modified": "2025-12-10T13:28:28.000",
    "request_status": "Pending",
    "responsible_agency": "Department of Sanitation",
    "final_address": "8913 Dinkins St",
    "address_councildis": "E",
    "status": "Assigned to Contractor",
    "contractor": "Waste Pro",
    "rowid": "1244886",
    "final_x": "3704781.29098",
    "final_y": "563517.425248",
    "longitude": "-89.99337545240067",
    "latitude": "30.04274913598494",
    "geocoded_column": {
      "latitude": "30.04274913598494",
      "longitude": "-89.99337545240067"
    }
  },
  {
    "service_request": "2025-1244884",
    "request_type": "General Services",
    "request_reason": "General Service Request",
    "date_created": "2025-12-10T13:23:12.000",
    "date_modified": "2025-12-10T13:25:38.000",
    "case_close_date": "2025-12-10T07:25:37.000",
    "request_status": "Closed",
    "responsible_agency": "Orleans Parish Communication District",
    "final_address": "0 BLK Ani St",
    "address_councildis": "D",
    "status": "Referred to External Agency",
    "rowid": "1244884",
    "final_x": "3672561.96849",
    "final_y": "554474.005997",
    "longitude": "-90.0955104718156",
    "latitude": "30.01887964634331",
    "geocoded_column": {
      "latitude": "30.01887964634331",
      "longitude": "-90.0955104718156"
    }
  },
  {
    "service_request": "2025-1244885",
    "request_type": "General Services",
    "request_reason": "General Service Request",
    "date_created": "2025-12-10T13:23:12.000",
    "date_modified": "2025-12-10T13:25:05.000",
    "case_close_date": "2025-12-10T07:25:05.000",
    "request_status": "Closed",
    "responsible_agency": "Orleans Parish Communication District",
    "final_address": "0 BLK Ani St",
    "address_councildis": "D",
    "status": "Referred to External Agency",
    "rowid": "1244885",
    "final_x": "3672561.96849",
    "final_y": "554474.005997",
    "longitude": "-90.0955104718156",
    "latitude": "30.01887964634331",
    "geocoded_column": {
      "latitude": "30.01887964634331",
      "longitude": "-90.0955104718156"
    }
  },
  {
    "service_request": "2025-1244883",
    "request_type": "Parks & Parkways",
    "request_reason": "Request Tree Service (Right of Way/Public Property)",
    "date_created": "2025-12-10T13:21:13.000",
    "date_modified": "2025-12-10T13:21:15.000",
    "request_status": "Pending",
    "responsible_agency": "Department of Parks & Parkway",
    "final_address": "3316 Gentilly Blvd",
    "address_councildis": "D",
    "status": "Pending",
    "rowid": "1244883",
    "final_x": "3684723.62601",
    "final_y": "548025.388562",
    "longitude": "-90.05731089597859",
    "latitude": "30.000781441603582",
    "geocoded_column": {
      "latitude": "30.000781441603582",
      "longitude": "-90.05731089597859"
    }
  },
  {
    "service_request": "2025-1244882",
    "request_type": "Trash/Recycling",
    "request_reason": "Request a Large Item Pick Up",
    "date_created": "2025-12-10T13:16:20.000",
    "date_modified": "2025-12-10T13:16:21.000",
    "request_status": "Pending",
    "responsible_agency": "Department of Sanitation",
    "final_address": "1821 St Roch Ave",
    "address_councildis": "D",
    "status": "Assigned to Contractor",
    "contractor": "IV Waste",
    "rowid": "1244882",
    "final_x": "3686474.53282",
    "final_y": "539209.200074",
    "longitude": "-90.05209108551472",
    "latitude": "29.97648633612269",
    "geocoded_column": {
      "latitude": "29.97648633612269",
      "longitude": "-90.05209108551472"
    }
  },
  {
    "service_request": "2025-1244881",
    "request_type": "Safety & Permits",
    "request_reason": "Zoning Enforcement",
    "date_created": "2025-12-10T13:15:35.000",
    "date_modified": "2025-12-10T13:15:37.000",
    "request_status": "Pending",
    "responsible_agency": "Safety and Permits",
    "final_address": "4431 Trieste St",
    "address_councildis": "E",
    "status": "Pending",
    "rowid": "1244881",
    "final_x": "3760302.77084",
    "final_y": "574262.283306",
    "longitude": "-89.81746064596285",
    "latitude": "30.070390474968733",
    "geocoded_column": {
      "latitude": "30.070390474968733",
      "longitude": "-89.81746064596285"
    }
  },
  {
    "service_request": "2025-1244880",
    "request_type": "Trash/Recycling",
    "request_reason": "Repair Trash Cart",
    "date_created": "2025-12-10T13:13:00.000",
    "date_modified": "2025-12-10T13:13:01.000",
    "request_status": "Pending",
    "responsible_agency": "Department of Sanitation",
    "final_address": "3426 Blair St",
    "address_councildis": "C",
    "status": "Assigned to Contractor",
    "contractor": "IV Waste",
    "rowid": "1244880",
    "final_x": "3709441.97265",
    "final_y": "518081.223158",
    "longitude": "-89.98034152100388",
    "latitude": "29.9176658674668",
    "geocoded_column": {
      "latitude": "29.9176658674668",
      "longitude": "-89.98034152100388"
    }
  },
  {
    "service_request": "2025-1244879",
    "request_type": "Abandoned Vehicles",
    "request_reason": "Abandoned/Junk Vehicles",
    "date_created": "2025-12-10T13:11:00.000",
    "date_modified": "2025-12-10T13:11:02.000",
    "request_status": "Pending",
    "responsible_agency": "Department of Public Works",
    "final_address": "2137 Jackson Ave",
    "address_councildis": "B",
    "status": "Pending",
    "rowid": "1244879",
    "final_x": "3676081.96597",
    "final_y": "525817.240317",
    "longitude": "-90.08537465936054",
    "latitude": "29.939978377456967",
    "geocoded_column": {
      "latitude": "29.939978377456967",
      "longitude": "-90.08537465936054"
    }
  },
  {
    "service_request": "2025-1244878",
    "request_type": "Trash/Recycling",
    "request_reason": "Request a Large Item Pick Up",
    "date_created": "2025-12-10T13:05:59.000",
    "date_modified": "2025-12-10T13:06:00.000",
    "request_status": "Pending",
    "responsible_agency": "Department of Sanitation",
    "final_address": "1749 N Miro St",
    "address_councildis": "D",
    "status": "Assigned to Contractor",
    "contractor": "IV Waste",
    "rowid": "1244878",
    "final_x": "3681373.35061",
    "final_y": "540126.641611",
    "longitude": "-90.06817016718371",
    "latitude": "29.979164834842535",
    "geocoded_column": {
      "latitude": "29.979164834842535",
      "longitude": "-90.06817016718371"
    }
  },
  {
    "service_request": "2025-1244877",
    "request_type": "Trash/Recycling",
    "request_reason": "Order Second Trash Cart",
    "date_created": "2025-12-10T12:54:02.000",
    "date_modified": "2025-12-10T12:54:03.000",
    "request_status": "Pending",
    "responsible_agency": "Department of Sanitation",
    "final_address": "4810 Arthur Dr",
    "address_councildis": "E",
    "status": "Assigned to Contractor",
    "contractor": "Waste Pro",
    "rowid": "1244877",
    "final_x": "3707563.51147",
    "final_y": "556056.792281",
    "longitude": "-89.98486007423516",
    "latitude": "30.022145577968118",
    "geocoded_column": {
      "latitude": "30.022145577968118",
      "longitude": "-89.98486007423516"
    }
  },
  {
    "service_request": "2025-1244876",
    "request_type": "Property Maintenance",
    "request_reason": "Property Maintenance",
    "date_created": "2025-12-10T12:51:30.000",
    "date_modified": "2025-12-10T13:37:01.000",
    "case_close_date": "2025-12-10T07:37:01.000",
    "request_status": "Closed",
    "responsible_agency": "Department of Code Enforcement",
    "final_address": "8831 Middleboro Rd",
    "address_councildis": "E",
    "status": "Referred to Code Enforcement",
    "rowid": "1244876",
    "final_x": "3705974.07377",
    "final_y": "560818.115038",
    "longitude": "-89.98970584378415",
    "latitude": "30.035288692484748",
    "geocoded_column": {
      "latitude": "30.035288692484748",
      "longitude": "-89.98970584378415"
    }
  },
  {
    "service_request": "2025-1244875",
    "request_type": "Trash/Recycling",
    "request_reason": "Illegal Dumping",
    "date_created": "2025-12-10T12:48:37.000",
    "date_modified": "2025-12-10T12:48:39.000",
    "request_status": "Pending",
    "responsible_agency": "Department of Sanitation",
    "final_address": "6951 Yorktown Dr",
    "address_councildis": "E",
    "status": "Pending",
    "rowid": "1244875",
    "final_x": "3706315.97771",
    "final_y": "560320.976413",
    "longitude": "-89.98864381626501",
    "latitude": "30.033910728630428",
    "geocoded_column": {
      "latitude": "30.033910728630428",
      "longitude": "-89.98864381626501"
    }
  },
  {
    "service_request": "2025-1244874",
    "request_type": "Property Maintenance",
    "request_reason": "Property Maintenance",
    "date_created": "2025-12-10T12:47:04.000",
    "date_modified": "2025-12-10T14:05:11.000",
    "case_close_date": "2025-12-10T08:05:10.000",
    "request_status": "Closed",
    "responsible_agency": "Department of Code Enforcement",
    "final_address": "7071 Yorktown Dr",
    "address_councildis": "E",
    "status": "Referred to Code Enforcement",
    "rowid": "1244874",
    "final_x": "3706121.88004",
    "final_y": "560767.23619",
    "longitude": "-89.98924064131506",
    "latitude": "30.03514402921631",
    "geocoded_column": {
      "latitude": "30.03514402921631",
      "longitude": "-89.98924064131506"
    }
  },
  {
    "service_request": "2025-1244873",
    "request_type": "Trash/Recycling",
    "request_reason": "Order Second Trash Cart",
    "date_created": "2025-12-10T12:46:55.000",
    "date_modified": "2025-12-10T12:46:57.000",
    "request_status": "Pending",
    "responsible_agency": "Department of Sanitation",
    "final_address": "6540 Coventry St",
    "address_councildis": "E",
    "status": "Assigned to Contractor",
    "contractor": "Waste Pro",
    "rowid": "1244873",
    "final_x": "3697636.74608",
    "final_y": "559042.346908",
    "longitude": "-90.0161175489098",
    "latitude": "30.030672194274807",
    "geocoded_column": {
      "latitude": "30.030672194274807",
      "longitude": "-90.0161175489098"
    }
  },
  {
    "service_request": "2025-1244872",
    "request_type": "Trash/Recycling",
    "request_reason": "Request a Large Item Pick Up",
    "date_created": "2025-12-10T12:45:59.000",
    "date_modified": "2025-12-10T12:46:01.000",
    "request_status": "Pending",
    "responsible_agency": "Department of Sanitation",
    "final_address": "6540 Coventry St",
    "address_councildis": "E",
    "status": "Assigned to Contractor",
    "contractor": "Waste Pro",
    "rowid": "1244872",
    "final_x": "3697636.74608",
    "final_y": "559042.346908",
    "longitude": "-90.0161175489098",
    "latitude": "30.030672194274807",
    "geocoded_column": {
      "latitude": "30.030672194274807",
      "longitude": "-90.0161175489098"
    }
  },
  {
    "service_request": "2025-1244871",
    "request_type": "Safety & Permits",
    "request_reason": "Zoning Enforcement",
    "date_created": "2025-12-10T12:45:03.000",
    "date_modified": "2025-12-10T14:50:24.000",
    "case_close_date": "2025-12-10T08:50:23.000",
    "request_status": "Closed",
    "responsible_agency": "Safety and Permits",
    "final_address": "6951 Yorktown Dr",
    "address_councildis": "E",
    "contractor_action": "Completed",
    "rowid": "1244871",
    "final_x": "3706315.97771",
    "final_y": "560320.976413",
    "longitude": "-89.98864381626501",
    "latitude": "30.033910728630428",
    "geocoded_column": {
      "latitude": "30.033910728630428",
      "longitude": "-89.98864381626501"
    }
  },
  {
    "service_request": "2025-1244870",
    "request_type": "Property Maintenance",
    "request_reason": "Property Maintenance",
    "date_created": "2025-12-10T12:43:04.000",
    "date_modified": "2025-12-10T15:07:13.000",
    "case_close_date": "2025-12-10T09:07:12.000",
    "request_status": "Closed",
    "responsible_agency": "Department of Code Enforcement",
    "final_address": "6900 Boston Dr",
    "address_councildis": "E",
    "status": "Referred to Code Enforcement",
    "rowid": "1244870",
    "final_x": "3706636.51639",
    "final_y": "560143.482781",
    "longitude": "-89.98763747063104",
    "latitude": "30.03341234394533",
    "geocoded_column": {
      "latitude": "30.03341234394533",
      "longitude": "-89.98763747063104"
    }
  },
  {
    "service_request": "2025-1244869",
    "request_type": "Property Maintenance",
    "request_reason": "Property Maintenance",
    "date_created": "2025-12-10T12:40:43.000",
    "date_modified": "2025-12-10T12:40:49.000",
    "request_status": "Pending",
    "responsible_agency": "Department of Code Enforcement",
    "final_address": "6913 Yorktown Dr",
    "address_councildis": "E",
    "status": "Pending",
    "rowid": "1244869",
    "final_x": "3706424.63057",
    "final_y": "560117.522525",
    "longitude": "-89.98830800980392",
    "latitude": "30.033347803973584",
    "geocoded_column": {
      "latitude": "30.033347803973584",
      "longitude": "-89.98830800980392"
    }
  },
  {
    "service_request": "2025-1244868",
    "request_type": "Trash/Recycling",
    "request_reason": "Request a Large Item Pick Up",
    "date_created": "2025-12-10T12:38:33.000",
    "date_modified": "2025-12-10T12:38:36.000",
    "request_status": "Pending",
    "responsible_agency": "Department of Sanitation",
    "final_address": "519 S Cortez St",
    "address_councildis": "B",
    "status": "Assigned to Contractor",
    "contractor": "IV Waste",
    "rowid": "1244868",
    "final_x": "3670971.35329",
    "final_y": "536215.415047",
    "longitude": "-90.1011566426498",
    "latitude": "29.968721985798698",
    "geocoded_column": {
      "latitude": "29.968721985798698",
      "longitude": "-90.1011566426498"
    }
  },
  {
    "service_request": "2025-1244867",
    "request_type": "Trash/Recycling",
    "request_reason": "Return Trash Cart",
    "date_created": "2025-12-10T12:37:19.000",
    "date_modified": "2025-12-10T12:37:21.000",
    "request_status": "Pending",
    "responsible_agency": "Department of Sanitation",
    "final_address": "416 Calhoun St",
    "address_councildis": "A",
    "status": "Assigned to Contractor",
    "contractor": "IV Waste",
    "rowid": "1244867",
    "final_x": "3662899.80691",
    "final_y": "518564.685431",
    "longitude": "-90.12723391839378",
    "latitude": "29.92042431948801",
    "geocoded_column": {
      "latitude": "29.92042431948801",
      "longitude": "-90.12723391839378"
    }
  },
  {
    "service_request": "2025-1244866",
    "request_type": "Trash/Recycling",
    "request_reason": "Request a Large Item Pick Up",
    "date_created": "2025-12-10T12:32:58.000",
    "date_modified": "2025-12-10T12:33:00.000",
    "request_status": "Pending",
    "responsible_agency": "Department of Sanitation",
    "final_address": "3052 St Claude Ave",
    "address_councildis": "C",
    "status": "Assigned to Contractor",
    "contractor": "IV Waste",
    "rowid": "1244866",
    "final_x": "535996.212039",
    "final_y": "535996.212039",
    "longitude": "-99.98617674222241",
    "latitude": "29.68877108988572",
    "geocoded_column": {
      "latitude": "29.68877108988572",
      "longitude": "-99.98617674222241"
    }
  },
  {
    "service_request": "2025-1244865",
    "request_type": "Trash/Recycling",
    "request_reason": "Request a Large Item Pick Up",
    "date_created": "2025-12-10T12:28:52.000",
    "date_modified": "2025-12-10T12:28:54.000",
    "request_status": "Pending",
    "responsible_agency": "Department of Sanitation",
    "final_address": "7813 Sandy Cove Dr",
    "address_councildis": "E",
    "status": "Assigned to Contractor",
    "contractor": "Waste Pro",
    "rowid": "1244865",
    "final_x": "3715184.01496",
    "final_y": "569998.25719",
    "longitude": "-89.96025358724931",
    "latitude": "30.060230176521554",
    "geocoded_column": {
      "latitude": "30.060230176521554",
      "longitude": "-89.96025358724931"
    }
  },
  {
    "service_request": "2025-1244864",
    "request_type": "Street and Traffic Signs",
    "request_reason": "Stop Sign Missing or Damaged",
    "date_created": "2025-12-10T12:26:07.000",
    "date_modified": "2025-12-10T12:26:08.000",
    "request_status": "Pending",
    "responsible_agency": "Department of Public Works",
    "final_address": "BUNKER HILL RD & BOSTON DR",
    "address_councildis": "E",
    "status": "Pending",
    "rowid": "1244864",
    "final_x": "3705965.0",
    "final_y": "561629.58",
    "longitude": "-89.989704448147",
    "latitude": "30.037520193990545",
    "geocoded_column": {
      "latitude": "30.037520193990545",
      "longitude": "-89.989704448147"
    }
  },
  {
    "service_request": "2025-1244863",
    "request_type": "Roads and Streets",
    "request_reason": "Pothole",
    "date_created": "2025-12-10T12:25:28.000",
    "date_modified": "2025-12-10T12:25:29.000",
    "request_status": "Pending",
    "responsible_agency": "Department of Public Works",
    "final_address": "1728 Soniat St",
    "address_councildis": "B",
    "status": "Pending",
    "rowid": "1244863",
    "final_x": "3668421.10657",
    "final_y": "522081.894842",
    "longitude": "-90.10968715054658",
    "latitude": "29.92993457356602",
    "geocoded_column": {
      "latitude": "29.92993457356602",
      "longitude": "-90.10968715054658"
    }
  },
  {
    "service_request": "2025-1244862",
    "request_type": "Trash/Recycling",
    "request_reason": "Request a Large Item Pick Up",
    "date_created": "2025-12-10T12:23:48.000",
    "date_modified": "2025-12-10T12:23:49.000",
    "request_status": "Pending",
    "responsible_agency": "Department of Sanitation",
    "final_address": "722 Spain St",
    "address_councildis": "C",
    "status": "Assigned to Contractor",
    "contractor": "IV Waste",
    "rowid": "1244862",
    "final_x": "3686206.48412",
    "final_y": "535138.41383",
    "longitude": "-90.05308131227356",
    "latitude": "29.96530133349594",
    "geocoded_column": {
      "latitude": "29.96530133349594",
      "longitude": "-90.05308131227356"
    }
  },
  {
    "service_request": "2025-1244861",
    "request_type": "Trash/Recycling",
    "request_reason": "Request a Large Item Pick Up",
    "date_created": "2025-12-10T12:23:01.000",
    "date_modified": "2025-12-10T12:23:03.000",
    "request_status": "Pending",
    "responsible_agency": "Department of Sanitation",
    "final_address": "3711 Louisiana Avenue Prkwy",
    "address_councildis": "B",
    "status": "Assigned to Contractor",
    "contractor": "IV Waste",
    "rowid": "1244861",
    "final_x": "3671432.549",
    "final_y": "528545.795008",
    "longitude": "-90.09996087026889",
    "latitude": "29.947619430620943",
    "geocoded_column": {
      "latitude": "29.947619430620943",
      "longitude": "-90.09996087026889"
    }
  },
  {
    "service_request": "2025-1244860",
    "request_type": "Trash/Recycling",
    "request_reason": "Start Trash Service",
    "date_created": "2025-12-10T12:21:59.000",
    "date_modified": "2025-12-10T12:22:01.000",
    "request_status": "Pending",
    "responsible_agency": "Department of Sanitation",
    "final_address": "7601 Hickman St",
    "address_councildis": "E",
    "status": "Assigned to Contractor",
    "contractor": "Waste Pro",
    "rowid": "1244860",
    "final_x": "3706273.69367",
    "final_y": "563239.218464",
    "longitude": "-89.98866921634642",
    "latitude": "30.04193610609259",
    "geocoded_column": {
      "latitude": "30.04193610609259",
      "longitude": "-89.98866921634642"
    }
  },
  {
    "service_request": "2025-1244859",
    "request_type": "Trash/Recycling",
    "request_reason": "Request a Large Item Pick Up",
    "date_created": "2025-12-10T12:20:44.000",
    "date_modified": "2025-12-10T12:20:48.000",
    "request_status": "Pending",
    "responsible_agency": "Department of Sanitation",
    "final_address": "7331 Dalewood Rd",
    "address_councildis": "E",
    "status": "Assigned to Contractor",
    "contractor": "Waste Pro",
    "rowid": "1244859",
    "final_x": "3700312.88535",
    "final_y": "559630.525725",
    "longitude": "-90.00763944591128",
    "latitude": "30.032204597778183",
    "geocoded_column": {
      "latitude": "30.032204597778183",
      "longitude": "-90.00763944591128"
    }
  },
  {
    "service_request": "2025-1244858",
    "request_type": "Healthy Homes",
    "request_reason": "Healthy Homes",
    "date_created": "2025-12-10T12:20:21.000",
    "date_modified": "2025-12-10T12:43:52.000",
    "case_close_date": "2025-12-10T06:43:46.000",
    "request_status": "Closed",
    "responsible_agency": "Department of Code Enforcement",
    "final_address": "3033 Dryades St",
    "address_councildis": "B",
    "status": "Referred to Code Enforcement",
    "rowid": "1244858",
    "final_x": "3674394.5362",
    "final_y": "522875.472891",
    "longitude": "-90.09080284754548",
    "latitude": "29.931939901660616",
    "geocoded_column": {
      "latitude": "29.931939901660616",
      "longitude": "-90.09080284754548"
    }
  },
  {
    "service_request": "2025-1244857",
    "request_type": "Roads and Streets",
    "request_reason": "Curb Damage",
    "date_created": "2025-12-10T12:17:50.000",
    "date_modified": "2025-12-10T12:17:51.000",
    "request_status": "Pending",
    "responsible_agency": "Department of Public Works",
    "final_address": "2317 Burgundy St",
    "address_councildis": "C",
    "status": "Pending",
    "rowid": "1244857",
    "final_x": "3685639.45468",
    "final_y": "535708.894855",
    "longitude": "-90.05485185853976",
    "latitude": "29.966887366653427",
    "geocoded_column": {
      "latitude": "29.966887366653427",
      "longitude": "-90.05485185853976"
    }
  },