[
  {
    "service_request": "2022-888070",
    "request_type": "Traffic Signals/Signs/Striping/Streetlights",
    "request_reason": "Street Light Knocked Down/Leaning",
    "date_created": "2022-06-02T01:00:13.000",
    "date_modified": "2022-06-02T01:00:14.000",
    "request_status": "Pending",
    "responsible_agency": "Department of Public Works",
    "final_address": "ELYSIAN FIELDS AVE & LAKESHORE DR",
    "address_councildis": "D",
    "status": "Pending",
    "contractor": "Royal Engineering",
    "rowid": "888070",
    "final_x": "3683153.2",
    "final_y": "558703.28",
    "longitude": "-90.06189768486175",
    "latitude": "30.030189739024028",
    "geocoded_column": {
      "latitude": "30.030189739024028",
      "longitude": "-90.06189768486175"
    }
  },
  {
    "service_request": "2022-888069",
    "request_type": "Traffic Signals/Signs/Striping/Streetlights",
    "request_reason": "Street Light Outage/Malfunction",
    "date_created": "2022-06-02T00:30:03.000",
    "date_modified": "2022-06-02T00:30:03.000",
    "request_status": "Pending",
    "responsible_agency": "Department of Public Works",
    "final_address": "DESIRE ST & N CLAIBORNE AVE",
    "address_councildis": "D",
    "status": "Pending",
    "contractor": "Royal Engineering",
    "rowid": "888069",
    "final_x": "3690646.9",
    "final_y": "537574.48",
    "longitude": "-90.03897184831987",
    "latitude": "29.971862492608903",
    "geocoded_column": {
      "latitude": "29.971862492608903",
      "longitude": "-90.03897184831987"
    }
  },
  {
    "service_request": "2022-888068",
    "request_type": "Property Maintenance",
    "request_reason": "Property Maintenance",
    "date_created": "2022-06-01T22:59:19.000",
    "date_modified": "2022-06-01T22:59:19.000",
    "request_status": "Pending",
    "responsible_agency": "Department of Code Enforcement",
    "final_address": "3324 Octavia St",
    "address_councildis": "A",
    "status": "Pending",
    "rowid": "888068",
    "final_x": "3668388.43604",
    "final_y": "527935.548095",
    "longitude": "-90.10959293312362",
    "latitude": "29.94603119606775",
    "geocoded_column": {
      "latitude": "29.94603119606775",
      "longitude": "-90.10959293312362"
    }
  },
  {
    "service_request": "2022-888067",
    "request_type": "Traffic Signals/Signs/Striping/Streetlights",
    "request_reason": "Street Light Outage/Malfunction",
    "date_created": "2022-06-01T22:46:01.000",
    "date_modified": "2022-06-01T22:46:02.000",
    "request_status": "Pending",
    "responsible_agency": "Department of Public Works",
    "final_address": "8130 Pritchard Pl",
    "address_councildis": "A",
    "status": "Pending",
    "contractor": "Royal Engineering",
    "rowid": "888067",
    "final_x": "3665813.61869",
    "final_y": "532996.308164",
    "longitude": "-90.11755300174858",
    "latitude": "29.96002200112396",
    "geocoded_column": {
      "latitude": "29.96002200112396",
      "longitude": "-90.11755300174858"
    }
  },
  {
    "service_request": "2022-888066",
    "request_type": "Trash/Recycling",
    "request_reason": "Missed Trash Pick-Up",
    "date_created": "2022-06-01T22:35:43.000",
    "date_modified": "2022-06-01T22:35:44.000",
    "request_status": "Pending",
    "responsible_agency": "Department of Sanitation",
    "final_address": "2830 Broadway St",
    "address_councildis": "B",
    "status": "Assigned to Contractor",
    "contractor": "Richards Disposal",
    "rowid": "888066",
    "final_x": "3667412.55341",
    "final_y": "531530.738115",
    "longitude": "-90.11255320122584",
    "latitude": "29.955945419086795",
    "geocoded_column": {
      "latitude": "29.955945419086795",
      "longitude": "-90.11255320122584"
    }
  },
  {
    "service_request": "2022-888065",
    "request_type": "Trash/Recycling",
    "request_reason": "Missed Trash Pick-Up",
    "date_created": "2022-06-01T22:33:01.000",
    "date_modified": "2022-06-01T22:33:02.000",
    "request_status": "Pending",
    "responsible_agency": "Department of Sanitation",
    "final_address": "2711 Valence St",
    "address_councildis": "B",
    "status": "Assigned to Contractor",
    "contractor": "Richards Disposal",
    "rowid": "888065",
    "final_x": "3669391.6402",
    "final_y": "524736.29926",
    "longitude": "-90.10653361493469",
    "latitude": "29.9372047996219",
    "geocoded_column": {
      "latitude": "29.9372047996219",
      "longitude": "-90.10653361493469"
    }
  },
  {
    "service_request": "2022-888064",
    "request_type": "Trash/Recycling",
    "request_reason": "Request a Large Item Pick Up",
    "date_created": "2022-06-01T22:25:06.000",
    "date_modified": "2022-06-01T22:25:07.000",
    "request_status": "Pending",
    "responsible_agency": "Department of Sanitation",
    "final_address": "5526 S Claiborne Ave",
    "address_councildis": "A",
    "status": "Assigned to Contractor",
    "contractor": "Richards Disposal",
    "rowid": "888064",
    "final_x": "3667892.95469",
    "final_y": "526439.486014",
    "longitude": "-90.11120772230845",
    "latitude": "29.94193205041005",
    "geocoded_column": {
      "latitude": "29.94193205041005",
      "longitude": "-90.11120772230845"
    }
  },
  {
    "service_request": "2022-888063",
    "request_type": "Trash/Recycling",
    "request_reason": "Order Recycling Cart",
    "date_created": "2022-06-01T22:15:31.000",
    "date_modified": "2022-06-01T22:15:31.000",
    "request_status": "Pending",
    "responsible_agency": "Department of Sanitation",
    "final_address": "531 Second St",
    "address_councildis": "B",
    "status": "Pending",
    "rowid": "888063",
    "final_x": "3678946.68136",
    "final_y": "519703.907704",
    "longitude": "-90.07654202089383",
    "latitude": "29.923082616838766",
    "geocoded_column": {
      "latitude": "29.923082616838766",
      "longitude": "-90.07654202089383"
    }
  },
  {
    "service_request": "2022-888062",
    "request_type": "Property Maintenance",
    "request_reason": "Property Maintenance",
    "date_created": "2022-06-01T22:14:05.000",
    "date_modified": "2022-06-01T22:14:05.000",
    "request_status": "Pending",
    "responsible_agency": "Department of Code Enforcement",
    "final_address": "12151 E Barrington Dr",
    "address_councildis": "E",
    "status": "Pending",
    "rowid": "888062",
    "final_x": "3715053.27992",
    "final_y": "566449.442915",
    "longitude": "-89.96080119931258",
    "latitude": "30.050476702283",
    "geocoded_column": {
      "latitude": "30.050476702283",
      "longitude": "-89.96080119931258"
    }
  },
  {
    "service_request": "2022-888061",
    "request_type": "Trash/Recycling",
    "request_reason": "Missed Trash Pick-Up",
    "date_created": "2022-06-01T22:13:34.000",
    "date_modified": "2022-06-01T22:13:34.000",
    "request_status": "Pending",
    "responsible_agency": "Department of Sanitation",
    "final_address": "1434 Audubon St",
    "address_councildis": "A",
    "status": "Assigned to Contractor",
    "contractor": "Richards Disposal",
    "rowid": "888061",
    "final_x": "3664896.74132",
    "final_y": "527102.732031",
    "longitude": "-90.12064527795641",
    "latitude": "29.94384329508611",
    "geocoded_column": {
      "latitude": "29.94384329508611",
      "longitude": "-90.12064527795641"
    }
  },
  {
    "service_request": "2022-888060",
    "request_type": "Trash/Recycling",
    "request_reason": "Repair Trash Cart",
    "date_created": "2022-06-01T22:11:55.000",
    "date_modified": "2022-06-01T22:11:56.000",
    "request_status": "Pending",
    "responsible_agency": "Department of Sanitation",
    "final_address": "1434 Audubon St",
    "address_councildis": "A",
    "status": "Assigned to Contractor",
    "contractor": "Richards Disposal",
    "rowid": "888060",
    "final_x": "3664896.74132",
    "final_y": "527102.732031",
    "longitude": "-90.12064527795641",
    "latitude": "29.94384329508611",
    "geocoded_column": {
      "latitude": "29.94384329508611",
      "longitude": "-90.12064527795641"
    }
  },
  {
    "service_request": "2022-888059",
    "request_type": "Roads/Drainage",
    "request_reason": "Pothole",
    "date_created": "2022-06-01T21:58:46.000",
    "date_modified": "2022-06-01T21:58:46.000",
    "request_status": "Pending",
    "responsible_agency": "Department of Public Works",
    "final_address": "2638 Lapeyrouse St",
    "address_councildis": "D",
    "status": "Pending",
    "rowid": "888059",
    "final_x": "3678799.96034",
    "final_y": "540326.247435",
    "longitude": "-90.07629101954583",
    "latitude": "29.979791558650504",
    "geocoded_column": {
      "latitude": "29.979791558650504",
      "longitude": "-90.07629101954583"
    }
  },
  {
    "service_request": "2022-888058",
    "request_type": "Traffic Signals/Signs/Striping/Streetlights",
    "request_reason": "Traffic Signal Malfunctioning/Damaged",
    "date_created": "2022-06-01T21:42:04.000",
    "date_modified": "2022-06-01T21:42:04.000",
    "request_status": "Pending",
    "responsible_agency": "Department of Public Works",
    "final_address": "DESIRE ST & N CLAIBORNE AVE",
    "address_councildis": "D",
    "status": "Pending",
    "rowid": "888058",
    "final_x": "3690646.9",
    "final_y": "537574.48",
    "longitude": "-90.03897184831987",
    "latitude": "29.971862492608903",
    "geocoded_column": {
      "latitude": "29.971862492608903",
      "longitude": "-90.03897184831987"
    }
  },
  {
    "service_request": "2022-888057",
    "request_type": "Roads/Drainage",
    "request_reason": "Accessibility Ramps, Curbs and Sidewalk Repair",
    "date_created": "2022-06-01T21:39:13.000",
    "date_modified": "2022-06-01T21:39:13.000",
    "request_status": "Pending",
    "responsible_agency": "Department of Public Works",
    "final_address": "3701 Napoleon Ave",
    "address_councildis": "B",
    "status": "Pending",
    "rowid": "888057",
    "final_x": "3670212.17415",
    "final_y": "528205.00416",
    "longitude": "-90.10382562664194",
    "latitude": "29.94671843033207",
    "geocoded_column": {
      "latitude": "29.94671843033207",
      "longitude": "-90.10382562664194"
    }
  },
  {
    "service_request": "2022-888056",
    "request_type": "Roads/Drainage",
    "request_reason": "Catch Basin - Clogged",
    "date_created": "2022-06-01T21:37:49.000",
    "date_modified": "2022-06-01T21:37:49.000",
    "request_status": "Pending",
    "responsible_agency": "Department of Public Works",
    "final_address": "3701 Napoleon Ave",
    "address_councildis": "B",
    "status": "Pending",
    "rowid": "888056",
    "final_x": "3670212.17415",
    "final_y": "528205.00416",
    "longitude": "-90.10382562664194",
    "latitude": "29.94671843033207",
    "geocoded_column": {
      "latitude": "29.94671843033207",
      "longitude": "-90.10382562664194"
    }
  },
  {
    "service_request": "2022-888055",
    "request_type": "Traffic Signals/Signs/Striping/Streetlights",
    "request_reason": "Street Light Outage/Malfunction",
    "date_created": "2022-06-01T20:57:57.000",
    "date_modified": "2022-06-01T20:57:57.000",
    "request_status": "Pending",
    "responsible_agency": "Department of Public Works",
    "final_address": "2514 Adams St",
    "address_councildis": "A",
    "status": "Pending",
    "contractor": "Royal Engineering",
    "rowid": "888055",
    "final_x": "3666291.92775",
    "final_y": "531000.21101",
    "longitude": "-90.11610955893856",
    "latitude": "29.95451942389691",
    "geocoded_column": {
      "latitude": "29.95451942389691",
      "longitude": "-90.11610955893856"
    }
  },
  {
    "service_request": "2022-888054",
    "request_type": "Trash/Recycling",
    "request_reason": "Missed Trash Pick-Up",
    "date_created": "2022-06-01T20:50:36.000",
    "date_modified": "2022-06-01T20:50:36.000",
    "request_status": "Pending",
    "responsible_agency": "Department of Sanitation",
    "final_address": "2123 Broadway St",
    "address_councildis": "A",
    "status": "Assigned to Contractor",
    "contractor": "Richards Disposal",
    "rowid": "888054",
    "final_x": "3666112.92826",
    "final_y": "529285.727937",
    "longitude": "-90.11673225146713",
    "latitude": "29.9498103802666",
    "geocoded_column": {
      "latitude": "29.9498103802666",
      "longitude": "-90.11673225146713"
    }
  },
  {
    "service_request": "2022-888053",
    "request_type": "Trash/Recycling",
    "request_reason": "Missed Trash Pick-Up",
    "date_created": "2022-06-01T20:24:43.000",
    "date_modified": "2022-06-01T20:24:44.000",
    "request_status": "Pending",
    "responsible_agency": "Department of Sanitation",
    "final_address": "2714 Palmer Ave",
    "address_councildis": "A",
    "status": "Assigned to Contractor",
    "contractor": "Richards Disposal",
    "rowid": "888053",
    "final_x": "3666711.39905",
    "final_y": "526656.182462",
    "longitude": "-90.11493088157681",
    "latitude": "29.942562494858546",
    "geocoded_column": {
      "latitude": "29.942562494858546",
      "longitude": "-90.11493088157681"
    }
  },
  {
    "service_request": "2022-888052",
    "request_type": "Trash/Recycling",
    "request_reason": "MIssed Recycling Pick-Up",
    "date_created": "2022-06-01T20:22:46.000",
    "date_modified": "2022-06-01T20:22:47.000",
    "request_status": "Pending",
    "responsible_agency": "Department of Sanitation",
    "final_address": "2714 Palmer Ave",
    "address_councildis": "A",
    "status": "Assigned to Contractor",
    "contractor": "Richards Disposal",
    "rowid": "888052",
    "final_x": "3666711.39905",
    "final_y": "526656.182462",
    "longitude": "-90.11493088157681",
    "latitude": "29.942562494858546",
    "geocoded_column": {
      "latitude": "29.942562494858546",
      "longitude": "-90.11493088157681"
    }
  },
  {
    "service_request": "2022-888051",
    "request_type": "Trash/Recycling",
    "request_reason": "Missed Trash Pick-Up",
    "date_created": "2022-06-01T20:22:04.000",
    "date_modified": "2022-06-01T20:22:05.000",
    "request_status": "Pending",
    "responsible_agency": "Department of Sanitation",
    "final_address": "2619 Short St, New Orleans, Louisiana, 70125",
    "address_councildis": "A",
    "status": "Assigned to Contractor",
    "contractor": "Richards Disposal",
    "rowid": "888051",
    "final_x": "3665844.02202",
    "final_y": "531914.033603",
    "longitude": "-90.11749325798682",
    "latitude": "29.95704521337064",
    "geocoded_column": {
      "latitude": "29.95704521337064",
      "longitude": "-90.11749325798682"
    }
  },
  {
    "service_request": "2022-888050",
    "request_type": "Trash/Recycling",
    "request_reason": "Missed Trash Pick-Up",
    "date_created": "2022-06-01T20:04:21.000",
    "date_modified": "2022-06-01T20:04:22.000",
    "request_status": "Pending",
    "responsible_agency": "Department of Sanitation",
    "final_address": "10 Glacier Ct",
    "address_councildis": "C",
    "status": "Assigned to Contractor",
    "contractor": "Richards Disposal",
    "rowid": "888050",
    "final_x": "3700216.98781",
    "final_y": "515973.615412",
    "longitude": "-90.00953633111642",
    "latitude": "29.91216695442454",
    "geocoded_column": {
      "latitude": "29.91216695442454",
      "longitude": "-90.00953633111642"
    }
  },
  {
    "service_request": "2022-888049",
    "request_type": "Trash/Recycling",
    "request_reason": "Request a Large Item Pick Up",
    "date_created": "2022-06-01T19:48:38.000",
    "date_modified": "2022-06-01T19:48:38.000",
    "request_status": "Pending",
    "responsible_agency": "Department of Sanitation",
    "final_address": "4934 Sandalwood St",
    "address_councildis": "E",
    "status": "Assigned to Contractor",
    "contractor": "Metro Disposal",
    "rowid": "888049",
    "final_x": "3712035.66539",
    "final_y": "557324.259419",
    "longitude": "-89.9706817048853",
    "latitude": "30.025485141915752",
    "geocoded_column": {
      "latitude": "30.025485141915752",
      "longitude": "-89.9706817048853"
    }
  },
  {
    "service_request": "2022-888048",
    "request_type": "Trash/Recycling",
    "request_reason": "Illegal Dumping",
    "date_created": "2022-06-01T19:38:54.000",
    "date_modified": "2022-06-01T19:38:54.000",
    "request_status": "Pending",
    "responsible_agency": "Department of Sanitation",
    "final_address": "3800 Eagle St",
    "address_councildis": "A",
    "status": "Pending",
    "rowid": "888048",
    "final_x": "3666338.49671",
    "final_y": "536997.738376",
    "longitude": "-90.11576127767253",
    "latitude": "29.971009287923287",
    "geocoded_column": {
      "latitude": "29.971009287923287",
      "longitude": "-90.11576127767253"
    }
  },
  {
    "service_request": "2022-888046",
    "request_type": "Trash/Recycling",
    "request_reason": "Request a Large Item Pick Up",
    "date_created": "2022-06-01T19:37:29.000",
    "date_modified": "2022-06-01T19:37:30.000",
    "request_status": "Pending",
    "responsible_agency": "Department of Sanitation",
    "final_address": "8623 Marks St",
    "address_councildis": "A",
    "status": "Assigned to Contractor",
    "contractor": "Richards Disposal",
    "rowid": "888046",
    "final_x": "3667510.02119",
    "final_y": "537366.874376",
    "longitude": "-90.11204901179528",
    "latitude": "29.97199000716756",
    "geocoded_column": {
      "latitude": "29.97199000716756",
      "longitude": "-90.11204901179528"
    }
  },
  {
    "service_request": "2022-888045",
    "request_type": "Trash/Recycling",
    "request_reason": "Illegal Dumping",
    "date_created": "2022-06-01T19:20:39.000",
    "date_modified": "2022-06-01T19:20:39.000",
    "request_status": "Pending",
    "responsible_agency": "Department of Sanitation",
    "final_address": "4659 Clara St",
    "address_councildis": "B",
    "status": "Pending",
    "rowid": "888045",
    "final_x": "3669237.82855",
    "final_y": "525005.648701",
    "longitude": "-90.10701010836664",
    "latitude": "29.93794995102898",
    "geocoded_column": {
      "latitude": "29.93794995102898",
      "longitude": "-90.10701010836664"
    }
  },
  {
    "service_request": "2022-888044",
    "request_type": "Trash/Recycling",
    "request_reason": "Request a Large Item Pick Up",
    "date_created": "2022-06-01T19:13:07.000",
    "date_modified": "2022-06-01T19:13:08.000",
    "request_status": "Pending",
    "responsible_agency": "Department of Sanitation",
    "final_address": "1318 Deslonde St",
    "address_councildis": "E",
    "status": "Assigned to Contractor",
    "contractor": "Metro Disposal",
    "rowid": "888044",
    "final_x": "3695592.42115",
    "final_y": "535328.159622",
    "longitude": "-90.02343429031347",
    "latitude": "29.965531374249323",
    "geocoded_column": {
      "latitude": "29.965531374249323",
      "longitude": "-90.02343429031347"
    }
  },
  {
    "service_request": "2022-888043",
    "request_type": "Trash/Recycling",
    "request_reason": "Missed Trash Pick-Up",
    "date_created": "2022-06-01T19:04:32.000",
    "date_modified": "2022-06-01T19:04:32.000",
    "request_status": "Pending",
    "responsible_agency": "Department of Sanitation",
    "final_address": "4119 Vincennes Pl",
    "address_councildis": "B",
    "status": "Assigned to Contractor",
    "contractor": "Richards Disposal",
    "rowid": "888043",
    "final_x": "3668666.01377",
    "final_y": "530673.316546",
    "longitude": "-90.10862413245691",
    "latitude": "29.953551011573925",
    "geocoded_column": {
      "latitude": "29.953551011573925",
      "longitude": "-90.10862413245691"
    }
  },
  {
    "service_request": "2022-888042",
    "request_type": "Traffic Signals/Signs/Striping/Streetlights",
    "request_reason": "Street Light Outage/Malfunction",
    "date_created": "2022-06-01T18:52:11.000",
    "date_modified": "2022-06-01T18:52:11.000",
    "request_status": "Pending",
    "responsible_agency": "Department of Public Works",
    "final_address": "600 Canal St Apt 701",
    "address_councildis": "B",
    "status": "Pending",
    "contractor": "Royal Engineering",
    "rowid": "888042",
    "final_x": "3681350.56252",
    "final_y": "530432.416386",
    "longitude": "-90.06858009688781",
    "latitude": "29.952509732317008",
    "geocoded_column": {
      "latitude": "29.952509732317008",
      "longitude": "-90.06858009688781"
    }
  },
  {
    "service_request": "2022-888041",
    "request_type": "Traffic Signals/Signs/Striping/Streetlights",
    "request_reason": "Street Light Outage/Malfunction",
    "date_created": "2022-06-01T18:52:11.000",
    "date_modified": "2022-06-01T18:52:11.000",
    "request_status": "Pending",
    "responsible_agency": "Department of Public Works",
    "final_address": "600 Canal St Apt 701",
    "address_councildis": "B",
    "status": "Pending",
    "contractor": "Royal Engineering",
    "rowid": "888041",
    "final_x": "3681350.56252",
    "final_y": "530432.416386",
    "longitude": "-90.06858009688781",
    "latitude": "29.952509732317008",
    "geocoded_column": {
      "latitude": "29.952509732317008",
      "longitude": "-90.06858009688781"
    }
  },
  {
    "service_request": "2022-888040",
    "request_type": "Trash/Recycling",
    "request_reason": "Missed Trash Pick-Up",
    "date_created": "2022-06-01T18:49:15.000",
    "date_modified": "2022-06-01T18:49:16.000",
    "request_status": "Pending",
    "responsible_agency": "Department of Sanitation",
    "final_address": "7514 Willow St",
    "address_councildis": "A",
    "status": "Assigned to Contractor",
    "contractor": "Richards Disposal",
    "rowid": "888040",
    "final_x": "3663903.04058",
    "final_y": "527463.415679",
    "longitude": "-90.12377065390213",
    "latitude": "29.94486393966146",
    "geocoded_column": {
      "latitude": "29.94486393966146",
      "longitude": "-90.12377065390213"
    }
  },
  {
    "service_request": "2022-888039",
    "request_type": "Abandoned Vehicles",
    "request_reason": "Abandoned/Junk Vehicles",
    "date_created": "2022-06-01T18:49:11.000",
    "date_modified": "2022-06-01T18:49:11.000",
    "request_status": "Pending",
    "responsible_agency": "Department of Public Works",
    "final_address": "1435 N Prieur St",
    "address_councildis": "D",
    "status": "Pending",
    "rowid": "888039",
    "final_x": "3680582.93813",
    "final_y": "537497.280392",
    "longitude": "-90.07075810210851",
    "latitude": "29.97195897489021",
    "geocoded_column": {
      "latitude": "29.97195897489021",
      "longitude": "-90.07075810210851"
    }
  },
  {
    "service_request": "2022-888038",
    "request_type": "Traffic Signals/Signs/Striping/Streetlights",
    "request_reason": "Street Light Outage/Malfunction",
    "date_created": "2022-06-01T18:48:46.000",
    "date_modified": "2022-06-01T18:48:47.000",
    "request_status": "Pending",
    "responsible_agency": "Department of Public Works",
    "final_address": "555 Canal St",
    "address_councildis": "C",
    "status": "Pending",
    "contractor": "Royal Engineering",
    "rowid": "888038",
    "final_x": "3681657.1156",
    "final_y": "530427.761794",
    "longitude": "-90.06761230467993",
    "latitude": "29.952487626263423",
    "geocoded_column": {
      "latitude": "29.952487626263423",
      "longitude": "-90.06761230467993"
    }
  },
  {
    "service_request": "2022-888037",
    "request_type": "Traffic Signals/Signs/Striping/Streetlights",
    "request_reason": "Street Light Outage/Malfunction",
    "date_created": "2022-06-01T18:45:32.000",
    "date_modified": "2022-06-01T18:45:33.000",
    "request_status": "Pending",
    "responsible_agency": "Department of Public Works",
    "final_address": "555 Canal St",
    "address_councildis": "C",
    "status": "Pending",
    "contractor": "Royal Engineering",
    "rowid": "888037",
    "final_x": "3681657.1156",
    "final_y": "530427.761794",
    "longitude": "-90.06761230467993",
    "latitude": "29.952487626263423",
    "geocoded_column": {
      "latitude": "29.952487626263423",
      "longitude": "-90.06761230467993"
    }
  },
  {
    "service_request": "2022-888036",
    "request_type": "Abandoned Vehicles",
    "request_reason": "Abandoned/Junk Vehicles",
    "date_created": "2022-06-01T18:43:28.000",
    "date_modified": "2022-06-01T18:43:29.000",
    "request_status": "Pending",
    "responsible_agency": "Department of Public Works",
    "final_address": "500 S Gayoso St",
    "address_councildis": "B",
    "status": "Pending",
    "rowid": "888036",
    "final_x": "3673379.19099",
    "final_y": "534541.839493",
    "longitude": "-90.09360972003024",
    "latitude": "29.96404880070456",
    "geocoded_column": {
      "latitude": "29.96404880070456",
      "longitude": "-90.09360972003024"
    }
  },
  {
    "service_request": "2022-888035",
    "request_type": "Trash/Recycling",
    "request_reason": "MIssed Recycling Pick-Up",
    "date_created": "2022-06-01T18:42:39.000",
    "date_modified": "2022-06-01T18:42:40.000",
    "request_status": "Pending",
    "responsible_agency": "Department of Sanitation",
    "final_address": "4116 Eve St",
    "address_councildis": "B",
    "status": "Assigned to Contractor",
    "contractor": "Richards Disposal",
    "rowid": "888035",
    "final_x": "3670787.33153",
    "final_y": "530422.391426",
    "longitude": "-90.1019344032672",
    "latitude": "29.952798535665753",
    "geocoded_column": {
      "latitude": "29.952798535665753",
      "longitude": "-90.1019344032672"
    }
  },
  {
    "service_request": "2022-888034",
    "request_type": "Traffic Signals/Signs/Striping/Streetlights",
    "request_reason": "Street Light Outage/Malfunction",
    "date_created": "2022-06-01T18:42:14.000",
    "date_modified": "2022-06-01T18:42:15.000",
    "request_status": "Pending",
    "responsible_agency": "Department of Public Works",
    "final_address": "555 Canal St",
    "address_councildis": "C",
    "status": "Pending",
    "contractor": "Royal Engineering",
    "rowid": "888034",
    "final_x": "3681657.1156",
    "final_y": "530427.761794",
    "longitude": "-90.06761230467993",
    "latitude": "29.952487626263423",
    "geocoded_column": {
      "latitude": "29.952487626263423",
      "longitude": "-90.06761230467993"
    }
  },
  {
    "service_request": "2022-888033",
    "request_type": "Trash/Recycling",
    "request_reason": "Request a Large Item Pick Up",
    "date_created": "2022-06-01T18:40:51.000",
    "date_modified": "2022-06-01T18:40:51.000",
    "request_status": "Pending",
    "responsible_agency": "Department of Sanitation",
    "final_address": "1228 Gallier St",
    "address_councildis": "C",
    "status": "Assigned to Contractor",
    "contractor": "Metro Disposal",
    "rowid": "888033",
    "final_x": "3690574.97276",
    "final_y": "536246.590471",
    "longitude": "-90.03924636760223",
    "latitude": "29.968213498292172",
    "geocoded_column": {
      "latitude": "29.968213498292172",
      "longitude": "-90.03924636760223"
    }
  },
  {
    "service_request": "2022-888032",
    "request_type": "Traffic Signals/Signs/Striping/Streetlights",
    "request_reason": "Street Light Outage/Malfunction",
    "date_created": "2022-06-01T18:40:10.000",
    "date_modified": "2022-06-01T18:40:11.000",
    "request_status": "Pending",
    "responsible_agency": "Department of Public Works",
    "final_address": "555 Canal St",
    "address_councildis": "C",
    "status": "Pending",
    "contractor": "Royal Engineering",
    "rowid": "888032",
    "final_x": "3681657.1156",
    "final_y": "530427.761794",
    "longitude": "-90.06761230467993",
    "latitude": "29.952487626263423",
    "geocoded_column": {
      "latitude": "29.952487626263423",
      "longitude": "-90.06761230467993"
    }
  },
  {
    "service_request": "2022-888031",
    "request_type": "Traffic Signals/Signs/Striping/Streetlights",
    "request_reason": "Street Light Outage/Malfunction",
    "date_created": "2022-06-01T18:36:20.000",
    "date_modified": "2022-06-01T18:36:20.000",
    "request_status": "Pending",
    "responsible_agency": "Department of Public Works",
    "final_address": "509 Canal St",
    "address_councildis": "C",
    "status": "Pending",
    "contractor": "Royal Engineering",
    "rowid": "888031",
    "final_x": "3681788.10856",
    "final_y": "530334.46349",
    "longitude": "-90.06720194407475",
    "latitude": "29.952227108122596",
    "geocoded_column": {
      "latitude": "29.952227108122596",
      "longitude": "-90.06720194407475"
    }
  },
  {
    "service_request": "2022-888030",
    "request_type": "Traffic Signals/Signs/Striping/Streetlights",
    "request_reason": "Street Light Outage/Malfunction",
    "date_created": "2022-06-01T18:32:42.000",
    "date_modified": "2022-06-01T18:32:43.000",
    "request_status": "Pending",
    "responsible_agency": "Department of Public Works",
    "final_address": "509 Canal St",
    "address_councildis": "C",
    "status": "Pending",
    "contractor": "Royal Engineering",
    "rowid": "888030",
    "final_x": "3681788.10856",
    "final_y": "530334.46349",
    "longitude": "-90.06720194407475",
    "latitude": "29.952227108122596",
    "geocoded_column": {
      "latitude": "29.952227108122596",
      "longitude": "-90.06720194407475"
    }
  },
  {
    "service_request": "2022-888029",
    "request_type": "Traffic Signals/Signs/Striping/Streetlights",
    "request_reason": "Street Light Outage/Malfunction",
    "date_created": "2022-06-01T18:27:54.000",
    "date_modified": "2022-06-01T18:27:55.000",
    "request_status": "Pending",
    "responsible_agency": "Department of Public Works",
    "final_address": "509 Canal St",
    "address_councildis": "C",
    "status": "Pending",
    "contractor": "Royal Engineering",
    "rowid": "888029",
    "final_x": "3681788.10856",
    "final_y": "530334.46349",
    "longitude": "-90.06720194407475",
    "latitude": "29.952227108122596",
    "geocoded_column": {
      "latitude": "29.952227108122596",
      "longitude": "-90.06720194407475"
    }
  },
  {
    "service_request": "2022-888028",
    "request_type": "Roads/Drainage",
    "request_reason": "Street Flooding / Drainage",
    "date_created": "2022-06-01T18:25:13.000",
    "date_modified": "2022-06-01T18:25:13.000",
    "request_status": "Pending",
    "responsible_agency": "Department of Public Works",
    "final_address": "4901 De Montluzin St",
    "address_councildis": "D",
    "status": "Pending",
    "rowid": "888028",
    "final_x": "3687162.9846",
    "final_y": "551024.365077",
    "longitude": "-90.04949865249249",
    "latitude": "30.008952616409456",
    "geocoded_column": {
      "latitude": "30.008952616409456",
      "longitude": "-90.04949865249249"
    }
  },
  {
    "service_request": "2022-888027",
    "request_type": "Trash/Recycling",
    "request_reason": "Missed Trash Pick-Up",
    "date_created": "2022-06-01T18:23:48.000",
    "date_modified": "2022-06-01T18:23:49.000",
    "request_status": "Pending",
    "responsible_agency": "Department of Sanitation",
    "final_address": "3108 College Ct",
    "address_councildis": "B",
    "status": "Assigned to Contractor",
    "contractor": "Richards Disposal",
    "rowid": "888027",
    "final_x": "3668438.72218",
    "final_y": "531824.666499",
    "longitude": "-90.10930299017294",
    "latitude": "29.956723524055274",
    "geocoded_column": {
      "latitude": "29.956723524055274",
      "longitude": "-90.10930299017294"
    }
  },
  {
    "service_request": "2022-888026",
    "request_type": "Trash/Recycling",
    "request_reason": "Missed Trash Pick-Up",
    "date_created": "2022-06-01T18:19:34.000",
    "date_modified": "2022-06-01T18:19:35.000",
    "request_status": "Pending",
    "responsible_agency": "Department of Sanitation",
    "final_address": "1924 Audubon St",
    "address_councildis": "A",
    "status": "Assigned to Contractor",
    "contractor": "Richards Disposal",
    "rowid": "888026",
    "final_x": "3665880.39514",
    "final_y": "528578.84352",
    "longitude": "-90.11749015160194",
    "latitude": "29.947873463657057",
    "geocoded_column": {
      "latitude": "29.947873463657057",
      "longitude": "-90.11749015160194"
    }
  },
  {
    "service_request": "2022-888025",
    "request_type": "Trash/Recycling",
    "request_reason": "Illegal Dumping",
    "date_created": "2022-06-01T18:12:08.000",
    "date_modified": "2022-06-01T18:12:08.000",
    "request_status": "Pending",
    "responsible_agency": "Department of Sanitation",
    "final_address": "6200 BLK N VillerÃ© St",
    "address_councildis": "E",
    "status": "Pending",
    "rowid": "888025",
    "final_x": "3700409.11588",
    "final_y": "534156.973797",
    "longitude": "-90.00826624383711",
    "latitude": "29.962158748804914",
    "geocoded_column": {
      "latitude": "29.962158748804914",
      "longitude": "-90.00826624383711"
    }
  },
  {
    "service_request": "2022-888024",
    "request_type": "Traffic Signals/Signs/Striping/Streetlights",
    "request_reason": "Street Light Outage/Malfunction",
    "date_created": "2022-06-01T17:57:38.000",
    "date_modified": "2022-06-01T17:57:39.000",
    "request_status": "Pending",
    "responsible_agency": "Department of Public Works",
    "final_address": "203 Vallette St",
    "address_councildis": "C",
    "status": "Pending",
    "contractor": "Royal Engineering",
    "rowid": "888024",
    "final_x": "3687546.35862",
    "final_y": "531174.007426",
    "longitude": "-90.04899039264599",
    "latitude": "29.954359355274423",
    "geocoded_column": {
      "latitude": "29.954359355274423",
      "longitude": "-90.04899039264599"
    }
  },
  {
    "service_request": "2022-888023",
    "request_type": "Trash/Recycling",
    "request_reason": "Illegal Dumping",
    "date_created": "2022-06-01T17:53:25.000",
    "date_modified": "2022-06-01T17:53:25.000",
    "request_status": "Pending",
    "responsible_agency": "Department of Sanitation",
    "final_address": "1100 BLK Tricou St",
    "address_councildis": "E",
    "status": "Pending",
    "rowid": "888023",
    "final_x": "3700215.25242",
    "final_y": "533239.98252",
    "longitude": "-90.00891190188419",
    "latitude": "29.959643513270237",
    "geocoded_column": {
      "latitude": "29.959643513270237",
      "longitude": "-90.00891190188419"
    }
  },
  {
    "service_request": "2022-888022",
    "request_type": "Trash/Recycling",
    "request_reason": "Missed Trash Pick-Up",
    "date_created": "2022-06-01T17:45:58.000",
    "date_modified": "2022-06-01T17:45:59.000",
    "request_status": "Pending",
    "responsible_agency": "Department of Sanitation",
    "final_address": "4133 Vincennes Pl",
    "address_councildis": "B",
    "status": "Assigned to Contractor",
    "contractor": "Richards Disposal",
    "rowid": "888022",
    "final_x": "3668690.06023",
    "final_y": "530771.10797",
    "longitude": "-90.10854490304123",
    "latitude": "29.953819199199952",
    "geocoded_column": {
      "latitude": "29.953819199199952",
      "longitude": "-90.10854490304123"
    }
  },
  {
    "service_request": "2022-888021",
    "request_type": "Abandoned Vehicles",
    "request_reason": "Abandoned/Junk Vehicles",
    "date_created": "2022-06-01T17:41:35.000",
    "date_modified": "2022-06-01T17:41:35.000",
    "request_status": "Pending",
    "responsible_agency": "Department of Public Works",
    "final_address": "1319 St Charles Ave",
    "address_councildis": "B",
    "status": "Pending",
    "rowid": "888021",
    "final_x": "3679374.23752",
    "final_y": "525919.747901",
    "longitude": "-90.07497691396279",
    "latitude": "29.94016123436805",
    "geocoded_column": {
      "latitude": "29.94016123436805",
      "longitude": "-90.07497691396279"
    }
  },
  {
    "service_request": "2022-888020",
    "request_type": "Trash/Recycling",
    "request_reason": "Request a Large Item Pick Up",
    "date_created": "2022-06-01T17:38:55.000",
    "date_modified": "2022-06-01T17:38:55.000",
    "request_status": "Pending",
    "responsible_agency": "Department of Sanitation",
    "final_address": "911 Saint Ferdinand St, New Orleans, Louisiana, 70117",
    "status": "Assigned to Contractor",
    "rowid": "888020",
    "longitude": "0.0",
    "latitude": "0.0",
    "geocoded_column": {
      "latitude": "0.0",
      "longitude": "0.0"
    }
  },
  {
    "service_request": "2022-888019",
    "request_type": "Trash/Recycling",
    "request_reason": "Request a Large Item Pick Up",
    "date_created": "2022-06-01T17:37:16.000",
    "date_modified": "2022-06-01T17:37:16.000",
    "request_status": "Pending",
    "responsible_agency": "Department of Sanitation",
    "final_address": "5600 Brighton Pl",
    "address_councildis": "C",
    "status": "Assigned to Contractor",
    "contractor": "Richards Disposal",
    "rowid": "888019",
    "final_x": "3704237.37879",
    "final_y": "520477.545016",
    "longitude": "-89.9966811644448",
    "latitude": "29.92442287880236",
    "geocoded_column": {
      "latitude": "29.92442287880236",
      "longitude": "-89.9966811644448"
    }
  },
  {
    "service_request": "2022-888018",
    "request_type": "Roads/Drainage",
    "request_reason": "Pothole",
    "date_created": "2022-06-01T17:35:54.000",
    "date_modified": "2022-06-01T17:35:55.000",
    "request_status": "Pending",
    "responsible_agency": "Department of Public Works",
    "final_address": "2800 BLK S Prieur St",
    "address_councildis": "B",
    "status": "Pending",
    "rowid": "888018",
    "final_x": "3672407.5705",
    "final_y": "527479.564907",
    "longitude": "-90.09691866632193",
    "latitude": "29.944658753672687",
    "geocoded_column": {
      "latitude": "29.944658753672687",
      "longitude": "-90.09691866632193"
    }
  },
  {
    "service_request": "2022-888017",
    "request_type": "Abandoned Vehicles",
    "request_reason": "Abandoned/Junk Vehicles",
    "date_created": "2022-06-01T17:34:52.000",
    "date_modified": "2022-06-01T17:34:52.000",
    "request_status": "Pending",
    "responsible_agency": "Department of Public Works",
    "final_address": "1428 Terpsichore St",
    "address_councildis": "B",
    "status": "Pending",
    "rowid": "888017",
    "final_x": "3679575.52277",
    "final_y": "524860.026044",
    "longitude": "-90.07437818520279",
    "latitude": "29.9372412705053",
    "geocoded_column": {
      "latitude": "29.9372412705053",
      "longitude": "-90.07437818520279"
    }
  },
  {
    "service_request": "2022-888016",
    "request_type": "Trash/Recycling",
    "request_reason": "Missed Trash Pick-Up",
    "date_created": "2022-06-01T17:33:19.000",
    "date_modified": "2022-06-01T17:33:19.000",
    "request_status": "Pending",
    "responsible_agency": "Department of Sanitation",
    "final_address": "1428 Terpsichore St",
    "address_councildis": "B",
    "status": "Assigned to Contractor",
    "contractor": "Richards Disposal",
    "rowid": "888016",
    "final_x": "3679575.52277",
    "final_y": "524860.026044",
    "longitude": "-90.07437818520279",
    "latitude": "29.9372412705053",
    "geocoded_column": {
      "latitude": "29.9372412705053",
      "longitude": "-90.07437818520279"
    }
  },
  {
    "service_request": "2022-888014",
    "request_type": "Trash/Recycling",
    "request_reason": "Missed Trash Pick-Up",
    "date_created": "2022-06-01T17:28:00.000",
    "date_modified": "2022-06-01T17:28:01.000",
    "request_status": "Pending",
    "responsible_agency": "Department of Sanitation",
    "final_address": "2625 Pine St",
    "address_councildis": "A",
    "status": "Assigned to Contractor",
    "contractor": "Richards Disposal",
    "rowid": "888014",
    "final_x": "3666919.81319",
    "final_y": "530998.84781",
    "longitude": "-90.11412698075927",
    "latitude": "29.954497320293576",
    "geocoded_column": {
      "latitude": "29.954497320293576",
      "longitude": "-90.11412698075927"
    }
  },
  {
    "service_request": "2022-888013",
    "request_type": "Trash/Recycling",
    "request_reason": "Replace Trash Cart",
    "date_created": "2022-06-01T17:23:50.000",
    "date_modified": "2022-06-01T17:23:51.000",
    "request_status": "Pending",
    "responsible_agency": "Department of Sanitation",
    "final_address": "7101 Walmsley Ave",
    "address_councildis": "B",
    "status": "Assigned to Contractor",
    "contractor": "Richards Disposal",
    "rowid": "888013",
    "final_x": "3667494.98266",
    "final_y": "531150.84269",
    "longitude": "-90.11230570018654",
    "latitude": "29.95489841607767",
    "geocoded_column": {
      "latitude": "29.95489841607767",
      "longitude": "-90.11230570018654"
    }
  },
  {
    "service_request": "2022-888012",
    "request_type": "Trash/Recycling",
    "request_reason": "Request a Large Item Pick Up",
    "date_created": "2022-06-01T17:14:11.000",
    "date_modified": "2022-06-01T17:14:11.000",
    "request_status": "Pending",
    "responsible_agency": "Department of Sanitation",
    "final_address": "838 Webster St",
    "address_councildis": "A",
    "status": "Assigned to Contractor",
    "contractor": "Richards Disposal",
    "rowid": "888012",
    "final_x": "3664191.09952",
    "final_y": "519726.760248",
    "longitude": "-90.12311915355086",
    "latitude": "29.923582225204846",
    "geocoded_column": {
      "latitude": "29.923582225204846",
      "longitude": "-90.12311915355086"
    }
  },
  {
    "service_request": "2022-888011",
    "request_type": "Trash/Recycling",
    "request_reason": "Request a Large Item Pick Up",
    "date_created": "2022-06-01T17:13:27.000",
    "date_modified": "2022-06-01T17:13:27.000",
    "request_status": "Pending",
    "responsible_agency": "Department of Sanitation",
    "final_address": "2018 Cadiz St",
    "address_councildis": "B",
    "status": "Assigned to Contractor",
    "contractor": "Richards Disposal",
    "rowid": "888011",
    "final_x": "3669899.42183",
    "final_y": "522384.779322",
    "longitude": "-90.10501009579914",
    "latitude": "29.930723917109308",
    "geocoded_column": {
      "latitude": "29.930723917109308",
      "longitude": "-90.10501009579914"
    }
  },
  {
    "service_request": "2022-888010",
    "request_type": "Trash/Recycling",
    "request_reason": "Order Trash Cart",
    "date_created": "2022-06-01T17:10:50.000",
    "date_modified": "2022-06-01T17:10:50.000",
    "request_status": "Pending",
    "responsible_agency": "Department of Sanitation",
    "final_address": "3439 New Orleans St",
    "address_councildis": "D",
    "status": "Assigned to Contractor",
    "contractor": "Metro Disposal",
    "rowid": "888010",
    "final_x": "3681754.93679",
    "final_y": "544889.506831",
    "longitude": "-90.06679869563447",
    "latitude": "29.992249450755377",
    "geocoded_column": {
      "latitude": "29.992249450755377",
      "longitude": "-90.06679869563447"
    }
  },
  {
    "service_request": "2022-888009",
    "request_type": "Trash/Recycling",
    "request_reason": "MIssed Recycling Pick-Up",
    "date_created": "2022-06-01T17:07:23.000",
    "date_modified": "2022-06-01T17:07:24.000",
    "request_status": "Pending",
    "responsible_agency": "Department of Sanitation",
    "final_address": "2719 S Robertson St, New Orleans, Louisiana, 70113",
    "address_councildis": "B",
    "status": "Assigned to Contractor",
    "contractor": "Richards Disposal",
    "rowid": "888009",
    "final_x": "3674035.50312",
    "final_y": "525661.724733",
    "longitude": "-90.09184097725526",
    "latitude": "29.939611887690873",
    "geocoded_column": {
      "latitude": "29.939611887690873",
      "longitude": "-90.09184097725526"
    }
  },
  {
    "service_request": "2022-888008",
    "request_type": "Trash/Recycling",
    "request_reason": "Request a Large Item Pick Up",
    "date_created": "2022-06-01T17:00:11.000",
    "date_modified": "2022-06-01T17:00:12.000",
    "request_status": "Pending",
    "responsible_agency": "Department of Sanitation",
    "final_address": "414 S Scott St",
    "address_councildis": "B",
    "status": "Assigned to Contractor",
    "contractor": "Richards Disposal",
    "rowid": "888008",
    "final_x": "3670981.67598",
    "final_y": "536705.277895",
    "longitude": "-90.10110740643992",
    "latitude": "29.97006863890473",
    "geocoded_column": {
      "latitude": "29.97006863890473",
      "longitude": "-90.10110740643992"
    }
  },
  {
    "service_request": "2022-888007",
    "request_type": "Traffic Signals/Signs/Striping/Streetlights",
    "request_reason": "Street Light Outage/Malfunction",
    "date_created": "2022-06-01T16:57:37.000",
    "date_modified": "2022-06-01T16:57:38.000",
    "request_status": "Pending",
    "responsible_agency": "Department of Public Works",
    "final_address": "2011 Chartres St",
    "address_councildis": "C",
    "status": "Pending",
    "contractor": "Royal Engineering",
    "rowid": "888007",
    "final_x": "3684604.99106",
    "final_y": "534546.492485",
    "longitude": "-90.05815954172283",
    "latitude": "29.96372285805675",
    "geocoded_column": {
      "latitude": "29.96372285805675",
      "longitude": "-90.05815954172283"
    }
  },
  {
    "service_request": "2022-888006",
    "request_type": "Trash/Recycling",
    "request_reason": "Request a Large Item Pick Up",
    "date_created": "2022-06-01T16:55:46.000",
    "date_modified": "2022-06-01T16:55:47.000",
    "request_status": "Pending",
    "responsible_agency": "Department of Sanitation",
    "final_address": "5526 S Claiborne Ave",
    "address_councildis": "A",
    "status": "Assigned to Contractor",
    "contractor": "Richards Disposal",
    "rowid": "888006",
    "final_x": "3667892.95469",
    "final_y": "526439.486014",
    "longitude": "-90.11120772230845",
    "latitude": "29.94193205041005",
    "geocoded_column": {
      "latitude": "29.94193205041005",
      "longitude": "-90.11120772230845"
    }
  },
  {
    "service_request": "2022-888005",
    "request_type": "Property Maintenance",
    "request_reason": "Property Maintenance",
    "date_created": "2022-06-01T16:55:08.000",
    "date_modified": "2022-06-01T16:55:09.000",
    "request_status": "Pending",
    "responsible_agency": "Department of Code Enforcement",
    "final_address": "5757 Warrington Dr",
    "address_councildis": "D",
    "status": "Pending",
    "rowid": "888005",
    "final_x": "3680840.64821",
    "final_y": "554327.354712",
    "longitude": "-90.0693578926828",
    "latitude": "30.018227903473214",
    "geocoded_column": {
      "latitude": "30.018227903473214",
      "longitude": "-90.0693578926828"
    }
  },
  {
    "service_request": "2022-888004",
    "request_type": "Trash/Recycling",
    "request_reason": "Replace Trash Cart",
    "date_created": "2022-06-01T16:54:26.000",
    "date_modified": "2022-06-01T16:54:26.000",
    "request_status": "Pending",
    "responsible_agency": "Department of Sanitation",
    "final_address": "7416 Zimple St",
    "address_councildis": "A",
    "status": "Assigned to Contractor",
    "contractor": "Richards Disposal",
    "rowid": "888004",
    "final_x": "3663334.2208",
    "final_y": "526605.02419",
    "longitude": "-90.12559516516761",
    "latitude": "29.942520135773016",
    "geocoded_column": {
      "latitude": "29.942520135773016",
      "longitude": "-90.12559516516761"
    }
  },
  {
    "service_request": "2022-888003",
    "request_type": "Roads/Drainage",
    "request_reason": "Pothole",
    "date_created": "2022-06-01T16:50:23.000",
    "date_modified": "2022-06-01T16:50:23.000",
    "request_status": "Pending",
    "responsible_agency": "Department of Public Works",
    "final_address": "316 Chartres St",
    "address_councildis": "C",
    "status": "Pending",
    "rowid": "888003",
    "final_x": "3682048.77532",
    "final_y": "531162.123394",
    "longitude": "-90.06634998337161",
    "latitude": "29.954494970034958",
    "geocoded_column": {
      "latitude": "29.954494970034958",
      "longitude": "-90.06634998337161"
    }
  },
  {
    "service_request": "2022-888002",
    "request_type": "Trash/Recycling",
    "request_reason": "Missed Trash Pick-Up",
    "date_created": "2022-06-01T16:43:19.000",
    "date_modified": "2022-06-01T16:43:20.000",
    "request_status": "Pending",
    "responsible_agency": "Department of Sanitation",
    "final_address": "75 Versailles Blvd, New Orleans, Louisiana, 70125",
    "address_councildis": "B",
    "status": "Assigned to Contractor",
    "contractor": "Richards Disposal",
    "rowid": "888002",
    "final_x": "3667890.15367",
    "final_y": "530579.185346",
    "longitude": "-90.11107715028581",
    "latitude": "29.953314960723404",
    "geocoded_column": {
      "latitude": "29.953314960723404",
      "longitude": "-90.11107715028581"
    }
  },
  {
    "service_request": "2022-888001",
    "request_type": "Trash/Recycling",
    "request_reason": "Illegal Dumping",
    "date_created": "2022-06-01T16:42:48.000",
    "date_modified": "2022-06-01T16:42:48.000",
    "request_status": "Pending",
    "responsible_agency": "Department of Sanitation",
    "final_address": "931 Sister St",
    "address_councildis": "E",
    "status": "Pending",
    "rowid": "888001",
    "final_x": "3694566.51888",
    "final_y": "533978.403845",
    "longitude": "-90.02672263593091",
    "latitude": "29.961852230577342",
    "geocoded_column": {
      "latitude": "29.961852230577342",
      "longitude": "-90.02672263593091"
    }
  },
  {
    "service_request": "2022-888000",
    "request_type": "Trash/Recycling",
    "request_reason": "Missed Trash Pick-Up",
    "date_created": "2022-06-01T16:41:27.000",
    "date_modified": "2022-06-01T16:41:27.000",
    "request_status": "Pending",
    "responsible_agency": "Department of Sanitation",
    "final_address": "7842 Walmsley Ave",
    "address_councildis": "A",
    "status": "Assigned to Contractor",
    "contractor": "Richards Disposal",
    "rowid": "888000",
    "final_x": "3666419.17031",
    "final_y": "532023.794499",
    "longitude": "-90.11567342853485",
    "latitude": "29.95733022659574",
    "geocoded_column": {
      "latitude": "29.95733022659574",
      "longitude": "-90.11567342853485"
    }
  },
  {
    "service_request": "2022-887998",
    "request_type": "Abandoned Vehicles",
    "request_reason": "Abandoned/Junk Vehicles",
    "date_created": "2022-06-01T16:40:36.000",
    "date_modified": "2022-06-01T16:40:36.000",
    "request_status": "Pending",
    "responsible_agency": "Department of Public Works",
    "final_address": "330 S Bernadotte St",
    "address_councildis": "A",
    "status": "Pending",
    "rowid": "887998",
    "final_x": "3668198.20423",
    "final_y": "539198.477898",
    "longitude": "-90.10981384470726",
    "latitude": "29.977006115700448",
    "geocoded_column": {
      "latitude": "29.977006115700448",
      "longitude": "-90.10981384470726"
    }
  },
  {
    "service_request": "2022-887999",
    "request_type": "Abandoned Vehicles",
    "request_reason": "Abandoned/Junk Vehicles",
    "date_created": "2022-06-01T16:40:36.000",
    "date_modified": "2022-06-01T16:40:36.000",
    "request_status": "Pending",
    "responsible_agency": "Department of Public Works",
    "final_address": "330 S Bernadotte St",
    "address_councildis": "A",
    "status": "Pending",
    "rowid": "887999",
    "final_x": "3668198.20423",
    "final_y": "539198.477898",
    "longitude": "-90.10981384470726",
    "latitude": "29.977006115700448",
    "geocoded_column": {
      "latitude": "29.977006115700448",
      "longitude": "-90.10981384470726"
    }
  },
  {
    "service_request": "2022-887996",
    "request_type": "Trash/Recycling",
    "request_reason": "Request a Large Item Pick Up",
    "date_created": "2022-06-01T16:37:49.000",
    "date_modified": "2022-06-01T16:37:50.000",
    "request_status": "Pending",
    "responsible_agency": "Department of Sanitation",
    "final_address": "4725 Congress Dr",
    "address_councildis": "D",
    "status": "Assigned to Contractor",
    "contractor": "Metro Disposal",
    "rowid": "887996",
    "final_x": "3692414.15811",
    "final_y": "551665.386645",
    "longitude": "-90.03288553356197",
    "latitude": "30.010552366012657",
    "geocoded_column": {
      "latitude": "30.010552366012657",
      "longitude": "-90.03288553356197"
    }
  },
  {
    "service_request": "2022-887995",
    "request_type": "Trash/Recycling",
    "request_reason": "Request a Large Item Pick Up",
    "date_created": "2022-06-01T16:28:36.000",
    "date_modified": "2022-06-01T16:28:37.000",
    "request_status": "Pending",
    "responsible_agency": "Department of Sanitation",
    "final_address": "424 S Murat St",
    "address_councildis": "A",
    "status": "Assigned to Contractor",
    "contractor": "Richards Disposal",
    "rowid": "887995",
    "final_x": "3668856.12206",
    "final_y": "538203.832969",
    "longitude": "-90.10776952258517",
    "latitude": "29.974251843607764",
    "geocoded_column": {
      "latitude": "29.974251843607764",
      "longitude": "-90.10776952258517"
    }
  },
  {
    "service_request": "2022-887994",
    "request_type": "Trash/Recycling",
    "request_reason": "Order Trash Cart",
    "date_created": "2022-06-01T16:28:24.000",
    "date_modified": "2022-06-01T16:28:24.000",
    "request_status": "Pending",
    "responsible_agency": "Department of Sanitation",
    "final_address": "636 Broadway St",
    "address_councildis": "A",
    "status": "Assigned to Contractor",
    "contractor": "Richards Disposal",
    "rowid": "887994",
    "final_x": "3663087.95898",
    "final_y": "524988.983293",
    "longitude": "-90.12642641531941",
    "latitude": "29.93808367258938",
    "geocoded_column": {
      "latitude": "29.93808367258938",
      "longitude": "-90.12642641531941"
    }
  },
  {
    "service_request": "2022-887993",
    "request_type": "Trash/Recycling",
    "request_reason": "Missed Trash Pick-Up",
    "date_created": "2022-06-01T16:28:11.000",
    "date_modified": "2022-06-01T16:28:12.000",
    "request_status": "Pending",
    "responsible_agency": "Department of Sanitation",
    "final_address": "4219 Vincennes Pl",
    "address_councildis": "B",
    "status": "Assigned to Contractor",
    "contractor": "Richards Disposal",
    "rowid": "887993",
    "final_x": "3668814.08634",
    "final_y": "531366.68269",
    "longitude": "-90.10813317033319",
    "latitude": "29.955453188294452",
    "geocoded_column": {
      "latitude": "29.955453188294452",
      "longitude": "-90.10813317033319"
    }
  },
  {
    "service_request": "2022-887992",
    "request_type": "Trash/Recycling",
    "request_reason": "Order Trash Cart",
    "date_created": "2022-06-01T16:28:05.000",
    "date_modified": "2022-06-01T16:28:05.000",
    "request_status": "Pending",
    "responsible_agency": "Department of Sanitation",
    "final_address": "634 Broadway St",
    "address_councildis": "A",
    "status": "Assigned to Contractor",
    "contractor": "Richards Disposal",
    "rowid": "887992",
    "final_x": "3663082.3321",
    "final_y": "524978.824125",
    "longitude": "-90.12644451778826",
    "latitude": "29.938055901068036",
    "geocoded_column": {
      "latitude": "29.938055901068036",
      "longitude": "-90.12644451778826"
    }
  },
  {
    "service_request": "2022-887991",
    "request_type": "Trash/Recycling",
    "request_reason": "Order Trash Cart",
    "date_created": "2022-06-01T16:27:51.000",
    "date_modified": "2022-06-01T16:27:51.000",
    "request_status": "Pending",
    "responsible_agency": "Department of Sanitation",
    "final_address": "632 Broadway St",
    "address_councildis": "A",
    "status": "Assigned to Contractor",
    "contractor": "Richards Disposal",
    "rowid": "887991",
    "final_x": "3663076.18279",
    "final_y": "524970.752957",
    "longitude": "-90.12646420018096",
    "latitude": "29.938033886011485",
    "geocoded_column": {
      "latitude": "29.938033886011485",
      "longitude": "-90.12646420018096"
    }
  },
  {
    "service_request": "2022-887990",
    "request_type": "Trash/Recycling",
    "request_reason": "Order Trash Cart",
    "date_created": "2022-06-01T16:27:31.000",
    "date_modified": "2022-06-01T16:27:31.000",
    "request_status": "Pending",
    "responsible_agency": "Department of Sanitation",
    "final_address": "630 Broadway St",
    "address_councildis": "A",
    "status": "Assigned to Contractor",
    "contractor": "Richards Disposal",
    "rowid": "887990",
    "final_x": "3663071.82995",
    "final_y": "524964.369725",
    "longitude": "-90.12647815479885",
    "latitude": "29.938016460212804",
    "geocoded_column": {
      "latitude": "29.938016460212804",
      "longitude": "-90.12647815479885"
    }
  },
  {
    "service_request": "2022-887989",
    "request_type": "Trash/Recycling",
    "request_reason": "Replace Trash Cart",
    "date_created": "2022-06-01T16:21:58.000",
    "date_modified": "2022-06-01T16:21:59.000",
    "request_status": "Pending",
    "responsible_agency": "Department of Sanitation",
    "final_address": "1653 Rivertree Ct",
    "address_councildis": "C",
    "status": "Assigned to Contractor",
    "contractor": "Richards Disposal",
    "rowid": "887989",
    "final_x": "3701372.73725",
    "final_y": "524599.695612",
    "longitude": "-90.00557301216669",
    "latitude": "29.935848938059237",
    "geocoded_column": {
      "latitude": "29.935848938059237",
      "longitude": "-90.00557301216669"
    }
  },
  {
    "service_request": "2022-887988",
    "request_type": "Trash/Recycling",
    "request_reason": "Repair Trash Cart",
    "date_created": "2022-06-01T16:20:49.000",
    "date_modified": "2022-06-01T16:20:50.000",
    "request_status": "Pending",
    "responsible_agency": "Department of Sanitation",
    "final_address": "916 Conrad St",
    "address_councildis": "A",
    "status": "Assigned to Contractor",
    "contractor": "Metro Disposal",
    "rowid": "887988",
    "final_x": "3670616.29204",
    "final_y": "554098.880344",
    "longitude": "-90.10167087827689",
    "latitude": "30.017905834497196",
    "geocoded_column": {
      "latitude": "30.017905834497196",
      "longitude": "-90.10167087827689"
    }
  },
  {
    "service_request": "2022-887987",
    "request_type": "Traffic Signals/Signs/Striping/Streetlights",
    "request_reason": "Street Light Knocked Down/Leaning",
    "date_created": "2022-06-01T16:18:38.000",
    "date_modified": "2022-06-01T16:18:38.000",
    "request_status": "Pending",
    "responsible_agency": "Department of Public Works",
    "final_address": "1305 Teche St",
    "address_councildis": "C",
    "status": "Pending",
    "contractor": "Royal Engineering",
    "rowid": "887987",
    "final_x": "3686599.82057",
    "final_y": "526696.655358",
    "longitude": "-90.05213725571171",
    "latitude": "29.94207730074604",
    "geocoded_column": {
      "latitude": "29.94207730074604",
      "longitude": "-90.05213725571171"
    }
  },
  {
    "service_request": "2022-887986",
    "request_type": "Trash/Recycling",
    "request_reason": "Order Recycling Cart",
    "date_created": "2022-06-01T16:18:35.000",
    "date_modified": "2022-06-01T16:18:35.000",
    "request_status": "Pending",
    "responsible_agency": "Department of Sanitation",
    "final_address": "916 Conrad St",
    "address_councildis": "A",
    "status": "Pending",
    "rowid": "887986",
    "final_x": "3670616.29204",
    "final_y": "554098.880344",
    "longitude": "-90.10167087827689",
    "latitude": "30.017905834497196",
    "geocoded_column": {
      "latitude": "30.017905834497196",
      "longitude": "-90.10167087827689"
    }
  },
  {
    "service_request": "2022-887985",
    "request_type": "Trash/Recycling",
    "request_reason": "Illegal Dumping",
    "date_created": "2022-06-01T16:14:37.000",
    "date_modified": "2022-06-01T16:14:37.000",
    "request_status": "Pending",
    "responsible_agency": "Department of Sanitation",
    "final_address": "739 Valence St",
    "address_councildis": "B",
    "status": "Pending",
    "rowid": "887985",
    "final_x": "3670034.0953",
    "final_y": "518265.557046",
    "longitude": "-90.10472438103142",
    "latitude": "29.919393396907207",
    "geocoded_column": {
      "latitude": "29.919393396907207",
      "longitude": "-90.10472438103142"
    }
  },
  {
    "service_request": "2022-887984",
    "request_type": "Trash/Recycling",
    "request_reason": "Illegal Dumping",
    "date_created": "2022-06-01T16:11:01.000",
    "date_modified": "2022-06-01T16:11:01.000",
    "request_status": "Pending",
    "responsible_agency": "Department of Sanitation",
    "final_address": "2113 Annunciation St",
    "address_councildis": "B",
    "status": "Pending",
    "rowid": "887984",
    "final_x": "3679736.90331",
    "final_y": "521410.365945",
    "longitude": "-90.07398839293833",
    "latitude": "29.927750963770603",
    "geocoded_column": {
      "latitude": "29.927750963770603",
      "longitude": "-90.07398839293833"
    }
  },
  {
    "service_request": "2022-887983",
    "request_type": "Trash/Recycling",
    "request_reason": "Illegal Dumping",
    "date_created": "2022-06-01T16:05:51.000",
    "date_modified": "2022-06-01T16:05:51.000",
    "request_status": "Pending",
    "responsible_agency": "Department of Sanitation",
    "final_address": "739 Valence St",
    "address_councildis": "B",
    "status": "Pending",
    "rowid": "887983",
    "final_x": "3670034.0953",
    "final_y": "518265.557046",
    "longitude": "-90.10472438103142",
    "latitude": "29.919393396907207",
    "geocoded_column": {
      "latitude": "29.919393396907207",
      "longitude": "-90.10472438103142"
    }
  },
  {
    "service_request": "2022-887982",
    "request_type": "Traffic Signals/Signs/Striping/Streetlights",
    "request_reason": "Traffic Sign Missing/Damaged",
    "date_created": "2022-06-01T16:03:02.000",
    "date_modified": "2022-06-01T16:03:02.000",
    "request_status": "Pending",
    "responsible_agency": "Department of Public Works",
    "final_address": "1040 Magazine St",
    "address_councildis": "B",
    "status": "Pending",
    "rowid": "887982",
    "final_x": "3680904.11432",
    "final_y": "526541.009342",
    "longitude": "-90.07012523536238",
    "latitude": "29.941823210457393",
    "geocoded_column": {
      "latitude": "29.941823210457393",
      "longitude": "-90.07012523536238"
    }
  },
  {
    "service_request": "2022-887981",
    "request_type": "Abandoned Vehicles",
    "request_reason": "Abandoned/Junk Vehicles",
    "date_created": "2022-06-01T16:02:39.000",
    "date_modified": "2022-06-01T16:02:39.000",
    "request_status": "Pending",
    "responsible_agency": "Department of Public Works",
    "final_address": "2146 Easter Ln",
    "address_councildis": "C",
    "status": "Pending",
    "rowid": "887981",
    "final_x": "3699479.58647",
    "final_y": "523307.548411",
    "longitude": "-90.01159674176499",
    "latitude": "29.932356165044947",
    "geocoded_column": {
      "latitude": "29.932356165044947",
      "longitude": "-90.01159674176499"
    }
  },
  {
    "service_request": "2022-887979",
    "request_type": "Trash/Recycling",
    "request_reason": "Replace Trash Cart",
    "date_created": "2022-06-01T15:56:24.000",
    "date_modified": "2022-06-01T15:56:25.000",
    "request_status": "Pending",
    "responsible_agency": "Department of Sanitation",
    "final_address": "5621 Edenboro Rd",
    "address_councildis": "E",
    "status": "Assigned to Contractor",
    "contractor": "Metro Disposal",
    "rowid": "887979",
    "final_x": "3708069.65336",
    "final_y": "558383.628572",
    "longitude": "-89.98317417485373",
    "latitude": "30.028527080366807",
    "geocoded_column": {
      "latitude": "30.028527080366807",
      "longitude": "-89.98317417485373"
    }
  },
  {
    "service_request": "2022-887978",
    "request_type": "Trash/Recycling",
    "request_reason": "Order Trash Cart",
    "date_created": "2022-06-01T15:54:36.000",
    "date_modified": "2022-06-01T15:54:36.000",
    "request_status": "Pending",
    "responsible_agency": "Department of Sanitation",
    "final_address": "3205 Ptolemy St",
    "address_councildis": "C",
    "status": "Assigned to Contractor",
    "contractor": "Richards Disposal",
    "rowid": "887978",
    "final_x": "3696105.03901",
    "final_y": "525830.421885",
    "longitude": "-90.02215868501447",
    "latitude": "29.939399800071683",
    "geocoded_column": {
      "latitude": "29.939399800071683",
      "longitude": "-90.02215868501447"
    }
  },
  {
    "service_request": "2022-887977",
    "request_type": "Trash/Recycling",
    "request_reason": "Request a Large Item Pick Up",
    "date_created": "2022-06-01T15:51:15.000",
    "date_modified": "2022-06-01T15:51:16.000",
    "request_status": "Pending",
    "responsible_agency": "Department of Sanitation",
    "final_address": "4901 Francisco Verrett Dr",
    "address_councildis": "E",
    "status": "Assigned to Contractor",
    "contractor": "Metro Disposal",
    "rowid": "887977",
    "final_x": "3704217.81399",
    "final_y": "555956.130585",
    "longitude": "-89.99543527366455",
    "latitude": "30.02197663547758",
    "geocoded_column": {
      "latitude": "30.02197663547758",
      "longitude": "-89.99543527366455"
    }
  },
  {
    "service_request": "2022-887976",
    "request_type": "Trash/Recycling",
    "request_reason": "Request a Large Item Pick Up",
    "date_created": "2022-06-01T15:48:17.000",
    "date_modified": "2022-06-01T15:48:17.000",
    "request_status": "Pending",
    "responsible_agency": "Department of Sanitation",
    "final_address": "2318 Onzaga St",
    "address_councildis": "D",
    "status": "Assigned to Contractor",
    "contractor": "Metro Disposal",
    "rowid": "887976",
    "final_x": "3680252.34888",
    "final_y": "539626.667274",
    "longitude": "-90.0717281121157",
    "latitude": "29.97782406482346",
    "geocoded_column": {
      "latitude": "29.97782406482346",
      "longitude": "-90.0717281121157"
    }
  },
  {
    "service_request": "2022-887975",
    "request_type": "Property Maintenance",
    "request_reason": "Property Maintenance",
    "date_created": "2022-06-01T15:41:52.000",
    "date_modified": "2022-06-01T15:41:52.000",
    "request_status": "Pending",
    "responsible_agency": "Department of Code Enforcement",
    "final_address": "2054 Florida Ave",
    "address_councildis": "D",
    "status": "Pending",
    "rowid": "887975",
    "final_x": "3683519.76162",
    "final_y": "542712.877069",
    "longitude": "-90.06130029600986",
    "latitude": "29.98621073390239",
    "geocoded_column": {
      "latitude": "29.98621073390239",
      "longitude": "-90.06130029600986"
    }
  },
  {
    "service_request": "2022-887974",
    "request_type": "Trash/Recycling",
    "request_reason": "Request a Large Item Pick Up",
    "date_created": "2022-06-01T15:36:39.000",
    "date_modified": "2022-06-01T15:36:39.000",
    "request_status": "Pending",
    "responsible_agency": "Department of Sanitation",
    "final_address": "608 Kerlerec St",
    "address_councildis": "C",
    "status": "Assigned to Contractor",
    "contractor": "Metro Disposal",
    "rowid": "887974",
    "final_x": "3684449.62786",
    "final_y": "534479.612933",
    "longitude": "-90.05865251188987",
    "latitude": "29.96354371556932",
    "geocoded_column": {
      "latitude": "29.96354371556932",
      "longitude": "-90.05865251188987"
    }
  },
  {
    "service_request": "2022-887973",
    "request_type": "Trash/Recycling",
    "request_reason": "Order Recycling Cart",
    "date_created": "2022-06-01T15:35:36.000",
    "date_modified": "2022-06-01T15:35:36.000",
    "request_status": "Pending",
    "responsible_agency": "Department of Sanitation",
    "final_address": "1718 Josephine St, New Orleans, Louisiana, 70113",
    "address_councildis": "B",
    "status": "Pending",
    "rowid": "887973",
    "final_x": "3677553.72078",
    "final_y": "524350.278076",
    "longitude": "-90.08077873531592",
    "latitude": "29.935900557186404",
    "geocoded_column": {
      "latitude": "29.935900557186404",
      "longitude": "-90.08077873531592"
    }
  },
  {
    "service_request": "2022-887972",
    "request_type": "Trash/Recycling",
    "request_reason": "Order Trash Cart",
    "date_created": "2022-06-01T15:34:19.000",
    "date_modified": "2022-06-01T15:34:19.000",
    "request_status": "Pending",
    "responsible_agency": "Department of Sanitation",
    "final_address": "1718 Josephine St, New Orleans, Louisiana, 70113",
    "address_councildis": "B",
    "status": "Assigned to Contractor",
    "contractor": "Richards Disposal",
    "rowid": "887972",
    "final_x": "3677553.72078",
    "final_y": "524350.278076",
    "longitude": "-90.08077873531592",
    "latitude": "29.935900557186404",
    "geocoded_column": {
      "latitude": "29.935900557186404",
      "longitude": "-90.08077873531592"
    }
  },
  {
    "service_request": "2022-887971",
    "request_type": "Abandoned Vehicles",
    "request_reason": "Vehicle Blocking Your Driveway",
    "date_created": "2022-06-01T15:32:50.000",
    "date_modified": "2022-06-01T15:32:50.000",
    "request_status": "Pending",
    "responsible_agency": "Department of Public Works",
    "final_address": "1031 Clouet St, New Orleans, Louisiana, 70117",
    "address_councildis": "C",
    "status": "Pending",
    "rowid": "887971",
    "final_x": "3688984.58895",
    "final_y": "535814.213895",
    "longitude": "-90.04428421319653",
    "latitude": "29.967073906030972",
    "geocoded_column": {
      "latitude": "29.967073906030972",
      "longitude": "-90.04428421319653"
    }
  },
  {
    "service_request": "2022-887970",
    "request_type": "Trash/Recycling",
    "request_reason": "Illegal Dumping",
    "date_created": "2022-06-01T15:30:56.000",
    "date_modified": "2022-06-01T15:30:56.000",
    "request_status": "Pending",
    "responsible_agency": "Department of Sanitation",
    "final_address": "1515 St Ferdinand St",
    "address_councildis": "C",
    "status": "Pending",
    "rowid": "887970",
    "final_x": "3688227.66806",
    "final_y": "537908.767305",
    "longitude": "-90.046600288121",
    "latitude": "29.972856586189728",
    "geocoded_column": {
      "latitude": "29.972856586189728",
      "longitude": "-90.046600288121"
    }
  },
  {
    "service_request": "2022-887969",
    "request_type": "Abandoned Vehicles",
    "request_reason": "Abandoned/Junk Vehicles",
    "date_created": "2022-06-01T15:27:12.000",
    "date_modified": "2022-06-01T15:27:13.000",
    "request_status": "Pending",
    "responsible_agency": "Department of Public Works",
    "final_address": "3118 Dante St",
    "address_councildis": "A",
    "status": "Pending",
    "rowid": "887969",
    "final_x": "3666097.91111",
    "final_y": "534043.763397",
    "longitude": "-90.11662014218744",
    "latitude": "29.96289386138592",
    "geocoded_column": {
      "latitude": "29.96289386138592",
      "longitude": "-90.11662014218744"
    }
  },
  {
    "service_request": "2022-887968",
    "request_type": "Trash/Recycling",
    "request_reason": "Illegal Dumping",
    "date_created": "2022-06-01T15:26:37.000",
    "date_modified": "2022-06-01T15:26:37.000",
    "request_status": "Pending",
    "responsible_agency": "Department of Sanitation",
    "final_address": "N Villere St & Feliciana St, New Orleans, Louisiana, 70117",
    "address_councildis": "C",
    "status": "Pending",
    "rowid": "887968",
    "final_x": "3689008.0",
    "final_y": "537173.68",
    "longitude": "-90.04416197891774",
    "latitude": "29.97081123691978",
    "geocoded_column": {
      "latitude": "29.97081123691978",
      "longitude": "-90.04416197891774"
    }
  },
  {
    "service_request": "2022-887967",
    "request_type": "Abandoned Vehicles",
    "request_reason": "Abandoned/Junk Vehicles",
    "date_created": "2022-06-01T15:20:30.000",
    "date_modified": "2022-06-01T15:20:30.000",
    "request_status": "Pending",
    "responsible_agency": "Department of Public Works",
    "final_address": "4200 Elysian Fields Ave",
    "address_councildis": "D",
    "status": "Pending",
    "rowid": "887967",
    "final_x": "3683913.4509",
    "final_y": "548124.067026",
    "longitude": "-90.05986683044777",
    "latitude": "30.001077554901617",
    "geocoded_column": {
      "latitude": "30.001077554901617",
      "longitude": "-90.05986683044777"
    }
  },
  {
    "service_request": "2022-887966",
    "request_type": "Trash/Recycling",
    "request_reason": "Request a Large Item Pick Up",
    "date_created": "2022-06-01T15:20:18.000",
    "date_modified": "2022-06-01T15:20:19.000",
    "request_status": "Pending",
    "responsible_agency": "Department of Sanitation",
    "final_address": "2110 Adams St",
    "address_councildis": "A",
    "status": "Assigned to Contractor",
    "contractor": "Richards Disposal",
    "rowid": "887966",
    "final_x": "3665246.13613",
    "final_y": "529834.894401",
    "longitude": "-90.11945075491587",
    "latitude": "29.951345687469015",
    "geocoded_column": {
      "latitude": "29.951345687469015",
      "longitude": "-90.11945075491587"
    }
  },
  {
    "service_request": "2022-887965",
    "request_type": "Roads/Drainage",
    "request_reason": "Pothole",
    "date_created": "2022-06-01T15:17:01.000",
    "date_modified": "2022-06-01T15:17:01.000",
    "request_status": "Pending",
    "responsible_agency": "Department of Public Works",
    "final_address": "2700 Gravier St",
    "address_councildis": "B",
    "status": "Pending",
    "rowid": "887965",
    "final_x": "3673669.72878",
    "final_y": "533217.348932",
    "longitude": "-90.09273751122163",
    "latitude": "29.96039824905914",
    "geocoded_column": {
      "latitude": "29.96039824905914",
      "longitude": "-90.09273751122163"
    }
  },
  {
    "service_request": "2022-887964",
    "request_type": "Traffic Signals/Signs/Striping/Streetlights",
    "request_reason": "Street Light Outage/Malfunction",
    "date_created": "2022-06-01T15:09:05.000",
    "date_modified": "2022-06-01T15:09:05.000",
    "request_status": "Pending",
    "responsible_agency": "Department of Public Works",
    "final_address": "722 Canal St",
    "address_councildis": "B",
    "status": "Pending",
    "contractor": "Royal Engineering",
    "rowid": "887964",
    "final_x": "3680949.81551",
    "final_y": "530735.819842",
    "longitude": "-90.06983490929484",
    "latitude": "29.95335614603552",
    "geocoded_column": {
      "latitude": "29.95335614603552",
      "longitude": "-90.06983490929484"
    }
  },
  {
    "service_request": "2022-887963",
    "request_type": "Trash/Recycling",
    "request_reason": "Missed Trash Pick-Up",
    "date_created": "2022-06-01T15:05:58.000",
    "date_modified": "2022-06-01T15:05:59.000",
    "request_status": "Pending",
    "responsible_agency": "Department of Sanitation",
    "final_address": "2708 S Carrollton Ave",
    "address_councildis": "A",
    "status": "Assigned to Contractor",
    "contractor": "Richards Disposal",
    "rowid": "887963",
    "final_x": "3665652.67418",
    "final_y": "532454.124164",
    "longitude": "-90.11807938984224",
    "latitude": "29.958535867283196",
    "geocoded_column": {
      "latitude": "29.958535867283196",
      "longitude": "-90.11807938984224"
    }
  },
  {
    "service_request": "2022-887962",
    "request_type": "Abandoned Vehicles",
    "request_reason": "Abandoned/Junk Vehicles",
    "date_created": "2022-06-01T15:02:40.000",
    "date_modified": "2022-06-01T15:02:40.000",
    "request_status": "Pending",
    "responsible_agency": "Department of Public Works",
    "final_address": "1218 N Villere St",
    "address_councildis": "C",
    "status": "Pending",
    "rowid": "887962",
    "final_x": "3681614.7668",
    "final_y": "535831.001287",
    "longitude": "-90.06755755540848",
    "latitude": "29.96734597917894",
    "geocoded_column": {
      "latitude": "29.96734597917894",
      "longitude": "-90.06755755540848"
    }
  },
  {
    "service_request": "2022-887961",
    "request_type": "Trash/Recycling",
    "request_reason": "Missed Trash Pick-Up",
    "date_created": "2022-06-01T15:00:59.000",
    "date_modified": "2022-06-01T15:00:59.000",
    "request_status": "Pending",
    "responsible_agency": "Department of Sanitation",
    "final_address": "2625 Pine St, New Orleans, Louisiana, 70125",
    "address_councildis": "A",
    "status": "Assigned to Contractor",
    "contractor": "Richards Disposal",
    "rowid": "887961",
    "final_x": "3666919.81319",
    "final_y": "530998.84781",
    "longitude": "-90.11412698075927",
    "latitude": "29.954497320293576",
    "geocoded_column": {
      "latitude": "29.954497320293576",
      "longitude": "-90.11412698075927"
    }
  },
  {
    "service_request": "2022-887960",
    "request_type": "Trash/Recycling",
    "request_reason": "Request a Large Item Pick Up",
    "date_created": "2022-06-01T14:59:57.000",
    "date_modified": "2022-06-01T14:59:58.000",
    "request_status": "Pending",
    "responsible_agency": "Department of Sanitation",
    "final_address": "3813 Cleveland Ave",
    "address_councildis": "A",
    "status": "Assigned to Contractor",
    "contractor": "Richards Disposal",
    "rowid": "887960",
    "final_x": "3671719.51521",
    "final_y": "537386.492296",
    "longitude": "-90.09875405080038",
    "latitude": "29.971919910695828",
    "geocoded_column": {
      "latitude": "29.971919910695828",
      "longitude": "-90.09875405080038"
    }
  },
  {
    "service_request": "2022-887959",
    "request_type": "Trash/Recycling",
    "request_reason": "Request a Large Item Pick Up",
    "date_created": "2022-06-01T14:59:35.000",
    "date_modified": "2022-06-01T14:59:36.000",
    "request_status": "Pending",
    "responsible_agency": "Department of Sanitation",
    "final_address": "5548 Vermillion Blvd",
    "address_councildis": "D",
    "status": "Assigned to Contractor",
    "contractor": "Metro Disposal",
    "rowid": "887959",
    "final_x": "3683107.66223",
    "final_y": "553399.781911",
    "longitude": "-90.06222749635869",
    "latitude": "30.01560846122164",
    "geocoded_column": {
      "latitude": "30.01560846122164",
      "longitude": "-90.06222749635869"
    }
  },
  {
    "service_request": "2022-887958",
    "request_type": "Trash/Recycling",
    "request_reason": "Request a Large Item Pick Up",
    "date_created": "2022-06-01T14:56:46.000",
    "date_modified": "2022-06-01T14:56:47.000",
    "request_status": "Pending",
    "responsible_agency": "Department of Sanitation",
    "final_address": "2812 Chippewa St",
    "address_councildis": "B",
    "status": "Assigned to Contractor",
    "contractor": "Richards Disposal",
    "rowid": "887958",
    "final_x": "3677796.41051",
    "final_y": "519474.433015",
    "longitude": "-90.08018090628264",
    "latitude": "29.922486276955226",
    "geocoded_column": {
      "latitude": "29.922486276955226",
      "longitude": "-90.08018090628264"
    }
  },
  {
    "service_request": "2022-887957",
    "request_type": "Traffic Signals/Signs/Striping/Streetlights",
    "request_reason": "Street Light Knocked Down/Leaning",
    "date_created": "2022-06-01T14:51:41.000",
    "date_modified": "2022-06-01T14:51:44.000",
    "request_status": "Pending",
    "responsible_agency": "Department of Public Works",
    "final_address": "N DORGENOIS ST & NEW ORLEANS ST",
    "address_councildis": "D",
    "status": "Pending",
    "contractor": "Royal Engineering",
    "rowid": "887957",
    "final_x": "3681994.6",
    "final_y": "541252.18",
    "longitude": "-90.06616870874959",
    "latitude": "29.982240796435047",
    "geocoded_column": {
      "latitude": "29.982240796435047",
      "longitude": "-90.06616870874959"
    }
  },
  {
    "service_request": "2022-887955",
    "request_type": "Trash/Recycling",
    "request_reason": "Request a Large Item Pick Up",
    "date_created": "2022-06-01T14:48:45.000",
    "date_modified": "2022-06-01T14:48:46.000",
    "request_status": "Pending",
    "responsible_agency": "Department of Sanitation",
    "final_address": "1303 Constantinople St",
    "address_councildis": "B",
    "status": "Assigned to Contractor",
    "contractor": "Richards Disposal",
    "rowid": "887955",
    "final_x": "3672430.38529",
    "final_y": "520266.883704",
    "longitude": "-90.09709232535754",
    "latitude": "29.92482553905288",
    "geocoded_column": {
      "latitude": "29.92482553905288",
      "longitude": "-90.09709232535754"
    }
  },
  {
    "service_request": "2022-887954",
    "request_type": "Abandoned Vehicles",
    "request_reason": "Abandoned/Junk Vehicles",
    "date_created": "2022-06-01T14:48:29.000",
    "date_modified": "2022-06-01T14:48:29.000",
    "request_status": "Pending",
    "responsible_agency": "Department of Public Works",
    "final_address": "1709 N Miro St",
    "address_councildis": "D",
    "status": "Pending",
    "rowid": "887954",
    "final_x": "3680979.13218",
    "final_y": "539770.824586",
    "longitude": "-90.06942765770205",
    "latitude": "29.978198424303887",
    "geocoded_column": {
      "latitude": "29.978198424303887",
      "longitude": "-90.06942765770205"
    }
  },
  {
    "service_request": "2022-887953",
    "request_type": "Trash/Recycling",
    "request_reason": "Missed Trash Pick-Up",
    "date_created": "2022-06-01T14:47:59.000",
    "date_modified": "2022-06-01T14:48:00.000",
    "request_status": "Pending",
    "responsible_agency": "Department of Sanitation",
    "final_address": "7001 Morrison Rd, New Orleans, Louisiana, 70126",
    "address_councildis": "E",
    "status": "Assigned to Contractor",
    "contractor": "Metro Disposal",
    "rowid": "887953",
    "final_x": "3699338.25309",
    "final_y": "559069.50198",
    "longitude": "-90.01073979524683",
    "latitude": "30.030692968084097",
    "geocoded_column": {
      "latitude": "30.030692968084097",
      "longitude": "-90.01073979524683"
    }
  },
  {
    "service_request": "2022-887952",
    "request_type": "Traffic Signals/Signs/Striping/Streetlights",
    "request_reason": "Street Light Outage/Malfunction",
    "date_created": "2022-06-01T14:46:06.000",
    "date_modified": "2022-06-01T14:46:07.000",
    "request_status": "Pending",
    "responsible_agency": "Department of Public Works",
    "final_address": "PRENTISS AVE & CABRINI CT",
    "address_councildis": "D",
    "status": "Pending",
    "contractor": "Royal Engineering",
    "rowid": "887952",
    "final_x": "3677827.1",
    "final_y": "553307.18",
    "longitude": "-90.07891487032674",
    "latitude": "30.015513851758303",
    "geocoded_column": {
      "latitude": "30.015513851758303",
      "longitude": "-90.07891487032674"
    }
  },
  {
    "service_request": "2022-887951",
    "request_type": "Traffic Signals/Signs/Striping/Streetlights",
    "request_reason": "Street Light Outage/Malfunction",
    "date_created": "2022-06-01T14:45:43.000",
    "date_modified": "2022-06-01T14:45:44.000",
    "request_status": "Pending",
    "responsible_agency": "Department of Public Works",
    "final_address": "1406 Cabrini Ct",
    "address_councildis": "D",
    "status": "Pending",
    "contractor": "Royal Engineering",
    "rowid": "887951",
    "final_x": "3677752.06434",
    "final_y": "553196.606487",
    "longitude": "-90.07915577253725",
    "latitude": "30.01521207295181",
    "geocoded_column": {
      "latitude": "30.01521207295181",
      "longitude": "-90.07915577253725"
    }
  },
  {
    "service_request": "2022-887950",
    "request_type": "Traffic Signals/Signs/Striping/Streetlights",
    "request_reason": "Street Light Outage/Malfunction",
    "date_created": "2022-06-01T14:45:02.000",
    "date_modified": "2022-06-01T14:45:03.000",
    "request_status": "Pending",
    "responsible_agency": "Department of Public Works",
    "final_address": "1414 Cabrini Ct",
    "address_councildis": "D",
    "status": "Pending",
    "contractor": "Royal Engineering",
    "rowid": "887950",
    "final_x": "3677757.442",
    "final_y": "553070.873047",
    "longitude": "-90.07914312988062",
    "latitude": "30.01486618944224",
    "geocoded_column": {
      "latitude": "30.01486618944224",
      "longitude": "-90.07914312988062"
    }
  },
  {
    "service_request": "2022-887949",
    "request_type": "Traffic Signals/Signs/Striping/Streetlights",
    "request_reason": "Street Light Outage/Malfunction",
    "date_created": "2022-06-01T14:44:15.000",
    "date_modified": "2022-06-01T14:44:15.000",
    "request_status": "Pending",
    "responsible_agency": "Department of Public Works",
    "final_address": "1436 Cabrini Ct",
    "address_councildis": "D",
    "status": "Pending",
    "contractor": "Royal Engineering",
    "rowid": "887949",
    "final_x": "3678027.12117",
    "final_y": "552966.427735",
    "longitude": "-90.07829468741625",
    "latitude": "30.014570883335207",
    "geocoded_column": {
      "latitude": "30.014570883335207",
      "longitude": "-90.07829468741625"
    }
  },
  {
    "service_request": "2022-887948",
    "request_type": "Traffic Signals/Signs/Striping/Streetlights",
    "request_reason": "Street Light Outage/Malfunction",
    "date_created": "2022-06-01T14:43:27.000",
    "date_modified": "2022-06-01T14:43:28.000",
    "request_status": "Pending",
    "responsible_agency": "Department of Public Works",
    "final_address": "1455 Cabrini Ct",
    "address_councildis": "D",
    "status": "Pending",
    "contractor": "Royal Engineering",
    "rowid": "887948",
    "final_x": "3678256.93947",
    "final_y": "553148.726423",
    "longitude": "-90.07756226161048",
    "latitude": "30.015065215601066",
    "geocoded_column": {
      "latitude": "30.015065215601066",
      "longitude": "-90.07756226161048"
    }
  },
  {
    "service_request": "2022-887947",
    "request_type": "Traffic Signals/Signs/Striping/Streetlights",
    "request_reason": "Street Light Outage/Malfunction",
    "date_created": "2022-06-01T14:42:36.000",
    "date_modified": "2022-06-01T14:42:37.000",
    "request_status": "Pending",
    "responsible_agency": "Department of Public Works",
    "final_address": "CABRINI CT & PERLITA ST",
    "address_councildis": "D",
    "status": "Pending",
    "contractor": "Royal Engineering",
    "rowid": "887947",
    "final_x": "3678437.7",
    "final_y": "553080.78",
    "longitude": "-90.07699349771552",
    "latitude": "30.014872939111637",
    "geocoded_column": {
      "latitude": "30.014872939111637",
      "longitude": "-90.07699349771552"
    }
  },
  {
    "service_request": "2022-887946",
    "request_type": "Trash/Recycling",
    "request_reason": "MIssed Recycling Pick-Up",
    "date_created": "2022-06-01T14:41:55.000",
    "date_modified": "2022-06-01T14:41:55.000",
    "request_status": "Pending",
    "responsible_agency": "Department of Sanitation",
    "final_address": "2351 Magazine St",
    "address_councildis": "B",
    "status": "Assigned to Contractor",
    "contractor": "Richards Disposal",
    "rowid": "887946",
    "final_x": "3678180.2619",
    "final_y": "521624.296377",
    "longitude": "-90.07889494801034",
    "latitude": "29.92838615338833",
    "geocoded_column": {
      "latitude": "29.92838615338833",
      "longitude": "-90.07889494801034"
    }
  },
  {
    "service_request": "2022-887945",
    "request_type": "Trash/Recycling",
    "request_reason": "MIssed Recycling Pick-Up",
    "date_created": "2022-06-01T14:40:30.000",
    "date_modified": "2022-06-01T14:40:30.000",
    "request_status": "Pending",
    "responsible_agency": "Department of Sanitation",
    "final_address": "234 S Norman C Francis Pkwy, New Orleans, Louisiana, 70119",
    "status": "Assigned to Contractor",
    "rowid": "887945",
    "longitude": "0.0",
    "latitude": "0.0",
    "geocoded_column": {
      "latitude": "0.0",
      "longitude": "0.0"
    }
  },
  {
    "service_request": "2022-887942",
    "request_type": "Roads/Drainage",
    "request_reason": "Catch Basin - Clogged",
    "date_created": "2022-06-01T14:35:08.000",
    "date_modified": "2022-06-01T14:35:08.000",
    "request_status": "Pending",
    "responsible_agency": "Department of Public Works",
    "final_address": "1900 BLK Bordeaux St",
    "address_councildis": "B",
    "status": "Pending",
    "rowid": "887942",
    "final_x": "3669256.48396",
    "final_y": "521970.161228",
    "longitude": "-90.10705377205589",
    "latitude": "29.9296027854821",
    "geocoded_column": {
      "latitude": "29.9296027854821",
      "longitude": "-90.10705377205589"
    }
  },
  {
    "service_request": "2022-887941",
    "request_type": "Trash/Recycling",
    "request_reason": "Repair Recycling Cart",
    "date_created": "2022-06-01T14:32:42.000",
    "date_modified": "2022-06-01T14:32:43.000",
    "request_status": "Pending",
    "responsible_agency": "Department of Sanitation",
    "final_address": "1610 Cambronne St",
    "address_councildis": "A",
    "status": "Pending",
    "rowid": "887941",
    "final_x": "3662156.23309",
    "final_y": "530254.565761",
    "longitude": "-90.12919327418045",
    "latitude": "29.952589294179937",
    "geocoded_column": {
      "latitude": "29.952589294179937",
      "longitude": "-90.12919327418045"
    }
  },
  {
    "service_request": "2022-887940",
    "request_type": "Trash/Recycling",
    "request_reason": "MIssed Recycling Pick-Up",
    "date_created": "2022-06-01T14:29:01.000",
    "date_modified": "2022-06-01T14:29:01.000",
    "request_status": "Pending",
    "responsible_agency": "Department of Sanitation",
    "final_address": "2233 Washington Ave",
    "address_councildis": "B",
    "status": "Assigned to Contractor",
    "contractor": "Richards Disposal",
    "rowid": "887940",
    "final_x": "3674625.65736",
    "final_y": "524567.716476",
    "longitude": "-90.09001525431059",
    "latitude": "29.936586127445302",
    "geocoded_column": {
      "latitude": "29.936586127445302",
      "longitude": "-90.09001525431059"
    }
  },
  {
    "service_request": "2022-887939",
    "request_type": "Trash/Recycling",
    "request_reason": "Replace Trash Cart",
    "date_created": "2022-06-01T14:27:09.000",
    "date_modified": "2022-06-01T14:27:10.000",
    "request_status": "Pending",
    "responsible_agency": "Department of Sanitation",
    "final_address": "41 Sullivan Pl",
    "address_councildis": "C",
    "status": "Assigned to Contractor",
    "contractor": "Richards Disposal",
    "rowid": "887939",
    "final_x": "3702093.01591",
    "final_y": "521905.357562",
    "longitude": "-90.00339782206102",
    "latitude": "29.928417476829352",
    "geocoded_column": {
      "latitude": "29.928417476829352",
      "longitude": "-90.00339782206102"
    }
  },
  {
    "service_request": "2022-887938",
    "request_type": "Trash/Recycling",
    "request_reason": "Request a Large Item Pick Up",
    "date_created": "2022-06-01T14:25:44.000",
    "date_modified": "2022-06-01T14:25:45.000",
    "request_status": "Pending",
    "responsible_agency": "Department of Sanitation",
    "final_address": "41 Sullivan Pl",
    "address_councildis": "C",
    "status": "Assigned to Contractor",
    "contractor": "Richards Disposal",
    "rowid": "887938",
    "final_x": "3702093.01591",
    "final_y": "521905.357562",
    "longitude": "-90.00339782206102",
    "latitude": "29.928417476829352",
    "geocoded_column": {
      "latitude": "29.928417476829352",
      "longitude": "-90.00339782206102"
    }
  },
  {
    "service_request": "2022-887937",
    "request_type": "Roads/Drainage",
    "request_reason": "Pothole",
    "date_created": "2022-06-01T14:25:01.000",
    "date_modified": "2022-06-01T14:25:01.000",
    "request_status": "Pending",
    "responsible_agency": "Department of Public Works",
    "final_address": "MAGAZINE ST & LAFAYETTE ST",
    "address_councildis": "B",
    "status": "Pending",
    "rowid": "887937",
    "final_x": "3681404.3",
    "final_y": "528742.68",
    "longitude": "-90.06846931478425",
    "latitude": "29.947861895609325",
    "geocoded_column": {
      "latitude": "29.947861895609325",
      "longitude": "-90.06846931478425"
    }
  },
  {
    "service_request": "2022-887936",
    "request_type": "Property Maintenance",
    "request_reason": "Property Maintenance",
    "date_created": "2022-06-01T14:20:33.000",
    "date_modified": "2022-06-01T14:24:15.000",
    "case_close_date": "2022-06-01T09:24:15.000",
    "request_status": "Closed",
    "responsible_agency": "Department of Code Enforcement",
    "final_address": "2510 Memorial Park Dr",
    "address_councildis": "C",
    "status": "Referred to Code Enforcement",
    "rowid": "887936",
    "final_x": "3692803.69392",
    "final_y": "521244.148665",
    "longitude": "-90.03274576859815",
    "latitude": "29.92689257078609",
    "geocoded_column": {
      "latitude": "29.92689257078609",
      "longitude": "-90.03274576859815"
    }
  },
  {
    "service_request": "2022-887934",
    "request_type": "Trash/Recycling",
    "request_reason": "Missed Trash Pick-Up",
    "date_created": "2022-06-01T14:15:23.000",
    "date_modified": "2022-06-01T14:15:23.000",
    "request_status": "Pending",
    "responsible_agency": "Department of Sanitation",
    "final_address": "5200 BLK Atlanta St",
    "address_councildis": "B",
    "status": "Assigned to Contractor",
    "contractor": "Richards Disposal",
    "rowid": "887934",
    "final_x": "3667939.31369",
    "final_y": "520720.530197",
    "longitude": "-90.11125392997842",
    "latitude": "29.926205391859135",
    "geocoded_column": {
      "latitude": "29.926205391859135",
      "longitude": "-90.11125392997842"
    }
  },
  {
    "service_request": "2022-887933",
    "request_type": "Roads/Drainage",
    "request_reason": "Debris in Roadway",
    "date_created": "2022-06-01T14:08:23.000",
    "date_modified": "2022-06-01T14:08:23.000",
    "request_status": "Pending",
    "responsible_agency": "Department of Public Works",
    "final_address": "825 Marengo St",
    "address_councildis": "B",
    "status": "Pending",
    "rowid": "887933",
    "final_x": "3672231.69275",
    "final_y": "518724.900087",
    "longitude": "-90.09777202011448",
    "latitude": "29.920591469413772",
    "geocoded_column": {
      "latitude": "29.920591469413772",
      "longitude": "-90.09777202011448"
    }
  },
  {
    "service_request": "2022-887932",
    "request_type": "Trash/Recycling",
    "request_reason": "Missed Trash Pick-Up",
    "date_created": "2022-06-01T14:05:09.000",
    "date_modified": "2022-06-01T14:06:13.000",
    "request_status": "Pending",
    "responsible_agency": "Department of Sanitation",
    "final_address": "LOWERLINE ST & ST CHARLES AVE",
    "address_councildis": "A",
    "status": "Assigned to Contractor",
    "contractor": "Richards Disposal",
    "rowid": "887932",
    "final_x": "3662518.3",
    "final_y": "525096.88",
    "longitude": "-90.12822130573575",
    "latitude": "29.938396840576125",
    "geocoded_column": {
      "latitude": "29.938396840576125",
      "longitude": "-90.12822130573575"
    }
  },
  {
    "service_request": "2022-887931",
    "request_type": "Trash/Recycling",
    "request_reason": "Illegal Dumping",
    "date_created": "2022-06-01T14:01:34.000",
    "date_modified": "2022-06-01T14:01:35.000",
    "request_status": "Pending",
    "responsible_agency": "Department of Sanitation",
    "final_address": "ESPLANADE AVE & N TONTI ST",
    "address_councildis": "D",
    "status": "Pending",
    "rowid": "887931",
    "final_x": "3679295.4",
    "final_y": "538083.08",
    "longitude": "-90.07480403463195",
    "latitude": "29.973608669089877",
    "geocoded_column": {
      "latitude": "29.973608669089877",
      "longitude": "-90.07480403463195"
    }
  },
  {
    "service_request": "2022-887930",
    "request_type": "Trash/Recycling",
    "request_reason": "Order Trash Cart",
    "date_created": "2022-06-01T13:57:51.000",
    "date_modified": "2022-06-01T13:57:52.000",
    "request_status": "Pending",
    "responsible_agency": "Department of Sanitation",
    "final_address": "2422 Columbus St",
    "address_councildis": "D",
    "status": "Assigned to Contractor",
    "contractor": "Metro Disposal",
    "rowid": "887930",
    "final_x": "3679312.71874",
    "final_y": "539008.61377",
    "longitude": "-90.07471723113262",
    "latitude": "29.976153044743686",
    "geocoded_column": {
      "latitude": "29.976153044743686",
      "longitude": "-90.07471723113262"
    }
  },
  {
    "service_request": "2022-887929",
    "request_type": "Trash/Recycling",
    "request_reason": "Request a Large Item Pick Up",
    "date_created": "2022-06-01T13:57:13.000",
    "date_modified": "2022-06-01T13:57:14.000",
    "request_status": "Pending",
    "responsible_agency": "Department of Sanitation",
    "final_address": "2123 Tchoupitoulas St",
    "address_councildis": "B",
    "status": "Assigned to Contractor",
    "contractor": "Richards Disposal",
    "rowid": "887929",
    "final_x": "3680728.6004",
    "final_y": "519948.090744",
    "longitude": "-90.07090869958098",
    "latitude": "29.923700178884378",
    "geocoded_column": {
      "latitude": "29.923700178884378",
      "longitude": "-90.07090869958098"
    }
  },
  {
    "service_request": "2022-887928",
    "request_type": "Trash/Recycling",
    "request_reason": "Order Recycling Cart",
    "date_created": "2022-06-01T13:56:54.000",
    "date_modified": "2022-06-01T13:56:54.000",
    "request_status": "Pending",
    "responsible_agency": "Department of Sanitation",
    "final_address": "2422 Columbus St",
    "address_councildis": "D",
    "status": "Pending",
    "rowid": "887928",
    "final_x": "3679312.71874",
    "final_y": "539008.61377",
    "longitude": "-90.07471723113262",
    "latitude": "29.976153044743686",
    "geocoded_column": {
      "latitude": "29.976153044743686",
      "longitude": "-90.07471723113262"
    }
  },
  {
    "service_request": "2022-887927",
    "request_type": "Trash/Recycling",
    "request_reason": "Repair Trash Cart",
    "date_created": "2022-06-01T13:56:39.000",
    "date_modified": "2022-06-01T13:56:39.000",
    "request_status": "Pending",
    "responsible_agency": "Department of Sanitation",
    "final_address": "5619 Durham Dr",
    "address_councildis": "C",
    "status": "Assigned to Contractor",
    "contractor": "Richards Disposal",
    "rowid": "887927",
    "final_x": "3704755.26903",
    "final_y": "518679.696759",
    "longitude": "-89.99511265565476",
    "latitude": "29.919462797636406",
    "geocoded_column": {
      "latitude": "29.919462797636406",
      "longitude": "-89.99511265565476"
    }
  },
  {
    "service_request": "2022-887926",
    "request_type": "Trash/Recycling",
    "request_reason": "Missed Trash Pick-Up",
    "date_created": "2022-06-01T13:52:36.000",
    "date_modified": "2022-06-01T13:52:36.000",
    "request_status": "Pending",
    "responsible_agency": "Department of Sanitation",
    "final_address": "4211 State Street Dr",
    "address_councildis": "B",
    "status": "Assigned to Contractor",
    "contractor": "Richards Disposal",
    "rowid": "887926",
    "final_x": "3668529.99521",
    "final_y": "531143.419714",
    "longitude": "-90.1090377628428",
    "latitude": "29.954847637920505",
    "geocoded_column": {
      "latitude": "29.954847637920505",
      "longitude": "-90.1090377628428"
    }
  },