[
  {
    "service_request": "2026-1300967",
    "request_type": "Trash/Recycling",
    "request_reason": "Request a Large Item Pick Up",
    "date_created": "2026-07-16T23:57:32.000",
    "date_modified": "2026-07-16T23:57:34.000",
    "request_status": "Pending",
    "responsible_agency": "Department of Sanitation",
    "final_address": "2207 Cadiz St",
    "address_councildis": "B",
    "status": "Assigned to Contractor",
    "contractor": "IV Waste",
    "rowid": "1300967",
    "final_x": "3669924.24705",
    "final_y": "523001.493819",
    "longitude": "-90.10491085398314",
    "latitude": "29.932418952476656",
    "geocoded_column": {
      "latitude": "29.932418952476656",
      "longitude": "-90.10491085398314"
    }
  },
  {
    "service_request": "2026-1300966",
    "request_type": "Trash/Recycling",
    "request_reason": "Order Recycling Cart",
    "date_created": "2026-07-16T23:56:52.000",
    "date_modified": "2026-07-16T23:56:54.000",
    "request_status": "Pending",
    "responsible_agency": "Department of Sanitation",
    "final_address": "2234 Franklin Ave Apt B",
    "address_councildis": "D",
    "status": "Pending",
    "rowid": "1300966",
    "final_x": "3687417.13199",
    "final_y": "540847.147787",
    "longitude": "-90.04905609673887",
    "latitude": "29.98096109924308",
    "geocoded_column": {
      "latitude": "29.98096109924308",
      "longitude": "-90.04905609673887"
    }
  },
  {
    "service_request": "2026-1300965",
    "request_type": "Trash/Recycling",
    "request_reason": "Order Trash Cart",
    "date_created": "2026-07-16T23:55:33.000",
    "date_modified": "2026-07-16T23:55:35.000",
    "request_status": "Pending",
    "responsible_agency": "Department of Sanitation",
    "final_address": "2234 Franklin Ave Apt B",
    "address_councildis": "D",
    "status": "Assigned to Contractor",
    "contractor": "IV Waste",
    "rowid": "1300965",
    "final_x": "3687417.13199",
    "final_y": "540847.147787",
    "longitude": "-90.04905609673887",
    "latitude": "29.98096109924308",
    "geocoded_column": {
      "latitude": "29.98096109924308",
      "longitude": "-90.04905609673887"
    }
  },
  {
    "service_request": "2026-1300964",
    "request_type": "Trash/Recycling",
    "request_reason": "Order Recycling Cart",
    "date_created": "2026-07-16T23:54:13.000",
    "date_modified": "2026-07-16T23:54:15.000",
    "request_status": "Pending",
    "responsible_agency": "Department of Sanitation",
    "final_address": "2234 Franklin Ave Apt A",
    "address_councildis": "D",
    "status": "Pending",
    "rowid": "1300964",
    "final_x": "3687433.79862",
    "final_y": "540848.536715",
    "longitude": "-90.04900340705221",
    "latitude": "29.980964404651413",
    "geocoded_column": {
      "latitude": "29.980964404651413",
      "longitude": "-90.04900340705221"
    }
  },
  {
    "service_request": "2026-1300963",
    "request_type": "Trash/Recycling",
    "request_reason": "Order Trash Cart",
    "date_created": "2026-07-16T23:52:33.000",
    "date_modified": "2026-07-16T23:52:35.000",
    "request_status": "Pending",
    "responsible_agency": "Department of Sanitation",
    "final_address": "2234 Franklin Ave Apt A",
    "address_councildis": "D",
    "status": "Assigned to Contractor",
    "contractor": "IV Waste",
    "rowid": "1300963",
    "final_x": "3687433.79862",
    "final_y": "540848.536715",
    "longitude": "-90.04900340705221",
    "latitude": "29.980964404651413",
    "geocoded_column": {
      "latitude": "29.980964404651413",
      "longitude": "-90.04900340705221"
    }
  },
  {
    "service_request": "2026-1300962",
    "request_type": "Trash/Recycling",
    "request_reason": "Order Recycling Cart",
    "date_created": "2026-07-16T23:50:52.000",
    "date_modified": "2026-07-16T23:50:53.000",
    "request_status": "Pending",
    "responsible_agency": "Department of Sanitation",
    "final_address": "2232 Franklin Ave Apt B",
    "address_councildis": "D",
    "status": "Pending",
    "rowid": "1300962",
    "final_x": "3687468.86812",
    "final_y": "540842.633931",
    "longitude": "-90.0488928511986",
    "latitude": "29.98094709320395",
    "geocoded_column": {
      "latitude": "29.98094709320395",
      "longitude": "-90.0488928511986"
    }
  },
  {
    "service_request": "2026-1300961",
    "request_type": "Trash/Recycling",
    "request_reason": "Order Trash Cart",
    "date_created": "2026-07-16T23:49:27.000",
    "date_modified": "2026-07-16T23:49:29.000",
    "request_status": "Pending",
    "responsible_agency": "Department of Sanitation",
    "final_address": "2232 Franklin Ave Apt B",
    "address_councildis": "D",
    "status": "Assigned to Contractor",
    "contractor": "IV Waste",
    "rowid": "1300961",
    "final_x": "3687468.86812",
    "final_y": "540842.633931",
    "longitude": "-90.0488928511986",
    "latitude": "29.98094709320395",
    "geocoded_column": {
      "latitude": "29.98094709320395",
      "longitude": "-90.0488928511986"
    }
  },
  {
    "service_request": "2026-1300960",
    "request_type": "Trash/Recycling",
    "request_reason": "Order Recycling Cart",
    "date_created": "2026-07-16T23:47:44.000",
    "date_modified": "2026-07-16T23:47:46.000",
    "request_status": "Pending",
    "responsible_agency": "Department of Sanitation",
    "final_address": "2232 Franklin Ave Apt A",
    "address_councildis": "D",
    "status": "Pending",
    "rowid": "1300960",
    "final_x": "3687485.88201",
    "final_y": "540845.064459",
    "longitude": "-90.04883902783567",
    "latitude": "29.9809532518742",
    "geocoded_column": {
      "latitude": "29.9809532518742",
      "longitude": "-90.04883902783567"
    }
  },
  {
    "service_request": "2026-1300959",
    "request_type": "Trash/Recycling",
    "request_reason": "Order Trash Cart",
    "date_created": "2026-07-16T23:45:59.000",
    "date_modified": "2026-07-16T23:46:01.000",
    "request_status": "Pending",
    "responsible_agency": "Department of Sanitation",
    "final_address": "2232 Franklin Ave Apt A",
    "address_councildis": "D",
    "status": "Assigned to Contractor",
    "contractor": "IV Waste",
    "rowid": "1300959",
    "final_x": "3687485.88201",
    "final_y": "540845.064459",
    "longitude": "-90.04883902783567",
    "latitude": "29.9809532518742",
    "geocoded_column": {
      "latitude": "29.9809532518742",
      "longitude": "-90.04883902783567"
    }
  },
  {
    "service_request": "2026-1300958",
    "request_type": "Health Related Request",
    "request_reason": "Noise Ordinance Complaint",
    "date_created": "2026-07-16T23:44:24.000",
    "date_modified": "2026-07-16T23:44:27.000",
    "request_status": "Pending",
    "responsible_agency": "Health Department",
    "final_address": "801 Bourbon St, New Orleans, Louisiana, 70116",
    "address_councildis": "C",
    "status": "Pending",
    "rowid": "1300958",
    "final_x": "3682490.98735",
    "final_y": "533018.672772",
    "longitude": "-90.06488875731978",
    "latitude": "29.959586396383013",
    "geocoded_column": {
      "latitude": "29.959586396383013",
      "longitude": "-90.06488875731978"
    }
  },
  {
    "service_request": "2026-1300957",
    "request_type": "Streetlights",
    "request_reason": "Streetlight Outage/Malfunction",
    "date_created": "2026-07-16T23:36:00.000",
    "date_modified": "2026-07-16T23:36:03.000",
    "request_status": "Pending",
    "responsible_agency": "Department of Public Works",
    "final_address": "10311 Flossmoor Dr",
    "address_councildis": "E",
    "status": "Pending",
    "rowid": "1300957",
    "final_x": "3709955.83768",
    "final_y": "563931.027297",
    "longitude": "-89.97700648445907",
    "latitude": "30.04371897655244",
    "geocoded_column": {
      "latitude": "30.04371897655244",
      "longitude": "-89.97700648445907"
    }
  },
  {
    "service_request": "2026-1300956",
    "request_type": "Trash/Recycling",
    "request_reason": "Order Recycling Cart",
    "date_created": "2026-07-16T23:24:34.000",
    "date_modified": "2026-07-16T23:24:36.000",
    "request_status": "Pending",
    "responsible_agency": "Department of Sanitation",
    "final_address": "2230 Franklin Ave Apt B",
    "address_councildis": "D",
    "status": "Pending",
    "rowid": "1300956",
    "final_x": "3687467.82646",
    "final_y": "540820.411723",
    "longitude": "-90.04889692798812",
    "latitude": "29.98088602210798",
    "geocoded_column": {
      "latitude": "29.98088602210798",
      "longitude": "-90.04889692798812"
    }
  },
  {
    "service_request": "2026-1300955",
    "request_type": "Trash/Recycling",
    "request_reason": "Order Trash Cart",
    "date_created": "2026-07-16T23:22:46.000",
    "date_modified": "2026-07-16T23:22:48.000",
    "request_status": "Pending",
    "responsible_agency": "Department of Sanitation",
    "final_address": "2230 Franklin Ave Apt B",
    "address_councildis": "D",
    "status": "Assigned to Contractor",
    "contractor": "IV Waste",
    "rowid": "1300955",
    "final_x": "3687467.82646",
    "final_y": "540820.411723",
    "longitude": "-90.04889692798812",
    "latitude": "29.98088602210798",
    "geocoded_column": {
      "latitude": "29.98088602210798",
      "longitude": "-90.04889692798812"
    }
  },
  {
    "service_request": "2026-1300954",
    "request_type": "Trash/Recycling",
    "request_reason": "Order Recycling Cart",
    "date_created": "2026-07-16T23:21:18.000",
    "date_modified": "2026-07-16T23:21:20.000",
    "request_status": "Pending",
    "responsible_agency": "Department of Sanitation",
    "final_address": "2230 Franklin Ave Apt A",
    "address_councildis": "D",
    "status": "Pending",
    "rowid": "1300954",
    "final_x": "3687488.65974",
    "final_y": "540822.147851",
    "longitude": "-90.04883106594707",
    "latitude": "29.980890153697747",
    "geocoded_column": {
      "latitude": "29.980890153697747",
      "longitude": "-90.04883106594707"
    }
  },
  {
    "service_request": "2026-1300953",
    "request_type": "Trash/Recycling",
    "request_reason": "Order Trash Cart",
    "date_created": "2026-07-16T23:19:33.000",
    "date_modified": "2026-07-16T23:19:36.000",
    "request_status": "Pending",
    "responsible_agency": "Department of Sanitation",
    "final_address": "2230 Franklin Ave Apt A",
    "address_councildis": "D",
    "status": "Assigned to Contractor",
    "contractor": "IV Waste",
    "rowid": "1300953",
    "final_x": "3687488.65974",
    "final_y": "540822.147851",
    "longitude": "-90.04883106594707",
    "latitude": "29.980890153697747",
    "geocoded_column": {
      "latitude": "29.980890153697747",
      "longitude": "-90.04883106594707"
    }
  },
  {
    "service_request": "2026-1300952",
    "request_type": "Trash/Recycling",
    "request_reason": "Order Recycling Cart",
    "date_created": "2026-07-16T23:17:36.000",
    "date_modified": "2026-07-16T23:17:37.000",
    "request_status": "Pending",
    "responsible_agency": "Department of Sanitation",
    "final_address": "2228 Franklin Ave Apt B",
    "address_councildis": "D",
    "status": "Pending",
    "rowid": "1300952",
    "final_x": "3687401.50697",
    "final_y": "540798.883915",
    "longitude": "-90.04910715588558",
    "latitude": "29.9808288722147",
    "geocoded_column": {
      "latitude": "29.9808288722147",
      "longitude": "-90.04910715588558"
    }
  },
  {
    "service_request": "2026-1300951",
    "request_type": "Trash/Recycling",
    "request_reason": "Order Trash Cart",
    "date_created": "2026-07-16T23:15:50.000",
    "date_modified": "2026-07-16T23:15:53.000",
    "request_status": "Pending",
    "responsible_agency": "Department of Sanitation",
    "final_address": "2228 Franklin Ave Apt B",
    "address_councildis": "D",
    "status": "Assigned to Contractor",
    "contractor": "IV Waste",
    "rowid": "1300951",
    "final_x": "3687401.50697",
    "final_y": "540798.883915",
    "longitude": "-90.04910715588558",
    "latitude": "29.9808288722147",
    "geocoded_column": {
      "latitude": "29.9808288722147",
      "longitude": "-90.04910715588558"
    }
  },
  {
    "service_request": "2026-1300950",
    "request_type": "Trash/Recycling",
    "request_reason": "Order Recycling Cart",
    "date_created": "2026-07-16T23:13:45.000",
    "date_modified": "2026-07-16T23:13:48.000",
    "request_status": "Pending",
    "responsible_agency": "Department of Sanitation",
    "final_address": "2228 Franklin Ave Apt A",
    "address_councildis": "D",
    "status": "Pending",
    "rowid": "1300950",
    "final_x": "3687416.78473",
    "final_y": "540800.272779",
    "longitude": "-90.04905885292673",
    "latitude": "29.980832220270496",
    "geocoded_column": {
      "latitude": "29.980832220270496",
      "longitude": "-90.04905885292673"
    }
  },
  {
    "service_request": "2026-1300949",
    "request_type": "Trash/Recycling",
    "request_reason": "Order Trash Cart",
    "date_created": "2026-07-16T23:11:43.000",
    "date_modified": "2026-07-16T23:11:45.000",
    "request_status": "Pending",
    "responsible_agency": "Department of Sanitation",
    "final_address": "2228 Franklin Ave",
    "address_councildis": "D",
    "status": "Assigned to Contractor",
    "contractor": "IV Waste",
    "rowid": "1300949",
    "final_x": "3687434.49308",
    "final_y": "540802.703371",
    "longitude": "-90.04900283622767",
    "latitude": "29.98083835778161",
    "geocoded_column": {
      "latitude": "29.98083835778161",
      "longitude": "-90.04900283622767"
    }
  },
  {
    "service_request": "2026-1300948",
    "request_type": "Trash/Recycling",
    "request_reason": "Repair Trash Cart",
    "date_created": "2026-07-16T22:41:18.000",
    "date_modified": "2026-07-16T22:41:20.000",
    "request_status": "Pending",
    "responsible_agency": "Department of Sanitation",
    "final_address": "2139 Peniston St",
    "address_councildis": "B",
    "status": "Assigned to Contractor",
    "contractor": "IV Waste",
    "rowid": "1300948",
    "final_x": "3672442.48558",
    "final_y": "523175.123835",
    "longitude": "-90.09695507126692",
    "latitude": "29.93282190494104",
    "geocoded_column": {
      "latitude": "29.93282190494104",
      "longitude": "-90.09695507126692"
    }
  },
  {
    "service_request": "2026-1300947",
    "request_type": "Health Related Request",
    "request_reason": "Noise Ordinance Complaint",
    "date_created": "2026-07-16T22:15:32.000",
    "date_modified": "2026-07-16T22:15:33.000",
    "request_status": "Pending",
    "responsible_agency": "Health Department",
    "final_address": "801 Bourbon St, New Orleans, Louisiana, 70116",
    "address_councildis": "C",
    "status": "Pending",
    "rowid": "1300947",
    "final_x": "3682490.98735",
    "final_y": "533018.672772",
    "longitude": "-90.06488875731978",
    "latitude": "29.959586396383013",
    "geocoded_column": {
      "latitude": "29.959586396383013",
      "longitude": "-90.06488875731978"
    }
  },
  {
    "service_request": "2026-1300946",
    "request_type": "Health Related Request",
    "request_reason": "Noise Ordinance Complaint",
    "date_created": "2026-07-16T22:15:09.000",
    "date_modified": "2026-07-16T22:15:12.000",
    "request_status": "Pending",
    "responsible_agency": "Health Department",
    "final_address": "801 Bourbon St, New Orleans, Louisiana, 70116",
    "address_councildis": "C",
    "status": "Pending",
    "rowid": "1300946",
    "final_x": "3682490.98735",
    "final_y": "533018.672772",
    "longitude": "-90.06488875731978",
    "latitude": "29.959586396383013",
    "geocoded_column": {
      "latitude": "29.959586396383013",
      "longitude": "-90.06488875731978"
    }
  },
  {
    "service_request": "2026-1300945",
    "request_type": "Tree Service",
    "request_reason": "Tree Trim",
    "date_created": "2026-07-16T22:04:27.000",
    "date_modified": "2026-07-16T22:04:29.000",
    "request_status": "Pending",
    "responsible_agency": "Department of Parks & Parkways",
    "final_address": "3936 Toledano St",
    "address_councildis": "B",
    "status": "Pending",
    "rowid": "1300945",
    "final_x": "3671267.69659",
    "final_y": "529300.959553",
    "longitude": "-90.10045572032408",
    "latitude": "29.949700763539546",
    "geocoded_column": {
      "latitude": "29.949700763539546",
      "longitude": "-90.10045572032408"
    }
  },
  {
    "service_request": "2026-1300944",
    "request_type": "Trash/Recycling",
    "request_reason": "Order Trash Cart",
    "date_created": "2026-07-16T22:01:16.000",
    "date_modified": "2026-07-16T22:01:28.000",
    "request_status": "Pending",
    "responsible_agency": "Department of Sanitation",
    "final_address": "740 Thayer St Apt 2A",
    "address_councildis": "C",
    "status": "Assigned to Contractor",
    "contractor": "Richards Disposal",
    "rowid": "1300944",
    "final_x": "3689531.96822",
    "final_y": "528698.78784",
    "longitude": "-90.04280867015108",
    "latitude": "29.947492006850165",
    "geocoded_column": {
      "latitude": "29.947492006850165",
      "longitude": "-90.04280867015108"
    }
  },
  {
    "service_request": "2026-1300943",
    "request_type": "Trash/Recycling",
    "request_reason": "Order Recycling Cart",
    "date_created": "2026-07-16T21:55:22.000",
    "date_modified": "2026-07-16T21:55:24.000",
    "request_status": "Pending",
    "responsible_agency": "Department of Sanitation",
    "final_address": "106 Rhodes Ave",
    "address_councildis": "C",
    "status": "Pending",
    "rowid": "1300943",
    "final_x": "3705892.09214",
    "final_y": "519479.247735",
    "longitude": "-89.99149474849936",
    "latitude": "29.921624729204975",
    "geocoded_column": {
      "latitude": "29.921624729204975",
      "longitude": "-89.99149474849936"
    }
  },
  {
    "service_request": "2026-1300942",
    "request_type": "Trash/Recycling",
    "request_reason": "Replace Trash Cart",
    "date_created": "2026-07-16T21:48:07.000",
    "date_modified": "2026-07-16T21:48:09.000",
    "request_status": "Pending",
    "responsible_agency": "Department of Sanitation",
    "final_address": "106 Rhodes Ave",
    "address_councildis": "C",
    "status": "Assigned to Contractor",
    "contractor": "Richards Disposal",
    "rowid": "1300942",
    "final_x": "3705892.09214",
    "final_y": "519479.247735",
    "longitude": "-89.99149474849936",
    "latitude": "29.921624729204975",
    "geocoded_column": {
      "latitude": "29.921624729204975",
      "longitude": "-89.99149474849936"
    }
  },
  {
    "service_request": "2026-1300941",
    "request_type": "Streetlights",
    "request_reason": "Streetlight Outage/Malfunction",
    "date_created": "2026-07-16T21:17:57.000",
    "date_modified": "2026-07-16T21:17:59.000",
    "request_status": "Pending",
    "responsible_agency": "Department of Public Works",
    "final_address": "4001 Banks St",
    "address_councildis": "A",
    "status": "Pending",
    "rowid": "1300941",
    "final_x": "3670766.63828",
    "final_y": "537173.550024",
    "longitude": "-90.10177062407267",
    "latitude": "29.971362586671603",
    "geocoded_column": {
      "latitude": "29.971362586671603",
      "longitude": "-90.10177062407267"
    }
  },
  {
    "service_request": "2026-1300940",
    "request_type": "Parks & Grass Service",
    "request_reason": "Request Grass Cutting Service (City Owned Property)",
    "date_created": "2026-07-16T21:11:02.000",
    "date_modified": "2026-07-16T21:11:04.000",
    "request_status": "Pending",
    "responsible_agency": "Department of Parks & Parkways",
    "final_address": "4400 Banks St",
    "address_councildis": "A",
    "status": "Pending",
    "rowid": "1300940",
    "final_x": "3669191.07873",
    "final_y": "538196.709513",
    "longitude": "-90.10671188888567",
    "latitude": "29.97422240127446",
    "geocoded_column": {
      "latitude": "29.97422240127446",
      "longitude": "-90.10671188888567"
    }
  },
  {
    "service_request": "2026-1300939",
    "request_type": "Trash/Recycling",
    "request_reason": "Replace Trash Cart",
    "date_created": "2026-07-16T20:51:24.000",
    "date_modified": "2026-07-16T20:51:27.000",
    "request_status": "Pending",
    "responsible_agency": "Department of Sanitation",
    "final_address": "904 Seventh St",
    "address_councildis": "B",
    "status": "Assigned to Contractor",
    "contractor": "IV Waste",
    "rowid": "1300939",
    "final_x": "3676709.34254",
    "final_y": "519800.107384",
    "longitude": "-90.08360113072412",
    "latitude": "29.92341442171791",
    "geocoded_column": {
      "latitude": "29.92341442171791",
      "longitude": "-90.08360113072412"
    }
  },
  {
    "service_request": "2026-1300938",
    "request_type": "Trash/Recycling",
    "request_reason": "Replace Recycling Cart",
    "date_created": "2026-07-16T20:36:53.000",
    "date_modified": "2026-07-16T20:36:54.000",
    "request_status": "Pending",
    "responsible_agency": "Department of Sanitation",
    "final_address": "3019 St Thomas St",
    "address_councildis": "B",
    "status": "Pending",
    "rowid": "1300938",
    "final_x": "3677226.12846",
    "final_y": "518786.720055",
    "longitude": "-90.08200476411066",
    "latitude": "29.92061242560908",
    "geocoded_column": {
      "latitude": "29.92061242560908",
      "longitude": "-90.08200476411066"
    }
  },
  {
    "service_request": "2026-1300937",
    "request_type": "Trash/Recycling",
    "request_reason": "Order Trash Cart",
    "date_created": "2026-07-16T20:35:22.000",
    "date_modified": "2026-07-16T20:35:23.000",
    "request_status": "Pending",
    "responsible_agency": "Department of Sanitation",
    "final_address": "1115 Teche St",
    "address_councildis": "C",
    "status": "Assigned to Contractor",
    "contractor": "Richards Disposal",
    "rowid": "1300937",
    "final_x": "3686560.46082",
    "final_y": "527388.082815",
    "longitude": "-90.05223711599514",
    "latitude": "29.943979702163286",
    "geocoded_column": {
      "latitude": "29.943979702163286",
      "longitude": "-90.05223711599514"
    }
  },
  {
    "service_request": "2026-1300936",
    "request_type": "Abandoned Vehicles",
    "request_reason": "Abandoned/Junk Vehicles",
    "date_created": "2026-07-16T20:27:06.000",
    "date_modified": "2026-07-16T20:27:09.000",
    "request_status": "Pending",
    "responsible_agency": "Department of Public Works",
    "final_address": "2517 Sage St",
    "address_councildis": "D",
    "status": "Pending",
    "rowid": "1300936",
    "final_x": "3686860.00054",
    "final_y": "545539.875984",
    "longitude": "-90.05064984398332",
    "latitude": "29.993881588111755",
    "geocoded_column": {
      "latitude": "29.993881588111755",
      "longitude": "-90.05064984398332"
    }
  },
  {
    "service_request": "2026-1300935",
    "request_type": "Trash/Recycling",
    "request_reason": "Request a Large Item Pick Up",
    "date_created": "2026-07-16T20:14:36.000",
    "date_modified": "2026-07-16T20:14:39.000",
    "request_status": "Pending",
    "responsible_agency": "Department of Sanitation",
    "final_address": "7150 Salem Dr",
    "address_councildis": "E",
    "status": "Assigned to Contractor",
    "contractor": "Waste Pro",
    "rowid": "1300935",
    "final_x": "3706342.37815",
    "final_y": "561334.250526",
    "longitude": "-89.98852280748055",
    "latitude": "30.0366959814863",
    "geocoded_column": {
      "latitude": "30.0366959814863",
      "longitude": "-89.98852280748055"
    }
  },
  {
    "service_request": "2026-1300934",
    "request_type": "Abandoned Vehicles",
    "request_reason": "Abandoned/Junk Vehicles",
    "date_created": "2026-07-16T20:04:56.000",
    "date_modified": "2026-07-16T20:04:59.000",
    "request_status": "Pending",
    "responsible_agency": "Department of Public Works",
    "final_address": "2468 Prancer St",
    "address_councildis": "C",
    "status": "Pending",
    "rowid": "1300934",
    "final_x": "3699831.86928",
    "final_y": "522049.109306",
    "longitude": "-90.01053048766532",
    "latitude": "29.9288847140097",
    "geocoded_column": {
      "latitude": "29.9288847140097",
      "longitude": "-90.01053048766532"
    }
  },
  {
    "service_request": "2026-1300933",
    "request_type": "Trash/Recycling",
    "request_reason": "Repair Trash Cart",
    "date_created": "2026-07-16T20:03:56.000",
    "date_modified": "2026-07-16T20:03:57.000",
    "request_status": "Pending",
    "responsible_agency": "Department of Sanitation",
    "final_address": "742 Fourth St",
    "address_councildis": "B",
    "status": "Assigned to Contractor",
    "contractor": "IV Waste",
    "rowid": "1300933",
    "final_x": "3677908.00072",
    "final_y": "520013.950968",
    "longitude": "-90.07981003008608",
    "latitude": "29.92396642023144",
    "geocoded_column": {
      "latitude": "29.92396642023144",
      "longitude": "-90.07981003008608"
    }
  },
  {
    "service_request": "2026-1300932",
    "request_type": "Trash/Recycling",
    "request_reason": "Replace Trash Cart",
    "date_created": "2026-07-16T20:01:46.000",
    "date_modified": "2026-07-16T20:01:49.000",
    "request_status": "Pending",
    "responsible_agency": "Department of Sanitation",
    "final_address": "3015 Frenchmen St",
    "address_councildis": "D",
    "status": "Assigned to Contractor",
    "contractor": "IV Waste",
    "rowid": "1300932",
    "final_x": "3684032.09199",
    "final_y": "543791.564878",
    "longitude": "-90.05964417238299",
    "latitude": "29.98916109486121",
    "geocoded_column": {
      "latitude": "29.98916109486121",
      "longitude": "-90.05964417238299"
    }
  },
  {
    "service_request": "2026-1300931",
    "request_type": "Abandoned Vehicles",
    "request_reason": "Abandoned/Junk Vehicles",
    "date_created": "2026-07-16T20:00:45.000",
    "date_modified": "2026-07-16T20:00:47.000",
    "request_status": "Pending",
    "responsible_agency": "Department of Public Works",
    "final_address": "2468 Prancer St",
    "address_councildis": "C",
    "status": "Pending",
    "rowid": "1300931",
    "final_x": "3699831.86928",
    "final_y": "522049.109306",
    "longitude": "-90.01053048766532",
    "latitude": "29.9288847140097",
    "geocoded_column": {
      "latitude": "29.9288847140097",
      "longitude": "-90.01053048766532"
    }
  },
  {
    "service_request": "2026-1300930",
    "request_type": "General Services",
    "request_reason": "General Service Request",
    "date_created": "2026-07-16T19:44:47.000",
    "date_modified": "2026-07-16T19:44:51.000",
    "request_status": "Pending",
    "responsible_agency": "Orleans Parish Communication District",
    "final_address": "2716 Dryades St Ste A",
    "address_councildis": "B",
    "status": "Pending",
    "rowid": "1300930",
    "final_x": "3675487.73134",
    "final_y": "523494.694011",
    "longitude": "-90.08733048474753",
    "latitude": "29.93360991706212",
    "geocoded_column": {
      "latitude": "29.93360991706212",
      "longitude": "-90.08733048474753"
    }
  },
  {
    "service_request": "2026-1300929",
    "request_type": "Trash/Recycling",
    "request_reason": "Request a Large Item Pick Up",
    "date_created": "2026-07-16T19:39:44.000",
    "date_modified": "2026-07-16T19:39:46.000",
    "request_status": "Pending",
    "responsible_agency": "Department of Sanitation",
    "final_address": "13901 Curran Rd",
    "address_councildis": "E",
    "status": "Assigned to Contractor",
    "contractor": "Waste Pro",
    "rowid": "1300929",
    "final_x": "3718164.63404",
    "final_y": "572000.249128",
    "longitude": "-89.95075573809582",
    "latitude": "30.06563627366684",
    "geocoded_column": {
      "latitude": "30.06563627366684",
      "longitude": "-89.95075573809582"
    }
  },
  {
    "service_request": "2026-1300928",
    "request_type": "Trash/Recycling",
    "request_reason": "Repair Recycling Cart",
    "date_created": "2026-07-16T19:36:22.000",
    "date_modified": "2026-07-16T19:36:24.000",
    "request_status": "Pending",
    "responsible_agency": "Department of Sanitation",
    "final_address": "5717 Clara St",
    "address_councildis": "A",
    "status": "Pending",
    "rowid": "1300928",
    "final_x": "3667252.04308",
    "final_y": "525212.226941",
    "longitude": "-90.11327247957752",
    "latitude": "29.938576263350477",
    "geocoded_column": {
      "latitude": "29.938576263350477",
      "longitude": "-90.11327247957752"
    }
  },
  {
    "service_request": "2026-1300927",
    "request_type": "Abandoned Vehicles",
    "request_reason": "Abandoned/Junk Vehicles",
    "date_created": "2026-07-16T19:31:04.000",
    "date_modified": "2026-07-16T19:31:06.000",
    "request_status": "Pending",
    "responsible_agency": "Department of Public Works",
    "final_address": "616 Delaronde St",
    "address_councildis": "C",
    "status": "Pending",
    "rowid": "1300927",
    "final_x": "3687372.21244",
    "final_y": "531236.979714",
    "longitude": "-90.04953804812723",
    "latitude": "29.954537873504975",
    "geocoded_column": {
      "latitude": "29.954537873504975",
      "longitude": "-90.04953804812723"
    }
  },
  {
    "service_request": "2026-1300926",
    "request_type": "Trash/Recycling",
    "request_reason": "Repair Trash Cart",
    "date_created": "2026-07-16T19:27:33.000",
    "date_modified": "2026-07-16T19:27:35.000",
    "request_status": "Pending",
    "responsible_agency": "Department of Sanitation",
    "final_address": "5508 S Claiborne Ave",
    "address_councildis": "A",
    "status": "Assigned to Contractor",
    "contractor": "IV Waste",
    "rowid": "1300926",
    "final_x": "3667984.1385",
    "final_y": "526364.339774",
    "longitude": "-90.11092236590741",
    "latitude": "29.941722748015632",
    "geocoded_column": {
      "latitude": "29.941722748015632",
      "longitude": "-90.11092236590741"
    }
  },
  {
    "service_request": "2026-1300925",
    "request_type": "Drainage",
    "request_reason": "Drainage Manhole Cover Missing or Damaged",
    "date_created": "2026-07-16T19:21:54.000",
    "date_modified": "2026-07-16T19:21:56.000",
    "request_status": "Pending",
    "responsible_agency": "Sewerage & Water Board",
    "final_address": "1600 BLK Constantinople St",
    "address_councildis": "B",
    "status": "Pending",
    "rowid": "1300925",
    "final_x": "3672292.39029",
    "final_y": "521211.366158",
    "longitude": "-90.09749577501063",
    "latitude": "29.92742665607399",
    "geocoded_column": {
      "latitude": "29.92742665607399",
      "longitude": "-90.09749577501063"
    }
  },
  {
    "service_request": "2026-1300924",
    "request_type": "Roads and Streets",
    "request_reason": "Street Subsidence (Sinking)",
    "date_created": "2026-07-16T19:20:28.000",
    "date_modified": "2026-07-16T19:20:31.000",
    "request_status": "Pending",
    "responsible_agency": "Sewerage & Water Board",
    "final_address": "5851 General Haig St",
    "address_councildis": "A",
    "status": "Pending",
    "rowid": "1300924",
    "final_x": "3670508.57102",
    "final_y": "546185.99688",
    "longitude": "-90.1022798462466",
    "latitude": "29.996151364830524",
    "geocoded_column": {
      "latitude": "29.996151364830524",
      "longitude": "-90.1022798462466"
    }
  },
  {
    "service_request": "2026-1300923",
    "request_type": "Traffic Signals",
    "request_reason": "Traffic Signal Malfunctioning or Damaged",
    "date_created": "2026-07-16T19:16:40.000",
    "date_modified": "2026-07-16T19:16:42.000",
    "request_status": "Pending",
    "responsible_agency": "Department of Public Works",
    "final_address": "731 N Carrollton Ave",
    "address_councildis": "A",
    "status": "Pending",
    "rowid": "1300923",
    "final_x": "3672568.46497",
    "final_y": "540063.958859",
    "longitude": "-90.09598161467692",
    "latitude": "29.979256856268997",
    "geocoded_column": {
      "latitude": "29.979256856268997",
      "longitude": "-90.09598161467692"
    }
  },
  {
    "service_request": "2026-1300922",
    "request_type": "Trash/Recycling",
    "request_reason": "Replace Trash Cart",
    "date_created": "2026-07-16T19:08:22.000",
    "date_modified": "2026-07-16T19:08:26.000",
    "request_status": "Pending",
    "responsible_agency": "Department of Sanitation",
    "final_address": "3015 Frenchmen St",
    "address_councildis": "D",
    "status": "Assigned to Contractor",
    "contractor": "IV Waste",
    "rowid": "1300922",
    "final_x": "3684032.09199",
    "final_y": "543791.564878",
    "longitude": "-90.05964417238299",
    "latitude": "29.98916109486121",
    "geocoded_column": {
      "latitude": "29.98916109486121",
      "longitude": "-90.05964417238299"
    }
  },
  {
    "service_request": "2026-1300921",
    "request_type": "Trash/Recycling",
    "request_reason": "Order Recycling Cart",
    "date_created": "2026-07-16T18:59:44.000",
    "date_modified": "2026-07-16T18:59:46.000",
    "request_status": "Pending",
    "responsible_agency": "Department of Sanitation",
    "final_address": "3812 Nashville Ave",
    "address_councildis": "B",
    "status": "Pending",
    "rowid": "1300921",
    "final_x": "3668404.94721",
    "final_y": "529545.004353",
    "longitude": "-90.10948652605516",
    "latitude": "29.95045619194406",
    "geocoded_column": {
      "latitude": "29.95045619194406",
      "longitude": "-90.10948652605516"
    }
  },
  {
    "service_request": "2026-1300920",
    "request_type": "General Services",
    "request_reason": "General Service Request",
    "date_created": "2026-07-16T18:56:53.000",
    "date_modified": "2026-07-16T18:56:55.000",
    "request_status": "Pending",
    "responsible_agency": "Orleans Parish Communication District",
    "final_address": "833 Poydras St",
    "address_councildis": "B",
    "status": "Pending",
    "rowid": "1300920",
    "final_x": "3680011.55458",
    "final_y": "529610.537345",
    "longitude": "-90.07283662222024",
    "latitude": "29.950290412537097",
    "geocoded_column": {
      "latitude": "29.950290412537097",
      "longitude": "-90.07283662222024"
    }
  },
  {
    "service_request": "2026-1300919",
    "request_type": "Trash/Recycling",
    "request_reason": "Request a Large Item Pick Up",
    "date_created": "2026-07-16T18:52:48.000",
    "date_modified": "2026-07-16T18:52:50.000",
    "request_status": "Pending",
    "responsible_agency": "Department of Sanitation",
    "final_address": "2317 Baronne St",
    "address_councildis": "B",
    "status": "Assigned to Contractor",
    "contractor": "IV Waste",
    "rowid": "1300919",
    "final_x": "3676591.82389",
    "final_y": "523900.632444",
    "longitude": "-90.08383094508086",
    "latitude": "29.93469305611972",
    "geocoded_column": {
      "latitude": "29.93469305611972",
      "longitude": "-90.08383094508086"
    }
  },
  {
    "service_request": "2026-1300918",
    "request_type": "Property Maintenance",
    "request_reason": "Property Maintenance",
    "date_created": "2026-07-16T18:40:29.000",
    "date_modified": "2026-07-16T18:40:30.000",
    "request_status": "Pending",
    "responsible_agency": "Department of Code Enforcement",
    "final_address": "2454 Benefit St",
    "address_councildis": "D",
    "status": "Pending",
    "rowid": "1300918",
    "final_x": "3686367.82146",
    "final_y": "544521.567567",
    "longitude": "-90.05224052667191",
    "latitude": "29.99109674466827",
    "geocoded_column": {
      "latitude": "29.99109674466827",
      "longitude": "-90.05224052667191"
    }
  },
  {
    "service_request": "2026-1300917",
    "request_type": "Trash/Recycling",
    "request_reason": "Request a Large Item Pick Up",
    "date_created": "2026-07-16T18:38:33.000",
    "date_modified": "2026-07-16T18:38:35.000",
    "request_status": "Pending",
    "responsible_agency": "Department of Sanitation",
    "final_address": "5540 Lafaye St",
    "address_councildis": "D",
    "status": "Assigned to Contractor",
    "contractor": "IV Waste",
    "rowid": "1300917",
    "final_x": "3687180.9517",
    "final_y": "553633.815255",
    "longitude": "-90.04934950829269",
    "latitude": "30.01612709291275",
    "geocoded_column": {
      "latitude": "30.01612709291275",
      "longitude": "-90.04934950829269"
    }
  },
  {
    "service_request": "2026-1300916",
    "request_type": "Roads and Streets",
    "request_reason": "Pothole",
    "date_created": "2026-07-16T18:37:54.000",
    "date_modified": "2026-07-16T18:37:56.000",
    "request_status": "Pending",
    "responsible_agency": "Department of Public Works",
    "final_address": "8920 Green St",
    "address_councildis": "A",
    "status": "Pending",
    "rowid": "1300916",
    "final_x": "3660901.82816",
    "final_y": "531654.022019",
    "longitude": "-90.13310785339705",
    "latitude": "29.956473535660628",
    "geocoded_column": {
      "latitude": "29.956473535660628",
      "longitude": "-90.13310785339705"
    }
  },
  {
    "service_request": "2026-1300915",
    "request_type": "Abandoned Vehicles",
    "request_reason": "Abandoned/Junk Vehicles",
    "date_created": "2026-07-16T18:36:34.000",
    "date_modified": "2026-07-16T18:36:36.000",
    "request_status": "Pending",
    "responsible_agency": "Department of Public Works",
    "final_address": "1835 Murl St",
    "address_councildis": "C",
    "status": "Pending",
    "rowid": "1300915",
    "final_x": "3695310.05136",
    "final_y": "524342.258812",
    "longitude": "-90.02472220976341",
    "latitude": "29.935332853262505",
    "geocoded_column": {
      "latitude": "29.935332853262505",
      "longitude": "-90.02472220976341"
    }
  },
  {
    "service_request": "2026-1300914",
    "request_type": "Roads and Streets",
    "request_reason": "Sidewalk Damaged or Missing",
    "date_created": "2026-07-16T18:36:04.000",
    "date_modified": "2026-07-16T18:36:07.000",
    "request_status": "Pending",
    "responsible_agency": "Department of Public Works",
    "final_address": "900 BLK Common St",
    "address_councildis": "B",
    "status": "Pending",
    "rowid": "1300914",
    "final_x": "3680052.8308",
    "final_y": "530795.914246",
    "longitude": "-90.07266511487632",
    "latitude": "29.953548551537104",
    "geocoded_column": {
      "latitude": "29.953548551537104",
      "longitude": "-90.07266511487632"
    }
  },
  {
    "service_request": "2026-1300913",
    "request_type": "Abandoned Vehicles",
    "request_reason": "Abandoned/Junk Vehicles",
    "date_created": "2026-07-16T18:35:48.000",
    "date_modified": "2026-07-16T18:35:51.000",
    "request_status": "Pending",
    "responsible_agency": "Department of Public Works",
    "final_address": "3309 Banks St",
    "address_councildis": "B",
    "status": "Pending",
    "rowid": "1300913",
    "final_x": "3672799.43745",
    "final_y": "535590.964934",
    "longitude": "-90.09540474029697",
    "latitude": "29.966950778066604",
    "geocoded_column": {
      "latitude": "29.966950778066604",
      "longitude": "-90.09540474029697"
    }
  },
  {
    "service_request": "2026-1300912",
    "request_type": "Trash/Recycling",
    "request_reason": "Request a Large Item Pick Up",
    "date_created": "2026-07-16T18:34:49.000",
    "date_modified": "2026-07-16T18:34:52.000",
    "request_status": "Pending",
    "responsible_agency": "Department of Sanitation",
    "final_address": "7121 Cove Dr",
    "address_councildis": "E",
    "status": "Assigned to Contractor",
    "contractor": "Waste Pro",
    "rowid": "1300912",
    "final_x": "3700335.43204",
    "final_y": "558686.491356",
    "longitude": "-90.00760271281641",
    "latitude": "30.02960815088477",
    "geocoded_column": {
      "latitude": "30.02960815088477",
      "longitude": "-90.00760271281641"
    }
  },
  {
    "service_request": "2026-1300911",
    "request_type": "Roads and Streets",
    "request_reason": "Abandoned Service Cut",
    "date_created": "2026-07-16T18:31:29.000",
    "date_modified": "2026-07-16T22:19:49.000",
    "request_status": "Pending",
    "responsible_agency": "Department of Public Works",
    "final_address": "6400 BLK Argonne Blvd",
    "address_councildis": "A",
    "status": "Pending",
    "rowid": "1300911",
    "final_x": "3670412.57941",
    "final_y": "550221.978084",
    "longitude": "-90.10244612083993",
    "latitude": "30.007251741831542",
    "geocoded_column": {
      "latitude": "30.007251741831542",
      "longitude": "-90.10244612083993"
    }
  },
  {
    "service_request": "2026-1300910",
    "request_type": "Roads and Streets",
    "request_reason": "Road Shoulder Damage",
    "date_created": "2026-07-16T18:30:28.000",
    "date_modified": "2026-07-16T18:30:31.000",
    "request_status": "Pending",
    "responsible_agency": "Department of Public Works",
    "final_address": "900 BLK Common St",
    "address_councildis": "B",
    "status": "Pending",
    "rowid": "1300910",
    "final_x": "3680052.8308",
    "final_y": "530795.914246",
    "longitude": "-90.07266511487632",
    "latitude": "29.953548551537104",
    "geocoded_column": {
      "latitude": "29.953548551537104",
      "longitude": "-90.07266511487632"
    }
  },
  {
    "service_request": "2026-1300909",
    "request_type": "Roads and Streets",
    "request_reason": "Sidewalk Damaged or Missing",
    "date_created": "2026-07-16T18:22:24.000",
    "date_modified": "2026-07-16T18:22:27.000",
    "request_status": "Pending",
    "responsible_agency": "Department of Public Works",
    "final_address": "717 Common St",
    "address_councildis": "B",
    "status": "Pending",
    "rowid": "1300909",
    "final_x": "3680842.11311",
    "final_y": "530419.001538",
    "longitude": "-90.07018601514409",
    "latitude": "29.952488267744712",
    "geocoded_column": {
      "latitude": "29.952488267744712",
      "longitude": "-90.07018601514409"
    }
  },
  {
    "service_request": "2026-1300908",
    "request_type": "Trash/Recycling",
    "request_reason": "Request a Large Item Pick Up",
    "date_created": "2026-07-16T18:14:44.000",
    "date_modified": "2026-07-16T18:14:46.000",
    "request_status": "Pending",
    "responsible_agency": "Department of Sanitation",
    "final_address": "8811 Dinkins St",
    "address_councildis": "E",
    "status": "Assigned to Contractor",
    "contractor": "Waste Pro",
    "rowid": "1300908",
    "final_x": "3704448.54391",
    "final_y": "563336.887264",
    "longitude": "-89.99443372603372",
    "latitude": "30.042263422976415",
    "geocoded_column": {
      "latitude": "30.042263422976415",
      "longitude": "-89.99443372603372"
    }
  },
  {
    "service_request": "2026-1300907",
    "request_type": "Property Maintenance",
    "request_reason": "Property Maintenance",
    "date_created": "2026-07-16T18:13:52.000",
    "date_modified": "2026-07-16T18:13:55.000",
    "request_status": "Pending",
    "responsible_agency": "Department of Code Enforcement",
    "final_address": "2512 Governor Nicholls St",
    "address_councildis": "C",
    "status": "Pending",
    "rowid": "1300907",
    "final_x": "3678510.6468",
    "final_y": "537831.975625",
    "longitude": "-90.07729114613075",
    "latitude": "29.97294189511042",
    "geocoded_column": {
      "latitude": "29.97294189511042",
      "longitude": "-90.07729114613075"
    }
  },
  {
    "service_request": "2026-1300906",
    "request_type": "Property Maintenance",
    "request_reason": "Property Maintenance",
    "date_created": "2026-07-16T18:10:27.000",
    "date_modified": "2026-07-16T18:10:28.000",
    "request_status": "Pending",
    "responsible_agency": "Department of Code Enforcement",
    "final_address": "2500 Governor Nicholls St",
    "address_councildis": "C",
    "status": "Pending",
    "rowid": "1300906",
    "final_x": "3678581.73954",
    "final_y": "537784.58356",
    "longitude": "-90.07706826253708",
    "latitude": "29.972809440205925",
    "geocoded_column": {
      "latitude": "29.972809440205925",
      "longitude": "-90.07706826253708"
    }
  },
  {
    "service_request": "2026-1300905",
    "request_type": "Trash/Recycling",
    "request_reason": "Replace Trash Cart",
    "date_created": "2026-07-16T17:58:34.000",
    "date_modified": "2026-07-16T17:58:36.000",
    "request_status": "Pending",
    "responsible_agency": "Department of Sanitation",
    "final_address": "0 BLK Blanc Pl",
    "address_councildis": "B",
    "status": "Assigned to Contractor",
    "contractor": "IV Waste",
    "rowid": "1300905",
    "final_x": "3667951.08401",
    "final_y": "520874.262829",
    "longitude": "-90.11121159835395",
    "latitude": "29.926627762655404",
    "geocoded_column": {
      "latitude": "29.926627762655404",
      "longitude": "-90.11121159835395"
    }
  },
  {
    "service_request": "2026-1300904",
    "request_type": "Streetlights",
    "request_reason": "Streetlight Outage/Malfunction",
    "date_created": "2026-07-16T17:52:04.000",
    "date_modified": "2026-07-16T17:52:06.000",
    "request_status": "Pending",
    "responsible_agency": "Department of Public Works",
    "final_address": "27 Finch St",
    "address_councildis": "D",
    "status": "Pending",
    "rowid": "1300904",
    "final_x": "3672511.04097",
    "final_y": "555084.185113",
    "longitude": "-90.09565056028526",
    "latitude": "30.02055893311357",
    "geocoded_column": {
      "latitude": "30.02055893311357",
      "longitude": "-90.09565056028526"
    }
  },
  {
    "service_request": "2026-1300903",
    "request_type": "Trash/Recycling",
    "request_reason": "Request a Large Item Pick Up",
    "date_created": "2026-07-16T17:48:36.000",
    "date_modified": "2026-07-16T17:48:39.000",
    "request_status": "Pending",
    "responsible_agency": "Department of Sanitation",
    "final_address": "13136 Linden St",
    "address_councildis": "E",
    "status": "Assigned to Contractor",
    "contractor": "Waste Pro",
    "rowid": "1300903",
    "final_x": "3716321.86533",
    "final_y": "570628.387111",
    "longitude": "-89.95663300207842",
    "latitude": "30.061925232349026",
    "geocoded_column": {
      "latitude": "30.061925232349026",
      "longitude": "-89.95663300207842"
    }
  },
  {
    "service_request": "2026-1300902",
    "request_type": "General Services",
    "request_reason": "General Service Request",
    "date_created": "2026-07-16T17:41:12.000",
    "date_modified": "2026-07-16T17:41:14.000",
    "request_status": "Pending",
    "responsible_agency": "Orleans Parish Communication District",
    "final_address": "122 N Murat St",
    "address_councildis": "A",
    "status": "Pending",
    "rowid": "1300902",
    "final_x": "3669903.16801",
    "final_y": "539603.870794",
    "longitude": "-90.1044152754615",
    "latitude": "29.978070640119675",
    "geocoded_column": {
      "latitude": "29.978070640119675",
      "longitude": "-90.1044152754615"
    }
  },
  {
    "service_request": "2026-1300901",
    "request_type": "Property Maintenance",
    "request_reason": "Property Maintenance",
    "date_created": "2026-07-16T17:40:57.000",
    "date_modified": "2026-07-16T17:40:59.000",
    "request_status": "Pending",
    "responsible_agency": "Department of Code Enforcement",
    "final_address": "4771 Camelot Dr",
    "address_councildis": "E",
    "status": "Pending",
    "rowid": "1300901",
    "final_x": "3708418.84932",
    "final_y": "555872.087129",
    "longitude": "-89.98216432711165",
    "latitude": "30.021610005359346",
    "geocoded_column": {
      "latitude": "30.021610005359346",
      "longitude": "-89.98216432711165"
    }
  },
  {
    "service_request": "2026-1300900",
    "request_type": "Streetlights",
    "request_reason": "Streetlight Outage/Malfunction",
    "date_created": "2026-07-16T17:39:46.000",
    "date_modified": "2026-07-16T17:39:50.000",
    "request_status": "Pending",
    "responsible_agency": "Department of Public Works",
    "final_address": "6750 Louisville St",
    "address_councildis": "A",
    "status": "Pending",
    "rowid": "1300900",
    "final_x": "3668114.85633",
    "final_y": "552499.595478",
    "longitude": "-90.10962844560264",
    "latitude": "30.0135820600029",
    "geocoded_column": {
      "latitude": "30.0135820600029",
      "longitude": "-90.10962844560264"
    }
  },
  {
    "service_request": "2026-1300899",
    "request_type": "Alley Ways",
    "request_reason": "Alley Way Issues",
    "date_created": "2026-07-16T17:22:44.000",
    "date_modified": "2026-07-16T17:22:47.000",
    "request_status": "Pending",
    "responsible_agency": "Department of Public Works",
    "final_address": "6154 Argonne Blvd",
    "address_councildis": "A",
    "status": "Pending",
    "rowid": "1300899",
    "final_x": "3670168.9049",
    "final_y": "548211.705426",
    "longitude": "-90.10328413612064",
    "latitude": "30.00173138987578",
    "geocoded_column": {
      "latitude": "30.00173138987578",
      "longitude": "-90.10328413612064"
    }
  },
  {
    "service_request": "2026-1300898",
    "request_type": "Trash/Recycling",
    "request_reason": "Order Recycling Cart",
    "date_created": "2026-07-16T17:13:01.000",
    "date_modified": "2026-07-16T17:13:04.000",
    "request_status": "Pending",
    "responsible_agency": "Department of Sanitation",
    "final_address": "5841 Norland Ave",
    "address_councildis": "C",
    "status": "Pending",
    "rowid": "1300898",
    "final_x": "3705336.02654",
    "final_y": "520340.456632",
    "longitude": "-89.99321819969855",
    "latitude": "29.924010647991057",
    "geocoded_column": {
      "latitude": "29.924010647991057",
      "longitude": "-89.99321819969855"
    }
  },
  {
    "service_request": "2026-1300897",
    "request_type": "Trash/Recycling",
    "request_reason": "Request a Large Item Pick Up",
    "date_created": "2026-07-16T17:01:54.000",
    "date_modified": "2026-07-16T17:01:56.000",
    "request_status": "Pending",
    "responsible_agency": "Department of Sanitation",
    "final_address": "4663 Tulip St",
    "address_councildis": "E",
    "status": "Assigned to Contractor",
    "contractor": "Waste Pro",
    "rowid": "1300897",
    "final_x": "3702196.07549",
    "final_y": "553926.475415",
    "longitude": "-90.00189792511182",
    "latitude": "30.016460614140556",
    "geocoded_column": {
      "latitude": "30.016460614140556",
      "longitude": "-90.00189792511182"
    }
  },
  {
    "service_request": "2026-1300896",
    "request_type": "Abandoned Vehicles",
    "request_reason": "Abandoned/Junk Vehicles",
    "date_created": "2026-07-16T16:59:28.000",
    "date_modified": "2026-07-16T16:59:30.000",
    "request_status": "Pending",
    "responsible_agency": "Department of Public Works",
    "final_address": "7332 Edward St",
    "address_councildis": "E",
    "status": "Pending",
    "rowid": "1300896",
    "final_x": "3701253.31037",
    "final_y": "560107.968157",
    "longitude": "-90.00465016343063",
    "latitude": "30.033487428681138",
    "geocoded_column": {
      "latitude": "30.033487428681138",
      "longitude": "-90.00465016343063"
    }
  },
  {
    "service_request": "2026-1300895",
    "request_type": "Trash/Recycling",
    "request_reason": "Request a Large Item Pick Up",
    "date_created": "2026-07-16T16:58:20.000",
    "date_modified": "2026-07-16T16:58:23.000",
    "request_status": "Pending",
    "responsible_agency": "Department of Sanitation",
    "final_address": "7337 Cranbrook Dr",
    "address_councildis": "E",
    "status": "Assigned to Contractor",
    "contractor": "Waste Pro",
    "rowid": "1300895",
    "final_x": "3713799.55538",
    "final_y": "566053.846627",
    "longitude": "-89.96477867164083",
    "latitude": "30.049430206556327",
    "geocoded_column": {
      "latitude": "30.049430206556327",
      "longitude": "-89.96477867164083"
    }
  },
  {
    "service_request": "2026-1300894",
    "request_type": "Tree Service",
    "request_reason": "Tree Trim",
    "date_created": "2026-07-16T16:57:42.000",
    "date_modified": "2026-07-16T16:57:44.000",
    "request_status": "Pending",
    "responsible_agency": "Department of Parks & Parkways",
    "final_address": "0 BLK Charlotte Dr",
    "address_councildis": "D",
    "status": "Pending",
    "rowid": "1300894",
    "final_x": "3680306.04421",
    "final_y": "551384.304171",
    "longitude": "-90.07114947197744",
    "latitude": "30.010151784319163",
    "geocoded_column": {
      "latitude": "30.010151784319163",
      "longitude": "-90.07114947197744"
    }
  },
  {
    "service_request": "2026-1300893",
    "request_type": "Drainage",
    "request_reason": "Catch Basin Not Draining",
    "date_created": "2026-07-16T16:56:12.000",
    "date_modified": "2026-07-16T16:56:14.000",
    "request_status": "Pending",
    "responsible_agency": "Sewerage & Water Board",
    "final_address": "3200 Sabine St",
    "address_councildis": "C",
    "status": "Pending",
    "rowid": "1300893",
    "final_x": "3694708.22218",
    "final_y": "518221.942582",
    "longitude": "-90.02684248467068",
    "latitude": "29.91852294812501",
    "geocoded_column": {
      "latitude": "29.91852294812501",
      "longitude": "-90.02684248467068"
    }
  },
  {
    "service_request": "2026-1300892",
    "request_type": "Roads and Streets",
    "request_reason": "Sidewalk Damaged or Missing",
    "date_created": "2026-07-16T16:55:46.000",
    "date_modified": "2026-07-16T22:24:33.000",
    "case_close_date": "2026-07-16T17:24:31.000",
    "request_status": "Closed",
    "responsible_agency": "Department of Public Works",
    "final_address": "5803 West End Blvd",
    "address_councildis": "A",
    "status": "Duplicate Request",
    "rowid": "1300892",
    "final_x": "3666464.56359",
    "final_y": "546251.678864",
    "longitude": "-90.11505241227903",
    "latitude": "29.996450813276176",
    "geocoded_column": {
      "latitude": "29.996450813276176",
      "longitude": "-90.11505241227903"
    }
  },
  {
    "service_request": "2026-1300891",
    "request_type": "New Orleans Recreation Development Commission (NORDC)",
    "request_reason": "Facilities and Parks Maintenance/Clean Up",
    "date_created": "2026-07-16T16:47:54.000",
    "date_modified": "2026-07-16T16:47:56.000",
    "request_status": "Pending",
    "responsible_agency": "New Orleans Recreation Development Commission",
    "final_address": "8211 S Claiborne Ave",
    "address_councildis": "A",
    "status": "Pending",
    "rowid": "1300891",
    "final_x": "3664561.71546",
    "final_y": "531930.071747",
    "longitude": "-90.12154186524518",
    "latitude": "29.957126663878036",
    "geocoded_column": {
      "latitude": "29.957126663878036",
      "longitude": "-90.12154186524518"
    }
  },
  {
    "service_request": "2026-1300890",
    "request_type": "Trash/Recycling",
    "request_reason": "Request a Large Item Pick Up",
    "date_created": "2026-07-16T16:40:11.000",
    "date_modified": "2026-07-16T16:40:13.000",
    "request_status": "Pending",
    "responsible_agency": "Department of Sanitation",
    "final_address": "7466 Hurst St",
    "address_councildis": "A",
    "status": "Assigned to Contractor",
    "contractor": "IV Waste",
    "rowid": "1300890",
    "final_x": "3661241.64051",
    "final_y": "524198.295868",
    "longitude": "-90.13228160369775",
    "latitude": "29.935962875966293",
    "geocoded_column": {
      "latitude": "29.935962875966293",
      "longitude": "-90.13228160369775"
    }
  },
  {
    "service_request": "2026-1300889",
    "request_type": "Trash/Recycling",
    "request_reason": "Dead Animal Pick Up",
    "date_created": "2026-07-16T16:39:53.000",
    "date_modified": "2026-07-16T16:39:55.000",
    "request_status": "Pending",
    "responsible_agency": "Department of Sanitation",
    "final_address": "CANAL ST & N CLAIBORNE AVE & S CLAIBORNE AVE",
    "address_councildis": "B",
    "status": "Assigned to Contractor",
    "contractor": "IV Waste",
    "rowid": "1300889",
    "final_x": "3678370.6",
    "final_y": "532873.28",
    "longitude": "-90.07790502374995",
    "latitude": "29.959311391496197",
    "geocoded_column": {
      "latitude": "29.959311391496197",
      "longitude": "-90.07790502374995"
    }
  },
  {
    "service_request": "2026-1300888",
    "request_type": "Trash/Recycling",
    "request_reason": "Repair Trash Cart",
    "date_created": "2026-07-16T16:39:27.000",
    "date_modified": "2026-07-16T16:39:29.000",
    "request_status": "Pending",
    "responsible_agency": "Department of Sanitation",
    "final_address": "2216 S Salcedo St",
    "address_councildis": "B",
    "status": "Assigned to Contractor",
    "contractor": "IV Waste",
    "rowid": "1300888",
    "final_x": "3669285.7595",
    "final_y": "528860.585216",
    "longitude": "-90.1067285038451",
    "latitude": "29.948548365331032",
    "geocoded_column": {
      "latitude": "29.948548365331032",
      "longitude": "-90.1067285038451"
    }
  },
  {
    "service_request": "2026-1300887",
    "request_type": "Mosquito, Termite & Rodent Control",
    "request_reason": "Rodent Complaint (Mice & Rats)",
    "date_created": "2026-07-16T16:38:07.000",
    "date_modified": "2026-07-16T16:38:09.000",
    "request_status": "Pending",
    "responsible_agency": "Mosquito, Termite & Rodent Control Board",
    "final_address": "521 Baronne St",
    "address_councildis": "B",
    "status": "Pending",
    "rowid": "1300887",
    "final_x": "3679846.69474",
    "final_y": "529353.524673",
    "longitude": "-90.07336608636082",
    "latitude": "29.949588699596685",
    "geocoded_column": {
      "latitude": "29.949588699596685",
      "longitude": "-90.07336608636082"
    }
  },
  {
    "service_request": "2026-1300886",
    "request_type": "New Orleans Recreation Development Commission (NORDC)",
    "request_reason": "Facilities and Parks Maintenance/Clean Up",
    "date_created": "2026-07-16T16:37:03.000",
    "date_modified": "2026-07-16T16:37:06.000",
    "request_status": "Pending",
    "responsible_agency": "New Orleans Recreation Development Commission",
    "final_address": "1001 Harrison Ave",
    "address_councildis": "A",
    "status": "Pending",
    "rowid": "1300886",
    "final_x": "3671379.97268",
    "final_y": "549154.840595",
    "longitude": "-90.09942615406044",
    "latitude": "30.00428887869337",
    "geocoded_column": {
      "latitude": "30.00428887869337",
      "longitude": "-90.09942615406044"
    }
  },
  {
    "service_request": "2026-1300885",
    "request_type": "Property Maintenance",
    "request_reason": "Property Maintenance",
    "date_created": "2026-07-16T16:32:47.000",
    "date_modified": "2026-07-16T16:32:49.000",
    "request_status": "Pending",
    "responsible_agency": "Department of Code Enforcement",
    "final_address": "5439 Franklin Ave",
    "address_councildis": "D",
    "status": "Pending",
    "rowid": "1300885",
    "final_x": "3686669.71727",
    "final_y": "553219.542231",
    "longitude": "-90.05097942883624",
    "latitude": "30.015003736452822",
    "geocoded_column": {
      "latitude": "30.015003736452822",
      "longitude": "-90.05097942883624"
    }
  },
  {
    "service_request": "2026-1300884",
    "request_type": "Abandoned Vehicles",
    "request_reason": "Abandoned/Junk Vehicles",
    "date_created": "2026-07-16T16:32:14.000",
    "date_modified": "2026-07-16T16:32:15.000",
    "request_status": "Pending",
    "responsible_agency": "Department of Public Works",
    "final_address": "3037 Bienville Ave",
    "address_councildis": "B",
    "status": "Pending",
    "rowid": "1300884",
    "final_x": "3674614.40315",
    "final_y": "536724.172679",
    "longitude": "-90.08963422331668",
    "latitude": "29.970012674918262",
    "geocoded_column": {
      "latitude": "29.970012674918262",
      "longitude": "-90.08963422331668"
    }
  },
  {
    "service_request": "2026-1300883",
    "request_type": "Abandoned Vehicles",
    "request_reason": "Abandoned/Junk Vehicles",
    "date_created": "2026-07-16T16:31:49.000",
    "date_modified": "2026-07-16T16:31:51.000",
    "request_status": "Pending",
    "responsible_agency": "Department of Public Works",
    "final_address": "9696 Hayne Blvd Apt E-27",
    "address_councildis": "E",
    "status": "Pending",
    "rowid": "1300883",
    "final_x": "3706952.67896",
    "final_y": "565028.099042",
    "longitude": "-89.986456931065",
    "latitude": "30.046832888365277",
    "geocoded_column": {
      "latitude": "30.046832888365277",
      "longitude": "-89.986456931065"
    }
  },
  {
    "service_request": "2026-1300882",
    "request_type": "Abandoned Vehicles",
    "request_reason": "Abandoned/Junk Vehicles",
    "date_created": "2026-07-16T16:30:05.000",
    "date_modified": "2026-07-16T16:30:07.000",
    "request_status": "Pending",
    "responsible_agency": "Department of Public Works",
    "final_address": "9696 Hayne Blvd Apt E-27",
    "address_councildis": "E",
    "status": "Pending",
    "rowid": "1300882",
    "final_x": "3706952.67896",
    "final_y": "565028.099042",
    "longitude": "-89.986456931065",
    "latitude": "30.046832888365277",
    "geocoded_column": {
      "latitude": "30.046832888365277",
      "longitude": "-89.986456931065"
    }
  },
  {
    "service_request": "2026-1300881",
    "request_type": "Trash/Recycling",
    "request_reason": "Damaged Caused By Contractor",
    "date_created": "2026-07-16T16:28:42.000",
    "date_modified": "2026-07-16T16:28:44.000",
    "request_status": "Pending",
    "responsible_agency": "Department of Sanitation",
    "final_address": "3628 Somerset Dr",
    "address_councildis": "C",
    "status": "Assigned to Contractor",
    "contractor": "Richards Disposal",
    "rowid": "1300881",
    "final_x": "3702525.9834",
    "final_y": "517246.335925",
    "longitude": "-90.00220190535892",
    "latitude": "29.91559294860735",
    "geocoded_column": {
      "latitude": "29.91559294860735",
      "longitude": "-90.00220190535892"
    }
  },
  {
    "service_request": "2026-1300880",
    "request_type": "Trash/Recycling",
    "request_reason": "Request a Large Item Pick Up",
    "date_created": "2026-07-16T16:28:22.000",
    "date_modified": "2026-07-16T16:28:24.000",
    "request_status": "Pending",
    "responsible_agency": "Department of Sanitation",
    "final_address": "1531 Elizardi Blvd",
    "address_councildis": "C",
    "status": "Assigned to Contractor",
    "contractor": "Richards Disposal",
    "rowid": "1300880",
    "final_x": "3694626.78781",
    "final_y": "525479.860733",
    "longitude": "-90.02683831447996",
    "latitude": "29.93848230664991",
    "geocoded_column": {
      "latitude": "29.93848230664991",
      "longitude": "-90.02683831447996"
    }
  },
  {
    "service_request": "2026-1300879",
    "request_type": "Abandoned Vehicles",
    "request_reason": "Abandoned/Junk Vehicles",
    "date_created": "2026-07-16T16:28:20.000",
    "date_modified": "2026-07-16T16:28:22.000",
    "request_status": "Pending",
    "responsible_agency": "Department of Public Works",
    "final_address": "9696 Hayne Blvd Apt E-27",
    "address_councildis": "E",
    "status": "Pending",
    "rowid": "1300879",
    "final_x": "3706952.67896",
    "final_y": "565028.099042",
    "longitude": "-89.986456931065",
    "latitude": "30.046832888365277",
    "geocoded_column": {
      "latitude": "30.046832888365277",
      "longitude": "-89.986456931065"
    }
  },
  {
    "service_request": "2026-1300878",
    "request_type": "Trash/Recycling",
    "request_reason": "Replace Trash Cart",
    "date_created": "2026-07-16T16:26:36.000",
    "date_modified": "2026-07-16T16:26:37.000",
    "request_status": "Pending",
    "responsible_agency": "Department of Sanitation",
    "final_address": "127 State St",
    "address_councildis": "A",
    "status": "Assigned to Contractor",
    "contractor": "IV Waste",
    "rowid": "1300878",
    "final_x": "3664061.67693",
    "final_y": "517051.808245",
    "longitude": "-90.1236168402588",
    "latitude": "29.916230699014687",
    "geocoded_column": {
      "latitude": "29.916230699014687",
      "longitude": "-90.1236168402588"
    }
  },
  {
    "service_request": "2026-1300877",
    "request_type": "Trash/Recycling",
    "request_reason": "Replace Recycling Cart",
    "date_created": "2026-07-16T16:26:31.000",
    "date_modified": "2026-07-16T16:26:33.000",
    "request_status": "Pending",
    "responsible_agency": "Department of Sanitation",
    "final_address": "1607 Soniat St",
    "address_councildis": "B",
    "status": "Pending",
    "rowid": "1300877",
    "final_x": "3668484.53569",
    "final_y": "521124.460601",
    "longitude": "-90.10951919625269",
    "latitude": "29.927300071551226",
    "geocoded_column": {
      "latitude": "29.927300071551226",
      "longitude": "-90.10951919625269"
    }
  },
  {
    "service_request": "2026-1300876",
    "request_type": "Trash/Recycling",
    "request_reason": "Repair Trash Cart",
    "date_created": "2026-07-16T16:26:03.000",
    "date_modified": "2026-07-16T16:26:12.000",
    "request_status": "Pending",
    "responsible_agency": "Department of Sanitation",
    "final_address": "4810 St Charles Ave",
    "address_councildis": "B",
    "status": "Assigned to Contractor",
    "contractor": "IV Waste",
    "rowid": "1300876",
    "final_x": "3669273.37063",
    "final_y": "520602.530872",
    "longitude": "-90.10704666848889",
    "latitude": "29.92584174092174",
    "geocoded_column": {
      "latitude": "29.92584174092174",
      "longitude": "-90.10704666848889"
    }
  },
  {
    "service_request": "2026-1300875",
    "request_type": "Street and Traffic Signs",
    "request_reason": "Additional Signage Request",
    "date_created": "2026-07-16T16:25:23.000",
    "date_modified": "2026-07-16T16:25:25.000",
    "request_status": "Pending",
    "responsible_agency": "Department of Public Works",
    "final_address": "4922 Wright Rd",
    "address_councildis": "E",
    "status": "Pending",
    "rowid": "1300875",
    "final_x": "3716536.65605",
    "final_y": "557685.161307",
    "longitude": "-89.95644568746418",
    "latitude": "30.026329532399615",
    "geocoded_column": {
      "latitude": "30.026329532399615",
      "longitude": "-89.95644568746418"
    }
  },
  {
    "service_request": "2026-1300874",
    "request_type": "Trash/Recycling",
    "request_reason": "Request a Large Item Pick Up",
    "date_created": "2026-07-16T16:24:37.000",
    "date_modified": "2026-07-16T16:24:39.000",
    "request_status": "Pending",
    "responsible_agency": "Department of Sanitation",
    "final_address": "5486 Canal Blvd",
    "address_councildis": "A",
    "status": "Assigned to Contractor",
    "contractor": "IV Waste",
    "rowid": "1300874",
    "final_x": "3667996.42893",
    "final_y": "543759.78811",
    "longitude": "-90.11029735154668",
    "latitude": "29.989554095452974",
    "geocoded_column": {
      "latitude": "29.989554095452974",
      "longitude": "-90.11029735154668"
    }
  },
  {
    "service_request": "2026-1300873",
    "request_type": "Trash/Recycling",
    "request_reason": "Request a Large Item Pick Up",
    "date_created": "2026-07-16T16:22:55.000",
    "date_modified": "2026-07-16T16:22:57.000",
    "request_status": "Pending",
    "responsible_agency": "Department of Sanitation",
    "final_address": "7032 Lake Willow Dr",
    "address_councildis": "E",
    "status": "Assigned to Contractor",
    "contractor": "Waste Pro",
    "rowid": "1300873",
    "final_x": "3702306.51325",
    "final_y": "558953.291996",
    "longitude": "-90.00136436702229",
    "latitude": "30.030278895846287",
    "geocoded_column": {
      "latitude": "30.030278895846287",
      "longitude": "-90.00136436702229"
    }
  },
  {
    "service_request": "2026-1300872",
    "request_type": "Abandoned Vehicles",
    "request_reason": "Abandoned/Junk Vehicles",
    "date_created": "2026-07-16T16:22:32.000",
    "date_modified": "2026-07-16T16:23:05.000",
    "request_status": "Pending",
    "responsible_agency": "Department of Public Works",
    "final_address": "3400 BLK Johnny Jackson Jr Blvd",
    "address_councildis": "D",
    "status": "Inspected",
    "rowid": "1300872",
    "final_x": "3691865.82489",
    "final_y": "545109.291459",
    "longitude": "-90.03485264590586",
    "latitude": "29.992542606739473",
    "geocoded_column": {
      "latitude": "29.992542606739473",
      "longitude": "-90.03485264590586"
    }
  },
  {
    "service_request": "2026-1300871",
    "request_type": "Parks & Grass Service",
    "request_reason": "Request Grass Cutting Service (City Owned Property)",
    "date_created": "2026-07-16T16:22:11.000",
    "date_modified": "2026-07-16T16:22:14.000",
    "request_status": "Pending",
    "responsible_agency": "Department of Parks & Parkways",
    "final_address": "1604 Ursulines Ave",
    "address_councildis": "C",
    "status": "Pending",
    "rowid": "1300871",
    "final_x": "3680894.75656",
    "final_y": "535559.24231",
    "longitude": "-90.06984082069879",
    "latitude": "29.966620585629922",
    "geocoded_column": {
      "latitude": "29.966620585629922",
      "longitude": "-90.06984082069879"
    }
  },
  {
    "service_request": "2026-1300870",
    "request_type": "Property Maintenance",
    "request_reason": "Property Maintenance",
    "date_created": "2026-07-16T16:20:36.000",
    "date_modified": "2026-07-16T16:23:06.000",
    "request_status": "Pending",
    "responsible_agency": "Department of Code Enforcement",
    "final_address": "500 BLK N Rampart St",
    "address_councildis": "C",
    "status": "Pending",
    "rowid": "1300870",
    "final_x": "3681009.60612",
    "final_y": "532913.452333",
    "longitude": "-90.06957027955431",
    "latitude": "29.959342084179195",
    "geocoded_column": {
      "latitude": "29.959342084179195",
      "longitude": "-90.06957027955431"
    }
  },
  {
    "service_request": "2026-1300869",
    "request_type": "Property Maintenance",
    "request_reason": "Property Maintenance",
    "date_created": "2026-07-16T16:18:53.000",
    "date_modified": "2026-07-16T16:18:55.000",
    "request_status": "Pending",
    "responsible_agency": "Department of Code Enforcement",
    "final_address": "924 Third St",
    "address_councildis": "B",
    "status": "Pending",
    "rowid": "1300869",
    "final_x": "3677829.92418",
    "final_y": "520701.816953",
    "longitude": "-90.08003274009651",
    "latitude": "29.925860176715243",
    "geocoded_column": {
      "latitude": "29.925860176715243",
      "longitude": "-90.08003274009651"
    }
  },
  {
    "service_request": "2026-1300868",
    "request_type": "Abandoned Vehicles",
    "request_reason": "Abandoned/Junk Vehicles",
    "date_created": "2026-07-16T16:18:38.000",
    "date_modified": "2026-07-16T16:19:11.000",
    "request_status": "Pending",
    "responsible_agency": "Department of Public Works",
    "final_address": "3500 BLK Johnny Jackson Jr Blvd",
    "address_councildis": "D",
    "status": "Inspected",
    "rowid": "1300868",
    "final_x": "3691923.61316",
    "final_y": "545452.707439",
    "longitude": "-90.03465780954116",
    "latitude": "29.993485075291368",
    "geocoded_column": {
      "latitude": "29.993485075291368",
      "longitude": "-90.03465780954116"
    }
  },
  {
    "service_request": "2026-1300867",
    "request_type": "Trash/Recycling",
    "request_reason": "Order Trash Cart",
    "date_created": "2026-07-16T16:16:32.000",
    "date_modified": "2026-07-16T16:16:34.000",
    "request_status": "Pending",
    "responsible_agency": "Department of Sanitation",
    "final_address": "3221 Iberville St",
    "address_councildis": "B",
    "status": "Assigned to Contractor",
    "contractor": "IV Waste",
    "rowid": "1300867",
    "final_x": "3674024.26299",
    "final_y": "536755.95284",
    "longitude": "-90.0914968597145",
    "latitude": "29.97011765907118",
    "geocoded_column": {
      "latitude": "29.97011765907118",
      "longitude": "-90.0914968597145"
    }
  },
  {
    "service_request": "2026-1300866",
    "request_type": "Trash/Recycling",
    "request_reason": "Request a Large Item Pick Up",
    "date_created": "2026-07-16T16:15:57.000",
    "date_modified": "2026-07-16T16:16:02.000",
    "request_status": "Pending",
    "responsible_agency": "Department of Sanitation",
    "final_address": "7131 Thornley Dr",
    "address_councildis": "E",
    "status": "Assigned to Contractor",
    "contractor": "Waste Pro",
    "rowid": "1300866",
    "final_x": "3703307.6177",
    "final_y": "560194.738397",
    "longitude": "-89.99815518086598",
    "latitude": "30.03366035376102",
    "geocoded_column": {
      "latitude": "30.03366035376102",
      "longitude": "-89.99815518086598"
    }
  },
  {
    "service_request": "2026-1300865",
    "request_type": "Trash/Recycling",
    "request_reason": "Order Recycling Cart",
    "date_created": "2026-07-16T16:15:33.000",
    "date_modified": "2026-07-16T16:15:34.000",
    "request_status": "Pending",
    "responsible_agency": "Department of Sanitation",
    "final_address": "3221 Iberville St",
    "address_councildis": "B",
    "status": "Pending",
    "rowid": "1300865",
    "final_x": "3674024.26299",
    "final_y": "536755.95284",
    "longitude": "-90.0914968597145",
    "latitude": "29.97011765907118",
    "geocoded_column": {
      "latitude": "29.97011765907118",
      "longitude": "-90.0914968597145"
    }
  },
  {
    "service_request": "2026-1300864",
    "request_type": "Trash/Recycling",
    "request_reason": "Request a Large Item Pick Up",
    "date_created": "2026-07-16T16:14:58.000",
    "date_modified": "2026-07-16T16:14:59.000",
    "request_status": "Pending",
    "responsible_agency": "Department of Sanitation",
    "final_address": "4841 Bienville Ave",
    "address_councildis": "A",
    "status": "Assigned to Contractor",
    "contractor": "IV Waste",
    "rowid": "1300864",
    "final_x": "3669068.00263",
    "final_y": "540943.396875",
    "longitude": "-90.10700775294562",
    "latitude": "29.98177848620983",
    "geocoded_column": {
      "latitude": "29.98177848620983",
      "longitude": "-90.10700775294562"
    }
  },
  {
    "service_request": "2026-1300863",
    "request_type": "Trash/Recycling",
    "request_reason": "Replace Trash Cart",
    "date_created": "2026-07-16T16:13:28.000",
    "date_modified": "2026-07-16T16:13:30.000",
    "request_status": "Pending",
    "responsible_agency": "Department of Sanitation",
    "final_address": "127 State St",
    "address_councildis": "A",
    "status": "Assigned to Contractor",
    "contractor": "IV Waste",
    "rowid": "1300863",
    "final_x": "3664061.67693",
    "final_y": "517051.808245",
    "longitude": "-90.1236168402588",
    "latitude": "29.916230699014687",
    "geocoded_column": {
      "latitude": "29.916230699014687",
      "longitude": "-90.1236168402588"
    }
  },
  {
    "service_request": "2026-1300862",
    "request_type": "Trash/Recycling",
    "request_reason": "Order Recycling Cart",
    "date_created": "2026-07-16T16:10:43.000",
    "date_modified": "2026-07-16T16:10:45.000",
    "request_status": "Pending",
    "responsible_agency": "Department of Sanitation",
    "final_address": "2031 Conti St",
    "address_councildis": "B",
    "status": "Pending",
    "rowid": "1300862",
    "final_x": "3678077.65166",
    "final_y": "534548.946373",
    "longitude": "-90.078772150666",
    "latitude": "29.963927728873163",
    "geocoded_column": {
      "latitude": "29.963927728873163",
      "longitude": "-90.078772150666"
    }
  },
  {
    "service_request": "2026-1300861",
    "request_type": "Trash/Recycling",
    "request_reason": "MIssed Recycling Pick-Up",
    "date_created": "2026-07-16T16:10:25.000",
    "date_modified": "2026-07-16T16:25:57.000",
    "case_close_date": "2026-07-16T11:25:56.000",
    "request_status": "Closed",
    "responsible_agency": "Department of Sanitation",
    "final_address": "5032 Prytania St",
    "address_councildis": "B",
    "status": "Invalid Request",
    "contractor": "IV Waste",
    "contractor_action": "Invalid Request",
    "rowid": "1300861",
    "final_x": "3668432.3627",
    "final_y": "520065.023736",
    "longitude": "-90.10971960753",
    "latitude": "29.92438848848014",
    "geocoded_column": {
      "latitude": "29.92438848848014",
      "longitude": "-90.10971960753"
    }
  },
  {
    "service_request": "2026-1300859",
    "request_type": "Homeless Related Request",
    "request_reason": "Homeless Encampment Complaint",
    "date_created": "2026-07-16T16:07:47.000",
    "date_modified": "2026-07-16T16:07:49.000",
    "request_status": "Pending",
    "responsible_agency": "Office Of Homeless Services And Strategy",
    "final_address": "1031 Egania St",
    "address_councildis": "E",
    "status": "Pending",
    "rowid": "1300859",
    "final_x": "3696789.70301",
    "final_y": "533877.453061",
    "longitude": "-90.01970586667764",
    "latitude": "29.961504757533483",
    "geocoded_column": {
      "latitude": "29.961504757533483",
      "longitude": "-90.01970586667764"
    }
  },
  {
    "service_request": "2026-1300860",
    "request_type": "Trash/Recycling",
    "request_reason": "Request a Large Item Pick Up",
    "date_created": "2026-07-16T16:07:47.000",
    "date_modified": "2026-07-16T16:07:49.000",
    "request_status": "Pending",
    "responsible_agency": "Department of Sanitation",
    "final_address": "4653 Chrysler St",
    "address_councildis": "E",
    "status": "Assigned to Contractor",
    "contractor": "Waste Pro",
    "rowid": "1300860",
    "final_x": "3715418.22507",
    "final_y": "556520.699226",
    "longitude": "-89.96002385775476",
    "latitude": "30.023164630455828",
    "geocoded_column": {
      "latitude": "30.023164630455828",
      "longitude": "-89.96002385775476"
    }
  },
  {
    "service_request": "2026-1300858",
    "request_type": "Homeless Related Request",
    "request_reason": "Homeless Encampment Complaint",
    "date_created": "2026-07-16T16:05:55.000",
    "date_modified": "2026-07-16T16:05:56.000",
    "request_status": "Pending",
    "responsible_agency": "Office Of Homeless Services And Strategy",
    "final_address": "5 Alice Ct",
    "address_councildis": "E",
    "status": "Pending",
    "rowid": "1300858",
    "final_x": "3696783.60669",
    "final_y": "533846.636549",
    "longitude": "-90.01972623332642",
    "latitude": "29.96142021521976",
    "geocoded_column": {
      "latitude": "29.96142021521976",
      "longitude": "-90.01972623332642"
    }
  },
  {
    "service_request": "2026-1300857",
    "request_type": "Trash/Recycling",
    "request_reason": "Order Second Trash Cart",
    "date_created": "2026-07-16T16:05:09.000",
    "date_modified": "2026-07-16T16:05:11.000",
    "request_status": "Pending",
    "responsible_agency": "Department of Sanitation",
    "final_address": "3711 Rue Colette",
    "address_councildis": "C",
    "status": "Assigned to Contractor",
    "contractor": "Richards Disposal",
    "rowid": "1300857",
    "final_x": "3704461.47697",
    "final_y": "516836.953973",
    "longitude": "-89.99610788430473",
    "latitude": "29.914405321474103",
    "geocoded_column": {
      "latitude": "29.914405321474103",
      "longitude": "-89.99610788430473"
    }
  },
  {
    "service_request": "2026-1300856",
    "request_type": "Trash/Recycling",
    "request_reason": "Request a Large Item Pick Up",
    "date_created": "2026-07-16T16:03:52.000",
    "date_modified": "2026-07-16T16:03:55.000",
    "request_status": "Pending",
    "responsible_agency": "Department of Sanitation",
    "final_address": "8536 Huntington Park Dr",
    "address_councildis": "E",
    "status": "Assigned to Contractor",
    "contractor": "Waste Pro",
    "rowid": "1300856",
    "final_x": "3705424.19031",
    "final_y": "560135.346717",
    "longitude": "-89.99146882067004",
    "latitude": "30.033429065753552",
    "geocoded_column": {
      "latitude": "30.033429065753552",
      "longitude": "-89.99146882067004"
    }
  },
  {
    "service_request": "2026-1300855",
    "request_type": "Trash/Recycling",
    "request_reason": "Repair Trash Cart",
    "date_created": "2026-07-16T16:03:49.000",
    "date_modified": "2026-07-16T16:03:51.000",
    "request_status": "Pending",
    "responsible_agency": "Department of Sanitation",
    "final_address": "3711 Rue Colette",
    "address_councildis": "C",
    "status": "Assigned to Contractor",
    "contractor": "Richards Disposal",
    "rowid": "1300855",
    "final_x": "3704461.47697",
    "final_y": "516836.953973",
    "longitude": "-89.99610788430473",
    "latitude": "29.914405321474103",
    "geocoded_column": {
      "latitude": "29.914405321474103",
      "longitude": "-89.99610788430473"
    }
  },
  {
    "service_request": "2026-1300854",
    "request_type": "Property Maintenance",
    "request_reason": "Property Maintenance",
    "date_created": "2026-07-16T16:03:17.000",
    "date_modified": "2026-07-16T16:03:18.000",
    "request_status": "Pending",
    "responsible_agency": "Department of Code Enforcement",
    "final_address": "2300 Tulane Ave",
    "address_councildis": "B",
    "status": "Pending",
    "rowid": "1300854",
    "final_x": "3675746.66971",
    "final_y": "532898.071812",
    "longitude": "-90.0861899241004",
    "latitude": "29.959458349334557",
    "geocoded_column": {
      "latitude": "29.959458349334557",
      "longitude": "-90.0861899241004"
    }
  },
  {
    "service_request": "2026-1300853",
    "request_type": "Roads and Streets",
    "request_reason": "Abandoned Service Cut",
    "date_created": "2026-07-16T16:00:19.000",
    "date_modified": "2026-07-16T16:00:21.000",
    "request_status": "Pending",
    "responsible_agency": "Department of Public Works",
    "final_address": "721 Common St",
    "address_councildis": "B",
    "status": "Pending",
    "rowid": "1300853",
    "final_x": "3680809.42248",
    "final_y": "530435.502466",
    "longitude": "-90.07028866290298",
    "latitude": "29.95253463059596",
    "geocoded_column": {
      "latitude": "29.95253463059596",
      "longitude": "-90.07028866290298"
    }
  },
  {
    "service_request": "2026-1300852",
    "request_type": "Street and Traffic Signs",
    "request_reason": "Street Name Sign Damaged or Missing",
    "date_created": "2026-07-16T15:58:34.000",
    "date_modified": "2026-07-16T15:58:36.000",
    "request_status": "Pending",
    "responsible_agency": "Department of Public Works",
    "final_address": "RANDOLPH AVE & MANDOLIN ST",
    "address_councildis": "D",
    "status": "Pending",
    "rowid": "1300852",
    "final_x": "3677762.0",
    "final_y": "547997.18",
    "longitude": "-90.07930416885945",
    "latitude": "30.00091520874032",
    "geocoded_column": {
      "latitude": "30.00091520874032",
      "longitude": "-90.07930416885945"
    }
  },
  {
    "service_request": "2026-1300851",
    "request_type": "Trash/Recycling",
    "request_reason": "Request a Large Item Pick Up",
    "date_created": "2026-07-16T15:51:47.000",
    "date_modified": "2026-07-16T15:51:49.000",
    "request_status": "Pending",
    "responsible_agency": "Department of Sanitation",
    "final_address": "10121 Deerfield Dr",
    "address_councildis": "E",
    "status": "Assigned to Contractor",
    "contractor": "Waste Pro",
    "rowid": "1300851",
    "final_x": "3709668.59089",
    "final_y": "563377.701216",
    "longitude": "-89.97793498589819",
    "latitude": "30.04220689723152",
    "geocoded_column": {
      "latitude": "30.04220689723152",
      "longitude": "-89.97793498589819"
    }
  },
  {
    "service_request": "2026-1300850",
    "request_type": "Trash/Recycling",
    "request_reason": "Damaged Caused By Contractor",
    "date_created": "2026-07-16T15:50:33.000",
    "date_modified": "2026-07-16T15:50:35.000",
    "request_status": "Pending",
    "responsible_agency": "Department of Sanitation",
    "final_address": "6125 Willow St",
    "address_councildis": "A",
    "status": "Assigned to Contractor",
    "contractor": "IV Waste",
    "rowid": "1300850",
    "final_x": "3666574.7586",
    "final_y": "525895.088189",
    "longitude": "-90.11538783028209",
    "latitude": "29.940473724724544",
    "geocoded_column": {
      "latitude": "29.940473724724544",
      "longitude": "-90.11538783028209"
    }
  },
  {
    "service_request": "2026-1300849",
    "request_type": "Abandoned Vehicles",
    "request_reason": "Abandoned/Junk Vehicles",
    "date_created": "2026-07-16T15:50:25.000",
    "date_modified": "2026-07-16T15:50:27.000",
    "request_status": "Pending",
    "responsible_agency": "Department of Public Works",
    "final_address": "4500 BLK Tchoupitoulas St",
    "address_councildis": "B",
    "status": "Pending",
    "rowid": "1300849",
    "final_x": "3670614.89364",
    "final_y": "517398.613941",
    "longitude": "-90.10292047234681",
    "latitude": "29.916992441216863",
    "geocoded_column": {
      "latitude": "29.916992441216863",
      "longitude": "-90.10292047234681"
    }
  },
  {
    "service_request": "2026-1300848",
    "request_type": "Abandoned Vehicles",
    "request_reason": "Abandoned/Junk Vehicles",
    "date_created": "2026-07-16T15:46:22.000",
    "date_modified": "2026-07-16T15:46:24.000",
    "request_status": "Pending",
    "responsible_agency": "Department of Public Works",
    "final_address": "2710 St Claude Ave",
    "address_councildis": "C",
    "status": "Pending",
    "rowid": "1300848",
    "final_x": "3687502.25852",
    "final_y": "536328.340807",
    "longitude": "-90.0489472108481",
    "latitude": "29.96853334548188",
    "geocoded_column": {
      "latitude": "29.96853334548188",
      "longitude": "-90.0489472108481"
    }
  },
  {
    "service_request": "2026-1300847",
    "request_type": "Trash/Recycling",
    "request_reason": "Illegal Dumping",
    "date_created": "2026-07-16T15:44:34.000",
    "date_modified": "2026-07-16T15:45:02.000",
    "request_status": "Pending",
    "responsible_agency": "Department of Sanitation",
    "final_address": "8800 BLK Apple St",
    "address_councildis": "A",
    "status": "Pending",
    "rowid": "1300847",
    "final_x": "3663392.39988",
    "final_y": "533887.411672",
    "longitude": "-90.12516905180573",
    "latitude": "29.962542661737015",
    "geocoded_column": {
      "latitude": "29.962542661737015",
      "longitude": "-90.12516905180573"
    }
  },
  {
    "service_request": "2026-1300846",
    "request_type": "Roads and Streets",
    "request_reason": "Abandoned Service Cut",
    "date_created": "2026-07-16T15:41:35.000",
    "date_modified": "2026-07-16T22:29:21.000",
    "request_status": "Pending",
    "responsible_agency": "Department of Public Works",
    "final_address": "4844 Kendall Dr",
    "address_councildis": "D",
    "status": "Pending",
    "rowid": "1300846",
    "final_x": "3690275.73148",
    "final_y": "551143.876821",
    "longitude": "-90.03966022140361",
    "latitude": "30.009184965556322",
    "geocoded_column": {
      "latitude": "30.009184965556322",
      "longitude": "-90.03966022140361"
    }
  },
  {
    "service_request": "2026-1300845",
    "request_type": "Trash/Recycling",
    "request_reason": "Repair Trash Cart",
    "date_created": "2026-07-16T15:41:03.000",
    "date_modified": "2026-07-16T15:41:05.000",
    "request_status": "Pending",
    "responsible_agency": "Department of Sanitation",
    "final_address": "2208 Octavia St",
    "address_councildis": "A",
    "status": "Assigned to Contractor",
    "contractor": "IV Waste",
    "rowid": "1300845",
    "final_x": "3667472.93057",
    "final_y": "523811.175931",
    "longitude": "-90.11262223513224",
    "latitude": "29.93471735313427",
    "geocoded_column": {
      "latitude": "29.93471735313427",
      "longitude": "-90.11262223513224"
    }
  },
  {
    "service_request": "2026-1300844",
    "request_type": "Trash/Recycling",
    "request_reason": "Order Trash Cart",
    "date_created": "2026-07-16T15:38:36.000",
    "date_modified": "2026-07-16T15:38:38.000",
    "request_status": "Pending",
    "responsible_agency": "Department of Sanitation",
    "final_address": "6312 S Claiborne Ave",
    "address_councildis": "A",
    "status": "Assigned to Contractor",
    "contractor": "IV Waste",
    "rowid": "1300844",
    "final_x": "3666901.10093",
    "final_y": "527935.765439",
    "longitude": "-90.1142889663585",
    "latitude": "29.94607538705741",
    "geocoded_column": {
      "latitude": "29.94607538705741",
      "longitude": "-90.1142889663585"
    }
  },
  {
    "service_request": "2026-1300843",
    "request_type": "Trash/Recycling",
    "request_reason": "Illegal Dumping",
    "date_created": "2026-07-16T15:36:24.000",
    "date_modified": "2026-07-16T15:36:52.000",
    "request_status": "Pending",
    "responsible_agency": "Department of Sanitation",
    "final_address": "THAYER ST & PTOLEMY ST",
    "address_councildis": "C",
    "status": "Pending",
    "rowid": "1300843",
    "final_x": "3689356.3",
    "final_y": "526011.28",
    "longitude": "-90.0434588422577",
    "latitude": "29.94010771655715",
    "geocoded_column": {
      "latitude": "29.94010771655715",
      "longitude": "-90.0434588422577"
    }
  },
  {
    "service_request": "2026-1300842",
    "request_type": "Abandoned Vehicles",
    "request_reason": "Abandoned/Junk Vehicles",
    "date_created": "2026-07-16T15:34:27.000",
    "date_modified": "2026-07-16T15:35:12.000",
    "request_status": "Pending",
    "responsible_agency": "Department of Public Works",
    "final_address": "2400 BLK Dumaine St",
    "address_councildis": "C",
    "status": "Pending",
    "rowid": "1300842",
    "final_x": "3678100.76056",
    "final_y": "536796.067928",
    "longitude": "-90.07862147046484",
    "latitude": "29.970105851781945",
    "geocoded_column": {
      "latitude": "29.970105851781945",
      "longitude": "-90.07862147046484"
    }
  },
  {
    "service_request": "2026-1300841",
    "request_type": "Streetlights",
    "request_reason": "Streetlight Outage/Malfunction",
    "date_created": "2026-07-16T15:31:11.000",
    "date_modified": "2026-07-16T15:31:14.000",
    "request_status": "Pending",
    "responsible_agency": "Department of Public Works",
    "final_address": "4727 Ray Ave",
    "address_councildis": "E",
    "status": "Pending",
    "rowid": "1300841",
    "final_x": "3698857.82391",
    "final_y": "554342.45884",
    "longitude": "-90.01243014929686",
    "latitude": "30.017710645427105",
    "geocoded_column": {
      "latitude": "30.017710645427105",
      "longitude": "-90.01243014929686"
    }
  },
  {
    "service_request": "2026-1300840",
    "request_type": "Trash/Recycling",
    "request_reason": "Repair Recycling Cart",
    "date_created": "2026-07-16T15:28:28.000",
    "date_modified": "2026-07-16T15:28:31.000",
    "request_status": "Pending",
    "responsible_agency": "Department of Sanitation",
    "final_address": "3690 Plymouth Pl",
    "address_councildis": "C",
    "status": "Pending",
    "rowid": "1300840",
    "final_x": "3702799.81527",
    "final_y": "516965.204597",
    "longitude": "-90.00134790993606",
    "latitude": "29.91481118388518",
    "geocoded_column": {
      "latitude": "29.91481118388518",
      "longitude": "-90.00134790993606"
    }
  },
  {
    "service_request": "2026-1300839",
    "request_type": "Trash/Recycling",
    "request_reason": "Repair Trash Cart",
    "date_created": "2026-07-16T15:26:45.000",
    "date_modified": "2026-07-16T15:26:49.000",
    "request_status": "Pending",
    "responsible_agency": "Department of Sanitation",
    "final_address": "3929 Saint Claude Ave, New Orleans, Louisiana, 70117",
    "address_councildis": "C",
    "status": "Assigned to Contractor",
    "contractor": "IV Waste",
    "rowid": "1300839",
    "final_x": "3691754.08892",
    "final_y": "535427.476486",
    "longitude": "-90.03555198125323",
    "latitude": "29.965924554427836",
    "geocoded_column": {
      "latitude": "29.965924554427836",
      "longitude": "-90.03555198125323"
    }
  },
  {
    "service_request": "2026-1300838",
    "request_type": "Tree Service",
    "request_reason": "Dead or Dying Tree",
    "date_created": "2026-07-16T15:26:34.000",
    "date_modified": "2026-07-16T15:26:36.000",
    "request_status": "Pending",
    "responsible_agency": "Department of Parks & Parkways",
    "final_address": "WEST END BLVD & KENILWORTH ST",
    "address_councildis": "A",
    "status": "Pending",
    "rowid": "1300838",
    "final_x": "3666388.6",
    "final_y": "546163.48",
    "longitude": "-90.1152953390379",
    "latitude": "29.996210517218447",
    "geocoded_column": {
      "latitude": "29.996210517218447",
      "longitude": "-90.1152953390379"
    }
  },
  {
    "service_request": "2026-1300837",
    "request_type": "Trash/Recycling",
    "request_reason": "Request a Large Item Pick Up",
    "date_created": "2026-07-16T15:23:59.000",
    "date_modified": "2026-07-16T15:24:02.000",
    "request_status": "Pending",
    "responsible_agency": "Department of Sanitation",
    "final_address": "4329 Banks St",
    "address_councildis": "A",
    "status": "Assigned to Contractor",
    "contractor": "IV Waste",
    "rowid": "1300837",
    "final_x": "3669389.11022",
    "final_y": "538202.682569",
    "longitude": "-90.1060862555077",
    "latitude": "29.974232994611544",
    "geocoded_column": {
      "latitude": "29.974232994611544",
      "longitude": "-90.1060862555077"
    }
  },
  {
    "service_request": "2026-1300836",
    "request_type": "Streetlights",
    "request_reason": "Streetlight Outage/Malfunction",
    "date_created": "2026-07-16T15:22:14.000",
    "date_modified": "2026-07-16T15:22:16.000",
    "request_status": "Pending",
    "responsible_agency": "Department of Public Works",
    "final_address": "9110 Tilford Rd",
    "address_councildis": "E",
    "status": "Pending",
    "rowid": "1300836",
    "final_x": "3708438.24721",
    "final_y": "557245.333595",
    "longitude": "-89.98205186506385",
    "latitude": "30.02538526803743",
    "geocoded_column": {
      "latitude": "30.02538526803743",
      "longitude": "-89.98205186506385"
    }
  },
  {
    "service_request": "2026-1300835",
    "request_type": "Trash/Recycling",
    "request_reason": "Repair Trash Cart",
    "date_created": "2026-07-16T15:21:36.000",
    "date_modified": "2026-07-16T15:21:38.000",
    "request_status": "Pending",
    "responsible_agency": "Department of Sanitation",
    "final_address": "2708 Cambronne St",
    "address_councildis": "A",
    "status": "Assigned to Contractor",
    "contractor": "IV Waste",
    "rowid": "1300835",
    "final_x": "3664832.35674",
    "final_y": "533184.500036",
    "longitude": "-90.1206453380156",
    "latitude": "29.9605680590069",
    "geocoded_column": {
      "latitude": "29.9605680590069",
      "longitude": "-90.1206453380156"
    }
  },
  {
    "service_request": "2026-1300834",
    "request_type": "Trash/Recycling",
    "request_reason": "Request a Large Item Pick Up",
    "date_created": "2026-07-16T15:20:26.000",
    "date_modified": "2026-07-16T15:20:28.000",
    "request_status": "Pending",
    "responsible_agency": "Department of Sanitation",
    "final_address": "4 Christopher Ct",
    "address_councildis": "E",
    "status": "Assigned to Contractor",
    "contractor": "Waste Pro",
    "rowid": "1300834",
    "final_x": "3716359.49125",
    "final_y": "570263.540455",
    "longitude": "-89.95652792497467",
    "latitude": "30.060920812361843",
    "geocoded_column": {
      "latitude": "30.060920812361843",
      "longitude": "-89.95652792497467"
    }
  },
  {
    "service_request": "2026-1300833",
    "request_type": "Trash/Recycling",
    "request_reason": "Request a Large Item Pick Up",
    "date_created": "2026-07-16T15:19:33.000",
    "date_modified": "2026-07-16T15:19:36.000",
    "request_status": "Pending",
    "responsible_agency": "Department of Sanitation",
    "final_address": "4583 Feliciana Dr",
    "address_councildis": "D",
    "status": "Assigned to Contractor",
    "contractor": "IV Waste",
    "rowid": "1300833",
    "final_x": "3690252.88291",
    "final_y": "550697.161428",
    "longitude": "-90.03974834055155",
    "latitude": "30.00795737191403",
    "geocoded_column": {
      "latitude": "30.00795737191403",
      "longitude": "-90.03974834055155"
    }
  },
  {
    "service_request": "2026-1300832",
    "request_type": "Trash/Recycling",
    "request_reason": "Request a Large Item Pick Up",
    "date_created": "2026-07-16T15:19:21.000",
    "date_modified": "2026-07-16T15:19:24.000",
    "request_status": "Pending",
    "responsible_agency": "Department of Sanitation",
    "final_address": "8426 Spruce St",
    "address_councildis": "A",
    "status": "Assigned to Contractor",
    "contractor": "IV Waste",
    "rowid": "1300832",
    "final_x": "3662881.26688",
    "final_y": "531281.317314",
    "longitude": "-90.12686979867642",
    "latitude": "29.95539155874519",
    "geocoded_column": {
      "latitude": "29.95539155874519",
      "longitude": "-90.12686979867642"
    }
  },
  {
    "service_request": "2026-1300831",
    "request_type": "Trash/Recycling",
    "request_reason": "Order Second Trash Cart",
    "date_created": "2026-07-16T15:17:39.000",
    "date_modified": "2026-07-16T15:17:43.000",
    "request_status": "Pending",
    "responsible_agency": "Department of Sanitation",
    "final_address": "2331 Second St",
    "address_councildis": "B",
    "status": "Assigned to Contractor",
    "contractor": "IV Waste",
    "rowid": "1300831",
    "final_x": "3675214.26881",
    "final_y": "525348.159485",
    "longitude": "-90.08813020568456",
    "latitude": "29.93871451552911",
    "geocoded_column": {
      "latitude": "29.93871451552911",
      "longitude": "-90.08813020568456"
    }
  },
  {
    "service_request": "2026-1300830",
    "request_type": "Trash/Recycling",
    "request_reason": "Replace Trash Cart",
    "date_created": "2026-07-16T15:15:00.000",
    "date_modified": "2026-07-16T15:15:03.000",
    "request_status": "Pending",
    "responsible_agency": "Department of Sanitation",
    "final_address": "1924 Broadway St",
    "address_councildis": "A",
    "status": "Assigned to Contractor",
    "contractor": "IV Waste",
    "rowid": "1300830",
    "final_x": "3665654.44295",
    "final_y": "528804.889088",
    "longitude": "-90.11819600683415",
    "latitude": "29.94850160645685",
    "geocoded_column": {
      "latitude": "29.94850160645685",
      "longitude": "-90.11819600683415"
    }
  },
  {
    "service_request": "2026-1300829",
    "request_type": "Trash/Recycling",
    "request_reason": "Request a Large Item Pick Up",
    "date_created": "2026-07-16T15:13:51.000",
    "date_modified": "2026-07-16T15:13:53.000",
    "request_status": "Pending",
    "responsible_agency": "Department of Sanitation",
    "final_address": "6220 Vermillion Blvd",
    "address_councildis": "D",
    "status": "Assigned to Contractor",
    "contractor": "IV Waste",
    "rowid": "1300829",
    "final_x": "3682955.5661",
    "final_y": "555996.615641",
    "longitude": "-90.06261706028168",
    "latitude": "30.02275344085742",
    "geocoded_column": {
      "latitude": "30.02275344085742",
      "longitude": "-90.06261706028168"
    }
  },