[
  {
    "service_request": "2026-1268016",
    "request_type": "Property Maintenance",
    "request_reason": "Property Maintenance",
    "date_created": "2026-03-23T23:46:33.000",
    "date_modified": "2026-03-23T23:46:35.000",
    "request_status": "Pending",
    "responsible_agency": "Department of Code Enforcement",
    "final_address": "5650 Norgate Dr",
    "address_councildis": "E",
    "status": "Pending",
    "rowid": "1268016",
    "final_x": "3707916.0915",
    "final_y": "558276.687388",
    "longitude": "-89.983663399057",
    "latitude": "30.028238008430666",
    "geocoded_column": {
      "latitude": "30.028238008430666",
      "longitude": "-89.983663399057"
    }
  },
  {
    "service_request": "2026-1268015",
    "request_type": "Health Related Request",
    "request_reason": "Noise Ordinance Complaint",
    "date_created": "2026-03-23T22:38:24.000",
    "date_modified": "2026-03-23T22:38:27.000",
    "request_status": "Pending",
    "responsible_agency": "Health Department",
    "final_address": "801 Bourbon St, New Orleans, Louisiana, 70116",
    "address_councildis": "C",
    "status": "Pending",
    "rowid": "1268015",
    "final_x": "3682490.98735",
    "final_y": "533018.672772",
    "longitude": "-90.06488875731978",
    "latitude": "29.959586396383013",
    "geocoded_column": {
      "latitude": "29.959586396383013",
      "longitude": "-90.06488875731978"
    }
  },
  {
    "service_request": "2026-1268014",
    "request_type": "Trash/Recycling",
    "request_reason": "Request a Large Item Pick Up",
    "date_created": "2026-03-23T22:18:24.000",
    "date_modified": "2026-03-23T22:18:27.000",
    "request_status": "Pending",
    "responsible_agency": "Department of Sanitation",
    "final_address": "525 Pelican Ave",
    "address_councildis": "C",
    "status": "Assigned to Contractor",
    "contractor": "Richards Disposal",
    "rowid": "1268014",
    "final_x": "3687078.8694",
    "final_y": "530721.65389",
    "longitude": "-90.0504825263328",
    "latitude": "29.95312993810917",
    "geocoded_column": {
      "latitude": "29.95312993810917",
      "longitude": "-90.0504825263328"
    }
  },
  {
    "service_request": "2026-1268013",
    "request_type": "Trash/Recycling",
    "request_reason": "Request a Large Item Pick Up",
    "date_created": "2026-03-23T22:06:28.000",
    "date_modified": "2026-03-23T22:06:29.000",
    "request_status": "Pending",
    "responsible_agency": "Department of Sanitation",
    "final_address": "3800 Magellan St",
    "address_councildis": "C",
    "status": "Assigned to Contractor",
    "contractor": "Richards Disposal",
    "rowid": "1268013",
    "final_x": "3698212.95479",
    "final_y": "524288.330172",
    "longitude": "-90.01555974958391",
    "latitude": "29.935093090087246",
    "geocoded_column": {
      "latitude": "29.935093090087246",
      "longitude": "-90.01555974958391"
    }
  },
  {
    "service_request": "2026-1268012",
    "request_type": "Trash/Recycling",
    "request_reason": "Damaged Caused By Contractor",
    "date_created": "2026-03-23T22:05:25.000",
    "date_modified": "2026-03-23T22:05:28.000",
    "request_status": "Pending",
    "responsible_agency": "Department of Sanitation",
    "final_address": "4317 Prytania St",
    "address_councildis": "B",
    "status": "Assigned to Contractor",
    "contractor": "IV Waste",
    "rowid": "1268012",
    "final_x": "3671144.6187",
    "final_y": "520390.6302",
    "longitude": "-90.10114687503514",
    "latitude": "29.925203883482556",
    "geocoded_column": {
      "latitude": "29.925203883482556",
      "longitude": "-90.10114687503514"
    }
  },
  {
    "service_request": "2026-1268011",
    "request_type": "Drainage",
    "request_reason": "Ditch and Culvert Maintenance",
    "date_created": "2026-03-23T21:58:59.000",
    "date_modified": "2026-03-23T21:59:01.000",
    "request_status": "Pending",
    "responsible_agency": "Department of Public Works",
    "final_address": "1020 Pleasant St",
    "address_councildis": "B",
    "status": "Pending",
    "rowid": "1268011",
    "final_x": "3675588.82024",
    "final_y": "519672.384248",
    "longitude": "-90.08714258827496",
    "latitude": "29.923096780991397",
    "geocoded_column": {
      "latitude": "29.923096780991397",
      "longitude": "-90.08714258827496"
    }
  },
  {
    "service_request": "2026-1268010",
    "request_type": "Trash/Recycling",
    "request_reason": "Request a Large Item Pick Up",
    "date_created": "2026-03-23T21:32:57.000",
    "date_modified": "2026-03-23T21:32:59.000",
    "request_status": "Pending",
    "responsible_agency": "Department of Sanitation",
    "final_address": "12541 Carmel Pl",
    "address_councildis": "E",
    "status": "Assigned to Contractor",
    "contractor": "Waste Pro",
    "rowid": "1268010",
    "final_x": "3716413.40312",
    "final_y": "566952.666148",
    "longitude": "-89.95648326765347",
    "latitude": "30.051815492725947",
    "geocoded_column": {
      "latitude": "30.051815492725947",
      "longitude": "-89.95648326765347"
    }
  },
  {
    "service_request": "2026-1268009",
    "request_type": "Streetlights",
    "request_reason": "New Streetlight Request",
    "date_created": "2026-03-23T21:18:33.000",
    "date_modified": "2026-03-23T21:18:34.000",
    "request_status": "Pending",
    "responsible_agency": "Department of Public Works",
    "final_address": "3854 Virgil Blvd",
    "address_councildis": "D",
    "status": "Pending",
    "rowid": "1268009",
    "final_x": "3680333.56501",
    "final_y": "546703.210129",
    "longitude": "-90.07122542327458",
    "latitude": "29.997279615935465",
    "geocoded_column": {
      "latitude": "29.997279615935465",
      "longitude": "-90.07122542327458"
    }
  },
  {
    "service_request": "2026-1268008",
    "request_type": "Streetlights",
    "request_reason": "New Streetlight Request",
    "date_created": "2026-03-23T21:18:32.000",
    "date_modified": "2026-03-23T21:18:33.000",
    "request_status": "Pending",
    "responsible_agency": "Department of Public Works",
    "final_address": "3854 Virgil Blvd",
    "address_councildis": "D",
    "status": "Pending",
    "rowid": "1268008",
    "final_x": "3680333.56501",
    "final_y": "546703.210129",
    "longitude": "-90.07122542327458",
    "latitude": "29.997279615935465",
    "geocoded_column": {
      "latitude": "29.997279615935465",
      "longitude": "-90.07122542327458"
    }
  },
  {
    "service_request": "2026-1268007",
    "request_type": "Streetlights",
    "request_reason": "New Streetlight Request",
    "date_created": "2026-03-23T21:18:30.000",
    "date_modified": "2026-03-23T21:18:32.000",
    "request_status": "Pending",
    "responsible_agency": "Department of Public Works",
    "final_address": "3854 Virgil Blvd",
    "address_councildis": "D",
    "status": "Pending",
    "rowid": "1268007",
    "final_x": "3680333.56501",
    "final_y": "546703.210129",
    "longitude": "-90.07122542327458",
    "latitude": "29.997279615935465",
    "geocoded_column": {
      "latitude": "29.997279615935465",
      "longitude": "-90.07122542327458"
    }
  },
  {
    "service_request": "2026-1268006",
    "request_type": "Streetlights",
    "request_reason": "New Streetlight Request",
    "date_created": "2026-03-23T21:18:29.000",
    "date_modified": "2026-03-23T21:18:31.000",
    "request_status": "Pending",
    "responsible_agency": "Department of Public Works",
    "final_address": "3854 Virgil Blvd",
    "address_councildis": "D",
    "status": "Pending",
    "rowid": "1268006",
    "final_x": "3680333.56501",
    "final_y": "546703.210129",
    "longitude": "-90.07122542327458",
    "latitude": "29.997279615935465",
    "geocoded_column": {
      "latitude": "29.997279615935465",
      "longitude": "-90.07122542327458"
    }
  },
  {
    "service_request": "2026-1268005",
    "request_type": "Streetlights",
    "request_reason": "New Streetlight Request",
    "date_created": "2026-03-23T21:18:28.000",
    "date_modified": "2026-03-23T21:18:29.000",
    "request_status": "Pending",
    "responsible_agency": "Department of Public Works",
    "final_address": "3854 Virgil Blvd",
    "address_councildis": "D",
    "status": "Pending",
    "rowid": "1268005",
    "final_x": "3680333.56501",
    "final_y": "546703.210129",
    "longitude": "-90.07122542327458",
    "latitude": "29.997279615935465",
    "geocoded_column": {
      "latitude": "29.997279615935465",
      "longitude": "-90.07122542327458"
    }
  },
  {
    "service_request": "2026-1268004",
    "request_type": "Streetlights",
    "request_reason": "New Streetlight Request",
    "date_created": "2026-03-23T21:18:27.000",
    "date_modified": "2026-03-23T21:18:28.000",
    "request_status": "Pending",
    "responsible_agency": "Department of Public Works",
    "final_address": "3854 Virgil Blvd",
    "address_councildis": "D",
    "status": "Pending",
    "rowid": "1268004",
    "final_x": "3680333.56501",
    "final_y": "546703.210129",
    "longitude": "-90.07122542327458",
    "latitude": "29.997279615935465",
    "geocoded_column": {
      "latitude": "29.997279615935465",
      "longitude": "-90.07122542327458"
    }
  },
  {
    "service_request": "2026-1268003",
    "request_type": "Trash/Recycling",
    "request_reason": "Order Second Trash Cart",
    "date_created": "2026-03-23T21:14:02.000",
    "date_modified": "2026-03-23T21:14:06.000",
    "request_status": "Pending",
    "responsible_agency": "Department of Sanitation",
    "final_address": "7316 Beryl St",
    "address_councildis": "D",
    "status": "Assigned to Contractor",
    "contractor": "IV Waste",
    "rowid": "1268003",
    "final_x": "3668568.31335",
    "final_y": "555567.543769",
    "longitude": "-90.10809210505877",
    "latitude": "30.022004508443853",
    "geocoded_column": {
      "latitude": "30.022004508443853",
      "longitude": "-90.10809210505877"
    }
  },
  {
    "service_request": "2026-1268002",
    "request_type": "Abandoned Vehicles",
    "request_reason": "Abandoned/Junk Vehicles",
    "date_created": "2026-03-23T21:05:14.000",
    "date_modified": "2026-03-23T21:05:16.000",
    "request_status": "Pending",
    "responsible_agency": "Department of Public Works",
    "final_address": "5411 Edenboro Rd",
    "address_councildis": "E",
    "status": "Pending",
    "rowid": "1268002",
    "final_x": "3708380.44875",
    "final_y": "557795.508443",
    "longitude": "-89.98221399886887",
    "latitude": "30.02689990750971",
    "geocoded_column": {
      "latitude": "30.02689990750971",
      "longitude": "-89.98221399886887"
    }
  },
  {
    "service_request": "2026-1268001",
    "request_type": "Property Maintenance",
    "request_reason": "Property Maintenance",
    "date_created": "2026-03-23T21:00:32.000",
    "date_modified": "2026-03-23T21:00:33.000",
    "request_status": "Pending",
    "responsible_agency": "Department of Code Enforcement",
    "final_address": "7919 Means Ave",
    "address_councildis": "E",
    "status": "Pending",
    "rowid": "1268001",
    "final_x": "3707621.78769",
    "final_y": "565639.86813",
    "longitude": "-89.98431944650785",
    "latitude": "30.048493365502853",
    "geocoded_column": {
      "latitude": "30.048493365502853",
      "longitude": "-89.98431944650785"
    }
  },
  {
    "service_request": "2026-1268000",
    "request_type": "Abandoned Vehicles",
    "request_reason": "Abandoned/Junk Vehicles",
    "date_created": "2026-03-23T20:59:50.000",
    "date_modified": "2026-03-23T20:59:52.000",
    "request_status": "Pending",
    "responsible_agency": "Department of Public Works",
    "final_address": "5201 Edenboro Rd",
    "address_councildis": "E",
    "status": "Pending",
    "rowid": "1268000",
    "final_x": "3708581.02008",
    "final_y": "557402.329691",
    "longitude": "-89.98159487571749",
    "latitude": "30.025812315495713",
    "geocoded_column": {
      "latitude": "30.025812315495713",
      "longitude": "-89.98159487571749"
    }
  },
  {
    "service_request": "2026-1267999",
    "request_type": "Property Maintenance",
    "request_reason": "Property Maintenance",
    "date_created": "2026-03-23T20:58:42.000",
    "date_modified": "2026-03-23T20:58:44.000",
    "request_status": "Pending",
    "responsible_agency": "Department of Code Enforcement",
    "final_address": "4609 Shalimar Dr",
    "address_councildis": "D",
    "status": "Pending",
    "rowid": "1267999",
    "final_x": "3697310.17731",
    "final_y": "553513.208151",
    "longitude": "-90.01735017263164",
    "latitude": "30.015479484466784",
    "geocoded_column": {
      "latitude": "30.015479484466784",
      "longitude": "-90.01735017263164"
    }
  },
  {
    "service_request": "2026-1267998",
    "request_type": "Property Maintenance",
    "request_reason": "Property Maintenance",
    "date_created": "2026-03-23T20:54:37.000",
    "date_modified": "2026-03-23T20:54:39.000",
    "request_status": "Pending",
    "responsible_agency": "Department of Code Enforcement",
    "final_address": "8640 Chase St",
    "address_councildis": "E",
    "status": "Pending",
    "rowid": "1267998",
    "final_x": "3703847.54154",
    "final_y": "563490.678816",
    "longitude": "-89.99632744064843",
    "latitude": "30.04270558489277",
    "geocoded_column": {
      "latitude": "30.04270558489277",
      "longitude": "-89.99632744064843"
    }
  },
  {
    "service_request": "2026-1267997",
    "request_type": "Abandoned Vehicles",
    "request_reason": "Abandoned/Junk Vehicles",
    "date_created": "2026-03-23T20:49:48.000",
    "date_modified": "2026-03-23T20:49:50.000",
    "request_status": "Pending",
    "responsible_agency": "Department of Public Works",
    "final_address": "8007 Berg Rd",
    "address_councildis": "E",
    "status": "Pending",
    "rowid": "1267997",
    "final_x": "3711266.22469",
    "final_y": "567832.459364",
    "longitude": "-89.97271872167273",
    "latitude": "30.054403622191767",
    "geocoded_column": {
      "latitude": "30.054403622191767",
      "longitude": "-89.97271872167273"
    }
  },
  {
    "service_request": "2026-1267996",
    "request_type": "Trash/Recycling",
    "request_reason": "Request a Large Item Pick Up",
    "date_created": "2026-03-23T20:42:21.000",
    "date_modified": "2026-03-23T20:42:23.000",
    "request_status": "Pending",
    "responsible_agency": "Department of Sanitation",
    "final_address": "2639 Ramsey Dr",
    "address_councildis": "C",
    "status": "Assigned to Contractor",
    "contractor": "Richards Disposal",
    "rowid": "1267996",
    "final_x": "3703070.1875",
    "final_y": "521197.011705",
    "longitude": "-90.00033913913825",
    "latitude": "29.926438549651902",
    "geocoded_column": {
      "latitude": "29.926438549651902",
      "longitude": "-90.00033913913825"
    }
  },
  {
    "service_request": "2026-1267995",
    "request_type": "Abandoned Vehicles",
    "request_reason": "Abandoned/Junk Vehicles",
    "date_created": "2026-03-23T20:35:35.000",
    "date_modified": "2026-03-23T20:35:38.000",
    "request_status": "Pending",
    "responsible_agency": "Department of Public Works",
    "final_address": "8333 Jeannette St",
    "address_councildis": "A",
    "status": "Pending",
    "rowid": "1267995",
    "final_x": "3661933.34554",
    "final_y": "529872.838721",
    "longitude": "-90.12990971486317",
    "latitude": "29.95154610626974",
    "geocoded_column": {
      "latitude": "29.95154610626974",
      "longitude": "-90.12990971486317"
    }
  },
  {
    "service_request": "2026-1267994",
    "request_type": "Trash/Recycling",
    "request_reason": "Request a Large Item Pick Up",
    "date_created": "2026-03-23T20:24:01.000",
    "date_modified": "2026-03-23T20:24:03.000",
    "request_status": "Pending",
    "responsible_agency": "Department of Sanitation",
    "final_address": "1121 Louisa St",
    "address_councildis": "C",
    "status": "Assigned to Contractor",
    "contractor": "IV Waste",
    "rowid": "1267994",
    "final_x": "3689651.98998",
    "final_y": "536102.170887",
    "longitude": "-90.04216631625772",
    "latitude": "29.967845025129265",
    "geocoded_column": {
      "latitude": "29.967845025129265",
      "longitude": "-90.04216631625772"
    }
  },
  {
    "service_request": "2026-1267993",
    "request_type": "EMS",
    "request_reason": "EMS General",
    "date_created": "2026-03-23T20:19:24.000",
    "date_modified": "2026-03-23T20:19:25.000",
    "request_status": "Pending",
    "responsible_agency": "Emergency Medical Services",
    "final_address": "2321 N Rampart St",
    "address_councildis": "C",
    "status": "Pending",
    "rowid": "1267993",
    "final_x": "3685635.35087",
    "final_y": "536041.812295",
    "longitude": "-90.05485308779966",
    "latitude": "29.967802899939898",
    "geocoded_column": {
      "latitude": "29.967802899939898",
      "longitude": "-90.05485308779966"
    }
  },
  {
    "service_request": "2026-1267992",
    "request_type": "Streetlights",
    "request_reason": "Streetlight Outage/Malfunction",
    "date_created": "2026-03-23T20:15:09.000",
    "date_modified": "2026-03-23T20:15:15.000",
    "request_status": "Pending",
    "responsible_agency": "Department of Public Works",
    "final_address": "6315 Patterson St",
    "address_councildis": "C",
    "status": "Pending",
    "rowid": "1267992",
    "final_x": "3707575.77233",
    "final_y": "520971.127929",
    "longitude": "-89.98612477583836",
    "latitude": "29.925672555948534",
    "geocoded_column": {
      "latitude": "29.925672555948534",
      "longitude": "-89.98612477583836"
    }
  },
  {
    "service_request": "2026-1267991",
    "request_type": "Trash/Recycling",
    "request_reason": "Request a Large Item Pick Up",
    "date_created": "2026-03-23T20:13:27.000",
    "date_modified": "2026-03-23T20:13:29.000",
    "request_status": "Pending",
    "responsible_agency": "Department of Sanitation",
    "final_address": "1207 France St",
    "address_councildis": "D",
    "status": "Assigned to Contractor",
    "contractor": "IV Waste",
    "rowid": "1267991",
    "final_x": "3692529.84361",
    "final_y": "535578.38311",
    "longitude": "-90.03309677360788",
    "latitude": "29.9663153125797",
    "geocoded_column": {
      "latitude": "29.9663153125797",
      "longitude": "-90.03309677360788"
    }
  },
  {
    "service_request": "2026-1267990",
    "request_type": "Trash/Recycling",
    "request_reason": "Request a Large Item Pick Up",
    "date_created": "2026-03-23T19:54:22.000",
    "date_modified": "2026-03-23T19:54:24.000",
    "request_status": "Pending",
    "responsible_agency": "Department of Sanitation",
    "final_address": "4583 Viola St",
    "address_councildis": "E",
    "status": "Assigned to Contractor",
    "contractor": "Waste Pro",
    "rowid": "1267990",
    "final_x": "3704136.67114",
    "final_y": "554153.67644",
    "longitude": "-89.99575814515265",
    "latitude": "30.017023185073896",
    "geocoded_column": {
      "latitude": "30.017023185073896",
      "longitude": "-89.99575814515265"
    }
  },
  {
    "service_request": "2026-1267989",
    "request_type": "Trash/Recycling",
    "request_reason": "Return Recycling Cart",
    "date_created": "2026-03-23T19:39:02.000",
    "date_modified": "2026-03-23T19:39:04.000",
    "request_status": "Pending",
    "responsible_agency": "Department of Sanitation",
    "final_address": "4315 General Pershing St",
    "address_councildis": "B",
    "status": "Pending",
    "rowid": "1267989",
    "final_x": "3669554.91143",
    "final_y": "529736.318977",
    "longitude": "-90.1058490548924",
    "latitude": "29.950948421596177",
    "geocoded_column": {
      "latitude": "29.950948421596177",
      "longitude": "-90.1058490548924"
    }
  },
  {
    "service_request": "2026-1267988",
    "request_type": "Trash/Recycling",
    "request_reason": "Order Trash Cart",
    "date_created": "2026-03-23T19:35:39.000",
    "date_modified": "2026-03-23T19:35:40.000",
    "request_status": "Pending",
    "responsible_agency": "Department of Sanitation",
    "final_address": "7675 Kingsport Blvd",
    "address_councildis": "E",
    "status": "Assigned to Contractor",
    "contractor": "Waste Pro",
    "rowid": "1267988",
    "final_x": "3719722.47167",
    "final_y": "573179.605417",
    "longitude": "-89.94578613144779",
    "latitude": "30.068827231034835",
    "geocoded_column": {
      "latitude": "30.068827231034835",
      "longitude": "-89.94578613144779"
    }
  },
  {
    "service_request": "2026-1267987",
    "request_type": "Trash/Recycling",
    "request_reason": "Request a Large Item Pick Up",
    "date_created": "2026-03-23T19:32:23.000",
    "date_modified": "2026-03-23T19:32:24.000",
    "request_status": "Pending",
    "responsible_agency": "Department of Sanitation",
    "final_address": "3049 Burgundy St",
    "address_councildis": "C",
    "status": "Assigned to Contractor",
    "contractor": "IV Waste",
    "rowid": "1267987",
    "final_x": "3688623.96239",
    "final_y": "535288.808966",
    "longitude": "-90.04544172013118",
    "latitude": "29.965640376380243",
    "geocoded_column": {
      "latitude": "29.965640376380243",
      "longitude": "-90.04544172013118"
    }
  },
  {
    "service_request": "2026-1267986",
    "request_type": "Trash/Recycling",
    "request_reason": "Request a Large Item Pick Up",
    "date_created": "2026-03-23T19:32:21.000",
    "date_modified": "2026-03-23T19:32:22.000",
    "request_status": "Pending",
    "responsible_agency": "Department of Sanitation",
    "final_address": "8036 Read Blvd",
    "address_councildis": "E",
    "status": "Assigned to Contractor",
    "contractor": "Waste Pro",
    "rowid": "1267986",
    "final_x": "3707699.87761",
    "final_y": "565823.164643",
    "longitude": "-89.98406581714222",
    "latitude": "30.0489948292551",
    "geocoded_column": {
      "latitude": "30.0489948292551",
      "longitude": "-89.98406581714222"
    }
  },
  {
    "service_request": "2026-1267985",
    "request_type": "Traffic Safety",
    "request_reason": "Request for Traffic Calming due to Speeding",
    "date_created": "2026-03-23T19:25:48.000",
    "date_modified": "2026-03-23T19:25:49.000",
    "request_status": "Pending",
    "responsible_agency": "Department of Public Works",
    "final_address": "716 Peniston St",
    "address_councildis": "B",
    "status": "Pending",
    "rowid": "1267985",
    "final_x": "3673485.12014",
    "final_y": "518469.724342",
    "longitude": "-90.09382423794936",
    "latitude": "29.91985259424551",
    "geocoded_column": {
      "latitude": "29.91985259424551",
      "longitude": "-90.09382423794936"
    }
  },
  {
    "service_request": "2026-1267984",
    "request_type": "Trash/Recycling",
    "request_reason": "Request a Large Item Pick Up",
    "date_created": "2026-03-23T19:25:46.000",
    "date_modified": "2026-03-23T19:25:47.000",
    "request_status": "Pending",
    "responsible_agency": "Department of Sanitation",
    "final_address": "4800 Savoie Ct",
    "address_councildis": "E",
    "status": "Assigned to Contractor",
    "contractor": "Waste Pro",
    "rowid": "1267984",
    "final_x": "3725330.61504",
    "final_y": "560775.393822",
    "longitude": "-89.92853850387546",
    "latitude": "30.03453291923316",
    "geocoded_column": {
      "latitude": "30.03453291923316",
      "longitude": "-89.92853850387546"
    }
  },
  {
    "service_request": "2026-1267983",
    "request_type": "Trash/Recycling",
    "request_reason": "Repair Recycling Cart",
    "date_created": "2026-03-23T19:10:49.000",
    "date_modified": "2026-03-23T19:10:51.000",
    "request_status": "Pending",
    "responsible_agency": "Department of Sanitation",
    "final_address": "1701 Jena St Unit 1",
    "address_councildis": "B",
    "status": "Pending",
    "rowid": "1267983",
    "final_x": "3670448.18318",
    "final_y": "521317.038841",
    "longitude": "-90.10331391387989",
    "latitude": "29.92777178592791",
    "geocoded_column": {
      "latitude": "29.92777178592791",
      "longitude": "-90.10331391387989"
    }
  },
  {
    "service_request": "2026-1267982",
    "request_type": "General Services",
    "request_reason": "General Service Request",
    "date_created": "2026-03-23T19:06:18.000",
    "date_modified": "2026-03-23T19:06:20.000",
    "request_status": "Pending",
    "responsible_agency": "Orleans Parish Communication District",
    "final_address": "417 S St Patrick St",
    "address_councildis": "A",
    "status": "Pending",
    "rowid": "1267982",
    "final_x": "3668250.10253",
    "final_y": "538774.710281",
    "longitude": "-90.10966422572777",
    "latitude": "29.97583937343071",
    "geocoded_column": {
      "latitude": "29.97583937343071",
      "longitude": "-90.10966422572777"
    }
  },
  {
    "service_request": "2026-1267981",
    "request_type": "Healthy Homes",
    "request_reason": "Healthy Homes",
    "date_created": "2026-03-23T18:58:08.000",
    "date_modified": "2026-03-23T18:58:09.000",
    "request_status": "Pending",
    "responsible_agency": "Department of Code Enforcement",
    "final_address": "7600 Burthe St",
    "address_councildis": "A",
    "status": "Pending",
    "rowid": "1267981",
    "final_x": "3662531.17575",
    "final_y": "526388.092158",
    "longitude": "-90.12813777896403",
    "latitude": "29.94194689128216",
    "geocoded_column": {
      "latitude": "29.94194689128216",
      "longitude": "-90.12813777896403"
    }
  },
  {
    "service_request": "2026-1267980",
    "request_type": "Trash/Recycling",
    "request_reason": "Order Recycling Cart",
    "date_created": "2026-03-23T18:57:59.000",
    "date_modified": "2026-03-23T18:58:00.000",
    "request_status": "Pending",
    "responsible_agency": "Department of Sanitation",
    "final_address": "2757 Danbury Dr, New Orleans, Louisiana, 70131",
    "address_councildis": "C",
    "status": "Pending",
    "rowid": "1267980",
    "final_x": "3703588.9955",
    "final_y": "520521.711608",
    "longitude": "-89.99872624869938",
    "latitude": "29.924565102963733",
    "geocoded_column": {
      "latitude": "29.924565102963733",
      "longitude": "-89.99872624869938"
    }
  },
  {
    "service_request": "2026-1267979",
    "request_type": "Trash/Recycling",
    "request_reason": "Illegal Dumping",
    "date_created": "2026-03-23T18:56:38.000",
    "date_modified": "2026-03-23T18:56:39.000",
    "request_status": "Pending",
    "responsible_agency": "Department of Sanitation",
    "final_address": "2306 N Roman St",
    "address_councildis": "D",
    "status": "Pending",
    "rowid": "1267979",
    "final_x": "3685662.4301",
    "final_y": "538920.881866",
    "longitude": "-90.05466610943324",
    "latitude": "29.975718505860424",
    "geocoded_column": {
      "latitude": "29.975718505860424",
      "longitude": "-90.05466610943324"
    }
  },
  {
    "service_request": "2026-1267978",
    "request_type": "Abandoned Vehicles",
    "request_reason": "Abandoned/Junk Vehicles",
    "date_created": "2026-03-23T18:52:55.000",
    "date_modified": "2026-03-23T18:52:57.000",
    "request_status": "Pending",
    "responsible_agency": "Department of Public Works",
    "final_address": "1719 General Taylor St",
    "address_councildis": "B",
    "status": "Pending",
    "rowid": "1267978",
    "final_x": "3672580.48878",
    "final_y": "521596.572473",
    "longitude": "-90.09657319283168",
    "latitude": "29.928477302497967",
    "geocoded_column": {
      "latitude": "29.928477302497967",
      "longitude": "-90.09657319283168"
    }
  },
  {
    "service_request": "2026-1267977",
    "request_type": "Drainage",
    "request_reason": "Drainage Manhole Cover Missing or Damaged",
    "date_created": "2026-03-23T18:51:28.000",
    "date_modified": "2026-03-23T18:51:30.000",
    "request_status": "Pending",
    "responsible_agency": "Sewerage & Water Board",
    "final_address": "411 S St Patrick St",
    "address_councildis": "A",
    "status": "Pending",
    "rowid": "1267977",
    "final_x": "3668263.48135",
    "final_y": "538813.642313",
    "longitude": "-90.10962065833124",
    "latitude": "29.975946030565265",
    "geocoded_column": {
      "latitude": "29.975946030565265",
      "longitude": "-90.10962065833124"
    }
  },
  {
    "service_request": "2026-1267976",
    "request_type": "Utility Poles",
    "request_reason": "Utility Pole Leaning",
    "date_created": "2026-03-23T18:48:55.000",
    "date_modified": "2026-03-23T18:48:58.000",
    "request_status": "Pending",
    "responsible_agency": "Utility Company Collective",
    "final_address": "417 S St Patrick St",
    "address_councildis": "A",
    "status": "Pending",
    "rowid": "1267976",
    "final_x": "3668250.10253",
    "final_y": "538774.710281",
    "longitude": "-90.10966422572777",
    "latitude": "29.97583937343071",
    "geocoded_column": {
      "latitude": "29.97583937343071",
      "longitude": "-90.10966422572777"
    }
  },
  {
    "service_request": "2026-1267975",
    "request_type": "Trash/Recycling",
    "request_reason": "Damaged Caused By Contractor",
    "date_created": "2026-03-23T18:33:09.000",
    "date_modified": "2026-03-23T18:33:11.000",
    "request_status": "Pending",
    "responsible_agency": "Department of Sanitation",
    "final_address": "2129 Iberville St",
    "address_councildis": "B",
    "status": "Assigned to Contractor",
    "contractor": "IV Waste",
    "rowid": "1267975",
    "final_x": "3677344.20206",
    "final_y": "534181.679429",
    "longitude": "-90.0811009922187",
    "latitude": "29.962939929695217",
    "geocoded_column": {
      "latitude": "29.962939929695217",
      "longitude": "-90.0811009922187"
    }
  },
  {
    "service_request": "2026-1267974",
    "request_type": "Trash/Recycling",
    "request_reason": "Request a Large Item Pick Up",
    "date_created": "2026-03-23T18:32:27.000",
    "date_modified": "2026-03-23T18:32:29.000",
    "request_status": "Pending",
    "responsible_agency": "Department of Sanitation",
    "final_address": "5520 S Tonti St",
    "address_councildis": "B",
    "status": "Assigned to Contractor",
    "contractor": "IV Waste",
    "rowid": "1267974",
    "final_x": "3668232.66369",
    "final_y": "527989.001087",
    "longitude": "-90.1100829593664",
    "latitude": "29.9461827479449",
    "geocoded_column": {
      "latitude": "29.9461827479449",
      "longitude": "-90.1100829593664"
    }
  },
  {
    "service_request": "2026-1267973",
    "request_type": "General Services",
    "request_reason": "General Service Request",
    "date_created": "2026-03-23T18:17:22.000",
    "date_modified": "2026-03-23T18:17:23.000",
    "request_status": "Pending",
    "responsible_agency": "Orleans Parish Communication District",
    "final_address": "4400 Dauphine St",
    "address_councildis": "C",
    "status": "Pending",
    "rowid": "1267973",
    "final_x": "3692958.8847",
    "final_y": "533817.264645",
    "longitude": "-90.03180504753568",
    "latitude": "29.961459463078267",
    "geocoded_column": {
      "latitude": "29.961459463078267",
      "longitude": "-90.03180504753568"
    }
  },
  {
    "service_request": "2026-1267972",
    "request_type": "Trash/Recycling",
    "request_reason": "Repair Trash Cart",
    "date_created": "2026-03-23T18:16:13.000",
    "date_modified": "2026-03-23T18:16:15.000",
    "request_status": "Pending",
    "responsible_agency": "Department of Sanitation",
    "final_address": "2130 Holiday Dr, New Orleans, Louisiana, 70114",
    "address_councildis": "C",
    "status": "Assigned to Contractor",
    "contractor": "Richards Disposal",
    "rowid": "1267972",
    "final_x": "3698990.14359",
    "final_y": "523349.941691",
    "longitude": "-90.01314031643632",
    "latitude": "29.932488246813563",
    "geocoded_column": {
      "latitude": "29.932488246813563",
      "longitude": "-90.01314031643632"
    }
  },
  {
    "service_request": "2026-1267971",
    "request_type": "Mosquito, Termite & Rodent Control",
    "request_reason": "Rodent Complaint (Mice & Rats)",
    "date_created": "2026-03-23T18:03:54.000",
    "date_modified": "2026-03-23T18:03:55.000",
    "request_status": "Pending",
    "responsible_agency": "Mosquito, Termite & Rodent Control Board",
    "final_address": "843 Poland Ave",
    "address_councildis": "C",
    "status": "Pending",
    "rowid": "1267971",
    "final_x": "3692889.61769",
    "final_y": "534157.792837",
    "longitude": "-90.03201156754514",
    "latitude": "29.962397959207845",
    "geocoded_column": {
      "latitude": "29.962397959207845",
      "longitude": "-90.03201156754514"
    }
  },
  {
    "service_request": "2026-1267970",
    "request_type": "Trash/Recycling",
    "request_reason": "Replace Recycling Cart",
    "date_created": "2026-03-23T17:59:33.000",
    "date_modified": "2026-03-23T17:59:34.000",
    "request_status": "Pending",
    "responsible_agency": "Department of Sanitation",
    "final_address": "843 Poland Ave",
    "address_councildis": "C",
    "status": "Pending",
    "rowid": "1267970",
    "final_x": "3692889.61769",
    "final_y": "534157.792837",
    "longitude": "-90.03201156754514",
    "latitude": "29.962397959207845",
    "geocoded_column": {
      "latitude": "29.962397959207845",
      "longitude": "-90.03201156754514"
    }
  },
  {
    "service_request": "2026-1267969",
    "request_type": "Trash/Recycling",
    "request_reason": "Repair Trash Cart",
    "date_created": "2026-03-23T17:58:19.000",
    "date_modified": "2026-03-23T17:58:21.000",
    "request_status": "Pending",
    "responsible_agency": "Department of Sanitation",
    "final_address": "843 Poland Ave",
    "address_councildis": "C",
    "status": "Assigned to Contractor",
    "contractor": "IV Waste",
    "rowid": "1267969",
    "final_x": "3692889.61769",
    "final_y": "534157.792837",
    "longitude": "-90.03201156754514",
    "latitude": "29.962397959207845",
    "geocoded_column": {
      "latitude": "29.962397959207845",
      "longitude": "-90.03201156754514"
    }
  },
  {
    "service_request": "2026-1267968",
    "request_type": "Trash/Recycling",
    "request_reason": "Request a Large Item Pick Up",
    "date_created": "2026-03-23T17:48:21.000",
    "date_modified": "2026-03-23T17:48:23.000",
    "request_status": "Pending",
    "responsible_agency": "Department of Sanitation",
    "final_address": "625 Lowerline St",
    "address_councildis": "A",
    "status": "Assigned to Contractor",
    "contractor": "IV Waste",
    "rowid": "1267968",
    "final_x": "3662696.29882",
    "final_y": "525189.753853",
    "longitude": "-90.12765625785514",
    "latitude": "29.938647065437827",
    "geocoded_column": {
      "latitude": "29.938647065437827",
      "longitude": "-90.12765625785514"
    }
  },
  {
    "service_request": "2026-1267967",
    "request_type": "Streetlights",
    "request_reason": "Streetlight Outage/Malfunction",
    "date_created": "2026-03-23T17:43:32.000",
    "date_modified": "2026-03-23T17:43:34.000",
    "request_status": "Pending",
    "responsible_agency": "Department of Public Works",
    "final_address": "1499 Madrid St",
    "address_councildis": "D",
    "status": "Pending",
    "rowid": "1267967",
    "final_x": "3678257.77774",
    "final_y": "554691.69948",
    "longitude": "-90.07750618296842",
    "latitude": "30.01930780827608",
    "geocoded_column": {
      "latitude": "30.01930780827608",
      "longitude": "-90.07750618296842"
    }
  },
  {
    "service_request": "2026-1267966",
    "request_type": "Trash/Recycling",
    "request_reason": "Request a Large Item Pick Up",
    "date_created": "2026-03-23T17:42:01.000",
    "date_modified": "2026-03-23T17:42:03.000",
    "request_status": "Pending",
    "responsible_agency": "Department of Sanitation",
    "final_address": "7625 Lady Gray St",
    "address_councildis": "E",
    "status": "Assigned to Contractor",
    "contractor": "Waste Pro",
    "rowid": "1267966",
    "final_x": "3709993.01029",
    "final_y": "565324.215266",
    "longitude": "-89.97683687860402",
    "latitude": "30.04754847379839",
    "geocoded_column": {
      "latitude": "30.04754847379839",
      "longitude": "-89.97683687860402"
    }
  },
  {
    "service_request": "2026-1267965",
    "request_type": "Trash/Recycling",
    "request_reason": "Illegal Dumping",
    "date_created": "2026-03-23T17:32:57.000",
    "date_modified": "2026-03-23T17:32:59.000",
    "request_status": "Pending",
    "responsible_agency": "Department of Sanitation",
    "final_address": "3415 Baudin St",
    "address_councildis": "B",
    "status": "Pending",
    "rowid": "1267965",
    "final_x": "3672081.75399",
    "final_y": "535618.840838",
    "longitude": "-90.09767024189408",
    "latitude": "29.967048727740465",
    "geocoded_column": {
      "latitude": "29.967048727740465",
      "longitude": "-90.09767024189408"
    }
  },
  {
    "service_request": "2026-1267964",
    "request_type": "Trash/Recycling",
    "request_reason": "Missed Trash Pick-Up",
    "date_created": "2026-03-23T17:26:08.000",
    "date_modified": "2026-03-23T17:26:10.000",
    "request_status": "Pending",
    "responsible_agency": "Department of Sanitation",
    "final_address": "10228 Dreux Ave",
    "address_councildis": "E",
    "status": "Assigned to Contractor",
    "contractor": "Waste Pro",
    "rowid": "1267964",
    "final_x": "3713422.23947",
    "final_y": "555895.862873",
    "longitude": "-89.96635422364737",
    "latitude": "30.02151220304571",
    "geocoded_column": {
      "latitude": "30.02151220304571",
      "longitude": "-89.96635422364737"
    }
  },
  {
    "service_request": "2026-1267963",
    "request_type": "Trash/Recycling",
    "request_reason": "Request a Large Item Pick Up",
    "date_created": "2026-03-23T17:26:07.000",
    "date_modified": "2026-03-23T17:26:09.000",
    "request_status": "Pending",
    "responsible_agency": "Department of Sanitation",
    "final_address": "130 Horseshoe Bend",
    "address_councildis": "E",
    "status": "Assigned to Contractor",
    "contractor": "Waste Pro",
    "rowid": "1267963",
    "final_x": "3720124.63052",
    "final_y": "561626.157791",
    "longitude": "-89.9449573675473",
    "latitude": "30.037046641322327",
    "geocoded_column": {
      "latitude": "30.037046641322327",
      "longitude": "-89.9449573675473"
    }
  },
  {
    "service_request": "2026-1267962",
    "request_type": "Trash/Recycling",
    "request_reason": "Request a Large Item Pick Up",
    "date_created": "2026-03-23T16:58:57.000",
    "date_modified": "2026-03-23T16:58:58.000",
    "request_status": "Pending",
    "responsible_agency": "Department of Sanitation",
    "final_address": "3945 Tall Pines Dr",
    "address_councildis": "C",
    "status": "Assigned to Contractor",
    "contractor": "Richards Disposal",
    "rowid": "1267962",
    "final_x": "3704791.32087",
    "final_y": "512879.643569",
    "longitude": "-89.99521265894751",
    "latitude": "29.903513483443987",
    "geocoded_column": {
      "latitude": "29.903513483443987",
      "longitude": "-89.99521265894751"
    }
  },
  {
    "service_request": "2026-1267961",
    "request_type": "Trash/Recycling",
    "request_reason": "Request a Large Item Pick Up",
    "date_created": "2026-03-23T16:55:29.000",
    "date_modified": "2026-03-23T16:55:31.000",
    "request_status": "Pending",
    "responsible_agency": "Department of Sanitation",
    "final_address": "44 Marywood Ct",
    "address_councildis": "E",
    "status": "Assigned to Contractor",
    "contractor": "Waste Pro",
    "rowid": "1267961",
    "final_x": "3712233.94373",
    "final_y": "567025.747748",
    "longitude": "-89.96969035871096",
    "latitude": "30.052153862366005",
    "geocoded_column": {
      "latitude": "30.052153862366005",
      "longitude": "-89.96969035871096"
    }
  },
  {
    "service_request": "2026-1267960",
    "request_type": "Trash/Recycling",
    "request_reason": "Missed Trash Pick-Up",
    "date_created": "2026-03-23T16:54:33.000",
    "date_modified": "2026-03-23T16:54:35.000",
    "request_status": "Pending",
    "responsible_agency": "Department of Sanitation",
    "final_address": "7562 Horizon Dr",
    "address_councildis": "E",
    "status": "Assigned to Contractor",
    "contractor": "Waste Pro",
    "rowid": "1267960",
    "final_x": "3725259.22451",
    "final_y": "570019.479654",
    "longitude": "-89.92840592731828",
    "latitude": "30.05995271154213",
    "geocoded_column": {
      "latitude": "30.05995271154213",
      "longitude": "-89.92840592731828"
    }
  },
  {
    "service_request": "2026-1267959",
    "request_type": "Roads and Streets",
    "request_reason": "Push-up/Pavement Expansion",
    "date_created": "2026-03-23T16:54:25.000",
    "date_modified": "2026-03-23T16:54:27.000",
    "request_status": "Pending",
    "responsible_agency": "Department of Public Works",
    "final_address": "960 Florida Blvd",
    "address_councildis": "A",
    "status": "Pending",
    "rowid": "1267959",
    "final_x": "3670315.07418",
    "final_y": "545108.357327",
    "longitude": "-90.10292764446523",
    "latitude": "29.993193943126645",
    "geocoded_column": {
      "latitude": "29.993193943126645",
      "longitude": "-90.10292764446523"
    }
  },
  {
    "service_request": "2026-1267958",
    "request_type": "Abandoned Vehicles",
    "request_reason": "Abandoned/Junk Vehicles",
    "date_created": "2026-03-23T16:53:24.000",
    "date_modified": "2026-03-23T16:53:26.000",
    "request_status": "Pending",
    "responsible_agency": "Department of Public Works",
    "final_address": "4516 Lafon Dr",
    "address_councildis": "E",
    "status": "Pending",
    "rowid": "1267958",
    "final_x": "3701186.43345",
    "final_y": "553013.660631",
    "longitude": "-90.00512136935592",
    "latitude": "30.01398294008778",
    "geocoded_column": {
      "latitude": "30.01398294008778",
      "longitude": "-90.00512136935592"
    }
  },
  {
    "service_request": "2026-1267957",
    "request_type": "Trash/Recycling",
    "request_reason": "Request a Large Item Pick Up",
    "date_created": "2026-03-23T16:50:34.000",
    "date_modified": "2026-03-23T16:50:36.000",
    "request_status": "Pending",
    "responsible_agency": "Department of Sanitation",
    "final_address": "1022 Gordon St",
    "address_councildis": "E",
    "status": "Assigned to Contractor",
    "contractor": "Waste Pro",
    "rowid": "1267957",
    "final_x": "3699039.9729",
    "final_y": "533249.841476",
    "longitude": "-90.0126227839803",
    "latitude": "29.959707922214076",
    "geocoded_column": {
      "latitude": "29.959707922214076",
      "longitude": "-90.0126227839803"
    }
  },
  {
    "service_request": "2026-1267956",
    "request_type": "Drainage",
    "request_reason": "Catch Basin Frame and Cover Missing or Damaged",
    "date_created": "2026-03-23T16:47:17.000",
    "date_modified": "2026-03-23T16:47:19.000",
    "request_status": "Pending",
    "responsible_agency": "Sewerage & Water Board",
    "final_address": "221 Liberty Terrace Dr",
    "address_councildis": "D",
    "status": "Pending",
    "rowid": "1267956",
    "final_x": "3689492.93571",
    "final_y": "545557.554768",
    "longitude": "-90.04233218074518",
    "latitude": "29.993848893266215",
    "geocoded_column": {
      "latitude": "29.993848893266215",
      "longitude": "-90.04233218074518"
    }
  },
  {
    "service_request": "2026-1267955",
    "request_type": "Trash/Recycling",
    "request_reason": "Repair Trash Cart",
    "date_created": "2026-03-23T16:45:50.000",
    "date_modified": "2026-03-23T16:45:51.000",
    "request_status": "Pending",
    "responsible_agency": "Department of Sanitation",
    "final_address": "221 Liberty Terrace Dr",
    "address_councildis": "D",
    "status": "Assigned to Contractor",
    "contractor": "IV Waste",
    "rowid": "1267955",
    "final_x": "3689492.93571",
    "final_y": "545557.554768",
    "longitude": "-90.04233218074518",
    "latitude": "29.993848893266215",
    "geocoded_column": {
      "latitude": "29.993848893266215",
      "longitude": "-90.04233218074518"
    }
  },
  {
    "service_request": "2026-1267954",
    "request_type": "Trash/Recycling",
    "request_reason": "Order Trash Cart",
    "date_created": "2026-03-23T16:45:23.000",
    "date_modified": "2026-03-23T16:45:25.000",
    "request_status": "Pending",
    "responsible_agency": "Department of Sanitation",
    "final_address": "5020 N Robertson St",
    "address_councildis": "E",
    "status": "Assigned to Contractor",
    "contractor": "Waste Pro",
    "rowid": "1267954",
    "final_x": "3696495.05815",
    "final_y": "535690.174407",
    "longitude": "-90.02057071863108",
    "latitude": "29.966498382206467",
    "geocoded_column": {
      "latitude": "29.966498382206467",
      "longitude": "-90.02057071863108"
    }
  },
  {
    "service_request": "2026-1267953",
    "request_type": "Trash/Recycling",
    "request_reason": "Request a Large Item Pick Up",
    "date_created": "2026-03-23T16:41:56.000",
    "date_modified": "2026-03-23T16:41:57.000",
    "request_status": "Pending",
    "responsible_agency": "Department of Sanitation",
    "final_address": "815 N Villere St",
    "address_councildis": "C",
    "status": "Assigned to Contractor",
    "contractor": "IV Waste",
    "rowid": "1267953",
    "final_x": "3680579.09218",
    "final_y": "534588.803653",
    "longitude": "-90.07087145135482",
    "latitude": "29.963961778442698",
    "geocoded_column": {
      "latitude": "29.963961778442698",
      "longitude": "-90.07087145135482"
    }
  },
  {
    "service_request": "2026-1267952",
    "request_type": "Trash/Recycling",
    "request_reason": "Repair Trash Cart",
    "date_created": "2026-03-23T16:41:46.000",
    "date_modified": "2026-03-23T16:41:47.000",
    "request_status": "Pending",
    "responsible_agency": "Department of Sanitation",
    "final_address": "5727 Bancroft Dr",
    "address_councildis": "D",
    "status": "Assigned to Contractor",
    "contractor": "IV Waste",
    "rowid": "1267952",
    "final_x": "3676586.002",
    "final_y": "553536.363863",
    "longitude": "-90.08282826972936",
    "latitude": "30.016181325972866",
    "geocoded_column": {
      "latitude": "30.016181325972866",
      "longitude": "-90.08282826972936"
    }
  },
  {
    "service_request": "2026-1267951",
    "request_type": "Trash/Recycling",
    "request_reason": "Request a Large Item Pick Up",
    "date_created": "2026-03-23T16:39:43.000",
    "date_modified": "2026-03-23T16:39:45.000",
    "request_status": "Pending",
    "responsible_agency": "Department of Sanitation",
    "final_address": "7334 Beryl St",
    "address_councildis": "D",
    "status": "Assigned to Contractor",
    "contractor": "IV Waste",
    "rowid": "1267951",
    "final_x": "3668582.00135",
    "final_y": "555710.681177",
    "longitude": "-90.1080440179437",
    "latitude": "30.022397682919582",
    "geocoded_column": {
      "latitude": "30.022397682919582",
      "longitude": "-90.1080440179437"
    }
  },
  {
    "service_request": "2026-1267950",
    "request_type": "Trash/Recycling",
    "request_reason": "Order Second Trash Cart",
    "date_created": "2026-03-23T16:39:26.000",
    "date_modified": "2026-03-23T16:39:28.000",
    "request_status": "Pending",
    "responsible_agency": "Department of Sanitation",
    "final_address": "1125 Frenchmen St",
    "address_councildis": "C",
    "status": "Assigned to Contractor",
    "contractor": "IV Waste",
    "rowid": "1267950",
    "final_x": "3684660.2198",
    "final_y": "536494.022983",
    "longitude": "-90.0579166793451",
    "latitude": "29.969076203021743",
    "geocoded_column": {
      "latitude": "29.969076203021743",
      "longitude": "-90.0579166793451"
    }
  },
  {
    "service_request": "2026-1267949",
    "request_type": "Trash/Recycling",
    "request_reason": "Request a Large Item Pick Up",
    "date_created": "2026-03-23T16:38:16.000",
    "date_modified": "2026-03-23T16:38:17.000",
    "request_status": "Pending",
    "responsible_agency": "Department of Sanitation",
    "final_address": "4447 Arthur Dr",
    "address_councildis": "E",
    "status": "Assigned to Contractor",
    "contractor": "Waste Pro",
    "rowid": "1267949",
    "final_x": "3707920.37713",
    "final_y": "553917.889495",
    "longitude": "-89.98381207530458",
    "latitude": "30.016252872783113",
    "geocoded_column": {
      "latitude": "30.016252872783113",
      "longitude": "-89.98381207530458"
    }
  },
  {
    "service_request": "2026-1267948",
    "request_type": "Trash/Recycling",
    "request_reason": "MIssed Recycling Pick-Up",
    "date_created": "2026-03-23T16:38:08.000",
    "date_modified": "2026-03-23T16:38:10.000",
    "request_status": "Pending",
    "responsible_agency": "Department of Sanitation",
    "final_address": "1410 Gordon St",
    "address_councildis": "E",
    "status": "Assigned to Contractor",
    "contractor": "Waste Pro",
    "rowid": "1267948",
    "final_x": "3699579.9464",
    "final_y": "534606.131014",
    "longitude": "-90.01086825071684",
    "latitude": "29.963420110029883",
    "geocoded_column": {
      "latitude": "29.963420110029883",
      "longitude": "-90.01086825071684"
    }
  },
  {
    "service_request": "2026-1267947",
    "request_type": "Trash/Recycling",
    "request_reason": "Replace Trash Cart",
    "date_created": "2026-03-23T16:35:24.000",
    "date_modified": "2026-03-23T16:35:27.000",
    "request_status": "Pending",
    "responsible_agency": "Department of Sanitation",
    "final_address": "3229 Napoleon Ave",
    "address_councildis": "B",
    "status": "Assigned to Contractor",
    "contractor": "IV Waste",
    "rowid": "1267947",
    "final_x": "3670357.28538",
    "final_y": "526844.426174",
    "longitude": "-90.10341356732239",
    "latitude": "29.94297300199751",
    "geocoded_column": {
      "latitude": "29.94297300199751",
      "longitude": "-90.10341356732239"
    }
  },
  {
    "service_request": "2026-1267946",
    "request_type": "Abandoned Vehicles",
    "request_reason": "Abandoned/Junk Vehicles",
    "date_created": "2026-03-23T16:34:25.000",
    "date_modified": "2026-03-23T16:34:27.000",
    "request_status": "Pending",
    "responsible_agency": "Department of Public Works",
    "final_address": "MANDOLIN ST & PAUGER ST",
    "address_councildis": "D",
    "status": "Pending",
    "rowid": "1267946",
    "final_x": "3682895.9",
    "final_y": "548374.28",
    "longitude": "-90.06307259167926",
    "latitude": "30.001796606950638",
    "geocoded_column": {
      "latitude": "30.001796606950638",
      "longitude": "-90.06307259167926"
    }
  },
  {
    "service_request": "2026-1267945",
    "request_type": "Property Maintenance",
    "request_reason": "Property Maintenance",
    "date_created": "2026-03-23T16:33:35.000",
    "date_modified": "2026-03-23T16:33:36.000",
    "request_status": "Pending",
    "responsible_agency": "Department of Code Enforcement",
    "final_address": "2300 N Roman St",
    "address_councildis": "D",
    "status": "Pending",
    "rowid": "1267945",
    "final_x": "3685620.23407",
    "final_y": "538901.26113",
    "longitude": "-90.05480006748442",
    "latitude": "29.975665850386193",
    "geocoded_column": {
      "latitude": "29.975665850386193",
      "longitude": "-90.05480006748442"
    }
  },
  {
    "service_request": "2026-1267944",
    "request_type": "Trash/Recycling",
    "request_reason": "Request a Large Item Pick Up",
    "date_created": "2026-03-23T16:32:39.000",
    "date_modified": "2026-03-23T16:32:41.000",
    "request_status": "Pending",
    "responsible_agency": "Department of Sanitation",
    "final_address": "7036 Warfield St",
    "address_councildis": "E",
    "status": "Assigned to Contractor",
    "contractor": "Waste Pro",
    "rowid": "1267944",
    "final_x": "3701160.61207",
    "final_y": "552766.982998",
    "longitude": "-90.00521198480558",
    "latitude": "30.013305493221775",
    "geocoded_column": {
      "latitude": "30.013305493221775",
      "longitude": "-90.00521198480558"
    }
  },
  {
    "service_request": "2026-1267943",
    "request_type": "Trash/Recycling",
    "request_reason": "Request a Large Item Pick Up",
    "date_created": "2026-03-23T16:31:13.000",
    "date_modified": "2026-03-23T16:31:15.000",
    "request_status": "Pending",
    "responsible_agency": "Department of Sanitation",
    "final_address": "7842 Briarwood Dr",
    "address_councildis": "E",
    "status": "Assigned to Contractor",
    "contractor": "Waste Pro",
    "rowid": "1267943",
    "final_x": "3716642.72364",
    "final_y": "571938.590888",
    "longitude": "-89.95556897923063",
    "latitude": "30.065517143625755",
    "geocoded_column": {
      "latitude": "30.065517143625755",
      "longitude": "-89.95556897923063"
    }
  },
  {
    "service_request": "2026-1267942",
    "request_type": "Trash/Recycling",
    "request_reason": "Request a Large Item Pick Up",
    "date_created": "2026-03-23T16:29:14.000",
    "date_modified": "2026-03-23T16:29:22.000",
    "request_status": "Pending",
    "responsible_agency": "Department of Sanitation",
    "final_address": "2 Acadiana Pl",
    "address_councildis": "E",
    "status": "Assigned to Contractor",
    "contractor": "Waste Pro",
    "rowid": "1267942",
    "final_x": "3725032.22566",
    "final_y": "564297.624289",
    "longitude": "-89.92934505958527",
    "latitude": "30.044227654890253",
    "geocoded_column": {
      "latitude": "30.044227654890253",
      "longitude": "-89.92934505958527"
    }
  },
  {
    "service_request": "2026-1267941",
    "request_type": "Streetlights",
    "request_reason": "Streetlight Outage/Malfunction",
    "date_created": "2026-03-23T16:28:37.000",
    "date_modified": "2026-03-23T16:28:38.000",
    "request_status": "Pending",
    "responsible_agency": "Department of Public Works",
    "final_address": "2501 Chelsea Dr",
    "address_councildis": "C",
    "status": "Pending",
    "rowid": "1267941",
    "final_x": "3704357.17802",
    "final_y": "522002.656378",
    "longitude": "-89.99624682473541",
    "latitude": "29.9286125611529",
    "geocoded_column": {
      "latitude": "29.9286125611529",
      "longitude": "-89.99624682473541"
    }
  },
  {
    "service_request": "2026-1267940",
    "request_type": "Abandoned Vehicles",
    "request_reason": "Abandoned/Junk Vehicles",
    "date_created": "2026-03-23T16:26:16.000",
    "date_modified": "2026-03-23T16:26:17.000",
    "request_status": "Pending",
    "responsible_agency": "Department of Public Works",
    "final_address": "513 S Pierce St",
    "address_councildis": "A",
    "status": "Pending",
    "rowid": "1267940",
    "final_x": "3670401.45652",
    "final_y": "536692.286663",
    "longitude": "-90.10294024351955",
    "latitude": "29.97005006146362",
    "geocoded_column": {
      "latitude": "29.97005006146362",
      "longitude": "-90.10294024351955"
    }
  },
  {
    "service_request": "2026-1267939",
    "request_type": "Trash/Recycling",
    "request_reason": "Repair Trash Cart",
    "date_created": "2026-03-23T16:23:58.000",
    "date_modified": "2026-03-23T16:24:10.000",
    "request_status": "Pending",
    "responsible_agency": "Department of Sanitation",
    "final_address": "4400 BLK Hollygrove St",
    "address_councildis": "A",
    "status": "Assigned to Contractor",
    "contractor": "IV Waste",
    "rowid": "1267939",
    "final_x": "3667326.88283",
    "final_y": "538983.030745",
    "longitude": "-90.1125730162667",
    "latitude": "29.976439262141287",
    "geocoded_column": {
      "latitude": "29.976439262141287",
      "longitude": "-90.1125730162667"
    }
  },
  {
    "service_request": "2026-1267938",
    "request_type": "Trash/Recycling",
    "request_reason": "Request a Large Item Pick Up",
    "date_created": "2026-03-23T16:23:15.000",
    "date_modified": "2026-03-23T16:23:33.000",
    "request_status": "Pending",
    "responsible_agency": "Department of Sanitation",
    "final_address": "1247 Tennessee St",
    "address_councildis": "E",
    "status": "Assigned to Contractor",
    "contractor": "Waste Pro",
    "rowid": "1267938",
    "final_x": "3695928.58186",
    "final_y": "534870.49159",
    "longitude": "-90.02238925002462",
    "latitude": "29.964262378673688",
    "geocoded_column": {
      "latitude": "29.964262378673688",
      "longitude": "-90.02238925002462"
    }
  },
  {
    "service_request": "2026-1267937",
    "request_type": "Trash/Recycling",
    "request_reason": "Request a Large Item Pick Up",
    "date_created": "2026-03-23T16:19:00.000",
    "date_modified": "2026-03-23T16:19:02.000",
    "request_status": "Pending",
    "responsible_agency": "Department of Sanitation",
    "final_address": "100 Eastpoint Ct",
    "address_councildis": "E",
    "status": "Assigned to Contractor",
    "contractor": "Waste Pro",
    "rowid": "1267937",
    "final_x": "3720442.87583",
    "final_y": "563177.534688",
    "longitude": "-89.94389220519953",
    "latitude": "30.04130168776992",
    "geocoded_column": {
      "latitude": "30.04130168776992",
      "longitude": "-89.94389220519953"
    }
  },
  {
    "service_request": "2026-1267936",
    "request_type": "Abandoned Vehicles",
    "request_reason": "Abandoned/Junk Vehicles",
    "date_created": "2026-03-23T16:18:38.000",
    "date_modified": "2026-03-23T16:19:30.000",
    "request_status": "Pending",
    "responsible_agency": "Department of Public Works",
    "final_address": "4600 BLK Loyola Ave",
    "address_councildis": "B",
    "status": "Pending",
    "rowid": "1267936",
    "final_x": "3669708.66448",
    "final_y": "522904.935605",
    "longitude": "-90.10559469679457",
    "latitude": "29.932159801636093",
    "geocoded_column": {
      "latitude": "29.932159801636093",
      "longitude": "-90.10559469679457"
    }
  },
  {
    "service_request": "2026-1267935",
    "request_type": "Graffiti Removal",
    "request_reason": "Graffiti Removal",
    "date_created": "2026-03-23T16:14:42.000",
    "date_modified": "2026-03-23T16:15:00.000",
    "request_status": "Pending",
    "responsible_agency": "Department of Code Enforcement",
    "final_address": "Esplanade Avenue & Wisner Boulevard",
    "address_councildis": "A",
    "status": "Pending",
    "rowid": "1267935",
    "final_x": "3674531.38222",
    "final_y": "541842.509708",
    "longitude": "-90.08972097722518",
    "latitude": "29.984088829983364",
    "geocoded_column": {
      "latitude": "29.984088829983364",
      "longitude": "-90.08972097722518"
    }
  },
  {
    "service_request": "2026-1267934",
    "request_type": "Streetlights",
    "request_reason": "Streetlight Outage/Malfunction",
    "date_created": "2026-03-23T16:13:58.000",
    "date_modified": "2026-03-23T16:14:37.000",
    "request_status": "Pending",
    "responsible_agency": "Department of Public Works",
    "final_address": "5005 Shirley Taylor St",
    "address_councildis": "E",
    "status": "Pending",
    "rowid": "1267934",
    "final_x": "3697419.89898",
    "final_y": "539155.914698",
    "longitude": "-90.01752441645276",
    "latitude": "29.975998757590283",
    "geocoded_column": {
      "latitude": "29.975998757590283",
      "longitude": "-90.01752441645276"
    }
  },
  {
    "service_request": "2026-1267933",
    "request_type": "Streetlights",
    "request_reason": "Streetlight Outage/Malfunction",
    "date_created": "2026-03-23T16:13:01.000",
    "date_modified": "2026-03-23T16:13:05.000",
    "request_status": "Pending",
    "responsible_agency": "Department of Public Works",
    "final_address": "6356 Pauline Dr",
    "address_councildis": "D",
    "status": "Pending",
    "rowid": "1267933",
    "final_x": "3691124.76476",
    "final_y": "557124.052314",
    "longitude": "-90.0367640598159",
    "latitude": "30.025601835462595",
    "geocoded_column": {
      "latitude": "30.025601835462595",
      "longitude": "-90.0367640598159"
    }
  },
  {
    "service_request": "2026-1267932",
    "request_type": "Trash/Recycling",
    "request_reason": "Request a Large Item Pick Up",
    "date_created": "2026-03-23T16:10:07.000",
    "date_modified": "2026-03-23T16:10:15.000",
    "request_status": "Pending",
    "responsible_agency": "Department of Sanitation",
    "final_address": "8330 Pritchard Pl",
    "address_councildis": "A",
    "status": "Assigned to Contractor",
    "contractor": "IV Waste",
    "rowid": "1267932",
    "final_x": "3665299.44685",
    "final_y": "533523.329284",
    "longitude": "-90.11915901692997",
    "latitude": "29.96148612737333",
    "geocoded_column": {
      "latitude": "29.96148612737333",
      "longitude": "-90.11915901692997"
    }
  },
  {
    "service_request": "2026-1267931",
    "request_type": "Roads and Streets",
    "request_reason": "Push-up/Pavement Expansion",
    "date_created": "2026-03-23T16:09:28.000",
    "date_modified": "2026-03-23T16:09:30.000",
    "request_status": "Pending",
    "responsible_agency": "Department of Public Works",
    "final_address": "Esplanade Avenue & Wisner Boulevard",
    "address_councildis": "A",
    "status": "Pending",
    "rowid": "1267931",
    "final_x": "3674531.38222",
    "final_y": "541842.509708",
    "longitude": "-90.08972097722518",
    "latitude": "29.984088829983364",
    "geocoded_column": {
      "latitude": "29.984088829983364",
      "longitude": "-90.08972097722518"
    }
  },
  {
    "service_request": "2026-1267930",
    "request_type": "Streetlights",
    "request_reason": "Streetlight Outage/Malfunction",
    "date_created": "2026-03-23T16:09:22.000",
    "date_modified": "2026-03-23T16:09:23.000",
    "request_status": "Pending",
    "responsible_agency": "Department of Public Works",
    "final_address": "2473 Chelsea Dr",
    "address_councildis": "C",
    "status": "Pending",
    "rowid": "1267930",
    "final_x": "3704512.33521",
    "final_y": "522136.662458",
    "longitude": "-89.99575209185386",
    "latitude": "29.92897605183068",
    "geocoded_column": {
      "latitude": "29.92897605183068",
      "longitude": "-89.99575209185386"
    }
  },
  {
    "service_request": "2026-1267929",
    "request_type": "Utility Poles",
    "request_reason": "Utility Pole Leaning",
    "date_created": "2026-03-23T16:05:51.000",
    "date_modified": "2026-03-23T16:05:52.000",
    "request_status": "Pending",
    "responsible_agency": "Utility Company Collective",
    "final_address": "7800 BLK Dominican St",
    "address_councildis": "A",
    "status": "Pending",
    "rowid": "1267929",
    "final_x": "3660775.84245",
    "final_y": "525655.392703",
    "longitude": "-90.13370398605363",
    "latitude": "29.93998284923941",
    "geocoded_column": {
      "latitude": "29.93998284923941",
      "longitude": "-90.13370398605363"
    }
  },
  {
    "service_request": "2026-1267928",
    "request_type": "Trash/Recycling",
    "request_reason": "Request a Large Item Pick Up",
    "date_created": "2026-03-23T16:04:59.000",
    "date_modified": "2026-03-23T16:05:21.000",
    "request_status": "Pending",
    "responsible_agency": "Department of Sanitation",
    "final_address": "10940 Harrow Rd",
    "address_councildis": "E",
    "status": "Assigned to Contractor",
    "contractor": "Waste Pro",
    "rowid": "1267928",
    "final_x": "3711778.88235",
    "final_y": "563817.623201",
    "longitude": "-89.97124919197346",
    "latitude": "30.043347700071017",
    "geocoded_column": {
      "latitude": "30.043347700071017",
      "longitude": "-89.97124919197346"
    }
  },
  {
    "service_request": "2026-1267927",
    "request_type": "Trash/Recycling",
    "request_reason": "Request a Large Item Pick Up",
    "date_created": "2026-03-23T16:03:39.000",
    "date_modified": "2026-03-23T16:03:51.000",
    "request_status": "Pending",
    "responsible_agency": "Department of Sanitation",
    "final_address": "333 Wagner St",
    "address_councildis": "C",
    "status": "Assigned to Contractor",
    "contractor": "Richards Disposal",
    "rowid": "1267927",
    "final_x": "3690561.51785",
    "final_y": "530398.05261",
    "longitude": "-90.03949741324641",
    "latitude": "29.95213247556927",
    "geocoded_column": {
      "latitude": "29.95213247556927",
      "longitude": "-90.03949741324641"
    }
  },
  {
    "service_request": "2026-1267926",
    "request_type": "Trash/Recycling",
    "request_reason": "Request a Large Item Pick Up",
    "date_created": "2026-03-23T16:03:33.000",
    "date_modified": "2026-03-23T16:04:03.000",
    "request_status": "Pending",
    "responsible_agency": "Department of Sanitation",
    "final_address": "200 Cambridge Ct",
    "address_councildis": "C",
    "status": "Assigned to Contractor",
    "contractor": "Richards Disposal",
    "rowid": "1267926",
    "final_x": "3706095.78468",
    "final_y": "518478.46559",
    "longitude": "-89.99088879500238",
    "latitude": "29.918866365392",
    "geocoded_column": {
      "latitude": "29.918866365392",
      "longitude": "-89.99088879500238"
    }
  },
  {
    "service_request": "2026-1267925",
    "request_type": "New Orleans Recreation Development Commission (NORDC)",
    "request_reason": "Facilities and Parks Maintenance/Clean Up",
    "date_created": "2026-03-23T16:02:13.000",
    "date_modified": "2026-03-23T16:02:24.000",
    "request_status": "Pending",
    "responsible_agency": "New Orleans Recreation Development Commission",
    "final_address": "5421 Durham Dr",
    "address_councildis": "C",
    "status": "Pending",
    "rowid": "1267925",
    "final_x": "3704107.54391",
    "final_y": "518833.606391",
    "longitude": "-89.99715151908953",
    "latitude": "29.919906780628654",
    "geocoded_column": {
      "latitude": "29.919906780628654",
      "longitude": "-89.99715151908953"
    }
  },
  {
    "service_request": "2026-1267924",
    "request_type": "Trash/Recycling",
    "request_reason": "Order Second Trash Cart",
    "date_created": "2026-03-23T16:00:13.000",
    "date_modified": "2026-03-23T16:00:36.000",
    "request_status": "Pending",
    "responsible_agency": "Department of Sanitation",
    "final_address": "5421 Durham Dr",
    "address_councildis": "C",
    "status": "Assigned to Contractor",
    "contractor": "Richards Disposal",
    "rowid": "1267924",
    "final_x": "3704107.54391",
    "final_y": "518833.606391",
    "longitude": "-89.99715151908953",
    "latitude": "29.919906780628654",
    "geocoded_column": {
      "latitude": "29.919906780628654",
      "longitude": "-89.99715151908953"
    }
  },
  {
    "service_request": "2026-1267923",
    "request_type": "Trash/Recycling",
    "request_reason": "Order Recycling Cart",
    "date_created": "2026-03-23T15:59:11.000",
    "date_modified": "2026-03-23T15:59:13.000",
    "request_status": "Pending",
    "responsible_agency": "Department of Sanitation",
    "final_address": "5421 Durham Dr",
    "address_councildis": "C",
    "status": "Pending",
    "rowid": "1267923",
    "final_x": "3704107.54391",
    "final_y": "518833.606391",
    "longitude": "-89.99715151908953",
    "latitude": "29.919906780628654",
    "geocoded_column": {
      "latitude": "29.919906780628654",
      "longitude": "-89.99715151908953"
    }
  },
  {
    "service_request": "2026-1267922",
    "request_type": "Streetlights",
    "request_reason": "Streetlight Knocked Down/Leaning",
    "date_created": "2026-03-23T15:58:57.000",
    "date_modified": "2026-03-23T15:59:00.000",
    "request_status": "Pending",
    "responsible_agency": "Department of Public Works",
    "final_address": "Esplanade Avenue & Wisner Boulevard",
    "address_councildis": "A",
    "status": "Pending",
    "rowid": "1267922",
    "final_x": "3674531.38222",
    "final_y": "541842.509708",
    "longitude": "-90.08972097722518",
    "latitude": "29.984088829983364",
    "geocoded_column": {
      "latitude": "29.984088829983364",
      "longitude": "-90.08972097722518"
    }
  },
  {
    "service_request": "2026-1267921",
    "request_type": "Trash/Recycling",
    "request_reason": "Order Second Trash Cart",
    "date_created": "2026-03-23T15:58:54.000",
    "date_modified": "2026-03-23T15:59:29.000",
    "request_status": "Pending",
    "responsible_agency": "Department of Sanitation",
    "final_address": "3620 Dearmas St",
    "address_councildis": "C",
    "status": "Assigned to Contractor",
    "contractor": "Richards Disposal",
    "rowid": "1267921",
    "final_x": "3697427.04509",
    "final_y": "527027.17555",
    "longitude": "-90.01794158879298",
    "latitude": "29.94264879513163",
    "geocoded_column": {
      "latitude": "29.94264879513163",
      "longitude": "-90.01794158879298"
    }
  },
  {
    "service_request": "2026-1267920",
    "request_type": "Streetlights",
    "request_reason": "Streetlight Knocked Down/Leaning",
    "date_created": "2026-03-23T15:55:13.000",
    "date_modified": "2026-03-23T15:55:14.000",
    "request_status": "Pending",
    "responsible_agency": "Department of Public Works",
    "final_address": "Esplanade Avenue & Wisner Boulevard",
    "address_councildis": "A",
    "status": "Pending",
    "rowid": "1267920",
    "final_x": "3674531.38222",
    "final_y": "541842.509708",
    "longitude": "-90.08972097722518",
    "latitude": "29.984088829983364",
    "geocoded_column": {
      "latitude": "29.984088829983364",
      "longitude": "-90.08972097722518"
    }
  },
  {
    "service_request": "2026-1267919",
    "request_type": "Trash/Recycling",
    "request_reason": "Illegal Dumping",
    "date_created": "2026-03-23T15:54:39.000",
    "date_modified": "2026-03-23T15:54:41.000",
    "request_status": "Pending",
    "responsible_agency": "Department of Sanitation",
    "final_address": "439 S Clark St",
    "address_councildis": "B",
    "status": "Pending",
    "rowid": "1267919",
    "final_x": "3671881.6114",
    "final_y": "535777.049799",
    "longitude": "-90.09829690950497",
    "latitude": "29.967489682396238",
    "geocoded_column": {
      "latitude": "29.967489682396238",
      "longitude": "-90.09829690950497"
    }
  },
  {
    "service_request": "2026-1267918",
    "request_type": "Trash/Recycling",
    "request_reason": "Replace Trash Cart",
    "date_created": "2026-03-23T15:54:27.000",
    "date_modified": "2026-03-23T15:54:29.000",
    "request_status": "Pending",
    "responsible_agency": "Department of Sanitation",
    "final_address": "4165 Toulouse St",
    "address_councildis": "A",
    "status": "Assigned to Contractor",
    "contractor": "IV Waste",
    "rowid": "1267918",
    "final_x": "3671812.52199",
    "final_y": "540100.500363",
    "longitude": "-90.09836794027",
    "latitude": "29.97937975717317",
    "geocoded_column": {
      "latitude": "29.97937975717317",
      "longitude": "-90.09836794027"
    }
  },
  {
    "service_request": "2026-1267917",
    "request_type": "Abandoned Vehicles",
    "request_reason": "Abandoned/Junk Vehicles",
    "date_created": "2026-03-23T15:48:25.000",
    "date_modified": "2026-03-23T15:48:26.000",
    "request_status": "Pending",
    "responsible_agency": "Department of Public Works",
    "final_address": "4916 Annunciation St",
    "address_councildis": "B",
    "status": "Pending",
    "rowid": "1267917",
    "final_x": "3668820.95066",
    "final_y": "517505.004022",
    "longitude": "-90.10857934174516",
    "latitude": "29.917337827056084",
    "geocoded_column": {
      "latitude": "29.917337827056084",
      "longitude": "-90.10857934174516"
    }
  },
  {
    "service_request": "2026-1267916",
    "request_type": "Drainage",
    "request_reason": "Catch Basin Frame and Cover Missing or Damaged",
    "date_created": "2026-03-23T15:48:23.000",
    "date_modified": "2026-03-23T15:48:35.000",
    "request_status": "Pending",
    "responsible_agency": "Sewerage & Water Board",
    "final_address": "820 Andry St",
    "address_councildis": "E",
    "status": "Pending",
    "rowid": "1267916",
    "final_x": "3696862.65687",
    "final_y": "533021.958916",
    "longitude": "-90.01950646759126",
    "latitude": "29.959150151598674",
    "geocoded_column": {
      "latitude": "29.959150151598674",
      "longitude": "-90.01950646759126"
    }
  },
  {
    "service_request": "2026-1267915",
    "request_type": "Trash/Recycling",
    "request_reason": "Order Recycling Cart",
    "date_created": "2026-03-23T15:46:41.000",
    "date_modified": "2026-03-23T15:46:54.000",
    "request_status": "Pending",
    "responsible_agency": "Department of Sanitation",
    "final_address": "1780 Rosiere St",
    "address_councildis": "D",
    "status": "Pending",
    "rowid": "1267915",
    "final_x": "3678807.61749",
    "final_y": "542024.949836",
    "longitude": "-90.0762079724432",
    "latitude": "29.98446216924547",
    "geocoded_column": {
      "latitude": "29.98446216924547",
      "longitude": "-90.0762079724432"
    }
  },
  {
    "service_request": "2026-1267914",
    "request_type": "Trash/Recycling",
    "request_reason": "Replace Trash Cart",
    "date_created": "2026-03-23T15:43:07.000",
    "date_modified": "2026-03-23T15:43:20.000",
    "request_status": "Pending",
    "responsible_agency": "Department of Sanitation",
    "final_address": "3812 Socrates St",
    "address_councildis": "C",
    "status": "Assigned to Contractor",
    "contractor": "Richards Disposal",
    "rowid": "1267914",
    "final_x": "3698314.63351",
    "final_y": "526044.202238",
    "longitude": "-90.01517498338039",
    "latitude": "29.939917913808483",
    "geocoded_column": {
      "latitude": "29.939917913808483",
      "longitude": "-90.01517498338039"
    }
  },
  {
    "service_request": "2026-1267913",
    "request_type": "Trash/Recycling",
    "request_reason": "Missed Trash Pick-Up",
    "date_created": "2026-03-23T15:42:57.000",
    "date_modified": "2026-03-23T15:43:05.000",
    "request_status": "Pending",
    "responsible_agency": "Department of Sanitation",
    "final_address": "4701 Viola St",
    "address_councildis": "E",
    "status": "Assigned to Contractor",
    "contractor": "Waste Pro",
    "rowid": "1267913",
    "final_x": "3704051.17246",
    "final_y": "554937.395864",
    "longitude": "-89.99599938313024",
    "latitude": "30.019180856422736",
    "geocoded_column": {
      "latitude": "30.019180856422736",
      "longitude": "-89.99599938313024"
    }
  },
  {
    "service_request": "2026-1267912",
    "request_type": "Trash/Recycling",
    "request_reason": "Missed Trash Pick-Up",
    "date_created": "2026-03-23T15:42:39.000",
    "date_modified": "2026-03-23T15:49:54.000",
    "case_close_date": "2026-03-23T10:49:48.000",
    "request_status": "Closed",
    "responsible_agency": "Department of Sanitation",
    "final_address": "1623 Choctaw St",
    "address_councildis": "E",
    "status": "Duplicate Request",
    "contractor": "Waste Pro",
    "contractor_action": "Duplicate",
    "rowid": "1267912",
    "final_x": "3698034.14871",
    "final_y": "535971.573895",
    "longitude": "-90.01570009846617",
    "latitude": "29.96722355577218",
    "geocoded_column": {
      "latitude": "29.96722355577218",
      "longitude": "-90.01570009846617"
    }
  },
  {
    "service_request": "2026-1267911",
    "request_type": "Utility Poles",
    "request_reason": "Wires Sagging/Hanging Low",
    "date_created": "2026-03-23T15:37:16.000",
    "date_modified": "2026-03-23T15:37:37.000",
    "request_status": "Pending",
    "responsible_agency": "Utility Company Collective",
    "final_address": "57 Neron Pl",
    "address_councildis": "A",
    "status": "Pending",
    "rowid": "1267911",
    "final_x": "3665724.89229",
    "final_y": "530234.953729",
    "longitude": "-90.11792567332182",
    "latitude": "29.95243176609284",
    "geocoded_column": {
      "latitude": "29.95243176609284",
      "longitude": "-90.11792567332182"
    }
  },
  {
    "service_request": "2026-1267910",
    "request_type": "Trash/Recycling",
    "request_reason": "Request a Large Item Pick Up",
    "date_created": "2026-03-23T15:35:06.000",
    "date_modified": "2026-03-23T15:35:13.000",
    "request_status": "Pending",
    "responsible_agency": "Department of Sanitation",
    "final_address": "11040 Roger Dr",
    "address_councildis": "E",
    "status": "Assigned to Contractor",
    "contractor": "Waste Pro",
    "rowid": "1267910",
    "final_x": "3712397.49253",
    "final_y": "563579.453024",
    "longitude": "-89.96930310364468",
    "latitude": "30.042672594059926",
    "geocoded_column": {
      "latitude": "30.042672594059926",
      "longitude": "-89.96930310364468"
    }
  },
  {
    "service_request": "2026-1267909",
    "request_type": "Trash/Recycling",
    "request_reason": "Repair Trash Cart",
    "date_created": "2026-03-23T15:34:39.000",
    "date_modified": "2026-03-23T15:34:41.000",
    "request_status": "Pending",
    "responsible_agency": "Department of Sanitation",
    "final_address": "5519 Baccich St",
    "address_councildis": "D",
    "status": "Assigned to Contractor",
    "contractor": "IV Waste",
    "rowid": "1267909",
    "final_x": "3687718.68566",
    "final_y": "553521.972887",
    "longitude": "-90.0476544752463",
    "latitude": "30.0158029884097",
    "geocoded_column": {
      "latitude": "30.0158029884097",
      "longitude": "-90.0476544752463"
    }
  },
  {
    "service_request": "2026-1267908",
    "request_type": "Trash/Recycling",
    "request_reason": "Request a Large Item Pick Up",
    "date_created": "2026-03-23T15:33:21.000",
    "date_modified": "2026-03-23T15:38:12.000",
    "request_status": "Pending",
    "responsible_agency": "Department of Sanitation",
    "final_address": "5020 Nottingham Dr",
    "address_councildis": "E",
    "status": "Assigned to Contractor",
    "contractor": "Waste Pro",
    "rowid": "1267908",
    "final_x": "3716290.14751",
    "final_y": "558302.979164",
    "longitude": "-89.95720117055254",
    "latitude": "30.028036427389424",
    "geocoded_column": {
      "latitude": "30.028036427389424",
      "longitude": "-89.95720117055254"
    }
  },
  {
    "service_request": "2026-1267907",
    "request_type": "Trash/Recycling",
    "request_reason": "Request a Large Item Pick Up",
    "date_created": "2026-03-23T15:32:46.000",
    "date_modified": "2026-03-23T15:32:48.000",
    "request_status": "Pending",
    "responsible_agency": "Department of Sanitation",
    "final_address": "4820 Sherwood Dr",
    "address_councildis": "E",
    "status": "Assigned to Contractor",
    "contractor": "Waste Pro",
    "rowid": "1267907",
    "final_x": "3717890.56057",
    "final_y": "557344.090011",
    "longitude": "-89.95218055116217",
    "latitude": "30.025346919496194",
    "geocoded_column": {
      "latitude": "30.025346919496194",
      "longitude": "-89.95218055116217"
    }
  },
  {
    "service_request": "2026-1267906",
    "request_type": "Trash/Recycling",
    "request_reason": "Missed Trash Pick-Up",
    "date_created": "2026-03-23T15:31:55.000",
    "date_modified": "2026-03-23T15:33:20.000",
    "request_status": "Pending",
    "responsible_agency": "Department of Sanitation",
    "final_address": "31 Pinewood Ct",
    "address_councildis": "C",
    "status": "Assigned to Contractor",
    "contractor": "Richards Disposal",
    "rowid": "1267906",
    "final_x": "3695793.58704",
    "final_y": "522879.867195",
    "longitude": "-90.02324847974722",
    "latitude": "29.93129658468893",
    "geocoded_column": {
      "latitude": "29.93129658468893",
      "longitude": "-90.02324847974722"
    }
  },
  {
    "service_request": "2026-1267905",
    "request_type": "Trash/Recycling",
    "request_reason": "Order Second Trash Cart",
    "date_created": "2026-03-23T15:31:27.000",
    "date_modified": "2026-03-23T15:31:29.000",
    "request_status": "Pending",
    "responsible_agency": "Department of Sanitation",
    "final_address": "65 Grand Canyon Dr",
    "address_councildis": "C",
    "status": "Assigned to Contractor",
    "contractor": "Richards Disposal",
    "rowid": "1267905",
    "final_x": "3699088.94877",
    "final_y": "516070.570996",
    "longitude": "-90.01309317849206",
    "latitude": "29.91246933587103",
    "geocoded_column": {
      "latitude": "29.91246933587103",
      "longitude": "-90.01309317849206"
    }
  },
  {
    "service_request": "2026-1267904",
    "request_type": "Street and Traffic Signs",
    "request_reason": "Traffic or Parking Sign Damaged or Missing",
    "date_created": "2026-03-23T15:30:59.000",
    "date_modified": "2026-03-23T15:31:01.000",
    "request_status": "Pending",
    "responsible_agency": "Department of Public Works",
    "final_address": "755 N Claiborne Ave",
    "address_councildis": "C",
    "status": "Pending",
    "rowid": "1267904",
    "final_x": "3679826.14959",
    "final_y": "534842.63527",
    "longitude": "-90.07324035915889",
    "latitude": "29.964682517829132",
    "geocoded_column": {
      "latitude": "29.964682517829132",
      "longitude": "-90.07324035915889"
    }
  },
  {
    "service_request": "2026-1267903",
    "request_type": "Trash/Recycling",
    "request_reason": "Illegal Dumping",
    "date_created": "2026-03-23T15:30:35.000",
    "date_modified": "2026-03-23T15:30:48.000",
    "request_status": "Pending",
    "responsible_agency": "Department of Sanitation",
    "final_address": "4800 BLK Majestic Oaks Dr",
    "address_councildis": "D",
    "status": "Pending",
    "rowid": "1267903",
    "final_x": "3697693.58948",
    "final_y": "554791.29342",
    "longitude": "-90.01609235187654",
    "latitude": "30.018981622188065",
    "geocoded_column": {
      "latitude": "30.018981622188065",
      "longitude": "-90.01609235187654"
    }
  },
  {
    "service_request": "2026-1267902",
    "request_type": "Abandoned Vehicles",
    "request_reason": "Abandoned/Junk Vehicles",
    "date_created": "2026-03-23T15:30:28.000",
    "date_modified": "2026-03-23T15:30:29.000",
    "request_status": "Pending",
    "responsible_agency": "Department of Public Works",
    "final_address": "3250 Hyman Pl",
    "address_councildis": "C",
    "status": "Pending",
    "rowid": "1267902",
    "final_x": "3701013.99453",
    "final_y": "519137.460343",
    "longitude": "-90.00690518281681",
    "latitude": "29.92084110488005",
    "geocoded_column": {
      "latitude": "29.92084110488005",
      "longitude": "-90.00690518281681"
    }
  },
  {
    "service_request": "2026-1267901",
    "request_type": "Street and Traffic Signs",
    "request_reason": "Traffic or Parking Sign Damaged or Missing",
    "date_created": "2026-03-23T15:24:37.000",
    "date_modified": "2026-03-23T15:26:02.000",
    "request_status": "Pending",
    "responsible_agency": "Department of Public Works",
    "final_address": "OKEEFE AVE & LAFAYETTE ST",
    "address_councildis": "B",
    "status": "Pending",
    "rowid": "1267901",
    "final_x": "3679446.1",
    "final_y": "529190.88",
    "longitude": "-90.07463658656482",
    "latitude": "29.949153587277227",
    "geocoded_column": {
      "latitude": "29.949153587277227",
      "longitude": "-90.07463658656482"
    }
  },
  {
    "service_request": "2026-1267900",
    "request_type": "Trash/Recycling",
    "request_reason": "Request a Large Item Pick Up",
    "date_created": "2026-03-23T15:24:25.000",
    "date_modified": "2026-03-23T15:24:32.000",
    "request_status": "Pending",
    "responsible_agency": "Department of Sanitation",
    "final_address": "5121 Clara St",
    "address_councildis": "B",
    "status": "Assigned to Contractor",
    "contractor": "IV Waste",
    "rowid": "1267900",
    "final_x": "3668317.05601",
    "final_y": "524957.116413",
    "longitude": "-90.10991871076932",
    "latitude": "29.937843567285668",
    "geocoded_column": {
      "latitude": "29.937843567285668",
      "longitude": "-90.10991871076932"
    }
  },
  {
    "service_request": "2026-1267899",
    "request_type": "Trash/Recycling",
    "request_reason": "Request a Large Item Pick Up",
    "date_created": "2026-03-23T15:23:50.000",
    "date_modified": "2026-03-23T15:23:57.000",
    "request_status": "Pending",
    "responsible_agency": "Department of Sanitation",
    "final_address": "7621 Freret St",
    "address_councildis": "A",
    "status": "Assigned to Contractor",
    "contractor": "IV Waste",
    "rowid": "1267899",
    "final_x": "3662717.36013",
    "final_y": "526799.850302",
    "longitude": "-90.12753627234147",
    "latitude": "29.943073708932975",
    "geocoded_column": {
      "latitude": "29.943073708932975",
      "longitude": "-90.12753627234147"
    }
  },
  {
    "service_request": "2026-1267898",
    "request_type": "Trash/Recycling",
    "request_reason": "Request a Large Item Pick Up",
    "date_created": "2026-03-23T15:19:11.000",
    "date_modified": "2026-03-23T15:19:12.000",
    "request_status": "Pending",
    "responsible_agency": "Department of Sanitation",
    "final_address": "1503 N Miro St",
    "address_councildis": "D",
    "status": "Assigned to Contractor",
    "contractor": "IV Waste",
    "rowid": "1267898",
    "final_x": "3680027.71592",
    "final_y": "538546.210121",
    "longitude": "-90.07247513062957",
    "latitude": "29.974859980261783",
    "geocoded_column": {
      "latitude": "29.974859980261783",
      "longitude": "-90.07247513062957"
    }
  },
  {
    "service_request": "2026-1267897",
    "request_type": "Graffiti Removal",
    "request_reason": "Graffiti Removal",
    "date_created": "2026-03-23T15:14:52.000",
    "date_modified": "2026-03-23T15:14:54.000",
    "request_status": "Pending",
    "responsible_agency": "Department of Code Enforcement",
    "final_address": "3600 BLK Desaix Blvd",
    "address_councildis": "A",
    "status": "Pending",
    "rowid": "1267897",
    "final_x": "3675543.71384",
    "final_y": "543676.223787",
    "longitude": "-90.08646045327718",
    "latitude": "29.989100658818682",
    "geocoded_column": {
      "latitude": "29.989100658818682",
      "longitude": "-90.08646045327718"
    }
  },
  {
    "service_request": "2026-1267896",
    "request_type": "Property Maintenance",
    "request_reason": "Property Maintenance",
    "date_created": "2026-03-23T15:13:54.000",
    "date_modified": "2026-03-23T15:13:55.000",
    "request_status": "Pending",
    "responsible_agency": "Department of Code Enforcement",
    "final_address": "3517 Danneel St",
    "address_councildis": "B",
    "status": "Pending",
    "rowid": "1267896",
    "final_x": "3673107.54932",
    "final_y": "522693.757818",
    "longitude": "-90.09487193736092",
    "latitude": "29.931478555301858",
    "geocoded_column": {
      "latitude": "29.931478555301858",
      "longitude": "-90.09487193736092"
    }
  },
  {
    "service_request": "2026-1267895",
    "request_type": "Trash/Recycling",
    "request_reason": "Request a Large Item Pick Up",
    "date_created": "2026-03-23T15:13:34.000",
    "date_modified": "2026-03-23T15:13:35.000",
    "request_status": "Pending",
    "responsible_agency": "Department of Sanitation",
    "final_address": "925 Flood St",
    "address_councildis": "E",
    "status": "Assigned to Contractor",
    "contractor": "Waste Pro",
    "rowid": "1267895",
    "final_x": "3697612.67952",
    "final_y": "533250.631748",
    "longitude": "-90.0171297983961",
    "latitude": "29.959755253047188",
    "geocoded_column": {
      "latitude": "29.959755253047188",
      "longitude": "-90.0171297983961"
    }
  },
  {
    "service_request": "2026-1267894",
    "request_type": "Trash/Recycling",
    "request_reason": "Request a Large Item Pick Up",
    "date_created": "2026-03-23T15:10:05.000",
    "date_modified": "2026-03-23T15:10:06.000",
    "request_status": "Pending",
    "responsible_agency": "Department of Sanitation",
    "final_address": "4918 S Liberty St",
    "address_councildis": "B",
    "status": "Assigned to Contractor",
    "contractor": "IV Waste",
    "rowid": "1267894",
    "final_x": "3668949.9371",
    "final_y": "523103.705723",
    "longitude": "-90.1079832214802",
    "latitude": "29.932728687686755",
    "geocoded_column": {
      "latitude": "29.932728687686755",
      "longitude": "-90.1079832214802"
    }
  },
  {
    "service_request": "2026-1267893",
    "request_type": "Trash/Recycling",
    "request_reason": "Order Second Trash Cart",
    "date_created": "2026-03-23T15:09:48.000",
    "date_modified": "2026-03-23T15:09:50.000",
    "request_status": "Pending",
    "responsible_agency": "Department of Sanitation",
    "final_address": "228 Topaz St",
    "address_councildis": "D",
    "status": "Assigned to Contractor",
    "contractor": "IV Waste",
    "rowid": "1267893",
    "final_x": "3667362.94631",
    "final_y": "556300.727578",
    "longitude": "-90.11187607626445",
    "latitude": "30.024055888261337",
    "geocoded_column": {
      "latitude": "30.024055888261337",
      "longitude": "-90.11187607626445"
    }
  },
  {
    "service_request": "2026-1267892",
    "request_type": "Trash/Recycling",
    "request_reason": "Request a Large Item Pick Up",
    "date_created": "2026-03-23T15:08:15.000",
    "date_modified": "2026-03-23T15:08:16.000",
    "request_status": "Pending",
    "responsible_agency": "Department of Sanitation",
    "final_address": "7822 Colapissa St",
    "address_councildis": "B",
    "status": "Assigned to Contractor",
    "contractor": "IV Waste",
    "rowid": "1267892",
    "final_x": "3667180.38151",
    "final_y": "532762.21658",
    "longitude": "-90.11324491681297",
    "latitude": "29.959338380198897",
    "geocoded_column": {
      "latitude": "29.959338380198897",
      "longitude": "-90.11324491681297"
    }
  },
  {
    "service_request": "2026-1267891",
    "request_type": "Trash/Recycling",
    "request_reason": "Request a Large Item Pick Up",
    "date_created": "2026-03-23T15:07:11.000",
    "date_modified": "2026-03-23T15:07:53.000",
    "request_status": "Pending",
    "responsible_agency": "Department of Sanitation",
    "final_address": "1332 Port St",
    "address_councildis": "C",
    "status": "Assigned to Contractor",
    "contractor": "IV Waste",
    "rowid": "1267891",
    "final_x": "3687650.3615",
    "final_y": "537395.607496",
    "longitude": "-90.04844170008121",
    "latitude": "29.971463389879723",
    "geocoded_column": {
      "latitude": "29.971463389879723",
      "longitude": "-90.04844170008121"
    }
  },
  {
    "service_request": "2026-1267890",
    "request_type": "Trash/Recycling",
    "request_reason": "Request a Large Item Pick Up",
    "date_created": "2026-03-23T15:02:14.000",
    "date_modified": "2026-03-23T15:02:25.000",
    "request_status": "Pending",
    "responsible_agency": "Department of Sanitation",
    "final_address": "1329 Behrman Ave",
    "address_councildis": "C",
    "status": "Assigned to Contractor",
    "contractor": "Richards Disposal",
    "rowid": "1267890",
    "final_x": "3691327.20656",
    "final_y": "526383.906238",
    "longitude": "-90.03722310451181",
    "latitude": "29.941071158682828",
    "geocoded_column": {
      "latitude": "29.941071158682828",
      "longitude": "-90.03722310451181"
    }
  },
  {
    "service_request": "2026-1267889",
    "request_type": "Trash/Recycling",
    "request_reason": "Request a Large Item Pick Up",
    "date_created": "2026-03-23T15:01:27.000",
    "date_modified": "2026-03-23T15:01:43.000",
    "request_status": "Pending",
    "responsible_agency": "Department of Sanitation",
    "final_address": "4945 Bright Dr",
    "address_councildis": "E",
    "status": "Assigned to Contractor",
    "contractor": "Waste Pro",
    "rowid": "1267889",
    "final_x": "3715808.54776",
    "final_y": "557849.080347",
    "longitude": "-89.95874018393276",
    "latitude": "30.0268042814612",
    "geocoded_column": {
      "latitude": "30.0268042814612",
      "longitude": "-89.95874018393276"
    }
  },
  {
    "service_request": "2026-1267888",
    "request_type": "Drainage",
    "request_reason": "Catch Basin Not Draining",
    "date_created": "2026-03-23T15:01:04.000",
    "date_modified": "2026-03-23T15:01:15.000",
    "request_status": "Pending",
    "responsible_agency": "Sewerage & Water Board",
    "final_address": "7627 St Charles Ave",
    "address_councildis": "A",
    "status": "Pending",
    "rowid": "1267888",
    "final_x": "3661781.03904",
    "final_y": "525819.338429",
    "longitude": "-90.13052498079325",
    "latitude": "29.940404672599303",
    "geocoded_column": {
      "latitude": "29.940404672599303",
      "longitude": "-90.13052498079325"
    }
  },
  {
    "service_request": "2026-1267887",
    "request_type": "Property Maintenance",
    "request_reason": "Property Maintenance",
    "date_created": "2026-03-23T15:00:46.000",
    "date_modified": "2026-03-23T15:00:47.000",
    "request_status": "Pending",
    "responsible_agency": "Department of Code Enforcement",
    "final_address": "1800 BLK Felicity St",
    "address_councildis": "B",
    "status": "Pending",
    "rowid": "1267887",
    "final_x": "3677726.59595",
    "final_y": "525326.979974",
    "longitude": "-90.08019924274255",
    "latitude": "29.93858096865835",
    "geocoded_column": {
      "latitude": "29.93858096865835",
      "longitude": "-90.08019924274255"
    }
  },
  {
    "service_request": "2026-1267886",
    "request_type": "Streetlights",
    "request_reason": "Streetlight Outage/Malfunction",
    "date_created": "2026-03-23T14:59:57.000",
    "date_modified": "2026-03-23T15:07:49.000",
    "request_status": "Pending",
    "responsible_agency": "Department of Public Works",
    "final_address": "11600 BLK Barrington Dr W",
    "address_councildis": "E",
    "status": "Pending",
    "rowid": "1267886",
    "final_x": "3713703.77826",
    "final_y": "565325.717889",
    "longitude": "-89.9651088625961",
    "latitude": "30.04743129346974",
    "geocoded_column": {
      "latitude": "30.04743129346974",
      "longitude": "-89.9651088625961"
    }
  },
  {
    "service_request": "2026-1267885",
    "request_type": "Abandoned Vehicles",
    "request_reason": "Abandoned/Junk Vehicles",
    "date_created": "2026-03-23T14:58:28.000",
    "date_modified": "2026-03-23T14:58:30.000",
    "request_status": "Pending",
    "responsible_agency": "Department of Public Works",
    "final_address": "1040 Marengo St",
    "address_councildis": "B",
    "status": "Pending",
    "rowid": "1267885",
    "final_x": "3672045.81678",
    "final_y": "519586.313976",
    "longitude": "-90.09832943883033",
    "latitude": "29.92296559284555",
    "geocoded_column": {
      "latitude": "29.92296559284555",
      "longitude": "-90.09832943883033"
    }
  },
  {
    "service_request": "2026-1267884",
    "request_type": "Trash/Recycling",
    "request_reason": "Illegal Dumping",
    "date_created": "2026-03-23T14:58:00.000",
    "date_modified": "2026-03-23T14:58:01.000",
    "request_status": "Pending",
    "responsible_agency": "Department of Sanitation",
    "final_address": "I 10 E SERVICE RD & BULLARD AVE",
    "address_councildis": "E",
    "status": "Pending",
    "rowid": "1267884",
    "final_x": "3715235.2",
    "final_y": "564450.98",
    "longitude": "-89.96030190850308",
    "latitude": "30.04497575063798",
    "geocoded_column": {
      "latitude": "30.04497575063798",
      "longitude": "-89.96030190850308"
    }
  },
  {
    "service_request": "2026-1267883",
    "request_type": "Property Maintenance",
    "request_reason": "Property Maintenance",
    "date_created": "2026-03-23T14:57:41.000",
    "date_modified": "2026-03-23T14:57:55.000",
    "request_status": "Pending",
    "responsible_agency": "Department of Code Enforcement",
    "final_address": "2264 Odin St",
    "address_councildis": "D",
    "status": "Pending",
    "rowid": "1267883",
    "final_x": "3684331.05161",
    "final_y": "553054.595991",
    "longitude": "-90.05837428619448",
    "latitude": "30.014621953251467",
    "geocoded_column": {
      "latitude": "30.014621953251467",
      "longitude": "-90.05837428619448"
    }
  },
  {
    "service_request": "2026-1267882",
    "request_type": "Streetlights",
    "request_reason": "Streetlight Outage/Malfunction",
    "date_created": "2026-03-23T14:57:27.000",
    "date_modified": "2026-03-23T14:57:46.000",
    "request_status": "Pending",
    "responsible_agency": "Department of Public Works",
    "final_address": "I 10 E SERVICE RD & WRIGHT RD",
    "address_councildis": "E",
    "status": "Pending",
    "rowid": "1267882",
    "final_x": "3712889.7",
    "final_y": "563191.28",
    "longitude": "-89.96776216765699",
    "latitude": "30.041589154491284",
    "geocoded_column": {
      "latitude": "30.041589154491284",
      "longitude": "-89.96776216765699"
    }
  },
  {
    "service_request": "2026-1267881",
    "request_type": "Street and Traffic Signs",
    "request_reason": "Additional Signage Request",
    "date_created": "2026-03-23T14:57:03.000",
    "date_modified": "2026-03-23T14:57:05.000",
    "request_status": "Pending",
    "responsible_agency": "Department of Public Works",
    "final_address": "1404 Hero Blvd",
    "address_councildis": "C",
    "status": "Pending",
    "rowid": "1267881",
    "final_x": "3689358.96207",
    "final_y": "523488.061883",
    "longitude": "-90.0435401074621",
    "latitude": "29.933169638808742",
    "geocoded_column": {
      "latitude": "29.933169638808742",
      "longitude": "-90.0435401074621"
    }
  },
  {
    "service_request": "2026-1267880",
    "request_type": "Property Maintenance",
    "request_reason": "Property Maintenance",
    "date_created": "2026-03-23T14:56:35.000",
    "date_modified": "2026-03-23T14:56:37.000",
    "request_status": "Pending",
    "responsible_agency": "Department of Code Enforcement",
    "final_address": "2258 Odin St",
    "address_councildis": "D",
    "status": "Pending",
    "rowid": "1267880",
    "final_x": "3684279.22261",
    "final_y": "553050.277975",
    "longitude": "-90.0585381920623",
    "latitude": "30.01461166588153",
    "geocoded_column": {
      "latitude": "30.01461166588153",
      "longitude": "-90.0585381920623"
    }
  },
  {
    "service_request": "2026-1267879",
    "request_type": "Roads and Streets",
    "request_reason": "Pothole",
    "date_created": "2026-03-23T14:55:32.000",
    "date_modified": "2026-03-23T14:55:33.000",
    "request_status": "Pending",
    "responsible_agency": "Department of Public Works",
    "final_address": "1404 Hero Blvd",
    "address_councildis": "C",
    "status": "Pending",
    "rowid": "1267879",
    "final_x": "3689358.96207",
    "final_y": "523488.061883",
    "longitude": "-90.0435401074621",
    "latitude": "29.933169638808742",
    "geocoded_column": {
      "latitude": "29.933169638808742",
      "longitude": "-90.0435401074621"
    }
  },
  {
    "service_request": "2026-1267878",
    "request_type": "Property Maintenance",
    "request_reason": "Property Maintenance",
    "date_created": "2026-03-23T14:54:00.000",
    "date_modified": "2026-03-23T14:54:01.000",
    "request_status": "Pending",
    "responsible_agency": "Department of Code Enforcement",
    "final_address": "866 Allen Toussaint Blvd",
    "address_councildis": "A",
    "status": "Pending",
    "rowid": "1267878",
    "final_x": "3670435.00545",
    "final_y": "554443.033624",
    "longitude": "-90.10223199271834",
    "latitude": "30.018857490432296",
    "geocoded_column": {
      "latitude": "30.018857490432296",
      "longitude": "-90.10223199271834"
    }
  },