[
  {
    "service_request": "2022-869315",
    "request_type": "Trash/Recycling",
    "request_reason": "MIssed Recycling Pick-Up",
    "date_created": "2022-03-23T23:54:36.000",
    "date_modified": "2022-03-23T23:54:37.000",
    "request_status": "Pending",
    "responsible_agency": "Department of Sanitation",
    "final_address": "2206 Ursulines Ave",
    "address_councildis": "D",
    "status": "Assigned to Contractor",
    "contractor": "Richards Disposal",
    "rowid": "869315",
    "final_x": "3679167.87272",
    "final_y": "536880.164936",
    "longitude": "-90.07524850507848",
    "latitude": "29.970304916736975",
    "geocoded_column": {
      "latitude": "29.970304916736975",
      "longitude": "-90.07524850507848"
    }
  },
  {
    "service_request": "2022-869314",
    "request_type": "Roads/Drainage",
    "request_reason": "Man hole cover issue",
    "date_created": "2022-03-23T21:56:51.000",
    "date_modified": "2022-03-23T21:56:51.000",
    "request_status": "Pending",
    "responsible_agency": "Department of Public Works",
    "final_address": "1521 Oretha Castle Haley Blvd",
    "address_councildis": "B",
    "status": "Pending",
    "rowid": "869314",
    "final_x": "3677874.39554",
    "final_y": "526109.790974",
    "longitude": "-90.07970558477592",
    "latitude": "29.94072899513476",
    "geocoded_column": {
      "latitude": "29.94072899513476",
      "longitude": "-90.07970558477592"
    }
  },
  {
    "service_request": "2022-869313",
    "request_type": "Trash/Recycling",
    "request_reason": "Request a Large Item Pick Up",
    "date_created": "2022-03-23T21:50:06.000",
    "date_modified": "2022-03-23T21:50:07.000",
    "request_status": "Pending",
    "responsible_agency": "Department of Sanitation",
    "final_address": "6950 Canal Blvd",
    "address_councildis": "A",
    "status": "Assigned to Contractor",
    "contractor": "Metro Disposal",
    "rowid": "869313",
    "final_x": "3668903.7963",
    "final_y": "553749.221847",
    "longitude": "-90.10709354674012",
    "latitude": "30.01699490051345",
    "geocoded_column": {
      "latitude": "30.01699490051345",
      "longitude": "-90.10709354674012"
    }
  },
  {
    "service_request": "2022-869312",
    "request_type": "Trash/Recycling",
    "request_reason": "Missed Trash Pick-Up",
    "date_created": "2022-03-23T21:18:18.000",
    "date_modified": "2022-03-23T21:18:19.000",
    "request_status": "Pending",
    "responsible_agency": "Department of Sanitation",
    "final_address": "7410 Finchley Rd",
    "address_councildis": "E",
    "status": "Assigned to Contractor",
    "contractor": "Metro Disposal",
    "rowid": "869312",
    "final_x": "3712280.16907",
    "final_y": "565088.255906",
    "longitude": "-89.96961713798261",
    "latitude": "30.046825032987662",
    "geocoded_column": {
      "latitude": "30.046825032987662",
      "longitude": "-89.96961713798261"
    }
  },
  {
    "service_request": "2022-869311",
    "request_type": "Traffic Signals/Signs/Striping/Streetlights",
    "request_reason": "Street Light Outage/Malfunction",
    "date_created": "2022-03-23T21:06:05.000",
    "date_modified": "2022-03-23T21:06:06.000",
    "request_status": "Pending",
    "responsible_agency": "Department of Public Works",
    "final_address": "523 General Pershing St",
    "address_councildis": "B",
    "status": "Pending",
    "contractor": "Royal Engineering",
    "rowid": "869311",
    "final_x": "3671599.06638",
    "final_y": "517696.705974",
    "longitude": "-90.09980387159172",
    "latitude": "29.917783004198352",
    "geocoded_column": {
      "latitude": "29.917783004198352",
      "longitude": "-90.09980387159172"
    }
  },
  {
    "service_request": "2022-869310",
    "request_type": "Trash/Recycling",
    "request_reason": "MIssed Recycling Pick-Up",
    "date_created": "2022-03-23T21:04:19.000",
    "date_modified": "2022-03-23T21:04:20.000",
    "request_status": "Pending",
    "responsible_agency": "Department of Sanitation",
    "final_address": "1000 Harmony St",
    "address_councildis": "B",
    "status": "Assigned to Contractor",
    "contractor": "Richards Disposal",
    "rowid": "869310",
    "final_x": "3675932.62408",
    "final_y": "519681.881016",
    "longitude": "-90.08605700449877",
    "latitude": "29.923112608156774",
    "geocoded_column": {
      "latitude": "29.923112608156774",
      "longitude": "-90.08605700449877"
    }
  },
  {
    "service_request": "2022-869309",
    "request_type": "Roads/Drainage",
    "request_reason": "Street Subsidence (Sinking)",
    "date_created": "2022-03-23T20:41:42.000",
    "date_modified": "2022-03-23T20:41:42.000",
    "request_status": "Pending",
    "responsible_agency": "Department of Public Works",
    "final_address": "4534 Charlene Dr",
    "address_councildis": "E",
    "status": "Pending",
    "rowid": "869309",
    "final_x": "3707966.61553",
    "final_y": "554313.803224",
    "longitude": "-89.98365124902055",
    "latitude": "30.01733998483184",
    "geocoded_column": {
      "latitude": "30.01733998483184",
      "longitude": "-89.98365124902055"
    }
  },
  {
    "service_request": "2022-869308",
    "request_type": "Trash/Recycling",
    "request_reason": "Missed Trash Pick-Up",
    "date_created": "2022-03-23T20:25:16.000",
    "date_modified": "2022-03-23T20:25:16.000",
    "request_status": "Pending",
    "responsible_agency": "Department of Sanitation",
    "final_address": "1504 Audubon St",
    "address_councildis": "A",
    "status": "Assigned to Contractor",
    "contractor": "Richards Disposal",
    "rowid": "869308",
    "final_x": "3664993.24967",
    "final_y": "527269.065215",
    "longitude": "-90.12033501423724",
    "latitude": "29.94429784908256",
    "geocoded_column": {
      "latitude": "29.94429784908256",
      "longitude": "-90.12033501423724"
    }
  },
  {
    "service_request": "2022-869307",
    "request_type": "Property Maintenance",
    "request_reason": "Property Maintenance",
    "date_created": "2022-03-23T20:11:42.000",
    "date_modified": "2022-03-23T20:11:42.000",
    "request_status": "Pending",
    "responsible_agency": "Department of Code Enforcement",
    "final_address": "1518 N Robertson St",
    "address_councildis": "C",
    "status": "Pending",
    "rowid": "869307",
    "final_x": "3682169.06716",
    "final_y": "537061.151176",
    "longitude": "-90.06576409282519",
    "latitude": "29.970711618772757",
    "geocoded_column": {
      "latitude": "29.970711618772757",
      "longitude": "-90.06576409282519"
    }
  },
  {
    "service_request": "2022-869306",
    "request_type": "Traffic Signals/Signs/Striping/Streetlights",
    "request_reason": "Street Light Outage/Malfunction",
    "date_created": "2022-03-23T20:08:18.000",
    "date_modified": "2022-03-23T20:08:19.000",
    "request_status": "Pending",
    "responsible_agency": "Department of Public Works",
    "final_address": "312 22Nd St",
    "address_councildis": "A",
    "status": "Pending",
    "contractor": "Royal Engineering",
    "rowid": "869306",
    "final_x": "3665089.15303",
    "final_y": "549281.291859",
    "longitude": "-90.11929586515413",
    "latitude": "30.0048213456796",
    "geocoded_column": {
      "latitude": "30.0048213456796",
      "longitude": "-90.11929586515413"
    }
  },
  {
    "service_request": "2022-869305",
    "request_type": "Property Maintenance",
    "request_reason": "Property Maintenance",
    "date_created": "2022-03-23T20:06:11.000",
    "date_modified": "2022-03-23T20:06:11.000",
    "request_status": "Pending",
    "responsible_agency": "Department of Code Enforcement",
    "final_address": "2645 N Miro St",
    "address_councildis": "D",
    "status": "Pending",
    "rowid": "869305",
    "final_x": "3688379.03983",
    "final_y": "540592.692811",
    "longitude": "-90.04602700047624",
    "latitude": "29.980231758668918",
    "geocoded_column": {
      "latitude": "29.980231758668918",
      "longitude": "-90.04602700047624"
    }
  },
  {
    "service_request": "2022-869304",
    "request_type": "Trash/Recycling",
    "request_reason": "Return Trash Cart",
    "date_created": "2022-03-23T19:56:16.000",
    "date_modified": "2022-03-23T19:56:16.000",
    "request_status": "Pending",
    "responsible_agency": "Department of Sanitation",
    "final_address": "7401 Burke Ave",
    "address_councildis": "E",
    "status": "Assigned to Contractor",
    "contractor": "Metro Disposal",
    "rowid": "869304",
    "final_x": "3705835.08382",
    "final_y": "562342.032095",
    "longitude": "-89.9900886166942",
    "latitude": "30.03948334414461",
    "geocoded_column": {
      "latitude": "30.03948334414461",
      "longitude": "-89.9900886166942"
    }
  },
  {
    "service_request": "2022-869303",
    "request_type": "Trash/Recycling",
    "request_reason": "Missed Trash Pick-Up",
    "date_created": "2022-03-23T19:48:17.000",
    "date_modified": "2022-03-23T19:48:18.000",
    "request_status": "Pending",
    "responsible_agency": "Department of Sanitation",
    "final_address": "1032 Adams St",
    "address_councildis": "A",
    "status": "Assigned to Contractor",
    "contractor": "Richards Disposal",
    "rowid": "869303",
    "final_x": "3662729.62842",
    "final_y": "527087.770495",
    "longitude": "-90.12748797172529",
    "latitude": "29.943865042565374",
    "geocoded_column": {
      "latitude": "29.943865042565374",
      "longitude": "-90.12748797172529"
    }
  },
  {
    "service_request": "2022-869301",
    "request_type": "Roads/Drainage",
    "request_reason": "Pothole",
    "date_created": "2022-03-23T19:22:53.000",
    "date_modified": "2022-03-23T19:22:53.000",
    "request_status": "Pending",
    "responsible_agency": "Department of Public Works",
    "final_address": "8720 Hickory St",
    "address_councildis": "A",
    "status": "Pending",
    "rowid": "869301",
    "final_x": "3661646.9481",
    "final_y": "531455.816195",
    "longitude": "-90.13076156623289",
    "latitude": "29.955907051901747",
    "geocoded_column": {
      "latitude": "29.955907051901747",
      "longitude": "-90.13076156623289"
    }
  },
  {
    "service_request": "2022-869299",
    "request_type": "Property Maintenance",
    "request_reason": "Property Maintenance",
    "date_created": "2022-03-23T19:04:47.000",
    "date_modified": "2022-03-23T19:04:47.000",
    "request_status": "Pending",
    "responsible_agency": "Department of Code Enforcement",
    "final_address": "1418 Hendee St",
    "address_councildis": "C",
    "status": "Pending",
    "rowid": "869299",
    "final_x": "3690763.69513",
    "final_y": "525981.665405",
    "longitude": "-90.03901655227057",
    "latitude": "29.939982648345435",
    "geocoded_column": {
      "latitude": "29.939982648345435",
      "longitude": "-90.03901655227057"
    }
  },
  {
    "service_request": "2022-869298",
    "request_type": "Roads/Drainage",
    "request_reason": "Pothole",
    "date_created": "2022-03-23T19:03:42.000",
    "date_modified": "2022-03-23T19:03:42.000",
    "request_status": "Pending",
    "responsible_agency": "Department of Public Works",
    "final_address": "1800 Monroe St",
    "address_councildis": "A",
    "status": "Pending",
    "rowid": "869298",
    "final_x": "3661793.51027",
    "final_y": "531612.523587",
    "longitude": "-90.13029357608676",
    "latitude": "29.956333716263774",
    "geocoded_column": {
      "latitude": "29.956333716263774",
      "longitude": "-90.13029357608676"
    }
  },
  {
    "service_request": "2022-869297",
    "request_type": "Property Maintenance",
    "request_reason": "Property Maintenance",
    "date_created": "2022-03-23T19:02:53.000",
    "date_modified": "2022-03-23T19:02:53.000",
    "request_status": "Pending",
    "responsible_agency": "Department of Code Enforcement",
    "final_address": "1416 Hendee St",
    "address_councildis": "C",
    "status": "Pending",
    "rowid": "869297",
    "final_x": "3690765.51356",
    "final_y": "526015.53555",
    "longitude": "-90.0390096033379",
    "latitude": "29.94007572321138",
    "geocoded_column": {
      "latitude": "29.94007572321138",
      "longitude": "-90.0390096033379"
    }
  },
  {
    "service_request": "2022-869296",
    "request_type": "Property Maintenance",
    "request_reason": "Property Maintenance",
    "date_created": "2022-03-23T19:00:51.000",
    "date_modified": "2022-03-23T19:00:51.000",
    "request_status": "Pending",
    "responsible_agency": "Department of Code Enforcement",
    "final_address": "1414 Hendee St",
    "address_councildis": "C",
    "status": "Pending",
    "rowid": "869296",
    "final_x": "3690767.33276",
    "final_y": "526049.406462",
    "longitude": "-90.03900265193391",
    "latitude": "29.94016880016084",
    "geocoded_column": {
      "latitude": "29.94016880016084",
      "longitude": "-90.03900265193391"
    }
  },
  {
    "service_request": "2022-869295",
    "request_type": "Trash/Recycling",
    "request_reason": "Request a Large Item Pick Up",
    "date_created": "2022-03-23T18:58:45.000",
    "date_modified": "2022-03-23T18:58:45.000",
    "request_status": "Pending",
    "responsible_agency": "Department of Sanitation",
    "final_address": "1418 Hendee St",
    "address_councildis": "C",
    "status": "Assigned to Contractor",
    "contractor": "Richards Disposal",
    "rowid": "869295",
    "final_x": "3690763.69513",
    "final_y": "525981.665405",
    "longitude": "-90.03901655227057",
    "latitude": "29.939982648345435",
    "geocoded_column": {
      "latitude": "29.939982648345435",
      "longitude": "-90.03901655227057"
    }
  },
  {
    "service_request": "2022-869294",
    "request_type": "Trash/Recycling",
    "request_reason": "Request a Large Item Pick Up",
    "date_created": "2022-03-23T18:57:06.000",
    "date_modified": "2022-03-23T18:57:07.000",
    "request_status": "Pending",
    "responsible_agency": "Department of Sanitation",
    "final_address": "1416 Hendee St",
    "address_councildis": "C",
    "status": "Assigned to Contractor",
    "contractor": "Richards Disposal",
    "rowid": "869294",
    "final_x": "3690765.51356",
    "final_y": "526015.53555",
    "longitude": "-90.0390096033379",
    "latitude": "29.94007572321138",
    "geocoded_column": {
      "latitude": "29.94007572321138",
      "longitude": "-90.0390096033379"
    }
  },
  {
    "service_request": "2022-869293",
    "request_type": "Trash/Recycling",
    "request_reason": "Repair Trash Cart",
    "date_created": "2022-03-23T18:54:50.000",
    "date_modified": "2022-03-23T18:54:51.000",
    "request_status": "Pending",
    "responsible_agency": "Department of Sanitation",
    "final_address": "4827 Friar Tuck Dr",
    "address_councildis": "E",
    "status": "Assigned to Contractor",
    "contractor": "Metro Disposal",
    "rowid": "869293",
    "final_x": "3717786.22969",
    "final_y": "557399.841179",
    "longitude": "-89.95250809430375",
    "latitude": "30.025503670340008",
    "geocoded_column": {
      "latitude": "30.025503670340008",
      "longitude": "-89.95250809430375"
    }
  },
  {
    "service_request": "2022-869292",
    "request_type": "Trash/Recycling",
    "request_reason": "Request a Large Item Pick Up",
    "date_created": "2022-03-23T18:53:51.000",
    "date_modified": "2022-03-23T18:53:52.000",
    "request_status": "Pending",
    "responsible_agency": "Department of Sanitation",
    "final_address": "1412 Hendee St",
    "address_councildis": "C",
    "status": "Assigned to Contractor",
    "contractor": "Richards Disposal",
    "rowid": "869292",
    "final_x": "3690769.26396",
    "final_y": "526083.276542",
    "longitude": "-90.03899534694618",
    "latitude": "29.940261871342354",
    "geocoded_column": {
      "latitude": "29.940261871342354",
      "longitude": "-90.03899534694618"
    }
  },
  {
    "service_request": "2022-869291",
    "request_type": "Trash/Recycling",
    "request_reason": "Replace Trash Cart",
    "date_created": "2022-03-23T18:52:22.000",
    "date_modified": "2022-03-23T18:52:22.000",
    "request_status": "Pending",
    "responsible_agency": "Department of Sanitation",
    "final_address": "8232 Hickory St",
    "address_councildis": "A",
    "status": "Assigned to Contractor",
    "contractor": "Richards Disposal",
    "rowid": "869291",
    "final_x": "3662883.92275",
    "final_y": "530325.635138",
    "longitude": "-90.12689318534419",
    "latitude": "29.952763664864438",
    "geocoded_column": {
      "latitude": "29.952763664864438",
      "longitude": "-90.12689318534419"
    }
  },
  {
    "service_request": "2022-869289",
    "request_type": "Trash/Recycling",
    "request_reason": "Replace Recycling Cart",
    "date_created": "2022-03-23T18:51:24.000",
    "date_modified": "2022-03-23T18:51:24.000",
    "request_status": "Pending",
    "responsible_agency": "Department of Sanitation",
    "final_address": "8232 Hickory St",
    "address_councildis": "A",
    "status": "Pending",
    "rowid": "869289",
    "final_x": "3662883.92275",
    "final_y": "530325.635138",
    "longitude": "-90.12689318534419",
    "latitude": "29.952763664864438",
    "geocoded_column": {
      "latitude": "29.952763664864438",
      "longitude": "-90.12689318534419"
    }
  },
  {
    "service_request": "2022-869288",
    "request_type": "Trash/Recycling",
    "request_reason": "Request a Large Item Pick Up",
    "date_created": "2022-03-23T18:28:52.000",
    "date_modified": "2022-03-23T18:28:53.000",
    "request_status": "Pending",
    "responsible_agency": "Department of Sanitation",
    "final_address": "3310 Upperline St",
    "address_councildis": "B",
    "status": "Assigned to Contractor",
    "contractor": "Richards Disposal",
    "rowid": "869288",
    "final_x": "3669174.82471",
    "final_y": "527153.536831",
    "longitude": "-90.107136451228",
    "latitude": "29.943857802629058",
    "geocoded_column": {
      "latitude": "29.943857802629058",
      "longitude": "-90.107136451228"
    }
  },
  {
    "service_request": "2022-869287",
    "request_type": "Trash/Recycling",
    "request_reason": "Missed Trash Pick-Up",
    "date_created": "2022-03-23T18:20:04.000",
    "date_modified": "2022-03-23T18:20:05.000",
    "request_status": "Pending",
    "responsible_agency": "Department of Sanitation",
    "final_address": "4011 Vincennes Pl",
    "address_councildis": "B",
    "status": "Assigned to Contractor",
    "contractor": "Richards Disposal",
    "rowid": "869287",
    "final_x": "3668500.42439",
    "final_y": "529984.979649",
    "longitude": "-90.10917021603164",
    "latitude": "29.95166317589749",
    "geocoded_column": {
      "latitude": "29.95166317589749",
      "longitude": "-90.10917021603164"
    }
  },
  {
    "service_request": "2022-869285",
    "request_type": "Abandoned Vehicles",
    "request_reason": "Abandoned/Junk Vehicles",
    "date_created": "2022-03-23T17:55:09.000",
    "date_modified": "2022-03-23T17:55:09.000",
    "request_status": "Pending",
    "responsible_agency": "Department of Public Works",
    "final_address": "3859 S Inwood Ave",
    "address_councildis": "C",
    "status": "Pending",
    "rowid": "869285",
    "final_x": "3704983.57604",
    "final_y": "514196.864499",
    "longitude": "-89.99455733621919",
    "latitude": "29.907129216790327",
    "geocoded_column": {
      "latitude": "29.907129216790327",
      "longitude": "-89.99455733621919"
    }
  },
  {
    "service_request": "2022-869284",
    "request_type": "Property Maintenance",
    "request_reason": "Property Maintenance",
    "date_created": "2022-03-23T17:53:06.000",
    "date_modified": "2022-03-23T17:53:06.000",
    "request_status": "Pending",
    "responsible_agency": "Department of Code Enforcement",
    "final_address": "2205 Broadway St",
    "address_councildis": "A",
    "status": "Pending",
    "rowid": "869284",
    "final_x": "3666231.92417",
    "final_y": "529462.503681",
    "longitude": "-90.11635059700842",
    "latitude": "29.95029298161387",
    "geocoded_column": {
      "latitude": "29.95029298161387",
      "longitude": "-90.11635059700842"
    }
  },
  {
    "service_request": "2022-869283",
    "request_type": "Abandoned Vehicles",
    "request_reason": "Abandoned/Junk Vehicles",
    "date_created": "2022-03-23T17:50:57.000",
    "date_modified": "2022-03-23T17:50:57.000",
    "request_status": "Pending",
    "responsible_agency": "Department of Public Works",
    "final_address": "3557 Red Oak Ct",
    "address_councildis": "C",
    "status": "Pending",
    "rowid": "869283",
    "final_x": "3703075.07511",
    "final_y": "513555.203634",
    "longitude": "-90.0006042853977",
    "latitude": "29.905426043154126",
    "geocoded_column": {
      "latitude": "29.905426043154126",
      "longitude": "-90.0006042853977"
    }
  },
  {
    "service_request": "2022-869282",
    "request_type": "Safety & Permits",
    "request_reason": "Licenses & Permits",
    "date_created": "2022-03-23T17:44:38.000",
    "date_modified": "2022-03-23T17:44:38.000",
    "request_status": "Pending",
    "responsible_agency": "Safety and Permits",
    "final_address": "3046 St Peter St",
    "address_councildis": "A",
    "status": "Pending",
    "rowid": "869282",
    "final_x": "3675279.45032",
    "final_y": "537834.632201",
    "longitude": "-90.08749580591306",
    "latitude": "29.973046195849616",
    "geocoded_column": {
      "latitude": "29.973046195849616",
      "longitude": "-90.08749580591306"
    }
  },
  {
    "service_request": "2022-869281",
    "request_type": "Trash/Recycling",
    "request_reason": "Missed Trash Pick-Up",
    "date_created": "2022-03-23T17:44:31.000",
    "date_modified": "2022-03-23T17:44:32.000",
    "request_status": "Pending",
    "responsible_agency": "Department of Sanitation",
    "final_address": "329 Lowerline St",
    "address_councildis": "A",
    "status": "Assigned to Contractor",
    "contractor": "Richards Disposal",
    "rowid": "869281",
    "final_x": "3661536.41658",
    "final_y": "523552.803195",
    "longitude": "-90.13137236076453",
    "latitude": "29.93417947531416",
    "geocoded_column": {
      "latitude": "29.93417947531416",
      "longitude": "-90.13137236076453"
    }
  },
  {
    "service_request": "2022-869280",
    "request_type": "Abandoned Vehicles",
    "request_reason": "Abandoned/Junk Vehicles",
    "date_created": "2022-03-23T17:39:38.000",
    "date_modified": "2022-03-23T17:39:38.000",
    "request_status": "Pending",
    "responsible_agency": "Department of Public Works",
    "final_address": "3015 Jefferson Ave",
    "address_councildis": "B",
    "status": "Pending",
    "rowid": "869280",
    "final_x": "3668533.51815",
    "final_y": "526451.972862",
    "longitude": "-90.10918490081964",
    "latitude": "29.941947583650443",
    "geocoded_column": {
      "latitude": "29.941947583650443",
      "longitude": "-90.10918490081964"
    }
  },
  {
    "service_request": "2022-869279",
    "request_type": "Trash/Recycling",
    "request_reason": "Replace Trash Cart",
    "date_created": "2022-03-23T17:37:50.000",
    "date_modified": "2022-03-23T17:37:51.000",
    "request_status": "Pending",
    "responsible_agency": "Department of Sanitation",
    "final_address": "36 Seaward Ct",
    "address_councildis": "C",
    "status": "Assigned to Contractor",
    "contractor": "Richards Disposal",
    "rowid": "869279",
    "final_x": "3704329.58666",
    "final_y": "522580.215098",
    "longitude": "-89.99631264990215",
    "latitude": "29.930201531327665",
    "geocoded_column": {
      "latitude": "29.930201531327665",
      "longitude": "-89.99631264990215"
    }
  },
  {
    "service_request": "2022-869278",
    "request_type": "Trash/Recycling",
    "request_reason": "Request a Large Item Pick Up",
    "date_created": "2022-03-23T17:37:29.000",
    "date_modified": "2022-03-23T17:37:30.000",
    "request_status": "Pending",
    "responsible_agency": "Department of Sanitation",
    "final_address": "1231 Seville Dr",
    "address_councildis": "D",
    "status": "Assigned to Contractor",
    "contractor": "Metro Disposal",
    "rowid": "869278",
    "final_x": "3677036.87752",
    "final_y": "551182.821973",
    "longitude": "-90.08148494118241",
    "latitude": "30.009696392567847",
    "geocoded_column": {
      "latitude": "30.009696392567847",
      "longitude": "-90.08148494118241"
    }
  },
  {
    "service_request": "2022-869277",
    "request_type": "Traffic Signals/Signs/Striping/Streetlights",
    "request_reason": "Street Light Outage/Malfunction",
    "date_created": "2022-03-23T17:34:24.000",
    "date_modified": "2022-03-23T17:34:24.000",
    "request_status": "Pending",
    "responsible_agency": "Department of Public Works",
    "final_address": "6417 Maumus Ave",
    "address_councildis": "C",
    "status": "Pending",
    "contractor": "Royal Engineering",
    "rowid": "869277",
    "final_x": "3707707.06596",
    "final_y": "516645.029301",
    "longitude": "-89.98587091610644",
    "latitude": "29.913773047333184",
    "geocoded_column": {
      "latitude": "29.913773047333184",
      "longitude": "-89.98587091610644"
    }
  },
  {
    "service_request": "2022-869276",
    "request_type": "Traffic Signals/Signs/Striping/Streetlights",
    "request_reason": "Street Light Outage/Malfunction",
    "date_created": "2022-03-23T17:30:22.000",
    "date_modified": "2022-03-23T17:33:42.000",
    "request_status": "Pending",
    "responsible_agency": "Department of Public Works",
    "final_address": "6417 Maumus Ave",
    "address_councildis": "C",
    "status": "Pending",
    "contractor": "Royal Engineering",
    "rowid": "869276",
    "final_x": "3707707.06596",
    "final_y": "516645.029301",
    "longitude": "-89.98587091610644",
    "latitude": "29.913773047333184",
    "geocoded_column": {
      "latitude": "29.913773047333184",
      "longitude": "-89.98587091610644"
    }
  },
  {
    "service_request": "2022-869275",
    "request_type": "Trash/Recycling",
    "request_reason": "Order Recycling Cart",
    "date_created": "2022-03-23T17:27:32.000",
    "date_modified": "2022-03-23T17:27:32.000",
    "request_status": "Pending",
    "responsible_agency": "Department of Sanitation",
    "final_address": "34 Seaward Ct",
    "address_councildis": "C",
    "status": "Pending",
    "rowid": "869275",
    "final_x": "3704256.51364",
    "final_y": "522614.027962",
    "longitude": "-89.9965420826186",
    "latitude": "29.930296849195475",
    "geocoded_column": {
      "latitude": "29.930296849195475",
      "longitude": "-89.9965420826186"
    }
  },
  {
    "service_request": "2022-869274",
    "request_type": "Traffic Signals/Signs/Striping/Streetlights",
    "request_reason": "Street Light Outage/Malfunction",
    "date_created": "2022-03-23T17:26:37.000",
    "date_modified": "2022-03-23T17:26:37.000",
    "request_status": "Pending",
    "responsible_agency": "Department of Public Works",
    "final_address": "6417 Maumus Ave",
    "address_councildis": "C",
    "status": "Pending",
    "contractor": "Royal Engineering",
    "rowid": "869274",
    "final_x": "3707707.06596",
    "final_y": "516645.029301",
    "longitude": "-89.98587091610644",
    "latitude": "29.913773047333184",
    "geocoded_column": {
      "latitude": "29.913773047333184",
      "longitude": "-89.98587091610644"
    }
  },
  {
    "service_request": "2022-869273",
    "request_type": "Trash/Recycling",
    "request_reason": "Order Recycling Cart",
    "date_created": "2022-03-23T17:07:41.000",
    "date_modified": "2022-03-23T17:07:41.000",
    "request_status": "Pending",
    "responsible_agency": "Department of Sanitation",
    "final_address": "7431 Pitt St",
    "address_councildis": "A",
    "status": "Pending",
    "rowid": "869273",
    "final_x": "3661165.38176",
    "final_y": "523590.501499",
    "longitude": "-90.13254246396683",
    "latitude": "29.934293830513166",
    "geocoded_column": {
      "latitude": "29.934293830513166",
      "longitude": "-90.13254246396683"
    }
  },
  {
    "service_request": "2022-869272",
    "request_type": "Trash/Recycling",
    "request_reason": "Repair Trash Cart",
    "date_created": "2022-03-23T17:06:22.000",
    "date_modified": "2022-03-23T17:06:23.000",
    "request_status": "Pending",
    "responsible_agency": "Department of Sanitation",
    "final_address": "2946 Hudson St",
    "address_councildis": "C",
    "status": "Assigned to Contractor",
    "contractor": "Richards Disposal",
    "rowid": "869272",
    "final_x": "3694163.44682",
    "final_y": "520342.0302",
    "longitude": "-90.02848583784917",
    "latitude": "29.92436954248273",
    "geocoded_column": {
      "latitude": "29.92436954248273",
      "longitude": "-90.02848583784917"
    }
  },
  {
    "service_request": "2022-869271",
    "request_type": "Abandoned Vehicles",
    "request_reason": "Abandoned/Junk Vehicles",
    "date_created": "2022-03-23T17:05:49.000",
    "date_modified": "2022-03-23T17:05:49.000",
    "request_status": "Pending",
    "responsible_agency": "Department of Public Works",
    "final_address": "1212 N Gayoso St",
    "address_councildis": "A",
    "status": "Pending",
    "rowid": "869271",
    "final_x": "3676763.55048",
    "final_y": "539421.960906",
    "longitude": "-90.08275401098841",
    "latitude": "29.977366353180507",
    "geocoded_column": {
      "latitude": "29.977366353180507",
      "longitude": "-90.08275401098841"
    }
  },
  {
    "service_request": "2022-869270",
    "request_type": "Trash/Recycling",
    "request_reason": "Repair Recycling Cart",
    "date_created": "2022-03-23T17:04:23.000",
    "date_modified": "2022-03-23T17:04:23.000",
    "request_status": "Pending",
    "responsible_agency": "Department of Sanitation",
    "final_address": "860 Florida Blvd",
    "address_councildis": "A",
    "status": "Pending",
    "rowid": "869270",
    "final_x": "3669316.29134",
    "final_y": "545195.473359",
    "longitude": "-90.10607969478468",
    "latitude": "29.99346293428699",
    "geocoded_column": {
      "latitude": "29.99346293428699",
      "longitude": "-90.10607969478468"
    }
  },
  {
    "service_request": "2022-869269",
    "request_type": "Trash/Recycling",
    "request_reason": "Order Trash Cart",
    "date_created": "2022-03-23T17:01:10.000",
    "date_modified": "2022-03-23T17:01:13.000",
    "request_status": "Pending",
    "responsible_agency": "Department of Sanitation",
    "final_address": "918 N Lopez St",
    "address_councildis": "A",
    "status": "Assigned to Contractor",
    "contractor": "Richards Disposal",
    "rowid": "869269",
    "final_x": "3675824.15137",
    "final_y": "538743.624137",
    "longitude": "-90.08574427491159",
    "latitude": "29.975529317334345",
    "geocoded_column": {
      "latitude": "29.975529317334345",
      "longitude": "-90.08574427491159"
    }
  },
  {
    "service_request": "2022-869268",
    "request_type": "Abandoned Vehicles",
    "request_reason": "Abandoned/Junk Vehicles",
    "date_created": "2022-03-23T17:00:06.000",
    "date_modified": "2022-03-23T17:00:06.000",
    "request_status": "Pending",
    "responsible_agency": "Department of Public Works",
    "final_address": "4028 Palmyra St",
    "address_councildis": "A",
    "status": "Pending",
    "rowid": "869268",
    "final_x": "3670763.11015",
    "final_y": "537522.533896",
    "longitude": "-90.10176992048343",
    "latitude": "29.972322279123205",
    "geocoded_column": {
      "latitude": "29.972322279123205",
      "longitude": "-90.10176992048343"
    }
  },
  {
    "service_request": "2022-869267",
    "request_type": "Abandoned Vehicles",
    "request_reason": "Abandoned/Junk Vehicles",
    "date_created": "2022-03-23T16:48:11.000",
    "date_modified": "2022-03-23T16:48:11.000",
    "request_status": "Pending",
    "responsible_agency": "Department of Public Works",
    "final_address": "518 N Lopez St",
    "address_councildis": "A",
    "status": "Pending",
    "rowid": "869267",
    "final_x": "3674917.71425",
    "final_y": "537543.845832",
    "longitude": "-90.08864821637025",
    "latitude": "29.97225744186525",
    "geocoded_column": {
      "latitude": "29.97225744186525",
      "longitude": "-90.08864821637025"
    }
  },
  {
    "service_request": "2022-869266",
    "request_type": "Traffic Signals/Signs/Striping/Streetlights",
    "request_reason": "Traffic Signal Malfunctioning/Damaged",
    "date_created": "2022-03-23T16:33:21.000",
    "date_modified": "2022-03-23T16:33:21.000",
    "request_status": "Pending",
    "responsible_agency": "Department of Public Works",
    "final_address": "2124 Martin Luther King, Jr. Blvd",
    "address_councildis": "B",
    "status": "Pending",
    "rowid": "869266",
    "final_x": "3677337.11272",
    "final_y": "526631.155198",
    "longitude": "-90.08138389573844",
    "latitude": "29.942178726813733",
    "geocoded_column": {
      "latitude": "29.942178726813733",
      "longitude": "-90.08138389573844"
    }
  },
  {
    "service_request": "2022-869265",
    "request_type": "Trash/Recycling",
    "request_reason": "Request a Large Item Pick Up",
    "date_created": "2022-03-23T16:32:25.000",
    "date_modified": "2022-03-23T16:32:26.000",
    "request_status": "Pending",
    "responsible_agency": "Department of Sanitation",
    "final_address": "4805 Annette St",
    "address_councildis": "D",
    "status": "Assigned to Contractor",
    "contractor": "Metro Disposal",
    "rowid": "869265",
    "final_x": "3682112.60924",
    "final_y": "550208.683476",
    "longitude": "-90.06548296634084",
    "latitude": "30.006864410474634",
    "geocoded_column": {
      "latitude": "30.006864410474634",
      "longitude": "-90.06548296634084"
    }
  },
  {
    "service_request": "2022-869264",
    "request_type": "Traffic Signals/Signs/Striping/Streetlights",
    "request_reason": "Traffic Signal Malfunctioning/Damaged",
    "date_created": "2022-03-23T16:32:23.000",
    "date_modified": "2022-03-23T16:32:23.000",
    "request_status": "Pending",
    "responsible_agency": "Department of Public Works",
    "final_address": "2139 Simon Bolivar Ave",
    "address_councildis": "B",
    "status": "Pending",
    "rowid": "869264",
    "final_x": "3676256.12411",
    "final_y": "525597.949821",
    "longitude": "-90.08483235929397",
    "latitude": "29.939370183986462",
    "geocoded_column": {
      "latitude": "29.939370183986462",
      "longitude": "-90.08483235929397"
    }
  },
  {
    "service_request": "2022-869263",
    "request_type": "Trash/Recycling",
    "request_reason": "Missed Trash Pick-Up",
    "date_created": "2022-03-23T16:29:49.000",
    "date_modified": "2022-03-23T16:29:50.000",
    "request_status": "Pending",
    "responsible_agency": "Department of Sanitation",
    "final_address": "3108 College Ct",
    "address_councildis": "B",
    "status": "Assigned to Contractor",
    "contractor": "Richards Disposal",
    "rowid": "869263",
    "final_x": "3668438.72218",
    "final_y": "531824.666499",
    "longitude": "-90.10930299017294",
    "latitude": "29.956723524055274",
    "geocoded_column": {
      "latitude": "29.956723524055274",
      "longitude": "-90.10930299017294"
    }
  },
  {
    "service_request": "2022-869261",
    "request_type": "Trash/Recycling",
    "request_reason": "Missed Trash Pick-Up",
    "date_created": "2022-03-23T16:22:21.000",
    "date_modified": "2022-03-23T16:22:22.000",
    "request_status": "Pending",
    "responsible_agency": "Department of Sanitation",
    "final_address": "424 Millaudon St",
    "address_councildis": "A",
    "status": "Assigned to Contractor",
    "contractor": "Richards Disposal",
    "rowid": "869261",
    "final_x": "3661986.79482",
    "final_y": "524850.415612",
    "longitude": "-90.1299075009294",
    "latitude": "29.937734501480048",
    "geocoded_column": {
      "latitude": "29.937734501480048",
      "longitude": "-90.1299075009294"
    }
  },
  {
    "service_request": "2022-869260",
    "request_type": "Trash/Recycling",
    "request_reason": "Replace Trash Cart",
    "date_created": "2022-03-23T16:19:47.000",
    "date_modified": "2022-03-23T16:19:47.000",
    "request_status": "Pending",
    "responsible_agency": "Department of Sanitation",
    "final_address": "2005 Rev. John Raphael, Jr. Way",
    "address_councildis": "B",
    "status": "Assigned to Contractor",
    "contractor": "Richards Disposal",
    "rowid": "869260",
    "final_x": "3676214.52193",
    "final_y": "526392.853118",
    "longitude": "-90.08493636056973",
    "latitude": "29.94155715285689",
    "geocoded_column": {
      "latitude": "29.94155715285689",
      "longitude": "-90.08493636056973"
    }
  },
  {
    "service_request": "2022-869259",
    "request_type": "Trash/Recycling",
    "request_reason": "Request a Large Item Pick Up",
    "date_created": "2022-03-23T16:17:40.000",
    "date_modified": "2022-03-23T16:17:41.000",
    "request_status": "Pending",
    "responsible_agency": "Department of Sanitation",
    "final_address": "4941 St Charles Ave",
    "address_councildis": "B",
    "status": "Assigned to Contractor",
    "contractor": "Richards Disposal",
    "rowid": "869259",
    "final_x": "3668782.91809",
    "final_y": "520968.017721",
    "longitude": "-90.10858255388546",
    "latitude": "29.92686113715404",
    "geocoded_column": {
      "latitude": "29.92686113715404",
      "longitude": "-90.10858255388546"
    }
  },
  {
    "service_request": "2022-869258",
    "request_type": "Trash/Recycling",
    "request_reason": "Replace Recycling Cart",
    "date_created": "2022-03-23T16:14:21.000",
    "date_modified": "2022-03-23T16:14:21.000",
    "request_status": "Pending",
    "responsible_agency": "Department of Sanitation",
    "final_address": "New Orleans,LA",
    "status": "Pending",
    "rowid": "869258",
    "longitude": "0.0",
    "latitude": "0.0",
    "geocoded_column": {
      "latitude": "0.0",
      "longitude": "0.0"
    }
  },
  {
    "service_request": "2022-869257",
    "request_type": "Property Maintenance",
    "request_reason": "Property Maintenance",
    "date_created": "2022-03-23T16:11:38.000",
    "date_modified": "2022-03-23T16:11:38.000",
    "request_status": "Pending",
    "responsible_agency": "Department of Code Enforcement",
    "final_address": "7544 Dearborn Rd",
    "address_councildis": "E",
    "status": "Pending",
    "rowid": "869257",
    "final_x": "3709399.79877",
    "final_y": "564349.583713",
    "longitude": "-89.97874815395721",
    "latitude": "30.044887924741058",
    "geocoded_column": {
      "latitude": "30.044887924741058",
      "longitude": "-89.97874815395721"
    }
  },
  {
    "service_request": "2022-869256",
    "request_type": "Traffic Signals/Signs/Striping/Streetlights",
    "request_reason": "Traffic Signal Malfunctioning/Damaged",
    "date_created": "2022-03-23T16:09:15.000",
    "date_modified": "2022-03-23T16:09:15.000",
    "request_status": "Pending",
    "responsible_agency": "Department of Public Works",
    "final_address": "2429 Napoleon Ave",
    "address_councildis": "B",
    "status": "Pending",
    "rowid": "869256",
    "final_x": "3670642.07444",
    "final_y": "523952.882172",
    "longitude": "-90.10261247242894",
    "latitude": "29.935013784163818",
    "geocoded_column": {
      "latitude": "29.935013784163818",
      "longitude": "-90.10261247242894"
    }
  },
  {
    "service_request": "2022-869255",
    "request_type": "Mosquito, Termite & Rodent Control",
    "request_reason": "Rodent Complaint (Rats)",
    "date_created": "2022-03-23T16:05:21.000",
    "date_modified": "2022-03-23T16:05:21.000",
    "request_status": "Pending",
    "responsible_agency": "Mosquito, Termite & Rodent Control Board",
    "final_address": "4601 Dreux Ave",
    "address_councildis": "D",
    "status": "Pending",
    "rowid": "869255",
    "final_x": "3690597.62512",
    "final_y": "553073.567831",
    "longitude": "-90.03857436488255",
    "latitude": "30.014480905645957",
    "geocoded_column": {
      "latitude": "30.014480905645957",
      "longitude": "-90.03857436488255"
    }
  },
  {
    "service_request": "2022-869254",
    "request_type": "Trash/Recycling",
    "request_reason": "Replace Trash Cart",
    "date_created": "2022-03-23T16:03:11.000",
    "date_modified": "2022-03-23T16:03:12.000",
    "request_status": "Pending",
    "responsible_agency": "Department of Sanitation",
    "final_address": "3418 S Robertson St, #B, New Orleans, Louisiana, 70115",
    "status": "Assigned to Contractor",
    "rowid": "869254",
    "longitude": "0.0",
    "latitude": "0.0",
    "geocoded_column": {
      "latitude": "0.0",
      "longitude": "0.0"
    }
  },
  {
    "service_request": "2022-869252",
    "request_type": "Trash/Recycling",
    "request_reason": "Request a Large Item Pick Up",
    "date_created": "2022-03-23T16:02:20.000",
    "date_modified": "2022-03-23T16:02:20.000",
    "request_status": "Pending",
    "responsible_agency": "Department of Sanitation",
    "final_address": "310 Florida Blvd",
    "address_councildis": "A",
    "status": "Assigned to Contractor",
    "contractor": "Metro Disposal",
    "rowid": "869252",
    "final_x": "3666959.51572",
    "final_y": "545426.857744",
    "longitude": "-90.11351662208831",
    "latitude": "29.99416835901886",
    "geocoded_column": {
      "latitude": "29.99416835901886",
      "longitude": "-90.11351662208831"
    }
  },
  {
    "service_request": "2022-869251",
    "request_type": "Safety & Permits",
    "request_reason": "Licenses & Permits",
    "date_created": "2022-03-23T16:00:41.000",
    "date_modified": "2022-03-23T16:00:41.000",
    "request_status": "Pending",
    "responsible_agency": "Safety and Permits",
    "final_address": "1432 N Miro St",
    "address_councildis": "D",
    "status": "Pending",
    "rowid": "869251",
    "final_x": "3679827.35752",
    "final_y": "538112.173897",
    "longitude": "-90.07312298916887",
    "latitude": "29.973672591045514",
    "geocoded_column": {
      "latitude": "29.973672591045514",
      "longitude": "-90.07312298916887"
    }
  },
  {
    "service_request": "2022-869250",
    "request_type": "Abandoned Vehicles",
    "request_reason": "Abandoned/Junk Vehicles",
    "date_created": "2022-03-23T15:59:55.000",
    "date_modified": "2022-03-23T16:02:22.000",
    "request_status": "Pending",
    "responsible_agency": "Department of Public Works",
    "final_address": "PRENTISS AVE & MAJESTIC OAKS DR",
    "address_councildis": "D",
    "status": "Pending",
    "rowid": "869250",
    "final_x": "3697718.8",
    "final_y": "554529.98",
    "longitude": "-90.01602218805417",
    "latitude": "30.018262312360037",
    "geocoded_column": {
      "latitude": "30.018262312360037",
      "longitude": "-90.01602218805417"
    }
  },
  {
    "service_request": "2022-869248",
    "request_type": "Trash/Recycling",
    "request_reason": "Request a Large Item Pick Up",
    "date_created": "2022-03-23T15:56:08.000",
    "date_modified": "2022-03-23T15:56:08.000",
    "request_status": "Pending",
    "responsible_agency": "Department of Sanitation",
    "final_address": "821 Piety St",
    "address_councildis": "C",
    "status": "Assigned to Contractor",
    "contractor": "Metro Disposal",
    "rowid": "869248",
    "final_x": "3689618.53564",
    "final_y": "534812.373062",
    "longitude": "-90.04231785858157",
    "latitude": "29.96429956910372",
    "geocoded_column": {
      "latitude": "29.96429956910372",
      "longitude": "-90.04231785858157"
    }
  },
  {
    "service_request": "2022-869247",
    "request_type": "Trash/Recycling",
    "request_reason": "Request a Large Item Pick Up",
    "date_created": "2022-03-23T15:55:25.000",
    "date_modified": "2022-03-23T15:55:26.000",
    "request_status": "Pending",
    "responsible_agency": "Department of Sanitation",
    "final_address": "2703 Camp St",
    "address_councildis": "B",
    "status": "Assigned to Contractor",
    "contractor": "Richards Disposal",
    "rowid": "869247",
    "final_x": "3677045.3101",
    "final_y": "521321.114553",
    "longitude": "-90.08248819402827",
    "latitude": "29.927586618343053",
    "geocoded_column": {
      "latitude": "29.927586618343053",
      "longitude": "-90.08248819402827"
    }
  },
  {
    "service_request": "2022-869246",
    "request_type": "Traffic Signals/Signs/Striping/Streetlights",
    "request_reason": "Street Light Outage/Malfunction",
    "date_created": "2022-03-23T15:52:40.000",
    "date_modified": "2022-03-23T15:52:41.000",
    "request_status": "Pending",
    "responsible_agency": "Department of Public Works",
    "final_address": "6033 Wales St",
    "address_councildis": "E",
    "status": "Pending",
    "contractor": "Royal Engineering",
    "rowid": "869246",
    "final_x": "3695159.66128",
    "final_y": "559511.963037",
    "longitude": "-90.02392819045004",
    "latitude": "30.032041523895845",
    "geocoded_column": {
      "latitude": "30.032041523895845",
      "longitude": "-90.02392819045004"
    }
  },
  {
    "service_request": "2022-869245",
    "request_type": "Safety & Permits",
    "request_reason": "Licenses & Permits",
    "date_created": "2022-03-23T15:52:25.000",
    "date_modified": "2022-03-23T15:52:25.000",
    "request_status": "Pending",
    "responsible_agency": "Safety and Permits",
    "final_address": "1432 N Miro St",
    "address_councildis": "D",
    "status": "Pending",
    "rowid": "869245",
    "final_x": "3679827.35752",
    "final_y": "538112.173897",
    "longitude": "-90.07312298916887",
    "latitude": "29.973672591045514",
    "geocoded_column": {
      "latitude": "29.973672591045514",
      "longitude": "-90.07312298916887"
    }
  },
  {
    "service_request": "2022-869244",
    "request_type": "Trash/Recycling",
    "request_reason": "Request a Large Item Pick Up",
    "date_created": "2022-03-23T15:50:05.000",
    "date_modified": "2022-03-23T15:50:06.000",
    "request_status": "Pending",
    "responsible_agency": "Department of Sanitation",
    "final_address": "3317 Fourth St",
    "address_councildis": "B",
    "status": "Assigned to Contractor",
    "contractor": "Richards Disposal",
    "rowid": "869244",
    "final_x": "3672779.9122",
    "final_y": "527909.090239",
    "longitude": "-90.09572842324575",
    "latitude": "29.945828754758562",
    "geocoded_column": {
      "latitude": "29.945828754758562",
      "longitude": "-90.09572842324575"
    }
  },
  {
    "service_request": "2022-869243",
    "request_type": "Trash/Recycling",
    "request_reason": "Start Trash Service",
    "date_created": "2022-03-23T15:49:19.000",
    "date_modified": "2022-03-23T15:49:19.000",
    "request_status": "Pending",
    "responsible_agency": "Department of Sanitation",
    "final_address": "2943 Lancaster St",
    "address_councildis": "C",
    "status": "Assigned to Contractor",
    "contractor": "Richards Disposal",
    "rowid": "869243",
    "final_x": "3709976.76696",
    "final_y": "519444.145271",
    "longitude": "-89.97860262701197",
    "latitude": "29.92139605121461",
    "geocoded_column": {
      "latitude": "29.92139605121461",
      "longitude": "-89.97860262701197"
    }
  },
  {
    "service_request": "2022-869242",
    "request_type": "Trash/Recycling",
    "request_reason": "Order Trash Cart",
    "date_created": "2022-03-23T15:49:10.000",
    "date_modified": "2022-03-23T15:49:10.000",
    "request_status": "Pending",
    "responsible_agency": "Department of Sanitation",
    "final_address": "2943 Lancaster St",
    "address_councildis": "C",
    "status": "Assigned to Contractor",
    "contractor": "Richards Disposal",
    "rowid": "869242",
    "final_x": "3709976.76696",
    "final_y": "519444.145271",
    "longitude": "-89.97860262701197",
    "latitude": "29.92139605121461",
    "geocoded_column": {
      "latitude": "29.92139605121461",
      "longitude": "-89.97860262701197"
    }
  },
  {
    "service_request": "2022-869241",
    "request_type": "Trash/Recycling",
    "request_reason": "Request a Large Item Pick Up",
    "date_created": "2022-03-23T15:45:12.000",
    "date_modified": "2022-03-23T15:45:13.000",
    "request_status": "Pending",
    "responsible_agency": "Department of Sanitation",
    "final_address": "6960 General Haig St B",
    "address_councildis": "A",
    "status": "Assigned to Contractor",
    "contractor": "Metro Disposal",
    "rowid": "869241",
    "final_x": "3671034.66593",
    "final_y": "553523.556311",
    "longitude": "-90.10036853447069",
    "latitude": "30.016311525983795",
    "geocoded_column": {
      "latitude": "30.016311525983795",
      "longitude": "-90.10036853447069"
    }
  },
  {
    "service_request": "2022-869240",
    "request_type": "Property Maintenance",
    "request_reason": "Property Maintenance",
    "date_created": "2022-03-23T15:43:15.000",
    "date_modified": "2022-03-23T15:43:15.000",
    "request_status": "Pending",
    "responsible_agency": "Department of Code Enforcement",
    "final_address": "5560 Red Maple Dr",
    "address_councildis": "E",
    "status": "Pending",
    "rowid": "869240",
    "final_x": "3723355.49062",
    "final_y": "563879.375905",
    "longitude": "-89.93466035715694",
    "latitude": "30.04313402847603",
    "geocoded_column": {
      "latitude": "30.04313402847603",
      "longitude": "-89.93466035715694"
    }
  },
  {
    "service_request": "2022-869239",
    "request_type": "Traffic Signals/Signs/Striping/Streetlights",
    "request_reason": "Street Light Outage/Malfunction",
    "date_created": "2022-03-23T15:37:17.000",
    "date_modified": "2022-03-23T15:37:20.000",
    "request_status": "Pending",
    "responsible_agency": "Department of Public Works",
    "final_address": "FLORIDA AVE & ROFFIGNAC ST",
    "address_councildis": "E",
    "status": "Pending",
    "contractor": "Royal Engineering",
    "rowid": "869239",
    "final_x": "3700794.3",
    "final_y": "539437.18",
    "longitude": "-90.00685687157934",
    "latitude": "29.976665156020417",
    "geocoded_column": {
      "latitude": "29.976665156020417",
      "longitude": "-90.00685687157934"
    }
  },
  {
    "service_request": "2022-869238",
    "request_type": "Roads/Drainage",
    "request_reason": "Debris in Roadway",
    "date_created": "2022-03-23T15:37:09.000",
    "date_modified": "2022-03-23T15:37:09.000",
    "request_status": "Pending",
    "responsible_agency": "Department of Public Works",
    "final_address": "1 Richmond Pl",
    "address_councildis": "A",
    "status": "Pending",
    "rowid": "869238",
    "final_x": "3666495.24756",
    "final_y": "523340.779131",
    "longitude": "-90.11572455555122",
    "latitude": "29.933452515339035",
    "geocoded_column": {
      "latitude": "29.933452515339035",
      "longitude": "-90.11572455555122"
    }
  },
  {
    "service_request": "2022-869237",
    "request_type": "Trash/Recycling",
    "request_reason": "Request a Large Item Pick Up",
    "date_created": "2022-03-23T15:36:40.000",
    "date_modified": "2022-03-23T15:36:41.000",
    "request_status": "Pending",
    "responsible_agency": "Department of Sanitation",
    "final_address": "2127 Chippewa St",
    "address_councildis": "B",
    "status": "Assigned to Contractor",
    "contractor": "Richards Disposal",
    "rowid": "869237",
    "final_x": "3679853.81045",
    "final_y": "521042.834233",
    "longitude": "-90.07363209994932",
    "latitude": "29.926736838315264",
    "geocoded_column": {
      "latitude": "29.926736838315264",
      "longitude": "-90.07363209994932"
    }
  },
  {
    "service_request": "2022-869236",
    "request_type": "Traffic Signals/Signs/Striping/Streetlights",
    "request_reason": "Street Light Outage/Malfunction",
    "date_created": "2022-03-23T15:35:37.000",
    "date_modified": "2022-03-23T15:36:07.000",
    "request_status": "Pending",
    "responsible_agency": "Department of Public Works",
    "final_address": "LAW ST & ROFFIGNAC ST",
    "address_councildis": "E",
    "status": "Pending",
    "contractor": "Royal Engineering",
    "rowid": "869236",
    "final_x": "3700651.5",
    "final_y": "539068.38",
    "longitude": "-90.00732135454267",
    "latitude": "29.975655634832876",
    "geocoded_column": {
      "latitude": "29.975655634832876",
      "longitude": "-90.00732135454267"
    }
  },
  {
    "service_request": "2022-869235",
    "request_type": "Trash/Recycling",
    "request_reason": "Order Recycling Cart",
    "date_created": "2022-03-23T15:33:52.000",
    "date_modified": "2022-03-23T15:33:52.000",
    "request_status": "Pending",
    "responsible_agency": "Department of Sanitation",
    "final_address": "4107 Erato St",
    "address_councildis": "B",
    "status": "Pending",
    "rowid": "869235",
    "final_x": "3671372.13313",
    "final_y": "531227.705218",
    "longitude": "-90.10006048745569",
    "latitude": "29.954995589032162",
    "geocoded_column": {
      "latitude": "29.954995589032162",
      "longitude": "-90.10006048745569"
    }
  },
  {
    "service_request": "2022-869234",
    "request_type": "Parks & Parkways",
    "request_reason": "Request Tree Service (Right of Way/Public Property)",
    "date_created": "2022-03-23T15:32:37.000",
    "date_modified": "2022-03-23T15:32:37.000",
    "request_status": "Pending",
    "responsible_agency": "Department of Parks & Parkway",
    "final_address": "2226 Pauline St",
    "address_councildis": "D",
    "status": "Pending",
    "rowid": "869234",
    "final_x": "3692253.58998",
    "final_y": "539824.73473",
    "longitude": "-90.0338170904808",
    "latitude": "29.977999889956138",
    "geocoded_column": {
      "latitude": "29.977999889956138",
      "longitude": "-90.0338170904808"
    }
  },
  {
    "service_request": "2022-869233",
    "request_type": "Trash/Recycling",
    "request_reason": "Request a Large Item Pick Up",
    "date_created": "2022-03-23T15:26:51.000",
    "date_modified": "2022-03-23T15:26:52.000",
    "request_status": "Pending",
    "responsible_agency": "Department of Sanitation",
    "final_address": "2127 Spain St",
    "address_councildis": "D",
    "status": "Assigned to Contractor",
    "contractor": "Metro Disposal",
    "rowid": "869233",
    "final_x": "3685850.61487",
    "final_y": "540333.866891",
    "longitude": "-90.05402194630288",
    "latitude": "29.979597942501403",
    "geocoded_column": {
      "latitude": "29.979597942501403",
      "longitude": "-90.05402194630288"
    }
  },
  {
    "service_request": "2022-869232",
    "request_type": "Trash/Recycling",
    "request_reason": "Missed Trash Pick-Up",
    "date_created": "2022-03-23T15:22:08.000",
    "date_modified": "2022-03-23T15:22:09.000",
    "request_status": "Pending",
    "responsible_agency": "Department of Sanitation",
    "final_address": "1601 S Gayoso St",
    "address_councildis": "B",
    "status": "Assigned to Contractor",
    "contractor": "Richards Disposal",
    "rowid": "869232",
    "final_x": "3670536.67771",
    "final_y": "530549.162882",
    "longitude": "-90.10272155941153",
    "latitude": "29.95315451984352",
    "geocoded_column": {
      "latitude": "29.95315451984352",
      "longitude": "-90.10272155941153"
    }
  },
  {
    "service_request": "2022-869231",
    "request_type": "Trash/Recycling",
    "request_reason": "Illegal Dumping",
    "date_created": "2022-03-23T15:16:10.000",
    "date_modified": "2022-03-23T15:16:10.000",
    "request_status": "Pending",
    "responsible_agency": "Department of Sanitation",
    "final_address": "11000 Lake Forest Blvd",
    "address_councildis": "E",
    "status": "Pending",
    "rowid": "869231",
    "final_x": "3714510.52991",
    "final_y": "560279.968861",
    "longitude": "-89.96274986250283",
    "latitude": "30.033531007192284",
    "geocoded_column": {
      "latitude": "30.033531007192284",
      "longitude": "-89.96274986250283"
    }
  },
  {
    "service_request": "2022-869230",
    "request_type": "Traffic Signals/Signs/Striping/Streetlights",
    "request_reason": "Street Light Knocked Down/Leaning",
    "date_created": "2022-03-23T15:14:22.000",
    "date_modified": "2022-03-23T15:14:25.000",
    "request_status": "Pending",
    "responsible_agency": "Department of Public Works",
    "final_address": "CHEF MENTEUR HWY & DALE ST",
    "address_councildis": "E",
    "status": "Pending",
    "contractor": "Royal Engineering",
    "rowid": "869230",
    "final_x": "3699724.2",
    "final_y": "551982.28",
    "longitude": "-90.00977889450225",
    "latitude": "30.011193557350975",
    "geocoded_column": {
      "latitude": "30.011193557350975",
      "longitude": "-90.00977889450225"
    }
  },
  {
    "service_request": "2022-869229",
    "request_type": "Trash/Recycling",
    "request_reason": "Illegal Dumping",
    "date_created": "2022-03-23T15:13:23.000",
    "date_modified": "2022-03-23T15:13:23.000",
    "request_status": "Pending",
    "responsible_agency": "Department of Sanitation",
    "final_address": "5403 Read Blvd",
    "address_councildis": "E",
    "status": "Pending",
    "rowid": "869229",
    "final_x": "3712655.46238",
    "final_y": "558012.352667",
    "longitude": "-89.96869736193582",
    "latitude": "30.02735684492119",
    "geocoded_column": {
      "latitude": "30.02735684492119",
      "longitude": "-89.96869736193582"
    }
  },
  {
    "service_request": "2022-869228",
    "request_type": "Trash/Recycling",
    "request_reason": "Request a Large Item Pick Up",
    "date_created": "2022-03-23T15:07:36.000",
    "date_modified": "2022-03-23T15:07:39.000",
    "request_status": "Pending",
    "responsible_agency": "Department of Sanitation",
    "final_address": "1821 Piety St",
    "address_councildis": "D",
    "status": "Assigned to Contractor",
    "contractor": "Metro Disposal",
    "rowid": "869228",
    "final_x": "3690571.07964",
    "final_y": "538591.367817",
    "longitude": "-90.03917502830564",
    "latitude": "29.97466092923514",
    "geocoded_column": {
      "latitude": "29.97466092923514",
      "longitude": "-90.03917502830564"
    }
  },
  {
    "service_request": "2022-869227",
    "request_type": "Parks & Parkways",
    "request_reason": "Request Tree Service (Right of Way/Public Property)",
    "date_created": "2022-03-23T15:03:52.000",
    "date_modified": "2022-03-23T15:03:53.000",
    "request_status": "Pending",
    "responsible_agency": "Department of Parks & Parkway",
    "final_address": "LOYOLA AVE & EVERETT PL & RICHMOND PL",
    "address_councildis": "A",
    "status": "Pending",
    "rowid": "869227",
    "final_x": "3666376.9",
    "final_y": "523308.68",
    "longitude": "-90.11609924992071",
    "latitude": "29.933367710412817",
    "geocoded_column": {
      "latitude": "29.933367710412817",
      "longitude": "-90.11609924992071"
    }
  },
  {
    "service_request": "2022-869226",
    "request_type": "Trash/Recycling",
    "request_reason": "Request a Large Item Pick Up",
    "date_created": "2022-03-23T15:02:28.000",
    "date_modified": "2022-03-23T15:02:28.000",
    "request_status": "Pending",
    "responsible_agency": "Department of Sanitation",
    "final_address": "823 Esplanade Ave",
    "address_councildis": "C",
    "status": "Assigned to Contractor",
    "contractor": "Metro Disposal",
    "rowid": "869226",
    "final_x": "3683646.08207",
    "final_y": "534808.17575",
    "longitude": "-90.06117850189773",
    "latitude": "29.96447170490551",
    "geocoded_column": {
      "latitude": "29.96447170490551",
      "longitude": "-90.06117850189773"
    }
  },
  {
    "service_request": "2022-869225",
    "request_type": "Trash/Recycling",
    "request_reason": "Order Recycling Cart",
    "date_created": "2022-03-23T14:58:40.000",
    "date_modified": "2022-03-23T17:01:36.000",
    "request_status": "Pending",
    "responsible_agency": "Department of Sanitation",
    "final_address": "862 Florida Blvd, New Orleans, Louisiana, 70124",
    "address_councildis": "A",
    "rowid": "869225",
    "final_x": "3669330.07943",
    "final_y": "545193.888719",
    "longitude": "-90.10603619387734",
    "latitude": "29.99345817100376",
    "geocoded_column": {
      "latitude": "29.99345817100376",
      "longitude": "-90.10603619387734"
    }
  },
  {
    "service_request": "2022-869224",
    "request_type": "Trash/Recycling",
    "request_reason": "Replace Trash Cart",
    "date_created": "2022-03-23T14:49:08.000",
    "date_modified": "2022-03-23T14:49:09.000",
    "request_status": "Pending",
    "responsible_agency": "Department of Sanitation",
    "final_address": "4501 Sierra Madre Dr",
    "address_councildis": "E",
    "status": "Assigned to Contractor",
    "contractor": "Metro Disposal",
    "rowid": "869224",
    "final_x": "3714081.04267",
    "final_y": "555313.637209",
    "longitude": "-89.96429458646531",
    "latitude": "30.0198896849563",
    "geocoded_column": {
      "latitude": "30.0198896849563",
      "longitude": "-89.96429458646531"
    }
  },
  {
    "service_request": "2022-869223",
    "request_type": "Trash/Recycling",
    "request_reason": "Request a Large Item Pick Up",
    "date_created": "2022-03-23T14:46:54.000",
    "date_modified": "2022-03-23T14:46:55.000",
    "request_status": "Pending",
    "responsible_agency": "Department of Sanitation",
    "final_address": "3141 Burgundy St",
    "address_councildis": "C",
    "status": "Assigned to Contractor",
    "contractor": "Metro Disposal",
    "rowid": "869223",
    "final_x": "3689134.17993",
    "final_y": "535166.856518",
    "longitude": "-90.04383481202463",
    "latitude": "29.965289271445968",
    "geocoded_column": {
      "latitude": "29.965289271445968",
      "longitude": "-90.04383481202463"
    }
  },
  {
    "service_request": "2022-869222",
    "request_type": "Abandoned Vehicles",
    "request_reason": "Abandoned/Junk Vehicles",
    "date_created": "2022-03-23T14:40:46.000",
    "date_modified": "2022-03-23T14:40:46.000",
    "request_status": "Pending",
    "responsible_agency": "Department of Public Works",
    "final_address": "723 Kerlerec St",
    "address_councildis": "C",
    "status": "Pending",
    "rowid": "869222",
    "final_x": "3684101.3606",
    "final_y": "534822.723014",
    "longitude": "-90.05974025846265",
    "latitude": "29.964497798392774",
    "geocoded_column": {
      "latitude": "29.964497798392774",
      "longitude": "-90.05974025846265"
    }
  },
  {
    "service_request": "2022-869221",
    "request_type": "Abandoned Vehicles",
    "request_reason": "Abandoned/Junk Vehicles",
    "date_created": "2022-03-23T14:40:00.000",
    "date_modified": "2022-03-23T14:40:01.000",
    "request_status": "Pending",
    "responsible_agency": "Department of Public Works",
    "final_address": "CHIPPEWA ST & 9TH ST",
    "address_councildis": "B",
    "status": "Pending",
    "rowid": "869221",
    "final_x": "3676692.3",
    "final_y": "518787.28",
    "longitude": "-90.08368979515332",
    "latitude": "29.92062998437231",
    "geocoded_column": {
      "latitude": "29.92062998437231",
      "longitude": "-90.08368979515332"
    }
  },
  {
    "service_request": "2022-869220",
    "request_type": "Trash/Recycling",
    "request_reason": "Request a Large Item Pick Up",
    "date_created": "2022-03-23T14:37:18.000",
    "date_modified": "2022-03-23T14:37:19.000",
    "request_status": "Pending",
    "responsible_agency": "Department of Sanitation",
    "final_address": "216 N Anthony St",
    "address_councildis": "A",
    "status": "Assigned to Contractor",
    "contractor": "Richards Disposal",
    "rowid": "869220",
    "final_x": "3668950.85902",
    "final_y": "540726.244683",
    "longitude": "-90.107385087063",
    "latitude": "29.981184838068085",
    "geocoded_column": {
      "latitude": "29.981184838068085",
      "longitude": "-90.107385087063"
    }
  },
  {
    "service_request": "2022-869219",
    "request_type": "Trash/Recycling",
    "request_reason": "Request a Large Item Pick Up",
    "date_created": "2022-03-23T14:37:07.000",
    "date_modified": "2022-03-23T14:37:08.000",
    "request_status": "Pending",
    "responsible_agency": "Department of Sanitation",
    "final_address": "1908 1st St, New Orleans, Louisiana, 70113",
    "status": "Assigned to Contractor",
    "rowid": "869219",
    "longitude": "0.0",
    "latitude": "0.0",
    "geocoded_column": {
      "latitude": "0.0",
      "longitude": "0.0"
    }
  },
  {
    "service_request": "2022-869218",
    "request_type": "Trash/Recycling",
    "request_reason": "Missed Trash Pick-Up",
    "date_created": "2022-03-23T14:37:05.000",
    "date_modified": "2022-03-23T14:37:06.000",
    "request_status": "Pending",
    "responsible_agency": "Department of Sanitation",
    "final_address": "7336 Prytania St",
    "address_councildis": "A",
    "status": "Assigned to Contractor",
    "contractor": "Richards Disposal",
    "rowid": "869218",
    "final_x": "3661271.52544",
    "final_y": "522984.157883",
    "longitude": "-90.13222743522626",
    "latitude": "29.932623517172274",
    "geocoded_column": {
      "latitude": "29.932623517172274",
      "longitude": "-90.13222743522626"
    }
  },
  {
    "service_request": "2022-869217",
    "request_type": "Trash/Recycling",
    "request_reason": "Repair Recycling Cart",
    "date_created": "2022-03-23T14:33:40.000",
    "date_modified": "2022-03-23T14:33:40.000",
    "request_status": "Pending",
    "responsible_agency": "Department of Sanitation",
    "final_address": "148 16Th St",
    "address_councildis": "A",
    "status": "Pending",
    "rowid": "869217",
    "final_x": "3665747.42829",
    "final_y": "548348.467026",
    "longitude": "-90.11724750918813",
    "latitude": "30.002237205758245",
    "geocoded_column": {
      "latitude": "30.002237205758245",
      "longitude": "-90.11724750918813"
    }
  },
  {
    "service_request": "2022-869216",
    "request_type": "Property Maintenance",
    "request_reason": "Property Maintenance",
    "date_created": "2022-03-23T14:24:46.000",
    "date_modified": "2022-03-23T14:26:24.000",
    "request_status": "Pending",
    "responsible_agency": "Department of Code Enforcement",
    "final_address": "3742 Clematis St",
    "address_councildis": "D",
    "status": "Pending",
    "rowid": "869216",
    "final_x": "3685851.88162",
    "final_y": "546790.500945",
    "longitude": "-90.05379022384331",
    "latitude": "29.997351349650934",
    "geocoded_column": {
      "latitude": "29.997351349650934",
      "longitude": "-90.05379022384331"
    }
  },
  {
    "service_request": "2022-869215",
    "request_type": "Abandoned Vehicles",
    "request_reason": "Abandoned/Junk Vehicles",
    "date_created": "2022-03-23T14:23:06.000",
    "date_modified": "2022-03-23T14:32:35.000",
    "request_status": "Pending",
    "responsible_agency": "Department of Public Works",
    "final_address": "2100 BLK Freret St",
    "address_councildis": "B",
    "status": "Pending",
    "rowid": "869215",
    "final_x": "3675767.74948",
    "final_y": "526422.084411",
    "longitude": "-90.08634590717543",
    "latitude": "29.941650906021973",
    "geocoded_column": {
      "latitude": "29.941650906021973",
      "longitude": "-90.08634590717543"
    }
  },
  {
    "service_request": "2022-869213",
    "request_type": "Trash/Recycling",
    "request_reason": "Order Trash Cart",
    "date_created": "2022-03-23T14:11:33.000",
    "date_modified": "2022-03-23T14:11:34.000",
    "request_status": "Pending",
    "responsible_agency": "Department of Sanitation",
    "final_address": "6631 Morrison Rd",
    "address_councildis": "E",
    "status": "Assigned to Contractor",
    "contractor": "Metro Disposal",
    "rowid": "869213",
    "final_x": "3698116.08285",
    "final_y": "558584.11702",
    "longitude": "-90.01461950858598",
    "latitude": "30.0293970782149",
    "geocoded_column": {
      "latitude": "30.0293970782149",
      "longitude": "-90.01461950858598"
    }
  },
  {
    "service_request": "2022-869212",
    "request_type": "Trash/Recycling",
    "request_reason": "Request a Large Item Pick Up",
    "date_created": "2022-03-23T14:05:17.000",
    "date_modified": "2022-03-23T14:06:04.000",
    "request_status": "Pending",
    "responsible_agency": "Department of Sanitation",
    "final_address": "6217 N Johnson St",
    "address_councildis": "E",
    "status": "Assigned to Contractor",
    "contractor": "Metro Disposal",
    "rowid": "869212",
    "final_x": "3701281.76631",
    "final_y": "536384.906567",
    "longitude": "-90.00542902961746",
    "latitude": "29.968256985425015",
    "geocoded_column": {
      "latitude": "29.968256985425015",
      "longitude": "-90.00542902961746"
    }
  },
  {
    "service_request": "2022-869211",
    "request_type": "Trash/Recycling",
    "request_reason": "Order Trash Cart",
    "date_created": "2022-03-23T13:58:51.000",
    "date_modified": "2022-03-23T13:58:52.000",
    "request_status": "Pending",
    "responsible_agency": "Department of Sanitation",
    "final_address": "6313 Berkley Dr",
    "address_councildis": "C",
    "status": "Assigned to Contractor",
    "contractor": "Richards Disposal",
    "rowid": "869211",
    "final_x": "3707425.79966",
    "final_y": "518020.257078",
    "longitude": "-89.98670766223047",
    "latitude": "29.917563538454566",
    "geocoded_column": {
      "latitude": "29.917563538454566",
      "longitude": "-89.98670766223047"
    }
  },
  {
    "service_request": "2022-869210",
    "request_type": "Trash/Recycling",
    "request_reason": "Request a Large Item Pick Up",
    "date_created": "2022-03-23T13:58:49.000",
    "date_modified": "2022-03-23T13:58:49.000",
    "request_status": "Pending",
    "responsible_agency": "Department of Sanitation",
    "final_address": "4718 Press Dr",
    "address_councildis": "D",
    "status": "Assigned to Contractor",
    "contractor": "Metro Disposal",
    "rowid": "869210",
    "final_x": "3689518.49583",
    "final_y": "550700.59522",
    "longitude": "-90.04206836059382",
    "latitude": "30.007989589810435",
    "geocoded_column": {
      "latitude": "30.007989589810435",
      "longitude": "-90.04206836059382"
    }
  },
  {
    "service_request": "2022-869209",
    "request_type": "Property Maintenance",
    "request_reason": "Property Maintenance",
    "date_created": "2022-03-23T13:58:06.000",
    "date_modified": "2022-03-23T13:58:06.000",
    "request_status": "Pending",
    "responsible_agency": "Department of Code Enforcement",
    "final_address": "2275 N Claiborne Ave",
    "address_councildis": "D",
    "status": "Pending",
    "rowid": "869209",
    "final_x": "3685591.42217",
    "final_y": "538235.503881",
    "longitude": "-90.05491452260205",
    "latitude": "29.973836134944925",
    "geocoded_column": {
      "latitude": "29.973836134944925",
      "longitude": "-90.05491452260205"
    }
  },
  {
    "service_request": "2022-869208",
    "request_type": "Traffic Signals/Signs/Striping/Streetlights",
    "request_reason": "Street Light Knocked Down/Leaning",
    "date_created": "2022-03-23T13:57:24.000",
    "date_modified": "2022-03-23T13:57:24.000",
    "request_status": "Pending",
    "responsible_agency": "Department of Public Works",
    "final_address": "5433 N Tonti St",
    "address_councildis": "E",
    "status": "Pending",
    "contractor": "Royal Engineering",
    "rowid": "869208",
    "final_x": "3698760.81783",
    "final_y": "538402.449993",
    "longitude": "-90.01331684696109",
    "latitude": "29.973884594080907",
    "geocoded_column": {
      "latitude": "29.973884594080907",
      "longitude": "-90.01331684696109"
    }
  },
  {
    "service_request": "2022-869207",
    "request_type": "Trash/Recycling",
    "request_reason": "Request a Large Item Pick Up",
    "date_created": "2022-03-23T13:54:47.000",
    "date_modified": "2022-03-23T13:54:47.000",
    "request_status": "Pending",
    "responsible_agency": "Department of Sanitation",
    "final_address": "3620 Palmyra St",
    "address_councildis": "B",
    "status": "Assigned to Contractor",
    "contractor": "Richards Disposal",
    "rowid": "869207",
    "final_x": "3671911.15739",
    "final_y": "536617.580807",
    "longitude": "-90.0981749892301",
    "latitude": "29.96979998433987",
    "geocoded_column": {
      "latitude": "29.96979998433987",
      "longitude": "-90.0981749892301"
    }
  },
  {
    "service_request": "2022-869206",
    "request_type": "Abandoned Vehicles",
    "request_reason": "Abandoned/Junk Vehicles",
    "date_created": "2022-03-23T13:49:04.000",
    "date_modified": "2022-03-23T13:49:04.000",
    "request_status": "Pending",
    "responsible_agency": "Department of Public Works",
    "final_address": "3434 Peoples Ave",
    "address_councildis": "D",
    "status": "Pending",
    "rowid": "869206",
    "final_x": "3688539.2118",
    "final_y": "545763.707984",
    "longitude": "-90.045337526656",
    "latitude": "29.994445252030268",
    "geocoded_column": {
      "latitude": "29.994445252030268",
      "longitude": "-90.045337526656"
    }
  },
  {
    "service_request": "2022-869205",
    "request_type": "Property Maintenance",
    "request_reason": "Property Maintenance",
    "date_created": "2022-03-23T13:46:36.000",
    "date_modified": "2022-03-23T13:46:36.000",
    "request_status": "Pending",
    "responsible_agency": "Department of Code Enforcement",
    "final_address": "201 S Villere St",
    "address_councildis": "B",
    "status": "Pending",
    "rowid": "869205",
    "final_x": "3678630.72072",
    "final_y": "532030.345475",
    "longitude": "-90.07711280661715",
    "latitude": "29.9569857671572",
    "geocoded_column": {
      "latitude": "29.9569857671572",
      "longitude": "-90.07711280661715"
    }
  },
  {
    "service_request": "2022-869204",
    "request_type": "Trash/Recycling",
    "request_reason": "Order Recycling Cart",
    "date_created": "2022-03-23T13:46:05.000",
    "date_modified": "2022-03-23T13:46:05.000",
    "request_status": "Pending",
    "responsible_agency": "Department of Sanitation",
    "final_address": "304 Chartres St",
    "address_councildis": "C",
    "status": "Pending",
    "rowid": "869204",
    "final_x": "3682000.10696",
    "final_y": "531109.32045",
    "longitude": "-90.06650550221373",
    "latitude": "29.95435125945133",
    "geocoded_column": {
      "latitude": "29.95435125945133",
      "longitude": "-90.06650550221373"
    }
  },
  {
    "service_request": "2022-869203",
    "request_type": "Trash/Recycling",
    "request_reason": "Repair Trash Cart",
    "date_created": "2022-03-23T13:45:48.000",
    "date_modified": "2022-03-23T13:45:49.000",
    "request_status": "Pending",
    "responsible_agency": "Department of Sanitation",
    "final_address": "4418 Shalimar Dr",
    "address_councildis": "D",
    "status": "Assigned to Contractor",
    "contractor": "Metro Disposal",
    "rowid": "869203",
    "final_x": "3697241.69853",
    "final_y": "552533.506582",
    "longitude": "-90.01760207626562",
    "latitude": "30.012787836285536",
    "geocoded_column": {
      "latitude": "30.012787836285536",
      "longitude": "-90.01760207626562"
    }
  },
  {
    "service_request": "2022-869202",
    "request_type": "Trash/Recycling",
    "request_reason": "Replace Trash Cart",
    "date_created": "2022-03-23T13:44:26.000",
    "date_modified": "2022-03-23T13:44:26.000",
    "request_status": "Pending",
    "responsible_agency": "Department of Sanitation",
    "final_address": "4703 Music St",
    "address_councildis": "D",
    "status": "Assigned to Contractor",
    "contractor": "Metro Disposal",
    "rowid": "869202",
    "final_x": "3685741.6239",
    "final_y": "550259.823508",
    "longitude": "-90.05401616233287",
    "latitude": "30.006894117732354",
    "geocoded_column": {
      "latitude": "30.006894117732354",
      "longitude": "-90.05401616233287"
    }
  },
  {
    "service_request": "2022-869201",
    "request_type": "Roads/Drainage",
    "request_reason": "Pothole",
    "date_created": "2022-03-23T13:44:07.000",
    "date_modified": "2022-03-23T13:44:07.000",
    "request_status": "Pending",
    "responsible_agency": "Department of Public Works",
    "final_address": "3027 Albert St",
    "address_councildis": "C",
    "status": "Pending",
    "rowid": "869201",
    "final_x": "3711987.63154",
    "final_y": "518779.694071",
    "longitude": "-89.9722801881833",
    "latitude": "29.919503519591967",
    "geocoded_column": {
      "latitude": "29.919503519591967",
      "longitude": "-89.9722801881833"
    }
  },
  {
    "service_request": "2022-869200",
    "request_type": "Trash/Recycling",
    "request_reason": "Replace Trash Cart",
    "date_created": "2022-03-23T13:39:37.000",
    "date_modified": "2022-03-23T13:39:38.000",
    "request_status": "Pending",
    "responsible_agency": "Department of Sanitation",
    "final_address": "7718 Belfast St",
    "address_councildis": "A",
    "status": "Assigned to Contractor",
    "contractor": "Richards Disposal",
    "rowid": "869200",
    "final_x": "3666564.84346",
    "final_y": "531369.105026",
    "longitude": "-90.11523541179933",
    "latitude": "29.95552578735379",
    "geocoded_column": {
      "latitude": "29.95552578735379",
      "longitude": "-90.11523541179933"
    }
  },
  {
    "service_request": "2022-869199",
    "request_type": "Roads/Drainage",
    "request_reason": "Damaged Sidewalk",
    "date_created": "2022-03-23T13:38:50.000",
    "date_modified": "2022-03-23T13:38:50.000",
    "request_status": "Pending",
    "responsible_agency": "Department of Public Works",
    "final_address": "100 Basin St",
    "address_councildis": "C",
    "status": "Pending",
    "rowid": "869199",
    "final_x": "3679941.82293",
    "final_y": "531760.289475",
    "longitude": "-90.0729821367956",
    "latitude": "29.956203615657458",
    "geocoded_column": {
      "latitude": "29.956203615657458",
      "longitude": "-90.0729821367956"
    }
  },
  {
    "service_request": "2022-869198",
    "request_type": "Parks & Parkways",
    "request_reason": "Request Tree Service (Right of Way/Public Property)",
    "date_created": "2022-03-23T13:38:25.000",
    "date_modified": "2022-03-23T13:38:25.000",
    "request_status": "Pending",
    "responsible_agency": "Department of Parks & Parkway",
    "final_address": "5927 Paris Ave",
    "address_councildis": "D",
    "status": "Pending",
    "rowid": "869198",
    "final_x": "3679097.50824",
    "final_y": "554318.628952",
    "longitude": "-90.07486586616888",
    "latitude": "30.018256667165428",
    "geocoded_column": {
      "latitude": "30.018256667165428",
      "longitude": "-90.07486586616888"
    }
  },
  {
    "service_request": "2022-869197",
    "request_type": "Abandoned Vehicles",
    "request_reason": "Abandoned/Junk Vehicles",
    "date_created": "2022-03-23T13:38:07.000",
    "date_modified": "2022-03-23T13:38:07.000",
    "request_status": "Pending",
    "responsible_agency": "Department of Public Works",
    "final_address": "PACIFIC AVE & SOCRATES ST",
    "address_councildis": "C",
    "status": "Pending",
    "rowid": "869197",
    "final_x": "3688356.0",
    "final_y": "526417.38",
    "longitude": "-90.04660253598715",
    "latitude": "29.941255278189054",
    "geocoded_column": {
      "latitude": "29.941255278189054",
      "longitude": "-90.04660253598715"
    }
  },
  {
    "service_request": "2022-869196",
    "request_type": "Abandoned Vehicles",
    "request_reason": "Abandoned/Junk Vehicles",
    "date_created": "2022-03-23T13:36:05.000",
    "date_modified": "2022-03-23T13:36:05.000",
    "request_status": "Pending",
    "responsible_agency": "Department of Public Works",
    "final_address": "4030 Palmyra St",
    "address_councildis": "A",
    "status": "Pending",
    "rowid": "869196",
    "final_x": "3670758.12903",
    "final_y": "537513.651464",
    "longitude": "-90.10178595326433",
    "latitude": "29.972298002636027",
    "geocoded_column": {
      "latitude": "29.972298002636027",
      "longitude": "-90.10178595326433"
    }
  },
  {
    "service_request": "2022-869194",
    "request_type": "Trash/Recycling",
    "request_reason": "Request a Large Item Pick Up",
    "date_created": "2022-03-23T13:20:51.000",
    "date_modified": "2022-03-23T13:20:52.000",
    "request_status": "Pending",
    "responsible_agency": "Department of Sanitation",
    "final_address": "1380 Annette St",
    "address_councildis": "C",
    "status": "Assigned to Contractor",
    "contractor": "Metro Disposal",
    "rowid": "869194",
    "final_x": "3683031.32021",
    "final_y": "537191.259976",
    "longitude": "-90.06303644087019",
    "latitude": "29.971043117010705",
    "geocoded_column": {
      "latitude": "29.971043117010705",
      "longitude": "-90.06303644087019"
    }
  },
  {
    "service_request": "2022-869193",
    "request_type": "Trash/Recycling",
    "request_reason": "Order Recycling Cart",
    "date_created": "2022-03-23T13:20:23.000",
    "date_modified": "2022-03-23T13:20:23.000",
    "request_status": "Pending",
    "responsible_agency": "Department of Sanitation",
    "final_address": "1301 Desire St",
    "address_councildis": "C",
    "status": "Pending",
    "rowid": "869193",
    "final_x": "3690422.09353",
    "final_y": "536497.467079",
    "longitude": "-90.03972022048657",
    "latitude": "29.96890806735299",
    "geocoded_column": {
      "latitude": "29.96890806735299",
      "longitude": "-90.03972022048657"
    }
  },
  {
    "service_request": "2022-869192",
    "request_type": "Trash/Recycling",
    "request_reason": "Request a Large Item Pick Up",
    "date_created": "2022-03-23T13:18:24.000",
    "date_modified": "2022-03-23T13:18:25.000",
    "request_status": "Pending",
    "responsible_agency": "Department of Sanitation",
    "final_address": "1380 Annette St",
    "address_councildis": "C",
    "status": "Assigned to Contractor",
    "contractor": "Metro Disposal",
    "rowid": "869192",
    "final_x": "3683031.32021",
    "final_y": "537191.259976",
    "longitude": "-90.06303644087019",
    "latitude": "29.971043117010705",
    "geocoded_column": {
      "latitude": "29.971043117010705",
      "longitude": "-90.06303644087019"
    }
  },
  {
    "service_request": "2022-869191",
    "request_type": "Traffic Signals/Signs/Striping/Streetlights",
    "request_reason": "Street Light Outage/Malfunction",
    "date_created": "2022-03-23T13:14:20.000",
    "date_modified": "2022-03-23T13:14:21.000",
    "request_status": "Pending",
    "responsible_agency": "Department of Public Works",
    "final_address": "524 Park Blvd",
    "address_councildis": "C",
    "status": "Pending",
    "contractor": "Royal Engineering",
    "rowid": "869191",
    "final_x": "3687442.53014",
    "final_y": "525923.257981",
    "longitude": "-90.04950400511748",
    "latitude": "29.939924784026463",
    "geocoded_column": {
      "latitude": "29.939924784026463",
      "longitude": "-90.04950400511748"
    }
  },
  {
    "service_request": "2022-869190",
    "request_type": "Trash/Recycling",
    "request_reason": "Replace Trash Cart",
    "date_created": "2022-03-23T13:06:18.000",
    "date_modified": "2022-03-23T13:06:18.000",
    "request_status": "Pending",
    "responsible_agency": "Department of Sanitation",
    "final_address": "6041 Vermillion Blvd",
    "address_councildis": "D",
    "status": "Assigned to Contractor",
    "contractor": "Metro Disposal",
    "rowid": "869190",
    "final_x": "3683181.15004",
    "final_y": "555317.429401",
    "longitude": "-90.0619280803431",
    "latitude": "30.020879047826742",
    "geocoded_column": {
      "latitude": "30.020879047826742",
      "longitude": "-90.0619280803431"
    }
  },
  {
    "service_request": "2022-869189",
    "request_type": "Property Maintenance",
    "request_reason": "Property Maintenance",
    "date_created": "2022-03-23T13:05:40.000",
    "date_modified": "2022-03-23T13:05:40.000",
    "request_status": "Pending",
    "responsible_agency": "Department of Code Enforcement",
    "final_address": "907 Decatur St",
    "address_councildis": "C",
    "status": "Pending",
    "rowid": "869189",
    "final_x": "3683626.73167",
    "final_y": "532654.87034",
    "longitude": "-90.06131509662356",
    "latitude": "29.958551444726112",
    "geocoded_column": {
      "latitude": "29.958551444726112",
      "longitude": "-90.06131509662356"
    }
  },
  {
    "service_request": "2022-869188",
    "request_type": "Trash/Recycling",
    "request_reason": "Repair Recycling Cart",
    "date_created": "2022-03-23T13:05:11.000",
    "date_modified": "2022-03-23T13:05:11.000",
    "request_status": "Pending",
    "responsible_agency": "Department of Sanitation",
    "final_address": "908 Taft Pl",
    "address_councildis": "A",
    "status": "Pending",
    "rowid": "869188",
    "final_x": "3673930.99873",
    "final_y": "540094.471435",
    "longitude": "-90.09167714795086",
    "latitude": "29.979300227981344",
    "geocoded_column": {
      "latitude": "29.979300227981344",
      "longitude": "-90.09167714795086"
    }
  },
  {
    "service_request": "2022-869187",
    "request_type": "Traffic Signals/Signs/Striping/Streetlights",
    "request_reason": "Additional signage",
    "date_created": "2022-03-23T13:02:51.000",
    "date_modified": "2022-03-23T13:02:51.000",
    "request_status": "Pending",
    "responsible_agency": "Department of Public Works",
    "final_address": "CATON ST & PARIS AVE",
    "address_councildis": "D",
    "status": "Pending",
    "rowid": "869187",
    "final_x": "3679525.2",
    "final_y": "546978.88",
    "longitude": "-90.0737694452195",
    "latitude": "29.998062068178243",
    "geocoded_column": {
      "latitude": "29.998062068178243",
      "longitude": "-90.0737694452195"
    }
  },
  {
    "service_request": "2022-869186",
    "request_type": "Trash/Recycling",
    "request_reason": "Repair Trash Cart",
    "date_created": "2022-03-23T13:00:34.000",
    "date_modified": "2022-03-23T13:00:35.000",
    "request_status": "Pending",
    "responsible_agency": "Department of Sanitation",
    "final_address": "4657 St Ferdinand Dr",
    "address_councildis": "D",
    "status": "Assigned to Contractor",
    "contractor": "Metro Disposal",
    "rowid": "869186",
    "final_x": "3689458.52758",
    "final_y": "550393.167188",
    "longitude": "-90.04226876133791",
    "latitude": "30.00714613356699",
    "geocoded_column": {
      "latitude": "30.00714613356699",
      "longitude": "-90.04226876133791"
    }
  },
  {
    "service_request": "2022-869184",
    "request_type": "Trash/Recycling",
    "request_reason": "Request a Large Item Pick Up",
    "date_created": "2022-03-23T12:52:44.000",
    "date_modified": "2022-03-23T12:52:44.000",
    "request_status": "Pending",
    "responsible_agency": "Department of Sanitation",
    "final_address": "2930 Pine St",
    "address_councildis": "B",
    "status": "Assigned to Contractor",
    "contractor": "Richards Disposal",
    "rowid": "869184",
    "final_x": "3667321.92833",
    "final_y": "531941.329283",
    "longitude": "-90.11282555498033",
    "latitude": "29.957077064748752",
    "geocoded_column": {
      "latitude": "29.957077064748752",
      "longitude": "-90.11282555498033"
    }
  },
  {
    "service_request": "2022-869183",
    "request_type": "Trash/Recycling",
    "request_reason": "Replace Trash Cart",
    "date_created": "2022-03-23T12:51:38.000",
    "date_modified": "2022-03-23T12:51:39.000",
    "request_status": "Pending",
    "responsible_agency": "Department of Sanitation",
    "final_address": "4123 Vincennes Pl",
    "address_councildis": "B",
    "status": "Assigned to Contractor",
    "contractor": "Richards Disposal",
    "rowid": "869183",
    "final_x": "3668678.63022",
    "final_y": "530721.957762",
    "longitude": "-90.1085826532446",
    "latitude": "29.95368438817869",
    "geocoded_column": {
      "latitude": "29.95368438817869",
      "longitude": "-90.1085826532446"
    }
  },
  {
    "service_request": "2022-869182",
    "request_type": "Traffic Signals/Signs/Striping/Streetlights",
    "request_reason": "Street Light Outage/Malfunction",
    "date_created": "2022-03-23T12:50:16.000",
    "date_modified": "2022-03-23T12:50:16.000",
    "case_close_date": "2019-05-01T19:00:00.000",
    "request_status": "Pending",
    "responsible_agency": "Department of Public Works",
    "final_address": "2640 Laharpe St",
    "address_councildis": "D",
    "status": "Pending",
    "contractor": "Royal Engineering",
    "rowid": "869182",
    "final_x": "3678580.8052",
    "final_y": "540048.922763",
    "longitude": "-90.07699280494194",
    "latitude": "29.979035620772425",
    "geocoded_column": {
      "latitude": "29.979035620772425",
      "longitude": "-90.07699280494194"
    }
  },
  {
    "service_request": "2022-869181",
    "request_type": "Trash/Recycling",
    "request_reason": "Missed Trash Pick-Up",
    "date_created": "2022-03-23T12:50:12.000",
    "date_modified": "2022-03-23T12:50:12.000",
    "request_status": "Pending",
    "responsible_agency": "Department of Sanitation",
    "final_address": "4123 Vincennes Pl",
    "address_councildis": "B",
    "status": "Assigned to Contractor",
    "contractor": "Richards Disposal",
    "rowid": "869181",
    "final_x": "3668678.63022",
    "final_y": "530721.957762",
    "longitude": "-90.1085826532446",
    "latitude": "29.95368438817869",
    "geocoded_column": {
      "latitude": "29.95368438817869",
      "longitude": "-90.1085826532446"
    }
  },
  {
    "service_request": "2022-869180",
    "request_type": "Traffic Signals/Signs/Striping/Streetlights",
    "request_reason": "Street Light Outage/Malfunction",
    "date_created": "2022-03-23T12:49:49.000",
    "date_modified": "2022-03-23T12:49:50.000",
    "case_close_date": "2019-05-01T19:00:00.000",
    "request_status": "Pending",
    "responsible_agency": "Department of Public Works",
    "final_address": "2626 Laharpe St",
    "address_councildis": "D",
    "status": "Pending",
    "contractor": "Royal Engineering",
    "rowid": "869180",
    "final_x": "3678671.04027",
    "final_y": "539982.672971",
    "longitude": "-90.07671010253694",
    "latitude": "29.978850736030264",
    "geocoded_column": {
      "latitude": "29.978850736030264",
      "longitude": "-90.07671010253694"
    }
  },
  {
    "service_request": "2022-869178",
    "request_type": "Roads/Drainage",
    "request_reason": "Damaged Sidewalk",
    "date_created": "2022-03-23T12:47:31.000",
    "date_modified": "2022-03-23T12:47:32.000",
    "case_close_date": "2021-07-25T19:00:00.000",
    "request_status": "Pending",
    "responsible_agency": "Department of Public Works",
    "final_address": "N ALEXANDER ST & BIENVILLE ST",
    "address_councildis": "A",
    "status": "Pending",
    "rowid": "869178",
    "final_x": "3670478.45",
    "final_y": "539812.29",
    "longitude": "-90.1025912559679",
    "latitude": "29.978626744588656",
    "geocoded_column": {
      "latitude": "29.978626744588656",
      "longitude": "-90.1025912559679"
    }
  },
  {
    "service_request": "2022-869177",
    "request_type": "Trash/Recycling",
    "request_reason": "Replace Trash Cart",
    "date_created": "2022-03-23T12:46:57.000",
    "date_modified": "2022-03-23T12:46:58.000",
    "request_status": "Pending",
    "responsible_agency": "Department of Sanitation",
    "final_address": "1417 Pauline St",
    "address_councildis": "D",
    "status": "Assigned to Contractor",
    "contractor": "Metro Disposal",
    "rowid": "869177",
    "final_x": "3691564.82761",
    "final_y": "536714.444295",
    "longitude": "-90.03610364884955",
    "latitude": "29.969469155179993",
    "geocoded_column": {
      "latitude": "29.969469155179993",
      "longitude": "-90.03610364884955"
    }
  },
  {
    "service_request": "2022-869176",
    "request_type": "Property Maintenance",
    "request_reason": "Property Maintenance",
    "date_created": "2022-03-23T12:41:19.000",
    "date_modified": "2022-03-23T12:41:19.000",
    "request_status": "Pending",
    "responsible_agency": "Department of Code Enforcement",
    "final_address": "5920 N Villere St",
    "address_councildis": "E",
    "status": "Pending",
    "rowid": "869176",
    "final_x": "3699411.27684",
    "final_y": "534516.814853",
    "longitude": "-90.01140414135082",
    "latitude": "29.96317987415657",
    "geocoded_column": {
      "latitude": "29.96317987415657",
      "longitude": "-90.01140414135082"
    }
  },
  {
    "service_request": "2022-869175",
    "request_type": "Trash/Recycling",
    "request_reason": "Request a Large Item Pick Up",
    "date_created": "2022-03-23T12:40:31.000",
    "date_modified": "2022-03-23T12:40:32.000",
    "request_status": "Pending",
    "responsible_agency": "Department of Sanitation",
    "final_address": "1326 Frankfort St",
    "address_councildis": "D",
    "status": "Assigned to Contractor",
    "contractor": "Metro Disposal",
    "rowid": "869175",
    "final_x": "3677442.3147",
    "final_y": "555754.167001",
    "longitude": "-90.08004605221223",
    "latitude": "30.022253758124553",
    "geocoded_column": {
      "latitude": "30.022253758124553",
      "longitude": "-90.08004605221223"
    }
  },
  {
    "service_request": "2022-869174",
    "request_type": "Roads/Drainage",
    "request_reason": "Street Subsidence (Sinking)",
    "date_created": "2022-03-23T12:39:31.000",
    "date_modified": "2022-03-23T12:39:32.000",
    "request_status": "Pending",
    "responsible_agency": "Department of Public Works",
    "final_address": "BERKLEY DR & LANCASTER ST",
    "address_councildis": "C",
    "status": "Pending",
    "rowid": "869174",
    "final_x": "3709876.1",
    "final_y": "517915.18",
    "longitude": "-89.97897743058405",
    "latitude": "29.917195204596773",
    "geocoded_column": {
      "latitude": "29.917195204596773",
      "longitude": "-89.97897743058405"
    }
  },
  {
    "service_request": "2022-869173",
    "request_type": "Trash/Recycling",
    "request_reason": "Repair Trash Cart",
    "date_created": "2022-03-23T12:37:22.000",
    "date_modified": "2022-03-23T12:37:23.000",
    "request_status": "Pending",
    "responsible_agency": "Department of Sanitation",
    "final_address": "5914 N Villere St",
    "address_councildis": "E",
    "status": "Assigned to Contractor",
    "contractor": "Metro Disposal",
    "rowid": "869173",
    "final_x": "3699377.44471",
    "final_y": "534532.067973",
    "longitude": "-90.01151042294012",
    "latitude": "29.963222887969074",
    "geocoded_column": {
      "latitude": "29.963222887969074",
      "longitude": "-90.01151042294012"
    }
  },
  {
    "service_request": "2022-869172",
    "request_type": "Trash/Recycling",
    "request_reason": "Order Recycling Cart",
    "date_created": "2022-03-23T12:35:32.000",
    "date_modified": "2022-03-23T12:35:33.000",
    "request_status": "Pending",
    "responsible_agency": "Department of Sanitation",
    "final_address": "8235 Hickory St",
    "address_councildis": "A",
    "status": "Pending",
    "rowid": "869172",
    "final_x": "3662949.97389",
    "final_y": "530382.590082",
    "longitude": "-90.1266827305072",
    "latitude": "29.95291836016481",
    "geocoded_column": {
      "latitude": "29.95291836016481",
      "longitude": "-90.1266827305072"
    }
  },
  {
    "service_request": "2022-869171",
    "request_type": "Traffic Signals/Signs/Striping/Streetlights",
    "request_reason": "Request for Stop Sign",
    "date_created": "2022-03-23T12:34:36.000",
    "date_modified": "2022-03-23T12:34:36.000",
    "request_status": "Pending",
    "responsible_agency": "Department of Public Works",
    "final_address": "WASHINGTON AVE & S ROCHEBLAVE ST",
    "address_councildis": "B",
    "status": "Pending",
    "rowid": "869171",
    "final_x": "3671674.4",
    "final_y": "528944.38",
    "longitude": "-90.09918369564211",
    "latitude": "29.94870824822059",
    "geocoded_column": {
      "latitude": "29.94870824822059",
      "longitude": "-90.09918369564211"
    }
  },
  {
    "service_request": "2022-869169",
    "request_type": "Roads/Drainage",
    "request_reason": "Street Subsidence (Sinking)",
    "date_created": "2022-03-23T12:33:46.000",
    "date_modified": "2022-03-23T12:36:01.000",
    "case_close_date": "2021-09-25T19:00:00.000",
    "request_status": "Pending",
    "responsible_agency": "Department of Public Works",
    "final_address": "2914 Hiawatha St",
    "address_councildis": "D",
    "status": "Pending",
    "contractor": "Metro Disposal",
    "rowid": "869169",
    "final_x": "3689279.49206",
    "final_y": "548070.572178",
    "longitude": "-90.0429170174524",
    "latitude": "30.000765391091907",
    "geocoded_column": {
      "latitude": "30.000765391091907",
      "longitude": "-90.0429170174524"
    }
  },
  {
    "service_request": "2022-869168",
    "request_type": "Property Maintenance",
    "request_reason": "Property Maintenance",
    "date_created": "2022-03-23T12:31:10.000",
    "date_modified": "2022-03-23T12:31:10.000",
    "request_status": "Pending",
    "responsible_agency": "Department of Code Enforcement",
    "final_address": "821 Belleville St",
    "address_councildis": "C",
    "status": "Pending",
    "rowid": "869168",
    "final_x": "3687760.65897",
    "final_y": "528561.125888",
    "longitude": "-90.04840623786421",
    "latitude": "29.947168219578273",
    "geocoded_column": {
      "latitude": "29.947168219578273",
      "longitude": "-90.04840623786421"
    }
  },
  {
    "service_request": "2022-869167",
    "request_type": "Trash/Recycling",
    "request_reason": "Missed Trash Pick-Up",
    "date_created": "2022-03-23T12:30:56.000",
    "date_modified": "2022-03-23T12:30:57.000",
    "request_status": "Pending",
    "responsible_agency": "Department of Sanitation",
    "final_address": "4014 Danneel St",
    "address_councildis": "B",
    "status": "Assigned to Contractor",
    "contractor": "Richards Disposal",
    "rowid": "869167",
    "final_x": "3672052.98414",
    "final_y": "522373.771962",
    "longitude": "-90.09821196905726",
    "latitude": "29.93062999616357",
    "geocoded_column": {
      "latitude": "29.93062999616357",
      "longitude": "-90.09821196905726"
    }
  },
  {
    "service_request": "2022-869165",
    "request_type": "Trash/Recycling",
    "request_reason": "Request a Large Item Pick Up",
    "date_created": "2022-03-23T12:24:15.000",
    "date_modified": "2022-03-23T12:24:16.000",
    "request_status": "Pending",
    "responsible_agency": "Department of Sanitation",
    "final_address": "707 Washington Ave",
    "address_councildis": "B",
    "status": "Assigned to Contractor",
    "contractor": "Richards Disposal",
    "rowid": "869165",
    "final_x": "3677887.52706",
    "final_y": "519640.078712",
    "longitude": "-90.07988756825347",
    "latitude": "29.92293900859502",
    "geocoded_column": {
      "latitude": "29.92293900859502",
      "longitude": "-90.07988756825347"
    }
  },