[
  {
    "service_request": "2023-1004947",
    "request_type": "Trash/Recycling",
    "request_reason": "MIssed Recycling Pick-Up",
    "date_created": "2023-06-02T00:56:13.000",
    "date_modified": "2023-06-02T00:56:14.000",
    "request_status": "Pending",
    "responsible_agency": "Department of Sanitation",
    "final_address": "805 Leontine St",
    "address_councildis": "B",
    "status": "Assigned to Contractor",
    "contractor": "Richards Disposal",
    "rowid": "1004947",
    "final_x": "3667163.11015",
    "final_y": "518371.890998",
    "longitude": "-90.11378310007358",
    "latitude": "29.919770114923736",
    "geocoded_column": {
      "latitude": "29.919770114923736",
      "longitude": "-90.11378310007358"
    }
  },
  {
    "service_request": "2023-1004946",
    "request_type": "Trash/Recycling",
    "request_reason": "Order Recycling Cart",
    "date_created": "2023-06-01T23:10:45.000",
    "date_modified": "2023-06-01T23:10:45.000",
    "request_status": "Pending",
    "responsible_agency": "Department of Sanitation",
    "final_address": "4808 Perrier St",
    "address_councildis": "B",
    "status": "Pending",
    "rowid": "1004946",
    "final_x": "3669375.15034",
    "final_y": "519877.8638",
    "longitude": "-90.10674986689833",
    "latitude": "29.923846141243917",
    "geocoded_column": {
      "latitude": "29.923846141243917",
      "longitude": "-90.10674986689833"
    }
  },
  {
    "service_request": "2023-1004945",
    "request_type": "Trash/Recycling",
    "request_reason": "Order Trash Cart",
    "date_created": "2023-06-01T23:08:47.000",
    "date_modified": "2023-06-01T23:08:48.000",
    "request_status": "Pending",
    "responsible_agency": "Department of Sanitation",
    "final_address": "4808 Perrier St",
    "address_councildis": "B",
    "status": "Assigned to Contractor",
    "contractor": "Richards Disposal",
    "rowid": "1004945",
    "final_x": "3669375.15034",
    "final_y": "519877.8638",
    "longitude": "-90.10674986689833",
    "latitude": "29.923846141243917",
    "geocoded_column": {
      "latitude": "29.923846141243917",
      "longitude": "-90.10674986689833"
    }
  },
  {
    "service_request": "2023-1004944",
    "request_type": "Trash/Recycling",
    "request_reason": "Start Trash Service",
    "date_created": "2023-06-01T23:07:10.000",
    "date_modified": "2023-06-01T23:07:10.000",
    "request_status": "Pending",
    "responsible_agency": "Department of Sanitation",
    "final_address": "4808 Perrier St",
    "address_councildis": "B",
    "status": "Assigned to Contractor",
    "contractor": "Richards Disposal",
    "rowid": "1004944",
    "final_x": "3669375.15034",
    "final_y": "519877.8638",
    "longitude": "-90.10674986689833",
    "latitude": "29.923846141243917",
    "geocoded_column": {
      "latitude": "29.923846141243917",
      "longitude": "-90.10674986689833"
    }
  },
  {
    "service_request": "2023-1004943",
    "request_type": "Trash/Recycling",
    "request_reason": "Order Recycling Cart",
    "date_created": "2023-06-01T23:01:38.000",
    "date_modified": "2023-06-01T23:01:38.000",
    "request_status": "Pending",
    "responsible_agency": "Department of Sanitation",
    "final_address": "4810 Perrier St",
    "address_councildis": "B",
    "status": "Pending",
    "rowid": "1004943",
    "final_x": "3669363.51841",
    "final_y": "519877.342968",
    "longitude": "-90.10678660240653",
    "latitude": "29.92384505149455",
    "geocoded_column": {
      "latitude": "29.92384505149455",
      "longitude": "-90.10678660240653"
    }
  },
  {
    "service_request": "2023-1004942",
    "request_type": "Trash/Recycling",
    "request_reason": "Order Trash Cart",
    "date_created": "2023-06-01T23:00:54.000",
    "date_modified": "2023-06-01T23:00:55.000",
    "request_status": "Pending",
    "responsible_agency": "Department of Sanitation",
    "final_address": "4810 Perrier St",
    "address_councildis": "B",
    "status": "Assigned to Contractor",
    "contractor": "Richards Disposal",
    "rowid": "1004942",
    "final_x": "3669363.51841",
    "final_y": "519877.342968",
    "longitude": "-90.10678660240653",
    "latitude": "29.92384505149455",
    "geocoded_column": {
      "latitude": "29.92384505149455",
      "longitude": "-90.10678660240653"
    }
  },
  {
    "service_request": "2023-1004941",
    "request_type": "Trash/Recycling",
    "request_reason": "Start Trash Service",
    "date_created": "2023-06-01T23:00:07.000",
    "date_modified": "2023-06-01T23:00:08.000",
    "request_status": "Pending",
    "responsible_agency": "Department of Sanitation",
    "final_address": "4810 Perrier St",
    "address_councildis": "B",
    "status": "Assigned to Contractor",
    "contractor": "Richards Disposal",
    "rowid": "1004941",
    "final_x": "3669363.51841",
    "final_y": "519877.342968",
    "longitude": "-90.10678660240653",
    "latitude": "29.92384505149455",
    "geocoded_column": {
      "latitude": "29.92384505149455",
      "longitude": "-90.10678660240653"
    }
  },
  {
    "service_request": "2023-1004940",
    "request_type": "Trash/Recycling",
    "request_reason": "Start Trash Service",
    "date_created": "2023-06-01T22:58:38.000",
    "date_modified": "2023-06-01T22:58:39.000",
    "request_status": "Pending",
    "responsible_agency": "Department of Sanitation",
    "final_address": "4810 Perrier St",
    "address_councildis": "B",
    "status": "Assigned to Contractor",
    "contractor": "Richards Disposal",
    "rowid": "1004940",
    "final_x": "3669363.51841",
    "final_y": "519877.342968",
    "longitude": "-90.10678660240653",
    "latitude": "29.92384505149455",
    "geocoded_column": {
      "latitude": "29.92384505149455",
      "longitude": "-90.10678660240653"
    }
  },
  {
    "service_request": "2023-1004939",
    "request_type": "Trash/Recycling",
    "request_reason": "Order Trash Cart",
    "date_created": "2023-06-01T22:56:01.000",
    "date_modified": "2023-06-01T22:56:01.000",
    "request_status": "Pending",
    "responsible_agency": "Department of Sanitation",
    "final_address": "4010 Perrier St",
    "address_councildis": "B",
    "status": "Assigned to Contractor",
    "contractor": "Richards Disposal",
    "rowid": "1004939",
    "final_x": "3672266.95963",
    "final_y": "520150.384824",
    "longitude": "-90.0976121732228",
    "latitude": "29.924510051607648",
    "geocoded_column": {
      "latitude": "29.924510051607648",
      "longitude": "-90.0976121732228"
    }
  },
  {
    "service_request": "2023-1004938",
    "request_type": "Traffic Signals/Signs/Striping/Streetlights",
    "request_reason": "Street Light Outage/Malfunction",
    "date_created": "2023-06-01T22:07:16.000",
    "date_modified": "2023-06-01T22:07:17.000",
    "request_status": "Pending",
    "responsible_agency": "Department of Public Works",
    "final_address": "2702 Chippewa St",
    "address_councildis": "B",
    "status": "Assigned to Contractor",
    "contractor": "Legacy Professional Services",
    "rowid": "1004938",
    "final_x": "3678119.8084",
    "final_y": "519691.343352",
    "longitude": "-90.07915257515744",
    "latitude": "29.92307298090807",
    "geocoded_column": {
      "latitude": "29.92307298090807",
      "longitude": "-90.07915257515744"
    }
  },
  {
    "service_request": "2023-1004937",
    "request_type": "Roads/Drainage",
    "request_reason": "Drainage Issue (Catch Basins, Culverts, Ditches, and Manhole Covers)",
    "date_created": "2023-06-01T21:26:43.000",
    "date_modified": "2023-06-01T21:26:43.000",
    "request_status": "Pending",
    "responsible_agency": "Department of Public Works",
    "final_address": "7501 Jonlee Dr",
    "address_councildis": "E",
    "status": "Pending",
    "rowid": "1004937",
    "final_x": "3717604.06962",
    "final_y": "569965.811366",
    "longitude": "-89.952605226929",
    "latitude": "30.060061003473713",
    "geocoded_column": {
      "latitude": "30.060061003473713",
      "longitude": "-89.952605226929"
    }
  },
  {
    "service_request": "2023-1004936",
    "request_type": "Traffic Signals/Signs/Striping/Streetlights",
    "request_reason": "Street Light Outage/Malfunction",
    "date_created": "2023-06-01T21:21:32.000",
    "date_modified": "2023-06-01T21:21:32.000",
    "request_status": "Pending",
    "responsible_agency": "Department of Public Works",
    "final_address": "8311 Aberdeen Rd",
    "address_councildis": "E",
    "status": "Assigned to Contractor",
    "contractor": "Legacy Professional Services",
    "rowid": "1004936",
    "final_x": "3703196.85226",
    "final_y": "561613.285407",
    "longitude": "-89.99845298654589",
    "latitude": "30.03756435157793",
    "geocoded_column": {
      "latitude": "30.03756435157793",
      "longitude": "-89.99845298654589"
    }
  },
  {
    "service_request": "2023-1004935",
    "request_type": "Traffic Signals/Signs/Striping/Streetlights",
    "request_reason": "Street Light Outage/Malfunction",
    "date_created": "2023-06-01T21:09:34.000",
    "date_modified": "2023-06-01T21:09:50.000",
    "request_status": "Pending",
    "responsible_agency": "Department of Public Works",
    "final_address": "9900 BLK Rockton Cir E",
    "address_councildis": "E",
    "status": "Assigned to Contractor",
    "contractor": "Legacy Professional Services",
    "rowid": "1004935",
    "final_x": "3708604.80355",
    "final_y": "562788.652425",
    "longitude": "-89.98131889921022",
    "latitude": "30.040621804459605",
    "geocoded_column": {
      "latitude": "30.040621804459605",
      "longitude": "-89.98131889921022"
    }
  },
  {
    "service_request": "2023-1004934",
    "request_type": "Abandoned Vehicles",
    "request_reason": "Abandoned/Junk Vehicles",
    "date_created": "2023-06-01T21:06:46.000",
    "date_modified": "2023-06-01T21:06:46.000",
    "request_status": "Pending",
    "responsible_agency": "Department of Public Works",
    "final_address": "613 First St",
    "address_councildis": "B",
    "status": "Pending",
    "rowid": "1004934",
    "final_x": "3679043.47784",
    "final_y": "520096.675128",
    "longitude": "-90.07622286958157",
    "latitude": "29.92415967984642",
    "geocoded_column": {
      "latitude": "29.92415967984642",
      "longitude": "-90.07622286958157"
    }
  },
  {
    "service_request": "2023-1004933",
    "request_type": "Traffic Signals/Signs/Striping/Streetlights",
    "request_reason": "Street Light Outage/Malfunction",
    "date_created": "2023-06-01T20:49:29.000",
    "date_modified": "2023-06-01T20:49:30.000",
    "request_status": "Pending",
    "responsible_agency": "Department of Public Works",
    "final_address": "GRAVIER ST & TCHOUPITOULAS ST",
    "address_councildis": "B",
    "status": "Assigned to Contractor",
    "contractor": "Legacy Professional Services",
    "rowid": "1004933",
    "final_x": "3682002.2",
    "final_y": "529537.28",
    "longitude": "-90.06655377120704",
    "latitude": "29.950028616312522",
    "geocoded_column": {
      "latitude": "29.950028616312522",
      "longitude": "-90.06655377120704"
    }
  },
  {
    "service_request": "2023-1004932",
    "request_type": "Trash/Recycling",
    "request_reason": "Illegal Dumping",
    "date_created": "2023-06-01T20:42:39.000",
    "date_modified": "2023-06-01T20:42:39.000",
    "request_status": "Pending",
    "responsible_agency": "Department of Sanitation",
    "final_address": "7500 BLK Gannon Rd",
    "address_councildis": "E",
    "status": "Pending",
    "rowid": "1004932",
    "final_x": "3716756.29119",
    "final_y": "569377.880717",
    "longitude": "-89.95530733177476",
    "latitude": "30.058472499532908",
    "geocoded_column": {
      "latitude": "30.058472499532908",
      "longitude": "-89.95530733177476"
    }
  },
  {
    "service_request": "2023-1004931",
    "request_type": "Trash/Recycling",
    "request_reason": "Illegal Dumping",
    "date_created": "2023-06-01T20:41:09.000",
    "date_modified": "2023-06-01T20:41:09.000",
    "request_status": "Pending",
    "responsible_agency": "Department of Sanitation",
    "final_address": "7500 BLK Gannon Rd",
    "address_councildis": "E",
    "status": "Pending",
    "rowid": "1004931",
    "final_x": "3716756.29119",
    "final_y": "569377.880717",
    "longitude": "-89.95530733177476",
    "latitude": "30.058472499532908",
    "geocoded_column": {
      "latitude": "30.058472499532908",
      "longitude": "-89.95530733177476"
    }
  },
  {
    "service_request": "2023-1004929",
    "request_type": "Traffic Signals/Signs/Striping/Streetlights",
    "request_reason": "Street Light Outage/Malfunction",
    "date_created": "2023-06-01T20:39:23.000",
    "date_modified": "2023-06-01T20:39:24.000",
    "request_status": "Pending",
    "responsible_agency": "Department of Public Works",
    "final_address": "2608 Clara St",
    "address_councildis": "B",
    "status": "Assigned to Contractor",
    "contractor": "Legacy Professional Services",
    "rowid": "1004929",
    "final_x": "3674049.28424",
    "final_y": "526309.574462",
    "longitude": "-90.09177530620175",
    "latitude": "29.941392851858346",
    "geocoded_column": {
      "latitude": "29.941392851858346",
      "longitude": "-90.09177530620175"
    }
  },
  {
    "service_request": "2023-1004928",
    "request_type": "Trash/Recycling",
    "request_reason": "Order Trash Cart",
    "date_created": "2023-06-01T20:33:46.000",
    "date_modified": "2023-06-01T20:33:47.000",
    "request_status": "Pending",
    "responsible_agency": "Department of Sanitation",
    "final_address": "4447 Francis Dr",
    "address_councildis": "D",
    "status": "Assigned to Contractor",
    "contractor": "Waste Pro",
    "rowid": "1004928",
    "final_x": "3698447.9473",
    "final_y": "552845.17551",
    "longitude": "-90.01377967197922",
    "latitude": "30.013606668075052",
    "geocoded_column": {
      "latitude": "30.013606668075052",
      "longitude": "-90.01377967197922"
    }
  },
  {
    "service_request": "2023-1004927",
    "request_type": "Trash/Recycling",
    "request_reason": "Order Trash Cart",
    "date_created": "2023-06-01T20:32:22.000",
    "date_modified": "2023-06-01T20:32:23.000",
    "request_status": "Pending",
    "responsible_agency": "Department of Sanitation",
    "final_address": "4447 Francis Drive",
    "status": "Assigned to Contractor",
    "rowid": "1004927",
    "longitude": "0.0",
    "latitude": "0.0",
    "geocoded_column": {
      "latitude": "0.0",
      "longitude": "0.0"
    }
  },
  {
    "service_request": "2023-1004926",
    "request_type": "Property Maintenance",
    "request_reason": "Property Maintenance",
    "date_created": "2023-06-01T20:10:16.000",
    "date_modified": "2023-06-01T20:10:16.000",
    "request_status": "Pending",
    "responsible_agency": "Department of Code Enforcement",
    "final_address": "8926 Forshey St",
    "address_councildis": "A",
    "status": "Pending",
    "rowid": "1004926",
    "final_x": "3664710.99872",
    "final_y": "535961.134471",
    "longitude": "-90.12093579036345",
    "latitude": "29.968206421889406",
    "geocoded_column": {
      "latitude": "29.968206421889406",
      "longitude": "-90.12093579036345"
    }
  },
  {
    "service_request": "2023-1004925",
    "request_type": "Roads/Drainage",
    "request_reason": "Unpermitted work in ROW",
    "date_created": "2023-06-01T20:03:47.000",
    "date_modified": "2023-06-01T20:03:47.000",
    "request_status": "Pending",
    "responsible_agency": "Department of Public Works",
    "final_address": "2717 Chippewa St",
    "address_councildis": "B",
    "status": "Pending",
    "rowid": "1004925",
    "final_x": "3677982.71349",
    "final_y": "519681.016504",
    "longitude": "-90.07958568775406",
    "latitude": "29.923048710801694",
    "geocoded_column": {
      "latitude": "29.923048710801694",
      "longitude": "-90.07958568775406"
    }
  },
  {
    "service_request": "2023-1004924",
    "request_type": "Property Maintenance",
    "request_reason": "Property Maintenance",
    "date_created": "2023-06-01T19:59:16.000",
    "date_modified": "2023-06-01T19:59:16.000",
    "request_status": "Pending",
    "responsible_agency": "Department of Code Enforcement",
    "final_address": "1809 Adams St",
    "address_councildis": "A",
    "status": "Pending",
    "rowid": "1004924",
    "final_x": "3664561.55136",
    "final_y": "528982.202432",
    "longitude": "-90.121640817808",
    "latitude": "29.949020983982134",
    "geocoded_column": {
      "latitude": "29.949020983982134",
      "longitude": "-90.121640817808"
    }
  },
  {
    "service_request": "2023-1004923",
    "request_type": "Trash/Recycling",
    "request_reason": "Illegal Dumping",
    "date_created": "2023-06-01T19:56:33.000",
    "date_modified": "2023-06-01T19:56:33.000",
    "request_status": "Pending",
    "responsible_agency": "Department of Sanitation",
    "final_address": "2214 Ursulines Ave",
    "address_councildis": "D",
    "status": "Pending",
    "rowid": "1004923",
    "final_x": "3679117.52514",
    "final_y": "536911.241288",
    "longitude": "-90.07540643077743",
    "latitude": "29.970391885951127",
    "geocoded_column": {
      "latitude": "29.970391885951127",
      "longitude": "-90.07540643077743"
    }
  },
  {
    "service_request": "2023-1004922",
    "request_type": "Property Maintenance",
    "request_reason": "Property Maintenance",
    "date_created": "2023-06-01T19:50:04.000",
    "date_modified": "2023-06-01T19:50:05.000",
    "request_status": "Pending",
    "responsible_agency": "Department of Code Enforcement",
    "final_address": "2218 Desire St",
    "address_councildis": "D",
    "status": "Pending",
    "rowid": "1004922",
    "final_x": "3691210.50166",
    "final_y": "540011.633227",
    "longitude": "-90.03710484089052",
    "latitude": "29.97854628091489",
    "geocoded_column": {
      "latitude": "29.97854628091489",
      "longitude": "-90.03710484089052"
    }
  },
  {
    "service_request": "2023-1004921",
    "request_type": "Mosquito, Termite & Rodent Control",
    "request_reason": "Rodent Complaint (Rats)",
    "date_created": "2023-06-01T19:48:36.000",
    "date_modified": "2023-06-01T19:48:36.000",
    "request_status": "Pending",
    "responsible_agency": "Mosquito, Termite & Rodent Control Board",
    "final_address": "907 Charbonnet St",
    "address_councildis": "E",
    "status": "Pending",
    "rowid": "1004921",
    "final_x": "3698499.75536",
    "final_y": "532935.242372",
    "longitude": "-90.01434009376521",
    "latitude": "29.958859996379196",
    "geocoded_column": {
      "latitude": "29.958859996379196",
      "longitude": "-90.01434009376521"
    }
  },
  {
    "service_request": "2023-1004920",
    "request_type": "Traffic Signals/Signs/Striping/Streetlights",
    "request_reason": "Traffic Signal Malfunctioning/Damaged",
    "date_created": "2023-06-01T19:41:06.000",
    "date_modified": "2023-06-01T19:41:06.000",
    "request_status": "Pending",
    "responsible_agency": "Department of Public Works",
    "final_address": "LEON C SIMON DR & PRESS DR",
    "address_councildis": "D",
    "status": "Pending",
    "rowid": "1004920",
    "final_x": "3688450.8",
    "final_y": "558159.08",
    "longitude": "-90.04517662187004",
    "latitude": "30.02853069869081",
    "geocoded_column": {
      "latitude": "30.02853069869081",
      "longitude": "-90.04517662187004"
    }
  },
  {
    "service_request": "2023-1004919",
    "request_type": "Mosquito, Termite & Rodent Control",
    "request_reason": "Rodent Complaint (Rats)",
    "date_created": "2023-06-01T19:39:53.000",
    "date_modified": "2023-06-01T19:39:53.000",
    "request_status": "Pending",
    "responsible_agency": "Mosquito, Termite & Rodent Control Board",
    "final_address": "922 Charbonnet St",
    "address_councildis": "E",
    "status": "Pending",
    "rowid": "1004919",
    "final_x": "3698410.3793",
    "final_y": "533004.47002",
    "longitude": "-90.01461980317758",
    "latitude": "29.959053176444797",
    "geocoded_column": {
      "latitude": "29.959053176444797",
      "longitude": "-90.01461980317758"
    }
  },
  {
    "service_request": "2023-1004918",
    "request_type": "Trash/Recycling",
    "request_reason": "Replace Trash Cart",
    "date_created": "2023-06-01T19:33:17.000",
    "date_modified": "2023-06-01T19:33:18.000",
    "request_status": "Pending",
    "responsible_agency": "Department of Sanitation",
    "final_address": "2308 Joseph St",
    "address_councildis": "A",
    "status": "Assigned to Contractor",
    "contractor": "Richards Disposal",
    "rowid": "1004918",
    "final_x": "3667299.55693",
    "final_y": "524552.270716",
    "longitude": "-90.11314466030142",
    "latitude": "29.936760204203424",
    "geocoded_column": {
      "latitude": "29.936760204203424",
      "longitude": "-90.11314466030142"
    }
  },
  {
    "service_request": "2023-1004917",
    "request_type": "Traffic Signals/Signs/Striping/Streetlights",
    "request_reason": "Street Light Outage/Malfunction",
    "date_created": "2023-06-01T19:30:27.000",
    "date_modified": "2023-06-01T19:30:28.000",
    "request_status": "Pending",
    "responsible_agency": "Department of Public Works",
    "final_address": "1226 Camp St",
    "address_councildis": "B",
    "status": "Assigned to Contractor",
    "contractor": "Legacy Professional Services",
    "rowid": "1004917",
    "final_x": "3680233.31797",
    "final_y": "525500.806013",
    "longitude": "-90.07227922143048",
    "latitude": "29.938983313901723",
    "geocoded_column": {
      "latitude": "29.938983313901723",
      "longitude": "-90.07227922143048"
    }
  },
  {
    "service_request": "2023-1004916",
    "request_type": "Trash/Recycling",
    "request_reason": "Replace Trash Cart",
    "date_created": "2023-06-01T19:24:11.000",
    "date_modified": "2023-06-01T19:24:11.000",
    "request_status": "Pending",
    "responsible_agency": "Department of Sanitation",
    "final_address": "1142 Michael St",
    "address_councildis": "C",
    "status": "Assigned to Contractor",
    "contractor": "Richards Disposal",
    "rowid": "1004916",
    "final_x": "3697286.23459",
    "final_y": "527023.579774",
    "longitude": "-90.01838628821038",
    "latitude": "29.94264335197681",
    "geocoded_column": {
      "latitude": "29.94264335197681",
      "longitude": "-90.01838628821038"
    }
  },
  {
    "service_request": "2023-1004915",
    "request_type": "Mosquito, Termite & Rodent Control",
    "request_reason": "Rodent Complaint (Rats)",
    "date_created": "2023-06-01T19:23:16.000",
    "date_modified": "2023-06-01T19:23:16.000",
    "request_status": "Pending",
    "responsible_agency": "Mosquito, Termite & Rodent Control Board",
    "final_address": "926 Charbonnet St",
    "address_councildis": "E",
    "status": "Pending",
    "rowid": "1004915",
    "final_x": "3698424.26788",
    "final_y": "533039.192324",
    "longitude": "-90.01457468483525",
    "latitude": "29.959148210945834",
    "geocoded_column": {
      "latitude": "29.959148210945834",
      "longitude": "-90.01457468483525"
    }
  },
  {
    "service_request": "2023-1004914",
    "request_type": "Roads/Drainage",
    "request_reason": "Man hole cover issue",
    "date_created": "2023-06-01T19:22:41.000",
    "date_modified": "2023-06-01T19:22:41.000",
    "request_status": "Pending",
    "responsible_agency": "Department of Public Works",
    "final_address": "S CLAIBORNE AVE & HAMILTON ST",
    "address_councildis": "A",
    "status": "Pending",
    "rowid": "1004914",
    "final_x": "3662273.0",
    "final_y": "533953.98",
    "longitude": "-90.12870177087791",
    "latitude": "29.962758109343714",
    "geocoded_column": {
      "latitude": "29.962758109343714",
      "longitude": "-90.12870177087791"
    }
  },
  {
    "service_request": "2023-1004913",
    "request_type": "Trash/Recycling",
    "request_reason": "Order Recycling Cart",
    "date_created": "2023-06-01T19:17:24.000",
    "date_modified": "2023-06-01T19:17:24.000",
    "request_status": "Pending",
    "responsible_agency": "Department of Sanitation",
    "final_address": "1126 Melpomene St",
    "address_councildis": "B",
    "status": "Pending",
    "rowid": "1004913",
    "final_x": "3680196.23432",
    "final_y": "524818.620732",
    "longitude": "-90.07241999915199",
    "latitude": "29.937108652631487",
    "geocoded_column": {
      "latitude": "29.937108652631487",
      "longitude": "-90.07241999915199"
    }
  },
  {
    "service_request": "2023-1004912",
    "request_type": "Trash/Recycling",
    "request_reason": "Order Trash Cart",
    "date_created": "2023-06-01T19:02:44.000",
    "date_modified": "2023-06-01T19:02:45.000",
    "request_status": "Pending",
    "responsible_agency": "Department of Sanitation",
    "final_address": "2637 Palmyra St",
    "address_councildis": "B",
    "status": "Assigned to Contractor",
    "contractor": "Richards Disposal",
    "rowid": "1004912",
    "final_x": "3675083.83925",
    "final_y": "534402.673861",
    "longitude": "-90.0882313620467",
    "latitude": "29.963615319553828",
    "geocoded_column": {
      "latitude": "29.963615319553828",
      "longitude": "-90.0882313620467"
    }
  },
  {
    "service_request": "2023-1004911",
    "request_type": "Roads/Drainage",
    "request_reason": "WaterMain Break",
    "date_created": "2023-06-01T19:01:40.000",
    "date_modified": "2023-06-01T19:01:40.000",
    "request_status": "Pending",
    "responsible_agency": "Department of Public Works",
    "final_address": "6416 Baccich St",
    "address_councildis": "D",
    "status": "Pending",
    "rowid": "1004911",
    "final_x": "3687316.0045",
    "final_y": "556972.920986",
    "longitude": "-90.04880453159775",
    "latitude": "30.025304233760586",
    "geocoded_column": {
      "latitude": "30.025304233760586",
      "longitude": "-90.04880453159775"
    }
  },
  {
    "service_request": "2023-1004910",
    "request_type": "Trash/Recycling",
    "request_reason": "Repair Trash Cart",
    "date_created": "2023-06-01T18:49:39.000",
    "date_modified": "2023-06-01T18:49:40.000",
    "request_status": "Pending",
    "responsible_agency": "Department of Sanitation",
    "final_address": "3121 Napoleon Ave",
    "address_councildis": "B",
    "status": "Assigned to Contractor",
    "contractor": "Richards Disposal",
    "rowid": "1004910",
    "final_x": "3670392.59578",
    "final_y": "526462.61139",
    "longitude": "-90.10331502391782",
    "latitude": "29.941922093216434",
    "geocoded_column": {
      "latitude": "29.941922093216434",
      "longitude": "-90.10331502391782"
    }
  },
  {
    "service_request": "2023-1004909",
    "request_type": "Trash/Recycling",
    "request_reason": "Missed Trash Pick-Up",
    "date_created": "2023-06-01T18:42:52.000",
    "date_modified": "2023-06-01T18:42:52.000",
    "request_status": "Pending",
    "responsible_agency": "Department of Sanitation",
    "final_address": "6958 General Haig St",
    "address_councildis": "A",
    "status": "Assigned to Contractor",
    "contractor": "IV Waste",
    "rowid": "1004909",
    "final_x": "3671006.61441",
    "final_y": "553465.168151",
    "longitude": "-90.10045915023834",
    "latitude": "30.01615180921859",
    "geocoded_column": {
      "latitude": "30.01615180921859",
      "longitude": "-90.10045915023834"
    }
  },
  {
    "service_request": "2023-1004908",
    "request_type": "Abandoned Vehicles",
    "request_reason": "Abandoned/Junk Vehicles",
    "date_created": "2023-06-01T18:21:31.000",
    "date_modified": "2023-06-01T18:21:31.000",
    "request_status": "Pending",
    "responsible_agency": "Department of Public Works",
    "final_address": "4401 S Rocheblave St",
    "address_councildis": "B",
    "status": "Pending",
    "rowid": "1004908",
    "final_x": "3669953.41358",
    "final_y": "528506.315072",
    "longitude": "-90.10463242830006",
    "latitude": "29.947554569046552",
    "geocoded_column": {
      "latitude": "29.947554569046552",
      "longitude": "-90.10463242830006"
    }
  },
  {
    "service_request": "2023-1004907",
    "request_type": "Trash/Recycling",
    "request_reason": "Request a Large Item Pick Up",
    "date_created": "2023-06-01T18:05:20.000",
    "date_modified": "2023-06-01T18:05:20.000",
    "request_status": "Pending",
    "responsible_agency": "Department of Sanitation",
    "final_address": "810 Austerlitz St",
    "address_councildis": "B",
    "status": "Assigned to Contractor",
    "contractor": "Richards Disposal",
    "rowid": "1004907",
    "final_x": "3672855.95425",
    "final_y": "518690.617783",
    "longitude": "-90.09580268126325",
    "latitude": "29.920478680021702",
    "geocoded_column": {
      "latitude": "29.920478680021702",
      "longitude": "-90.09580268126325"
    }
  },
  {
    "service_request": "2023-1004906",
    "request_type": "Traffic Signals/Signs/Striping/Streetlights",
    "request_reason": "Street Light Knocked Down/Leaning",
    "date_created": "2023-06-01T18:03:26.000",
    "date_modified": "2023-06-01T18:03:27.000",
    "request_status": "Pending",
    "responsible_agency": "Department of Public Works",
    "final_address": "4280 Joycelyn Dr",
    "address_councildis": "C",
    "status": "Pending",
    "contractor": "Legacy Professional Services",
    "rowid": "1004906",
    "final_x": "3708238.34315",
    "final_y": "514856.557747",
    "longitude": "-89.98426051230669",
    "latitude": "29.908838179944215",
    "geocoded_column": {
      "latitude": "29.908838179944215",
      "longitude": "-89.98426051230669"
    }
  },
  {
    "service_request": "2023-1004905",
    "request_type": "Trash/Recycling",
    "request_reason": "Missed Trash Pick-Up",
    "date_created": "2023-06-01T17:54:42.000",
    "date_modified": "2023-06-01T17:54:42.000",
    "request_status": "Pending",
    "responsible_agency": "Department of Sanitation",
    "final_address": "3322 Cherry St",
    "address_councildis": "A",
    "status": "Assigned to Contractor",
    "contractor": "Richards Disposal",
    "rowid": "1004905",
    "final_x": "3663978.30291",
    "final_y": "536925.697032",
    "longitude": "-90.12321751500458",
    "latitude": "29.970879946977632",
    "geocoded_column": {
      "latitude": "29.970879946977632",
      "longitude": "-90.12321751500458"
    }
  },
  {
    "service_request": "2023-1004904",
    "request_type": "Roads/Drainage",
    "request_reason": "Pothole",
    "date_created": "2023-06-01T17:51:46.000",
    "date_modified": "2023-06-01T17:51:46.000",
    "request_status": "Pending",
    "responsible_agency": "Department of Public Works",
    "final_address": "307 Homedale St",
    "address_councildis": "A",
    "status": "Pending",
    "rowid": "1004904",
    "final_x": "3666936.05825",
    "final_y": "544788.008655",
    "longitude": "-90.11361220289389",
    "latitude": "29.99241242925294",
    "geocoded_column": {
      "latitude": "29.99241242925294",
      "longitude": "-90.11361220289389"
    }
  },
  {
    "service_request": "2023-1004903",
    "request_type": "Trash/Recycling",
    "request_reason": "Repair Trash Cart",
    "date_created": "2023-06-01T17:46:47.000",
    "date_modified": "2023-06-01T17:46:48.000",
    "request_status": "Pending",
    "responsible_agency": "Department of Sanitation",
    "final_address": "1341 Mandeville St",
    "address_councildis": "C",
    "status": "Assigned to Contractor",
    "contractor": "IV Waste",
    "rowid": "1004903",
    "final_x": "3685726.32278",
    "final_y": "537428.88532",
    "longitude": "-90.05451690874926",
    "latitude": "29.971614076536092",
    "geocoded_column": {
      "latitude": "29.971614076536092",
      "longitude": "-90.05451690874926"
    }
  },
  {
    "service_request": "2023-1004902",
    "request_type": "Trash/Recycling",
    "request_reason": "Illegal Dumping",
    "date_created": "2023-06-01T17:46:36.000",
    "date_modified": "2023-06-01T17:46:36.000",
    "request_status": "Pending",
    "responsible_agency": "Department of Sanitation",
    "final_address": "4716 Burgundy St",
    "address_councildis": "E",
    "status": "Pending",
    "rowid": "1004902",
    "final_x": "3694594.31741",
    "final_y": "533731.658565",
    "longitude": "-90.02664373860756",
    "latitude": "29.961172896405454",
    "geocoded_column": {
      "latitude": "29.961172896405454",
      "longitude": "-90.02664373860756"
    }
  },
  {
    "service_request": "2023-1004901",
    "request_type": "Roads/Drainage",
    "request_reason": "Street Subsidence (Sinking)",
    "date_created": "2023-06-01T17:40:32.000",
    "date_modified": "2023-06-01T17:40:32.000",
    "request_status": "Pending",
    "responsible_agency": "Department of Public Works",
    "final_address": "941 Harmony St",
    "address_councildis": "B",
    "status": "Pending",
    "rowid": "1004901",
    "final_x": "3676019.55547",
    "final_y": "519626.210616",
    "longitude": "-90.08578450853823",
    "latitude": "29.92295693029005",
    "geocoded_column": {
      "latitude": "29.92295693029005",
      "longitude": "-90.08578450853823"
    }
  },
  {
    "service_request": "2023-1004900",
    "request_type": "Trash/Recycling",
    "request_reason": "Illegal Dumping",
    "date_created": "2023-06-01T17:38:23.000",
    "date_modified": "2023-06-01T17:38:23.000",
    "request_status": "Pending",
    "responsible_agency": "Department of Sanitation",
    "final_address": "7600 BLK Gannon Rd",
    "address_councildis": "E",
    "status": "Pending",
    "rowid": "1004900",
    "final_x": "3716373.68893",
    "final_y": "569891.598849",
    "longitude": "-89.9564971740266",
    "latitude": "30.05989765801519",
    "geocoded_column": {
      "latitude": "30.05989765801519",
      "longitude": "-89.9564971740266"
    }
  },
  {
    "service_request": "2023-1004899",
    "request_type": "Abandoned Vehicles",
    "request_reason": "Abandoned/Junk Vehicles",
    "date_created": "2023-06-01T17:38:15.000",
    "date_modified": "2023-06-01T17:38:15.000",
    "request_status": "Pending",
    "responsible_agency": "Department of Public Works",
    "final_address": "2300 Royal St",
    "address_councildis": "C",
    "status": "Pending",
    "rowid": "1004899",
    "final_x": "3685560.40649",
    "final_y": "534880.006534",
    "longitude": "-90.05513069231324",
    "latitude": "29.96461063588148",
    "geocoded_column": {
      "latitude": "29.96461063588148",
      "longitude": "-90.05513069231324"
    }
  },
  {
    "service_request": "2023-1004898",
    "request_type": "Trash/Recycling",
    "request_reason": "Request a Large Item Pick Up",
    "date_created": "2023-06-01T17:37:52.000",
    "date_modified": "2023-06-01T17:37:53.000",
    "request_status": "Pending",
    "responsible_agency": "Department of Sanitation",
    "final_address": "2413 Marengo St",
    "address_councildis": "B",
    "status": "Assigned to Contractor",
    "contractor": "Richards Disposal",
    "rowid": "1004898",
    "final_x": "3671709.66324",
    "final_y": "523925.422716",
    "longitude": "-90.09924302925505",
    "latitude": "29.93490670662304",
    "geocoded_column": {
      "latitude": "29.93490670662304",
      "longitude": "-90.09924302925505"
    }
  },
  {
    "service_request": "2023-1004897",
    "request_type": "Trash/Recycling",
    "request_reason": "Request a Large Item Pick Up",
    "date_created": "2023-06-01T17:34:24.000",
    "date_modified": "2023-06-01T17:34:25.000",
    "request_status": "Pending",
    "responsible_agency": "Department of Sanitation",
    "final_address": "5201 S Liberty St",
    "address_councildis": "B",
    "status": "Assigned to Contractor",
    "contractor": "Richards Disposal",
    "rowid": "1004897",
    "final_x": "3668145.45095",
    "final_y": "523260.734587",
    "longitude": "-90.11051763772585",
    "latitude": "29.93318409805167",
    "geocoded_column": {
      "latitude": "29.93318409805167",
      "longitude": "-90.11051763772585"
    }
  },
  {
    "service_request": "2023-1004896",
    "request_type": "Trash/Recycling",
    "request_reason": "Request a Large Item Pick Up",
    "date_created": "2023-06-01T17:33:13.000",
    "date_modified": "2023-06-01T17:33:14.000",
    "request_status": "Pending",
    "responsible_agency": "Department of Sanitation",
    "final_address": "5201 S Liberty St",
    "address_councildis": "B",
    "status": "Assigned to Contractor",
    "contractor": "Richards Disposal",
    "rowid": "1004896",
    "final_x": "3668145.45095",
    "final_y": "523260.734587",
    "longitude": "-90.11051763772585",
    "latitude": "29.93318409805167",
    "geocoded_column": {
      "latitude": "29.93318409805167",
      "longitude": "-90.11051763772585"
    }
  },
  {
    "service_request": "2023-1004895",
    "request_type": "Trash/Recycling",
    "request_reason": "Request a Large Item Pick Up",
    "date_created": "2023-06-01T17:29:03.000",
    "date_modified": "2023-06-01T17:29:04.000",
    "request_status": "Pending",
    "responsible_agency": "Department of Sanitation",
    "final_address": "5201 S Liberty St",
    "address_councildis": "B",
    "status": "Assigned to Contractor",
    "contractor": "Richards Disposal",
    "rowid": "1004895",
    "final_x": "3668145.45095",
    "final_y": "523260.734587",
    "longitude": "-90.11051763772585",
    "latitude": "29.93318409805167",
    "geocoded_column": {
      "latitude": "29.93318409805167",
      "longitude": "-90.11051763772585"
    }
  },
  {
    "service_request": "2023-1004894",
    "request_type": "Trash/Recycling",
    "request_reason": "Damaged Caused By Contractor",
    "date_created": "2023-06-01T17:25:35.000",
    "date_modified": "2023-06-01T17:25:35.000",
    "request_status": "Pending",
    "responsible_agency": "Department of Sanitation",
    "final_address": "120 Wren St",
    "address_councildis": "D",
    "status": "Assigned to Contractor",
    "contractor": "IV Waste",
    "rowid": "1004894",
    "final_x": "3673294.0386",
    "final_y": "556212.429722",
    "longitude": "-90.09313793362169",
    "latitude": "30.023637921499773",
    "geocoded_column": {
      "latitude": "30.023637921499773",
      "longitude": "-90.09313793362169"
    }
  },
  {
    "service_request": "2023-1004892",
    "request_type": "Trash/Recycling",
    "request_reason": "Request a Large Item Pick Up",
    "date_created": "2023-06-01T17:22:01.000",
    "date_modified": "2023-06-01T17:22:02.000",
    "request_status": "Pending",
    "responsible_agency": "Department of Sanitation",
    "final_address": "2907 Chippewa St",
    "address_councildis": "B",
    "status": "Assigned to Contractor",
    "contractor": "Richards Disposal",
    "rowid": "1004892",
    "final_x": "3677368.38811",
    "final_y": "519263.224951",
    "longitude": "-90.08153928420884",
    "latitude": "29.921918387591145",
    "geocoded_column": {
      "latitude": "29.921918387591145",
      "longitude": "-90.08153928420884"
    }
  },
  {
    "service_request": "2023-1004891",
    "request_type": "Abandoned Vehicles",
    "request_reason": "Abandoned/Junk Vehicles",
    "date_created": "2023-06-01T17:20:48.000",
    "date_modified": "2023-06-01T17:20:48.000",
    "request_status": "Pending",
    "responsible_agency": "Department of Public Works",
    "final_address": "7621 Wave Dr",
    "address_councildis": "E",
    "status": "Pending",
    "rowid": "1004891",
    "final_x": "3715051.75352",
    "final_y": "568778.241957",
    "longitude": "-89.96071785155135",
    "latitude": "30.056879994937375",
    "geocoded_column": {
      "latitude": "30.056879994937375",
      "longitude": "-89.96071785155135"
    }
  },
  {
    "service_request": "2023-1004890",
    "request_type": "Roads/Drainage",
    "request_reason": "Street Flooding / Drainage",
    "date_created": "2023-06-01T17:19:39.000",
    "date_modified": "2023-06-01T17:19:39.000",
    "request_status": "Pending",
    "responsible_agency": "Department of Public Works",
    "final_address": "1105 Dublin St",
    "address_councildis": "A",
    "status": "Pending",
    "rowid": "1004890",
    "final_x": "3661537.27763",
    "final_y": "528372.97664",
    "longitude": "-90.13120999641265",
    "latitude": "29.94743339817827",
    "geocoded_column": {
      "latitude": "29.94743339817827",
      "longitude": "-90.13120999641265"
    }
  },
  {
    "service_request": "2023-1004889",
    "request_type": "Trash/Recycling",
    "request_reason": "Request a Large Item Pick Up",
    "date_created": "2023-06-01T17:16:53.000",
    "date_modified": "2023-06-01T17:16:53.000",
    "request_status": "Pending",
    "responsible_agency": "Department of Sanitation",
    "final_address": "1020 Louisa St",
    "address_councildis": "C",
    "status": "Assigned to Contractor",
    "contractor": "IV Waste",
    "rowid": "1004889",
    "final_x": "3689460.61769",
    "final_y": "535606.126982",
    "longitude": "-90.04278831743626",
    "latitude": "29.966487006253107",
    "geocoded_column": {
      "latitude": "29.966487006253107",
      "longitude": "-90.04278831743626"
    }
  },
  {
    "service_request": "2023-1004888",
    "request_type": "Trash/Recycling",
    "request_reason": "Request a Large Item Pick Up",
    "date_created": "2023-06-01T17:14:16.000",
    "date_modified": "2023-06-01T17:28:57.000",
    "request_status": "Pending",
    "responsible_agency": "Department of Sanitation",
    "final_address": "4732 Saint Claude Ave, New Orleans, Louisiana, 70117",
    "address_councildis": "E",
    "status": "Assigned to Contractor",
    "contractor": "Waste Pro",
    "rowid": "1004888",
    "final_x": "3694923.81027",
    "final_y": "534435.078213",
    "longitude": "-90.02557791317464",
    "latitude": "29.963096716249932",
    "geocoded_column": {
      "latitude": "29.963096716249932",
      "longitude": "-90.02557791317464"
    }
  },
  {
    "service_request": "2023-1004887",
    "request_type": "Abandoned Vehicles",
    "request_reason": "Abandoned/Junk Vehicles",
    "date_created": "2023-06-01T17:11:07.000",
    "date_modified": "2023-06-01T17:11:07.000",
    "request_status": "Pending",
    "responsible_agency": "Department of Public Works",
    "final_address": "13259 Curran Rd",
    "address_councildis": "E",
    "status": "Pending",
    "rowid": "1004887",
    "final_x": "3716029.90732",
    "final_y": "570206.068007",
    "longitude": "-89.95757190197561",
    "latitude": "30.0607736717501",
    "geocoded_column": {
      "latitude": "30.0607736717501",
      "longitude": "-89.95757190197561"
    }
  },
  {
    "service_request": "2023-1004886",
    "request_type": "Trash/Recycling",
    "request_reason": "MIssed Recycling Pick-Up",
    "date_created": "2023-06-01T17:08:21.000",
    "date_modified": "2023-06-01T17:08:22.000",
    "request_status": "Pending",
    "responsible_agency": "Department of Sanitation",
    "final_address": "3317 Napoleon Ave",
    "address_councildis": "B",
    "status": "Assigned to Contractor",
    "contractor": "Richards Disposal",
    "rowid": "1004886",
    "final_x": "3670332.10215",
    "final_y": "527052.52531",
    "longitude": "-90.10348602523369",
    "latitude": "29.943545950181417",
    "geocoded_column": {
      "latitude": "29.943545950181417",
      "longitude": "-90.10348602523369"
    }
  },
  {
    "service_request": "2023-1004885",
    "request_type": "Trash/Recycling",
    "request_reason": "Order Trash Cart",
    "date_created": "2023-06-01T16:55:05.000",
    "date_modified": "2023-06-01T16:55:06.000",
    "request_status": "Pending",
    "responsible_agency": "Department of Sanitation",
    "final_address": "4950 Sandalwood St",
    "address_councildis": "E",
    "status": "Assigned to Contractor",
    "contractor": "Waste Pro",
    "rowid": "1004885",
    "final_x": "3712025.19832",
    "final_y": "557429.453595",
    "longitude": "-89.9707108261398",
    "latitude": "30.025774726650205",
    "geocoded_column": {
      "latitude": "30.025774726650205",
      "longitude": "-89.9707108261398"
    }
  },
  {
    "service_request": "2023-1004884",
    "request_type": "Trash/Recycling",
    "request_reason": "Request a Large Item Pick Up",
    "date_created": "2023-06-01T16:51:59.000",
    "date_modified": "2023-06-01T16:52:00.000",
    "request_status": "Pending",
    "responsible_agency": "Department of Sanitation",
    "final_address": "6023 Marais St",
    "address_councildis": "E",
    "status": "Assigned to Contractor",
    "contractor": "Waste Pro",
    "rowid": "1004884",
    "final_x": "3699488.0986",
    "final_y": "533808.710981",
    "longitude": "-90.01118735038557",
    "latitude": "29.961230404174316",
    "geocoded_column": {
      "latitude": "29.961230404174316",
      "longitude": "-90.01118735038557"
    }
  },
  {
    "service_request": "2023-1004883",
    "request_type": "Trash/Recycling",
    "request_reason": "Request a Large Item Pick Up",
    "date_created": "2023-06-01T16:49:55.000",
    "date_modified": "2023-06-01T16:49:55.000",
    "request_status": "Pending",
    "responsible_agency": "Department of Sanitation",
    "final_address": "3000 Dumaine St",
    "address_councildis": "A",
    "status": "Assigned to Contractor",
    "contractor": "Richards Disposal",
    "rowid": "1004883",
    "final_x": "3676073.10158",
    "final_y": "538227.305737",
    "longitude": "-90.08497578691512",
    "latitude": "29.974102162911016",
    "geocoded_column": {
      "latitude": "29.974102162911016",
      "longitude": "-90.08497578691512"
    }
  },
  {
    "service_request": "2023-1004882",
    "request_type": "Trash/Recycling",
    "request_reason": "Order Recycling Cart",
    "date_created": "2023-06-01T16:42:46.000",
    "date_modified": "2023-06-01T16:42:47.000",
    "request_status": "Pending",
    "responsible_agency": "Department of Sanitation",
    "final_address": "8321 Grant St",
    "address_councildis": "E",
    "status": "Pending",
    "rowid": "1004882",
    "final_x": "3706046.929",
    "final_y": "554487.875224",
    "longitude": "-89.98971018634757",
    "latitude": "30.017880650419887",
    "geocoded_column": {
      "latitude": "30.017880650419887",
      "longitude": "-89.98971018634757"
    }
  },
  {
    "service_request": "2023-1004881",
    "request_type": "Trash/Recycling",
    "request_reason": "MIssed Recycling Pick-Up",
    "date_created": "2023-06-01T16:41:50.000",
    "date_modified": "2023-06-01T17:36:29.000",
    "request_status": "Pending",
    "responsible_agency": "Department of Sanitation",
    "final_address": "8321 Grant St",
    "address_councildis": "E",
    "contractor": "Waste Pro",
    "rowid": "1004881",
    "final_x": "3706046.929",
    "final_y": "554487.875224",
    "longitude": "-89.98971018634757",
    "latitude": "30.017880650419887",
    "geocoded_column": {
      "latitude": "30.017880650419887",
      "longitude": "-89.98971018634757"
    }
  },
  {
    "service_request": "2023-1004880",
    "request_type": "Trash/Recycling",
    "request_reason": "Missed Trash Pick-Up",
    "date_created": "2023-06-01T16:33:49.000",
    "date_modified": "2023-06-01T16:33:50.000",
    "request_status": "Pending",
    "responsible_agency": "Department of Sanitation",
    "final_address": "2314 Delery St",
    "address_councildis": "E",
    "status": "Assigned to Contractor",
    "contractor": "Waste Pro",
    "rowid": "1004880",
    "final_x": "3702208.70065",
    "final_y": "537434.866696",
    "longitude": "-90.00246323893724",
    "latitude": "29.971114425544155",
    "geocoded_column": {
      "latitude": "29.971114425544155",
      "longitude": "-90.00246323893724"
    }
  },
  {
    "service_request": "2023-1004878",
    "request_type": "Traffic Signals/Signs/Striping/Streetlights",
    "request_reason": "Striping/Road Surface Markings",
    "date_created": "2023-06-01T16:23:57.000",
    "date_modified": "2023-06-01T16:23:58.000",
    "request_status": "Pending",
    "responsible_agency": "Department of Public Works",
    "final_address": "N BROAD ST & ST BERNARD AVE",
    "address_councildis": "D",
    "status": "Pending",
    "rowid": "1004878",
    "final_x": "3680258.8",
    "final_y": "541607.98",
    "longitude": "-90.07163883350515",
    "latitude": "29.983271790195364",
    "geocoded_column": {
      "latitude": "29.983271790195364",
      "longitude": "-90.07163883350515"
    }
  },
  {
    "service_request": "2023-1004877",
    "request_type": "Trash/Recycling",
    "request_reason": "Illegal Dumping",
    "date_created": "2023-06-01T16:12:24.000",
    "date_modified": "2023-06-01T16:13:02.000",
    "request_status": "Pending",
    "responsible_agency": "Department of Sanitation",
    "final_address": "5524 S Johnson St",
    "address_councildis": "A",
    "status": "Pending",
    "rowid": "1004877",
    "final_x": "3668010.16986",
    "final_y": "527041.575934",
    "longitude": "-90.11081736677356",
    "latitude": "29.94358416498361",
    "geocoded_column": {
      "latitude": "29.94358416498361",
      "longitude": "-90.11081736677356"
    }
  },
  {
    "service_request": "2023-1004876",
    "request_type": "Trash/Recycling",
    "request_reason": "Order Trash Cart",
    "date_created": "2023-06-01T16:12:04.000",
    "date_modified": "2023-06-01T16:12:05.000",
    "request_status": "Pending",
    "responsible_agency": "Department of Sanitation",
    "final_address": "3052 Law St",
    "address_councildis": "D",
    "status": "Assigned to Contractor",
    "contractor": "IV Waste",
    "rowid": "1004876",
    "final_x": "3690286.37212",
    "final_y": "541642.729484",
    "longitude": "-90.03996542473142",
    "latitude": "29.98305992714538",
    "geocoded_column": {
      "latitude": "29.98305992714538",
      "longitude": "-90.03996542473142"
    }
  },
  {
    "service_request": "2023-1004875",
    "request_type": "Trash/Recycling",
    "request_reason": "Order Trash Cart",
    "date_created": "2023-06-01T16:08:27.000",
    "date_modified": "2023-06-01T16:08:28.000",
    "request_status": "Pending",
    "responsible_agency": "Department of Sanitation",
    "final_address": "4743 Gabriel Dr",
    "address_councildis": "E",
    "status": "Assigned to Contractor",
    "contractor": "Waste Pro",
    "rowid": "1004875",
    "final_x": "3708945.37918",
    "final_y": "555779.236633",
    "longitude": "-89.98050411256139",
    "latitude": "30.021337620275233",
    "geocoded_column": {
      "latitude": "30.021337620275233",
      "longitude": "-89.98050411256139"
    }
  },
  {
    "service_request": "2023-1004874",
    "request_type": "Property Maintenance",
    "request_reason": "Property Maintenance",
    "date_created": "2023-06-01T16:07:35.000",
    "date_modified": "2023-06-01T16:07:35.000",
    "request_status": "Pending",
    "responsible_agency": "Department of Code Enforcement",
    "final_address": "8834 Hickory St",
    "address_councildis": "A",
    "status": "Pending",
    "rowid": "1004874",
    "final_x": "3661315.28518",
    "final_y": "531749.647107",
    "longitude": "-90.13179911901679",
    "latitude": "29.95672455900054",
    "geocoded_column": {
      "latitude": "29.95672455900054",
      "longitude": "-90.13179911901679"
    }
  },
  {
    "service_request": "2023-1004873",
    "request_type": "Abandoned Vehicles",
    "request_reason": "Abandoned/Junk Vehicles",
    "date_created": "2023-06-01T16:03:02.000",
    "date_modified": "2023-06-01T16:04:00.000",
    "request_status": "Pending",
    "responsible_agency": "Department of Public Works",
    "final_address": "1100 Verret St",
    "address_councildis": "C",
    "status": "Pending",
    "rowid": "1004873",
    "final_x": "3687317.48604",
    "final_y": "527524.891071",
    "longitude": "-90.04984214638776",
    "latitude": "29.944332583934205",
    "geocoded_column": {
      "latitude": "29.944332583934205",
      "longitude": "-90.04984214638776"
    }
  },
  {
    "service_request": "2023-1004872",
    "request_type": "Trash/Recycling",
    "request_reason": "Request a Large Item Pick Up",
    "date_created": "2023-06-01T16:01:22.000",
    "date_modified": "2023-06-01T16:01:23.000",
    "request_status": "Pending",
    "responsible_agency": "Department of Sanitation",
    "final_address": "3013 Laussat Pl",
    "address_councildis": "D",
    "status": "Assigned to Contractor",
    "contractor": "IV Waste",
    "rowid": "1004872",
    "final_x": "3690042.80009",
    "final_y": "542045.920908",
    "longitude": "-90.04072038136442",
    "latitude": "29.984176116869193",
    "geocoded_column": {
      "latitude": "29.984176116869193",
      "longitude": "-90.04072038136442"
    }
  },
  {
    "service_request": "2023-1004871",
    "request_type": "Trash/Recycling",
    "request_reason": "Request a Large Item Pick Up",
    "date_created": "2023-06-01T16:00:50.000",
    "date_modified": "2023-06-01T16:00:51.000",
    "request_status": "Pending",
    "responsible_agency": "Department of Sanitation",
    "final_address": "921 Washington Ave",
    "address_councildis": "B",
    "status": "Assigned to Contractor",
    "contractor": "Richards Disposal",
    "rowid": "1004871",
    "final_x": "3677387.54446",
    "final_y": "520394.939384",
    "longitude": "-90.08143978583527",
    "latitude": "29.925029660352816",
    "geocoded_column": {
      "latitude": "29.925029660352816",
      "longitude": "-90.08143978583527"
    }
  },
  {
    "service_request": "2023-1004870",
    "request_type": "Trash/Recycling",
    "request_reason": "Request a Large Item Pick Up",
    "date_created": "2023-06-01T16:00:36.000",
    "date_modified": "2023-06-01T16:00:37.000",
    "request_status": "Pending",
    "responsible_agency": "Department of Sanitation",
    "final_address": "4743 Gabriel Dr",
    "address_councildis": "E",
    "status": "Assigned to Contractor",
    "contractor": "Waste Pro",
    "rowid": "1004870",
    "final_x": "3708945.37918",
    "final_y": "555779.236633",
    "longitude": "-89.98050411256139",
    "latitude": "30.021337620275233",
    "geocoded_column": {
      "latitude": "30.021337620275233",
      "longitude": "-89.98050411256139"
    }
  },
  {
    "service_request": "2023-1004869",
    "request_type": "Trash/Recycling",
    "request_reason": "Missed Trash Pick-Up",
    "date_created": "2023-06-01T16:00:09.000",
    "date_modified": "2023-06-01T16:00:10.000",
    "request_status": "Pending",
    "responsible_agency": "Department of Sanitation",
    "final_address": "2401 First St",
    "address_councildis": "B",
    "status": "Assigned to Contractor",
    "contractor": "Richards Disposal",
    "rowid": "1004869",
    "final_x": "3675359.20289",
    "final_y": "525687.369725",
    "longitude": "-90.08766099017603",
    "latitude": "29.939642900895667",
    "geocoded_column": {
      "latitude": "29.939642900895667",
      "longitude": "-90.08766099017603"
    }
  },
  {
    "service_request": "2023-1004868",
    "request_type": "Trash/Recycling",
    "request_reason": "Request a Large Item Pick Up",
    "date_created": "2023-06-01T15:58:16.000",
    "date_modified": "2023-06-01T15:58:17.000",
    "request_status": "Pending",
    "responsible_agency": "Department of Sanitation",
    "final_address": "812 Antonine St",
    "address_councildis": "B",
    "status": "Assigned to Contractor",
    "contractor": "Richards Disposal",
    "rowid": "1004868",
    "final_x": "3674136.06817",
    "final_y": "518297.423158",
    "longitude": "-90.0917754022448",
    "latitude": "29.919359442885415",
    "geocoded_column": {
      "latitude": "29.919359442885415",
      "longitude": "-90.0917754022448"
    }
  },
  {
    "service_request": "2023-1004867",
    "request_type": "Trash/Recycling",
    "request_reason": "Request a Large Item Pick Up",
    "date_created": "2023-06-01T15:55:21.000",
    "date_modified": "2023-06-01T15:55:22.000",
    "request_status": "Pending",
    "responsible_agency": "Department of Sanitation",
    "final_address": "3421 Baronne St",
    "address_councildis": "B",
    "status": "Assigned to Contractor",
    "contractor": "Richards Disposal",
    "rowid": "1004867",
    "final_x": "3673686.76526",
    "final_y": "522173.026938",
    "longitude": "-90.09306121264684",
    "latitude": "29.930029487143866",
    "geocoded_column": {
      "latitude": "29.930029487143866",
      "longitude": "-90.09306121264684"
    }
  },
  {
    "service_request": "2023-1004866",
    "request_type": "Mosquito, Termite & Rodent Control",
    "request_reason": "Mosquito Complaint",
    "date_created": "2023-06-01T15:55:13.000",
    "date_modified": "2023-06-01T15:55:13.000",
    "request_status": "Pending",
    "responsible_agency": "Mosquito, Termite & Rodent Control Board",
    "final_address": "1001 Franklin Ave",
    "address_councildis": "C",
    "status": "Pending",
    "rowid": "1004866",
    "final_x": "3687033.34409",
    "final_y": "536049.904455",
    "longitude": "-90.05043790860245",
    "latitude": "29.967782186775874",
    "geocoded_column": {
      "latitude": "29.967782186775874",
      "longitude": "-90.05043790860245"
    }
  },
  {
    "service_request": "2023-1004865",
    "request_type": "Roads/Drainage",
    "request_reason": "Accessibility Ramps, Curbs and Sidewalk Repair",
    "date_created": "2023-06-01T15:53:06.000",
    "date_modified": "2023-06-01T15:53:07.000",
    "request_status": "Pending",
    "responsible_agency": "Department of Public Works",
    "final_address": "2316 Choctaw Ct",
    "address_councildis": "E",
    "status": "Pending",
    "rowid": "1004865",
    "final_x": "3698659.9192",
    "final_y": "538592.876681",
    "longitude": "-90.01362857866349",
    "latitude": "29.97441139441578",
    "geocoded_column": {
      "latitude": "29.97441139441578",
      "longitude": "-90.01362857866349"
    }
  },
  {
    "service_request": "2023-1004864",
    "request_type": "Trash/Recycling",
    "request_reason": "Request a Large Item Pick Up",
    "date_created": "2023-06-01T15:52:25.000",
    "date_modified": "2023-06-01T15:52:25.000",
    "request_status": "Pending",
    "responsible_agency": "Department of Sanitation",
    "final_address": "916 Jourdan Ave",
    "address_councildis": "E",
    "status": "Assigned to Contractor",
    "contractor": "Waste Pro",
    "rowid": "1004864",
    "final_x": "3694783.21629",
    "final_y": "533885.764613",
    "longitude": "-90.02604168083347",
    "latitude": "29.961590709144318",
    "geocoded_column": {
      "latitude": "29.961590709144318",
      "longitude": "-90.02604168083347"
    }
  },
  {
    "service_request": "2023-1004863",
    "request_type": "Trash/Recycling",
    "request_reason": "Missed Trash Pick-Up",
    "date_created": "2023-06-01T15:50:38.000",
    "date_modified": "2023-06-01T15:50:39.000",
    "request_status": "Pending",
    "responsible_agency": "Department of Sanitation",
    "final_address": "1411 Terpsichore St",
    "address_councildis": "B",
    "status": "Assigned to Contractor",
    "contractor": "Richards Disposal",
    "rowid": "1004863",
    "final_x": "3679759.99829",
    "final_y": "524896.670076",
    "longitude": "-90.07379451290134",
    "latitude": "29.937336454973533",
    "geocoded_column": {
      "latitude": "29.937336454973533",
      "longitude": "-90.07379451290134"
    }
  },
  {
    "service_request": "2023-1004862",
    "request_type": "Trash/Recycling",
    "request_reason": "Missed Trash Pick-Up",
    "date_created": "2023-06-01T15:47:52.000",
    "date_modified": "2023-06-01T15:47:52.000",
    "request_status": "Pending",
    "responsible_agency": "Department of Sanitation",
    "final_address": "1021 Marigny St",
    "address_councildis": "C",
    "status": "Assigned to Contractor",
    "contractor": "IV Waste",
    "rowid": "1004862",
    "final_x": "3685461.76757",
    "final_y": "536162.068487",
    "longitude": "-90.05539703237561",
    "latitude": "29.968138887014728",
    "geocoded_column": {
      "latitude": "29.968138887014728",
      "longitude": "-90.05539703237561"
    }
  },
  {
    "service_request": "2023-1004861",
    "request_type": "Mosquito, Termite & Rodent Control",
    "request_reason": "Rodent Complaint (Rats)",
    "date_created": "2023-06-01T15:47:34.000",
    "date_modified": "2023-06-01T15:47:35.000",
    "request_status": "Pending",
    "responsible_agency": "Mosquito, Termite & Rodent Control Board",
    "final_address": "2100 BLK S Claiborne Ave",
    "address_councildis": "B",
    "status": "Pending",
    "rowid": "1004861",
    "final_x": "3674646.89673",
    "final_y": "527780.618767",
    "longitude": "-90.08983812328765",
    "latitude": "29.945419921412313",
    "geocoded_column": {
      "latitude": "29.945419921412313",
      "longitude": "-90.08983812328765"
    }
  },
  {
    "service_request": "2023-1004860",
    "request_type": "Safety & Permits",
    "request_reason": "Safety & Permits Request (Cyber Incident Back Up)",
    "date_created": "2023-06-01T15:45:13.000",
    "date_modified": "2023-06-01T15:45:13.000",
    "request_status": "Pending",
    "responsible_agency": "Safety and Permits",
    "final_address": "2019 Dumaine St",
    "address_councildis": "D",
    "status": "Pending",
    "rowid": "1004860",
    "final_x": "3679248.85019",
    "final_y": "535969.814343",
    "longitude": "-90.07502434120687",
    "latitude": "29.96779931941338",
    "geocoded_column": {
      "latitude": "29.96779931941338",
      "longitude": "-90.07502434120687"
    }
  },
  {
    "service_request": "2023-1004859",
    "request_type": "Trash/Recycling",
    "request_reason": "Missed Trash Pick-Up",
    "date_created": "2023-06-01T15:45:05.000",
    "date_modified": "2023-06-01T15:49:54.000",
    "request_status": "Pending",
    "responsible_agency": "Department of Sanitation",
    "final_address": "New Orleans,LA",
    "address_councildis": "B",
    "status": "Assigned to Contractor",
    "contractor": "Richards Disposal",
    "rowid": "1004859",
    "final_x": "3679759.99829",
    "final_y": "524896.670076",
    "longitude": "-90.07379451290134",
    "latitude": "29.937336454973533",
    "geocoded_column": {
      "latitude": "29.937336454973533",
      "longitude": "-90.07379451290134"
    }
  },
  {
    "service_request": "2023-1004858",
    "request_type": "Trash/Recycling",
    "request_reason": "Request a Large Item Pick Up",
    "date_created": "2023-06-01T15:43:15.000",
    "date_modified": "2023-06-01T15:51:03.000",
    "request_status": "Pending",
    "responsible_agency": "Department of Sanitation",
    "final_address": "New Orleans,LA",
    "address_councildis": "A",
    "status": "Assigned to Contractor",
    "contractor": "Richards Disposal",
    "rowid": "1004858",
    "final_x": "3666166.39572",
    "final_y": "529570.057153",
    "longitude": "-90.11655389604924",
    "latitude": "29.950590632275492",
    "geocoded_column": {
      "latitude": "29.950590632275492",
      "longitude": "-90.11655389604924"
    }
  },
  {
    "service_request": "2023-1004857",
    "request_type": "Trash/Recycling",
    "request_reason": "Order Recycling Cart",
    "date_created": "2023-06-01T15:42:23.000",
    "date_modified": "2023-06-01T15:42:23.000",
    "request_status": "Pending",
    "responsible_agency": "Department of Sanitation",
    "final_address": "2436 Robert St",
    "address_councildis": "B",
    "status": "Pending",
    "rowid": "1004857",
    "final_x": "3668788.71374",
    "final_y": "524569.91302",
    "longitude": "-90.10844271194001",
    "latitude": "29.936765027068432",
    "geocoded_column": {
      "latitude": "29.936765027068432",
      "longitude": "-90.10844271194001"
    }
  },
  {
    "service_request": "2023-1004856",
    "request_type": "Trash/Recycling",
    "request_reason": "Missed Trash Pick-Up",
    "date_created": "2023-06-01T15:39:09.000",
    "date_modified": "2023-06-01T15:39:10.000",
    "request_status": "Pending",
    "responsible_agency": "Department of Sanitation",
    "final_address": "4951 Major Dr",
    "address_councildis": "E",
    "status": "Assigned to Contractor",
    "contractor": "Waste Pro",
    "rowid": "1004856",
    "final_x": "3718214.89023",
    "final_y": "558209.487707",
    "longitude": "-89.95112274418662",
    "latitude": "30.027715663262022",
    "geocoded_column": {
      "latitude": "30.027715663262022",
      "longitude": "-89.95112274418662"
    }
  },
  {
    "service_request": "2023-1004855",
    "request_type": "Abandoned Vehicles",
    "request_reason": "Abandoned/Junk Vehicles",
    "date_created": "2023-06-01T15:39:05.000",
    "date_modified": "2023-06-01T15:39:06.000",
    "request_status": "Pending",
    "responsible_agency": "Department of Public Works",
    "final_address": "1300 BLK Spain St",
    "address_councildis": "C",
    "status": "Pending",
    "rowid": "1004855",
    "final_x": "3686060.56715",
    "final_y": "537314.819187",
    "longitude": "-90.05346534084741",
    "latitude": "29.97129017312149",
    "geocoded_column": {
      "latitude": "29.97129017312149",
      "longitude": "-90.05346534084741"
    }
  },
  {
    "service_request": "2023-1004854",
    "request_type": "Trash/Recycling",
    "request_reason": "Order Recycling Cart",
    "date_created": "2023-06-01T15:36:55.000",
    "date_modified": "2023-06-01T15:36:56.000",
    "request_status": "Pending",
    "responsible_agency": "Department of Sanitation",
    "final_address": "7521 Willow St",
    "address_councildis": "A",
    "status": "Pending",
    "rowid": "1004854",
    "final_x": "3663979.84122",
    "final_y": "527627.038207",
    "longitude": "-90.12352271539486",
    "latitude": "29.945311619695907",
    "geocoded_column": {
      "latitude": "29.945311619695907",
      "longitude": "-90.12352271539486"
    }
  },
  {
    "service_request": "2023-1004853",
    "request_type": "Tax and Revenue",
    "request_reason": "Sales Tax Question",
    "date_created": "2023-06-01T15:36:18.000",
    "date_modified": "2023-06-01T15:36:18.000",
    "request_status": "Pending",
    "responsible_agency": "Bureau of Revenue",
    "status": "Pending",
    "rowid": "1004853",
    "longitude": "0.0",
    "latitude": "0.0",
    "geocoded_column": {
      "latitude": "0.0",
      "longitude": "0.0"
    }
  },
  {
    "service_request": "2023-1004852",
    "request_type": "Trash/Recycling",
    "request_reason": "Return Trash Cart",
    "date_created": "2023-06-01T15:33:13.000",
    "date_modified": "2023-06-01T15:33:14.000",
    "request_status": "Pending",
    "responsible_agency": "Department of Sanitation",
    "final_address": "2719 Eagle St",
    "address_councildis": "A",
    "status": "Assigned to Contractor",
    "contractor": "Richards Disposal",
    "rowid": "1004852",
    "final_x": "3663906.07335",
    "final_y": "534132.162565",
    "longitude": "-90.12353877376006",
    "latitude": "29.96320074399675",
    "geocoded_column": {
      "latitude": "29.96320074399675",
      "longitude": "-90.12353877376006"
    }
  },
  {
    "service_request": "2023-1004851",
    "request_type": "Trash/Recycling",
    "request_reason": "Request a Large Item Pick Up",
    "date_created": "2023-06-01T15:32:25.000",
    "date_modified": "2023-06-01T15:32:25.000",
    "request_status": "Pending",
    "responsible_agency": "Department of Sanitation",
    "final_address": "2719 Eagle St",
    "address_councildis": "A",
    "status": "Assigned to Contractor",
    "contractor": "Richards Disposal",
    "rowid": "1004851",
    "final_x": "3663906.07335",
    "final_y": "534132.162565",
    "longitude": "-90.12353877376006",
    "latitude": "29.96320074399675",
    "geocoded_column": {
      "latitude": "29.96320074399675",
      "longitude": "-90.12353877376006"
    }
  },
  {
    "service_request": "2023-1004850",
    "request_type": "Trash/Recycling",
    "request_reason": "Illegal Dumping",
    "date_created": "2023-06-01T15:29:55.000",
    "date_modified": "2023-06-01T15:29:55.000",
    "request_status": "Pending",
    "responsible_agency": "Department of Sanitation",
    "final_address": "WESTLAKE DR & BASINVIEW DR & I 10 E SERVICE RD",
    "address_councildis": "E",
    "status": "Pending",
    "rowid": "1004850",
    "final_x": "3699257.9",
    "final_y": "556876.38",
    "longitude": "-90.01107368432172",
    "latitude": "30.02466527510741",
    "geocoded_column": {
      "latitude": "30.02466527510741",
      "longitude": "-90.01107368432172"
    }
  },
  {
    "service_request": "2023-1004849",
    "request_type": "Trash/Recycling",
    "request_reason": "Request a Large Item Pick Up",
    "date_created": "2023-06-01T15:27:30.000",
    "date_modified": "2023-06-01T15:27:31.000",
    "request_status": "Pending",
    "responsible_agency": "Department of Sanitation",
    "final_address": "1617 Fourth St",
    "address_councildis": "B",
    "status": "Assigned to Contractor",
    "contractor": "Richards Disposal",
    "rowid": "1004849",
    "final_x": "3676113.33275",
    "final_y": "522904.885755",
    "longitude": "-90.0853757714052",
    "latitude": "29.93196941620145",
    "geocoded_column": {
      "latitude": "29.93196941620145",
      "longitude": "-90.0853757714052"
    }
  },
  {
    "service_request": "2023-1004847",
    "request_type": "Parks & Parkways",
    "request_reason": "Request Tree Service (Right of Way/Public Property)",
    "date_created": "2023-06-01T15:24:20.000",
    "date_modified": "2023-06-01T15:24:21.000",
    "request_status": "Pending",
    "responsible_agency": "Department of Parks & Parkway",
    "final_address": "2223 Valentine Ct",
    "address_councildis": "C",
    "status": "Pending",
    "rowid": "1004847",
    "final_x": "3699451.20112",
    "final_y": "522948.563323",
    "longitude": "-90.0116994226082",
    "latitude": "29.931369980407116",
    "geocoded_column": {
      "latitude": "29.931369980407116",
      "longitude": "-90.0116994226082"
    }
  },
  {
    "service_request": "2023-1004846",
    "request_type": "Trash/Recycling",
    "request_reason": "Repair Trash Cart",
    "date_created": "2023-06-01T15:20:14.000",
    "date_modified": "2023-06-01T15:20:14.000",
    "request_status": "Pending",
    "responsible_agency": "Department of Sanitation",
    "final_address": "1805 Third St",
    "address_councildis": "B",
    "status": "Assigned to Contractor",
    "contractor": "Richards Disposal",
    "rowid": "1004846",
    "final_x": "3676024.95208",
    "final_y": "523561.356155",
    "longitude": "-90.08563221384621",
    "latitude": "29.933777142200164",
    "geocoded_column": {
      "latitude": "29.933777142200164",
      "longitude": "-90.08563221384621"
    }
  },
  {
    "service_request": "2023-1004845",
    "request_type": "Parks & Parkways",
    "request_reason": "Request Tree Service (Right of Way/Public Property)",
    "date_created": "2023-06-01T15:19:14.000",
    "date_modified": "2023-06-01T15:19:14.000",
    "request_status": "Pending",
    "responsible_agency": "Department of Parks & Parkway",
    "final_address": "1535 Milton St",
    "address_councildis": "D",
    "status": "Pending",
    "rowid": "1004845",
    "final_x": "3679011.39374",
    "final_y": "546253.639696",
    "longitude": "-90.0754177038953",
    "latitude": "29.99608343385707",
    "geocoded_column": {
      "latitude": "29.99608343385707",
      "longitude": "-90.0754177038953"
    }
  },
  {
    "service_request": "2023-1004844",
    "request_type": "Trash/Recycling",
    "request_reason": "MIssed Recycling Pick-Up",
    "date_created": "2023-06-01T15:18:49.000",
    "date_modified": "2023-06-01T15:18:49.000",
    "request_status": "Pending",
    "responsible_agency": "Department of Sanitation",
    "final_address": "811 Leontine St",
    "address_councildis": "B",
    "status": "Assigned to Contractor",
    "contractor": "Richards Disposal",
    "rowid": "1004844",
    "final_x": "3667171.83841",
    "final_y": "518418.213558",
    "longitude": "-90.11375399286145",
    "latitude": "29.919897231969262",
    "geocoded_column": {
      "latitude": "29.919897231969262",
      "longitude": "-90.11375399286145"
    }
  },
  {
    "service_request": "2023-1004842",
    "request_type": "Traffic Signals/Signs/Striping/Streetlights",
    "request_reason": "Street Light Outage/Malfunction",
    "date_created": "2023-06-01T15:15:15.000",
    "date_modified": "2023-06-01T15:15:16.000",
    "request_status": "Pending",
    "responsible_agency": "Department of Public Works",
    "final_address": "521 Park Blvd",
    "address_councildis": "C",
    "status": "Assigned to Contractor",
    "contractor": "Legacy Professional Services",
    "rowid": "1004842",
    "final_x": "3687416.54716",
    "final_y": "525796.287293",
    "longitude": "-90.04959052809735",
    "latitude": "29.939576458025407",
    "geocoded_column": {
      "latitude": "29.939576458025407",
      "longitude": "-90.04959052809735"
    }
  },
  {
    "service_request": "2023-1004841",
    "request_type": "Trash/Recycling",
    "request_reason": "Request a Large Item Pick Up",
    "date_created": "2023-06-01T15:11:02.000",
    "date_modified": "2023-06-01T15:11:02.000",
    "request_status": "Pending",
    "responsible_agency": "Department of Sanitation",
    "final_address": "219 Loyola Ave",
    "address_councildis": "B",
    "status": "Assigned to Contractor",
    "contractor": "Empire Services",
    "rowid": "1004841",
    "final_x": "3679187.08405",
    "final_y": "531134.900674",
    "longitude": "-90.07538702704547",
    "latitude": "29.95450681241384",
    "geocoded_column": {
      "latitude": "29.95450681241384",
      "longitude": "-90.07538702704547"
    }
  },
  {
    "service_request": "2023-1004840",
    "request_type": "Trash/Recycling",
    "request_reason": "Replace Trash Cart",
    "date_created": "2023-06-01T15:06:59.000",
    "date_modified": "2023-06-01T15:07:00.000",
    "request_status": "Pending",
    "responsible_agency": "Department of Sanitation",
    "final_address": "2436 Robert St",
    "address_councildis": "B",
    "status": "Assigned to Contractor",
    "contractor": "Richards Disposal",
    "rowid": "1004840",
    "final_x": "3668788.71374",
    "final_y": "524569.91302",
    "longitude": "-90.10844271194001",
    "latitude": "29.936765027068432",
    "geocoded_column": {
      "latitude": "29.936765027068432",
      "longitude": "-90.10844271194001"
    }
  },
  {
    "service_request": "2023-1004839",
    "request_type": "Trash/Recycling",
    "request_reason": "Damaged Caused By Contractor",
    "date_created": "2023-06-01T15:06:48.000",
    "date_modified": "2023-06-01T15:06:49.000",
    "request_status": "Pending",
    "responsible_agency": "Department of Sanitation",
    "final_address": "4830 Crowder Blvd",
    "address_councildis": "E",
    "status": "Assigned to Contractor",
    "contractor": "Waste Pro",
    "rowid": "1004839",
    "final_x": "3706282.33252",
    "final_y": "556149.836122",
    "longitude": "-89.98890479586251",
    "latitude": "30.022442807583943",
    "geocoded_column": {
      "latitude": "30.022442807583943",
      "longitude": "-89.98890479586251"
    }
  },
  {
    "service_request": "2023-1004838",
    "request_type": "Trash/Recycling",
    "request_reason": "Order Recycling Cart",
    "date_created": "2023-06-01T15:06:03.000",
    "date_modified": "2023-06-01T15:06:03.000",
    "request_status": "Pending",
    "responsible_agency": "Department of Sanitation",
    "final_address": "2436 Robert St",
    "address_councildis": "B",
    "status": "Pending",
    "rowid": "1004838",
    "final_x": "3668788.71374",
    "final_y": "524569.91302",
    "longitude": "-90.10844271194001",
    "latitude": "29.936765027068432",
    "geocoded_column": {
      "latitude": "29.936765027068432",
      "longitude": "-90.10844271194001"
    }
  },
  {
    "service_request": "2023-1004837",
    "request_type": "Trash/Recycling",
    "request_reason": "Missed Trash Pick-Up",
    "date_created": "2023-06-01T15:04:54.000",
    "date_modified": "2023-06-01T15:05:35.000",
    "request_status": "Pending",
    "responsible_agency": "Department of Sanitation",
    "final_address": "2313 Coliseum St",
    "address_councildis": "B",
    "status": "Assigned to Contractor",
    "contractor": "Richards Disposal",
    "rowid": "1004837",
    "final_x": "3677789.19189",
    "final_y": "522601.317434",
    "longitude": "-90.08009573821732",
    "latitude": "29.931084408886495",
    "geocoded_column": {
      "latitude": "29.931084408886495",
      "longitude": "-90.08009573821732"
    }
  },
  {
    "service_request": "2023-1004836",
    "request_type": "Trash/Recycling",
    "request_reason": "Request a Large Item Pick Up",
    "date_created": "2023-06-01T15:04:07.000",
    "date_modified": "2023-06-01T15:04:08.000",
    "request_status": "Pending",
    "responsible_agency": "Department of Sanitation",
    "final_address": "2415 Milan St",
    "address_councildis": "B",
    "status": "Assigned to Contractor",
    "contractor": "Richards Disposal",
    "rowid": "1004836",
    "final_x": "3671342.49793",
    "final_y": "523913.802108",
    "longitude": "-90.10040256341955",
    "latitude": "29.93488562199893",
    "geocoded_column": {
      "latitude": "29.93488562199893",
      "longitude": "-90.10040256341955"
    }
  },
  {
    "service_request": "2023-1004835",
    "request_type": "Parks & Parkways",
    "request_reason": "Request Tree Service (Right of Way/Public Property)",
    "date_created": "2023-06-01T15:02:47.000",
    "date_modified": "2023-06-01T15:02:48.000",
    "request_status": "Pending",
    "responsible_agency": "Department of Parks & Parkway",
    "final_address": "1924 Bayou Rd",
    "address_councildis": "D",
    "status": "Pending",
    "rowid": "1004835",
    "final_x": "3680340.20155",
    "final_y": "536874.903368",
    "longitude": "-90.07154634762765",
    "latitude": "29.970255004454046",
    "geocoded_column": {
      "latitude": "29.970255004454046",
      "longitude": "-90.07154634762765"
    }
  },
  {
    "service_request": "2023-1004834",
    "request_type": "Trash/Recycling",
    "request_reason": "MIssed Recycling Pick-Up",
    "date_created": "2023-06-01T14:57:48.000",
    "date_modified": "2023-06-01T14:57:48.000",
    "request_status": "Closed",
    "responsible_agency": "Department of Sanitation",
    "final_address": "1205 St Philip St Apt A",
    "address_councildis": "C",
    "status": "Resolved",
    "contractor": "Richards Disposal",
    "rowid": "1004834",
    "final_x": "3681709.84719",
    "final_y": "534565.614469",
    "longitude": "-90.06730144310768",
    "latitude": "29.96386371130163",
    "geocoded_column": {
      "latitude": "29.96386371130163",
      "longitude": "-90.06730144310768"
    }
  },
  {
    "service_request": "2023-1004833",
    "request_type": "Trash/Recycling",
    "request_reason": "Missed Trash Pick-Up",
    "date_created": "2023-06-01T14:54:51.000",
    "date_modified": "2023-06-01T14:54:52.000",
    "request_status": "Pending",
    "responsible_agency": "Department of Sanitation",
    "final_address": "600 BLK N dOrgenois St",
    "address_councildis": "D",
    "status": "Assigned to Contractor",
    "contractor": "Richards Disposal",
    "rowid": "1004833",
    "final_x": "3676997.82412",
    "final_y": "536380.538903",
    "longitude": "-90.08211898848286",
    "latitude": "29.968996450961694",
    "geocoded_column": {
      "latitude": "29.968996450961694",
      "longitude": "-90.08211898848286"
    }
  },
  {
    "service_request": "2023-1004832",
    "request_type": "Parks & Parkways",
    "request_reason": "Request Tree Service (Right of Way/Public Property)",
    "date_created": "2023-06-01T14:54:42.000",
    "date_modified": "2023-06-01T14:54:42.000",
    "request_status": "Pending",
    "responsible_agency": "Department of Parks & Parkway",
    "final_address": "3051 Grand-Route St John St",
    "address_councildis": "A",
    "status": "Pending",
    "rowid": "1004832",
    "final_x": "3676764.75189",
    "final_y": "540352.275979",
    "longitude": "-90.08271814738002",
    "latitude": "29.979924363326948",
    "geocoded_column": {
      "latitude": "29.979924363326948",
      "longitude": "-90.08271814738002"
    }
  },
  {
    "service_request": "2023-1004831",
    "request_type": "Property Maintenance",
    "request_reason": "Property Maintenance",
    "date_created": "2023-06-01T14:50:52.000",
    "date_modified": "2023-06-01T14:53:40.000",
    "request_status": "Pending",
    "responsible_agency": "Department of Code Enforcement",
    "final_address": "1735 Piety St",
    "address_councildis": "D",
    "status": "Pending",
    "rowid": "1004831",
    "final_x": "3690508.19248",
    "final_y": "538337.676937",
    "longitude": "-90.0393826885846",
    "latitude": "29.97396532199243",
    "geocoded_column": {
      "latitude": "29.97396532199243",
      "longitude": "-90.0393826885846"
    }
  },
  {
    "service_request": "2023-1004830",
    "request_type": "Abandoned Vehicles",
    "request_reason": "Abandoned/Junk Vehicles",
    "date_created": "2023-06-01T14:48:53.000",
    "date_modified": "2023-06-01T14:48:53.000",
    "request_status": "Pending",
    "responsible_agency": "Department of Public Works",
    "final_address": "4100 Washington Ave",
    "address_councildis": "B",
    "status": "Pending",
    "rowid": "1004830",
    "final_x": "3670918.27303",
    "final_y": "530082.650881",
    "longitude": "-90.10153247958388",
    "latitude": "29.951860491042247",
    "geocoded_column": {
      "latitude": "29.951860491042247",
      "longitude": "-90.10153247958388"
    }
  },
  {
    "service_request": "2023-1004829",
    "request_type": "Trash/Recycling",
    "request_reason": "Request a Large Item Pick Up",
    "date_created": "2023-06-01T14:48:16.000",
    "date_modified": "2023-06-01T14:48:17.000",
    "request_status": "Pending",
    "responsible_agency": "Department of Sanitation",
    "final_address": "10 France St",
    "address_councildis": "D",
    "status": "Assigned to Contractor",
    "contractor": "IV Waste",
    "rowid": "1004829",
    "final_x": "3692979.68573",
    "final_y": "537940.619785",
    "longitude": "-90.03159143746635",
    "latitude": "29.972796583054063",
    "geocoded_column": {
      "latitude": "29.972796583054063",
      "longitude": "-90.03159143746635"
    }
  },
  {
    "service_request": "2023-1004828",
    "request_type": "Trash/Recycling",
    "request_reason": "Return Recycling Cart",
    "date_created": "2023-06-01T14:46:55.000",
    "date_modified": "2023-06-01T14:46:56.000",
    "request_status": "Pending",
    "responsible_agency": "Department of Sanitation",
    "final_address": "734 Louque Pl",
    "address_councildis": "A",
    "status": "Pending",
    "rowid": "1004828",
    "final_x": "3668528.94017",
    "final_y": "543482.595214",
    "longitude": "-90.10862465179494",
    "latitude": "29.988776270322468",
    "geocoded_column": {
      "latitude": "29.988776270322468",
      "longitude": "-90.10862465179494"
    }
  },
  {
    "service_request": "2023-1004827",
    "request_type": "Trash/Recycling",
    "request_reason": "Repair Recycling Cart",
    "date_created": "2023-06-01T14:39:40.000",
    "date_modified": "2023-06-01T14:39:41.000",
    "request_status": "Pending",
    "responsible_agency": "Department of Sanitation",
    "final_address": "1404 Marengo St",
    "address_councildis": "B",
    "status": "Pending",
    "rowid": "1004827",
    "final_x": "3671945.42363",
    "final_y": "520503.51692",
    "longitude": "-90.09861514336693",
    "latitude": "29.925490582701535",
    "geocoded_column": {
      "latitude": "29.925490582701535",
      "longitude": "-90.09861514336693"
    }
  },
  {
    "service_request": "2023-1004826",
    "request_type": "Trash/Recycling",
    "request_reason": "Order Recycling Cart",
    "date_created": "2023-06-01T14:39:39.000",
    "date_modified": "2023-06-01T14:39:39.000",
    "request_status": "Pending",
    "responsible_agency": "Department of Sanitation",
    "final_address": "636 Carondelet St",
    "address_councildis": "B",
    "status": "Pending",
    "rowid": "1004826",
    "final_x": "3680177.44623",
    "final_y": "528699.389632",
    "longitude": "-90.07234448395583",
    "latitude": "29.947780043092084",
    "geocoded_column": {
      "latitude": "29.947780043092084",
      "longitude": "-90.07234448395583"
    }
  },
  {
    "service_request": "2023-1004825",
    "request_type": "Safety & Permits",
    "request_reason": "Construction permit",
    "date_created": "2023-06-01T14:39:16.000",
    "date_modified": "2023-06-01T14:39:16.000",
    "request_status": "Pending",
    "responsible_agency": "Department of Code Enforcement",
    "final_address": "1025 Soniat St",
    "address_councildis": "B",
    "status": "Pending",
    "rowid": "1004825",
    "final_x": "3668449.68628",
    "final_y": "519193.067639",
    "longitude": "-90.10969431628472",
    "latitude": "29.92199037641843",
    "geocoded_column": {
      "latitude": "29.92199037641843",
      "longitude": "-90.10969431628472"
    }
  },
  {
    "service_request": "2023-1004824",
    "request_type": "Trash/Recycling",
    "request_reason": "Order Trash Cart",
    "date_created": "2023-06-01T14:38:29.000",
    "date_modified": "2023-06-01T14:38:30.000",
    "request_status": "Pending",
    "responsible_agency": "Department of Sanitation",
    "final_address": "636 Carondelet St",
    "address_councildis": "B",
    "status": "Assigned to Contractor",
    "contractor": "Empire Services",
    "rowid": "1004824",
    "final_x": "3680177.44623",
    "final_y": "528699.389632",
    "longitude": "-90.07234448395583",
    "latitude": "29.947780043092084",
    "geocoded_column": {
      "latitude": "29.947780043092084",
      "longitude": "-90.07234448395583"
    }
  },
  {
    "service_request": "2023-1004823",
    "request_type": "Trash/Recycling",
    "request_reason": "Order Recycling Cart",
    "date_created": "2023-06-01T14:35:46.000",
    "date_modified": "2023-06-01T14:35:47.000",
    "request_status": "Pending",
    "responsible_agency": "Department of Sanitation",
    "final_address": "2232 Baronne St",
    "address_councildis": "B",
    "status": "Pending",
    "rowid": "1004823",
    "final_x": "3676827.85768",
    "final_y": "524273.192764",
    "longitude": "-90.08307295666425",
    "latitude": "29.935710395537498",
    "geocoded_column": {
      "latitude": "29.935710395537498",
      "longitude": "-90.08307295666425"
    }
  },
  {
    "service_request": "2023-1004822",
    "request_type": "Roads/Drainage",
    "request_reason": "Catch Basin - Clogged",
    "date_created": "2023-06-01T14:32:11.000",
    "date_modified": "2023-06-01T14:32:11.000",
    "request_status": "Pending",
    "responsible_agency": "Department of Public Works",
    "final_address": "3063 Grand-Route St John St",
    "address_councildis": "A",
    "status": "Pending",
    "rowid": "1004822",
    "final_x": "3676654.37723",
    "final_y": "540366.011019",
    "longitude": "-90.08306628306927",
    "latitude": "29.97996544192313",
    "geocoded_column": {
      "latitude": "29.97996544192313",
      "longitude": "-90.08306628306927"
    }
  },
  {
    "service_request": "2023-1004821",
    "request_type": "Trash/Recycling",
    "request_reason": "Request a Large Item Pick Up",
    "date_created": "2023-06-01T14:28:29.000",
    "date_modified": "2023-06-01T14:28:30.000",
    "request_status": "Pending",
    "responsible_agency": "Department of Sanitation",
    "final_address": "4535 LaSalle St",
    "address_councildis": "B",
    "status": "Assigned to Contractor",
    "contractor": "Richards Disposal",
    "rowid": "1004821",
    "final_x": "3669877.05959",
    "final_y": "523673.428155",
    "longitude": "-90.10503708211353",
    "latitude": "29.934267946992573",
    "geocoded_column": {
      "latitude": "29.934267946992573",
      "longitude": "-90.10503708211353"
    }
  },
  {
    "service_request": "2023-1004820",
    "request_type": "Trash/Recycling",
    "request_reason": "MIssed Recycling Pick-Up",
    "date_created": "2023-06-01T14:26:02.000",
    "date_modified": "2023-06-01T14:26:03.000",
    "request_status": "Pending",
    "responsible_agency": "Department of Sanitation",
    "final_address": "5620 Hurst St",
    "address_councildis": "A",
    "status": "Assigned to Contractor",
    "contractor": "Richards Disposal",
    "rowid": "1004820",
    "final_x": "3666489.06477",
    "final_y": "521550.081721",
    "longitude": "-90.11580414254337",
    "latitude": "29.92852884688342",
    "geocoded_column": {
      "latitude": "29.92852884688342",
      "longitude": "-90.11580414254337"
    }
  },
  {
    "service_request": "2023-1004819",
    "request_type": "Trash/Recycling",
    "request_reason": "Request a Large Item Pick Up",
    "date_created": "2023-06-01T14:24:53.000",
    "date_modified": "2023-06-01T15:24:02.000",
    "case_close_date": "2023-06-01T10:24:02.000",
    "request_status": "Closed",
    "responsible_agency": "Department of Sanitation",
    "final_address": "2653 N Rocheblave St",
    "address_councildis": "D",
    "status": "Assigned to Contractor",
    "contractor": "IV Waste",
    "contractor_action": "Completed",
    "rowid": "1004819",
    "final_x": "3686921.48745",
    "final_y": "541372.410636",
    "longitude": "-90.05060298739097",
    "latitude": "29.982420651878478",
    "geocoded_column": {
      "latitude": "29.982420651878478",
      "longitude": "-90.05060298739097"
    }
  },
  {
    "service_request": "2023-1004818",
    "request_type": "Trash/Recycling",
    "request_reason": "Request a Large Item Pick Up",
    "date_created": "2023-06-01T14:21:31.000",
    "date_modified": "2023-06-01T14:21:32.000",
    "request_status": "Pending",
    "responsible_agency": "Department of Sanitation",
    "final_address": "1921 Prytania St",
    "address_councildis": "B",
    "status": "Assigned to Contractor",
    "contractor": "Richards Disposal",
    "rowid": "1004818",
    "final_x": "3678583.00603",
    "final_y": "523848.028411",
    "longitude": "-90.0775466381238",
    "latitude": "29.934488557973467",
    "geocoded_column": {
      "latitude": "29.934488557973467",
      "longitude": "-90.0775466381238"
    }
  },
  {
    "service_request": "2023-1004817",
    "request_type": "Trash/Recycling",
    "request_reason": "Change Size of Trash Cart",
    "date_created": "2023-06-01T14:21:21.000",
    "date_modified": "2023-06-01T17:47:26.000",
    "request_status": "Pending",
    "responsible_agency": "Department of Sanitation",
    "final_address": "7401 Burke Road",
    "address_councildis": "E",
    "rowid": "1004817",
    "final_x": "3705826.4522",
    "final_y": "562329.947807",
    "longitude": "-89.99011634265469",
    "latitude": "30.039450395350887",
    "geocoded_column": {
      "latitude": "30.039450395350887",
      "longitude": "-89.99011634265469"
    }
  },
  {
    "service_request": "2023-1004816",
    "request_type": "Trash/Recycling",
    "request_reason": "MIssed Recycling Pick-Up",
    "date_created": "2023-06-01T14:18:41.000",
    "date_modified": "2023-06-01T15:22:47.000",
    "request_status": "Pending",
    "responsible_agency": "Department of Sanitation",
    "final_address": "13315 Dwyer Blvd",
    "address_councildis": "E",
    "contractor": "Waste Pro",
    "rowid": "1004816",
    "final_x": "3725033.30099",
    "final_y": "561771.782111",
    "longitude": "-89.92943946658197",
    "latitude": "30.037282596575974",
    "geocoded_column": {
      "latitude": "30.037282596575974",
      "longitude": "-89.92943946658197"
    }
  },
  {
    "service_request": "2023-1004815",
    "request_type": "Trash/Recycling",
    "request_reason": "Missed Trash Pick-Up",
    "date_created": "2023-06-01T14:17:15.000",
    "date_modified": "2023-06-01T14:17:15.000",
    "request_status": "Pending",
    "responsible_agency": "Department of Sanitation",
    "final_address": "6231 Curran Rd",
    "address_councildis": "E",
    "status": "Assigned to Contractor",
    "contractor": "Waste Pro",
    "rowid": "1004815",
    "final_x": "3696132.0177",
    "final_y": "559202.108316",
    "longitude": "-90.02086671371484",
    "latitude": "30.03115895362659",
    "geocoded_column": {
      "latitude": "30.03115895362659",
      "longitude": "-90.02086671371484"
    }
  },
  {
    "service_request": "2023-1004814",
    "request_type": "Trash/Recycling",
    "request_reason": "Replace Trash Cart",
    "date_created": "2023-06-01T14:12:43.000",
    "date_modified": "2023-06-01T14:12:43.000",
    "request_status": "Pending",
    "responsible_agency": "Department of Sanitation",
    "final_address": "3721 Somerset Dr",
    "address_councildis": "C",
    "status": "Assigned to Contractor",
    "contractor": "Richards Disposal",
    "rowid": "1004814",
    "final_x": "3702388.945",
    "final_y": "516883.110773",
    "longitude": "-90.00264776141046",
    "latitude": "29.91459858046162",
    "geocoded_column": {
      "latitude": "29.91459858046162",
      "longitude": "-90.00264776141046"
    }
  },
  {
    "service_request": "2023-1004813",
    "request_type": "Trash/Recycling",
    "request_reason": "Replace Trash Cart",
    "date_created": "2023-06-01T14:12:14.000",
    "date_modified": "2023-06-01T14:12:14.000",
    "request_status": "Pending",
    "responsible_agency": "Department of Sanitation",
    "final_address": "3721 Somerset Dr",
    "address_councildis": "C",
    "status": "Assigned to Contractor",
    "contractor": "Richards Disposal",
    "rowid": "1004813",
    "final_x": "3702388.945",
    "final_y": "516883.110773",
    "longitude": "-90.00264776141046",
    "latitude": "29.91459858046162",
    "geocoded_column": {
      "latitude": "29.91459858046162",
      "longitude": "-90.00264776141046"
    }
  },
  {
    "service_request": "2023-1004812",
    "request_type": "Trash/Recycling",
    "request_reason": "Repair Trash Cart",
    "date_created": "2023-06-01T14:11:52.000",
    "date_modified": "2023-06-01T14:11:53.000",
    "request_status": "Pending",
    "responsible_agency": "Department of Sanitation",
    "final_address": "4129 DHemecourt St",
    "address_councildis": "A",
    "status": "Assigned to Contractor",
    "contractor": "Richards Disposal",
    "rowid": "1004812",
    "final_x": "3669572.89441",
    "final_y": "537061.205256",
    "longitude": "-90.10554444937773",
    "latitude": "29.971088901737616",
    "geocoded_column": {
      "latitude": "29.971088901737616",
      "longitude": "-90.10554444937773"
    }
  },
  {
    "service_request": "2023-1004811",
    "request_type": "Trash/Recycling",
    "request_reason": "Order Trash Cart",
    "date_created": "2023-06-01T14:08:45.000",
    "date_modified": "2023-06-01T14:08:45.000",
    "request_status": "Pending",
    "responsible_agency": "Department of Sanitation",
    "final_address": "3616 Toledano St",
    "address_councildis": "B",
    "status": "Assigned to Contractor",
    "contractor": "Richards Disposal",
    "rowid": "1004811",
    "final_x": "3671549.72231",
    "final_y": "528645.650816",
    "longitude": "-90.09958751278363",
    "latitude": "29.94789053282873",
    "geocoded_column": {
      "latitude": "29.94789053282873",
      "longitude": "-90.09958751278363"
    }
  },
  {
    "service_request": "2023-1004810",
    "request_type": "Trash/Recycling",
    "request_reason": "Request a Large Item Pick Up",
    "date_created": "2023-06-01T14:08:32.000",
    "date_modified": "2023-06-01T15:10:45.000",
    "case_close_date": "2023-06-01T10:10:45.000",
    "request_status": "Closed",
    "responsible_agency": "Department of Sanitation",
    "final_address": "2509 Frenchmen St",
    "address_councildis": "D",
    "status": "Wrong Agency",
    "contractor": "IV Waste",
    "contractor_action": "Invalid Pick-Up",
    "rowid": "1004810",
    "final_x": "3684197.15567",
    "final_y": "541526.355596",
    "longitude": "-90.05920234789465",
    "latitude": "29.982927523857484",
    "geocoded_column": {
      "latitude": "29.982927523857484",
      "longitude": "-90.05920234789465"
    }
  },
  {
    "service_request": "2023-1004809",
    "request_type": "Traffic Signals/Signs/Striping/Streetlights",
    "request_reason": "Request for Stop Sign",
    "date_created": "2023-06-01T14:08:19.000",
    "date_modified": "2023-06-01T14:08:19.000",
    "request_status": "Pending",
    "responsible_agency": "Department of Public Works",
    "final_address": "ALINE ST & ANNUNCIATION ST",
    "address_councildis": "B",
    "status": "Pending",
    "rowid": "1004809",
    "final_x": "3674820.7",
    "final_y": "518367.98",
    "longitude": "-90.08961194375574",
    "latitude": "29.919533036130257",
    "geocoded_column": {
      "latitude": "29.919533036130257",
      "longitude": "-90.08961194375574"
    }
  },
  {
    "service_request": "2023-1004808",
    "request_type": "Trash/Recycling",
    "request_reason": "Illegal Dumping",
    "date_created": "2023-06-01T14:07:53.000",
    "date_modified": "2023-06-01T14:07:54.000",
    "request_status": "Pending",
    "responsible_agency": "Department of Code Enforcement",
    "final_address": "South Clark Street & Tulane Avenue",
    "address_councildis": "B",
    "status": "Pending",
    "rowid": "1004808",
    "final_x": "3671471.48059",
    "final_y": "535166.847622",
    "longitude": "-90.09961286183665",
    "latitude": "29.96582397958821",
    "geocoded_column": {
      "latitude": "29.96582397958821",
      "longitude": "-90.09961286183665"
    }
  },
  {
    "service_request": "2023-1004807",
    "request_type": "Trash/Recycling",
    "request_reason": "MIssed Recycling Pick-Up",
    "date_created": "2023-06-01T14:07:18.000",
    "date_modified": "2023-06-01T14:07:19.000",
    "request_status": "Pending",
    "responsible_agency": "Department of Sanitation",
    "final_address": "2514 Amelia St",
    "address_councildis": "B",
    "status": "Assigned to Contractor",
    "contractor": "Richards Disposal",
    "rowid": "1004807",
    "final_x": "3672303.55988",
    "final_y": "524398.937276",
    "longitude": "-90.09735197566623",
    "latitude": "29.93619111695968",
    "geocoded_column": {
      "latitude": "29.93619111695968",
      "longitude": "-90.09735197566623"
    }
  },
  {
    "service_request": "2023-1004806",
    "request_type": "Abandoned Vehicles",
    "request_reason": "Abandoned/Junk Vehicles",
    "date_created": "2023-06-01T14:05:56.000",
    "date_modified": "2023-06-01T14:05:56.000",
    "request_status": "Pending",
    "responsible_agency": "Department of Public Works",
    "final_address": "2660 Bruxelles St",
    "address_councildis": "D",
    "status": "Pending",
    "rowid": "1004806",
    "final_x": "3680315.80911",
    "final_y": "542171.988685",
    "longitude": "-90.07143915060743",
    "latitude": "29.984820890860473",
    "geocoded_column": {
      "latitude": "29.984820890860473",
      "longitude": "-90.07143915060743"
    }
  },
  {
    "service_request": "2023-1004805",
    "request_type": "Tax and Revenue",
    "request_reason": "Sales Tax Question",
    "date_created": "2023-06-01T14:04:36.000",
    "date_modified": "2023-06-01T14:04:37.000",
    "request_status": "Pending",
    "responsible_agency": "Bureau of Revenue",
    "status": "Pending",
    "rowid": "1004805",
    "longitude": "0.0",
    "latitude": "0.0",
    "geocoded_column": {
      "latitude": "0.0",
      "longitude": "0.0"
    }
  },