[
  {
    "service_request": "2022-874089",
    "request_type": "Trash/Recycling",
    "request_reason": "Request a Large Item Pick Up",
    "date_created": "2022-04-11T23:11:48.000",
    "date_modified": "2022-04-11T23:11:49.000",
    "request_status": "Pending",
    "responsible_agency": "Department of Sanitation",
    "final_address": "801 Canal St",
    "address_councildis": "C",
    "status": "Assigned to Contractor",
    "contractor": "Empire Services",
    "rowid": "874089",
    "final_x": "3680951.89391",
    "final_y": "530998.395906",
    "longitude": "-90.0698192041145",
    "latitude": "29.954078078458494",
    "geocoded_column": {
      "latitude": "29.954078078458494",
      "longitude": "-90.0698192041145"
    }
  },
  {
    "service_request": "2022-874088",
    "request_type": "Trash/Recycling",
    "request_reason": "Request a Large Item Pick Up",
    "date_created": "2022-04-11T23:07:43.000",
    "date_modified": "2022-04-11T23:07:44.000",
    "request_status": "Pending",
    "responsible_agency": "Department of Sanitation",
    "final_address": "711 Canal St",
    "address_councildis": "C",
    "status": "Assigned to Contractor",
    "contractor": "Empire Services",
    "rowid": "874088",
    "final_x": "3681159.56879",
    "final_y": "530817.33357",
    "longitude": "-90.06916975892206",
    "latitude": "29.953573919835726",
    "geocoded_column": {
      "latitude": "29.953573919835726",
      "longitude": "-90.06916975892206"
    }
  },
  {
    "service_request": "2022-874084",
    "request_type": "Roads/Drainage",
    "request_reason": "Damaged Sidewalk",
    "date_created": "2022-04-11T22:46:04.000",
    "date_modified": "2022-04-11T22:46:04.000",
    "request_status": "Pending",
    "responsible_agency": "Department of Public Works",
    "final_address": "300 Baronne St",
    "address_councildis": "B",
    "status": "Pending",
    "rowid": "874084",
    "final_x": "3680176.34837",
    "final_y": "530334.34989",
    "longitude": "-90.07229113812893",
    "latitude": "29.95227566785017",
    "geocoded_column": {
      "latitude": "29.95227566785017",
      "longitude": "-90.07229113812893"
    }
  },
  {
    "service_request": "2022-874083",
    "request_type": "Traffic Signals/Signs/Striping/Streetlights",
    "request_reason": "Street Light Outage/Malfunction",
    "date_created": "2022-04-11T22:43:18.000",
    "date_modified": "2022-04-11T22:43:18.000",
    "request_status": "Pending",
    "responsible_agency": "Department of Public Works",
    "final_address": "201 Baronne St",
    "address_councildis": "B",
    "status": "Pending",
    "contractor": "Royal Engineering",
    "rowid": "874083",
    "final_x": "3680155.78946",
    "final_y": "530664.581762",
    "longitude": "-90.07234457860008",
    "latitude": "29.953184316362155",
    "geocoded_column": {
      "latitude": "29.953184316362155",
      "longitude": "-90.07234457860008"
    }
  },
  {
    "service_request": "2022-874077",
    "request_type": "Roads/Drainage",
    "request_reason": "Street Flooding / Drainage",
    "date_created": "2022-04-11T22:38:37.000",
    "date_modified": "2022-04-11T22:38:37.000",
    "request_status": "Pending",
    "responsible_agency": "Department of Public Works",
    "final_address": "201 Baronne St",
    "address_councildis": "B",
    "status": "Pending",
    "rowid": "874077",
    "final_x": "3680155.78946",
    "final_y": "530664.581762",
    "longitude": "-90.07234457860008",
    "latitude": "29.953184316362155",
    "geocoded_column": {
      "latitude": "29.953184316362155",
      "longitude": "-90.07234457860008"
    }
  },
  {
    "service_request": "2022-874076",
    "request_type": "Traffic Signals/Signs/Striping/Streetlights",
    "request_reason": "Street Name Sign Damaged or Missing",
    "date_created": "2022-04-11T22:32:17.000",
    "date_modified": "2022-04-11T22:32:17.000",
    "request_status": "Pending",
    "responsible_agency": "Department of Public Works",
    "final_address": "1300 Canal St",
    "address_councildis": "B",
    "status": "Pending",
    "rowid": "874076",
    "final_x": "3679515.34165",
    "final_y": "531836.453187",
    "longitude": "-90.07432617801176",
    "latitude": "29.956425931975325",
    "geocoded_column": {
      "latitude": "29.956425931975325",
      "longitude": "-90.07432617801176"
    }
  },
  {
    "service_request": "2022-874075",
    "request_type": "Parks & Parkways",
    "request_reason": "Request Tree Service (Right of Way/Public Property)",
    "date_created": "2022-04-11T22:30:21.000",
    "date_modified": "2022-04-11T22:30:21.000",
    "request_status": "Pending",
    "responsible_agency": "Department of Parks & Parkway",
    "final_address": "1901 Cleveland Ave",
    "address_councildis": "B",
    "status": "Pending",
    "rowid": "874075",
    "final_x": "3677554.71912",
    "final_y": "532966.634756",
    "longitude": "-90.08047815832401",
    "latitude": "29.95959263990545",
    "geocoded_column": {
      "latitude": "29.95959263990545",
      "longitude": "-90.08047815832401"
    }
  },
  {
    "service_request": "2022-874074",
    "request_type": "Trash/Recycling",
    "request_reason": "Order Recycling Cart",
    "date_created": "2022-04-11T22:11:44.000",
    "date_modified": "2022-04-11T22:11:44.000",
    "request_status": "Pending",
    "responsible_agency": "Department of Sanitation",
    "final_address": "1011 N Derbigny St",
    "address_councildis": "D",
    "status": "Pending",
    "rowid": "874074",
    "final_x": "3680181.62312",
    "final_y": "535826.296327",
    "longitude": "-90.07208360671831",
    "latitude": "29.967376495562362",
    "geocoded_column": {
      "latitude": "29.967376495562362",
      "longitude": "-90.07208360671831"
    }
  },
  {
    "service_request": "2022-874073",
    "request_type": "Trash/Recycling",
    "request_reason": "Order Trash Cart",
    "date_created": "2022-04-11T22:06:49.000",
    "date_modified": "2022-04-11T22:06:50.000",
    "request_status": "Pending",
    "responsible_agency": "Department of Sanitation",
    "final_address": "1011 N Derbigny St",
    "address_councildis": "D",
    "status": "Assigned to Contractor",
    "contractor": "Richards Disposal",
    "rowid": "874073",
    "final_x": "3680181.62312",
    "final_y": "535826.296327",
    "longitude": "-90.07208360671831",
    "latitude": "29.967376495562362",
    "geocoded_column": {
      "latitude": "29.967376495562362",
      "longitude": "-90.07208360671831"
    }
  },
  {
    "service_request": "2022-874072",
    "request_type": "Trash/Recycling",
    "request_reason": "Order Trash Cart",
    "date_created": "2022-04-11T21:28:38.000",
    "date_modified": "2022-04-11T21:28:39.000",
    "request_status": "Pending",
    "responsible_agency": "Department of Sanitation",
    "final_address": "2621 Martin Luther King, Jr. Blvd",
    "address_councildis": "B",
    "status": "Assigned to Contractor",
    "contractor": "Richards Disposal",
    "rowid": "874072",
    "final_x": "3676038.32264",
    "final_y": "527614.612159",
    "longitude": "-90.08545064880202",
    "latitude": "29.944921864503325",
    "geocoded_column": {
      "latitude": "29.944921864503325",
      "longitude": "-90.08545064880202"
    }
  },
  {
    "service_request": "2022-874071",
    "request_type": "Trash/Recycling",
    "request_reason": "Order Trash Cart",
    "date_created": "2022-04-11T21:28:01.000",
    "date_modified": "2022-04-11T21:28:01.000",
    "request_status": "Pending",
    "responsible_agency": "Department of Sanitation",
    "final_address": "2619 Martin Luther King, Jr. Blvd",
    "address_councildis": "B",
    "status": "Assigned to Contractor",
    "contractor": "Richards Disposal",
    "rowid": "874071",
    "final_x": "3676053.2532",
    "final_y": "527606.974463",
    "longitude": "-90.08540377105041",
    "latitude": "29.94490041625422",
    "geocoded_column": {
      "latitude": "29.94490041625422",
      "longitude": "-90.08540377105041"
    }
  },
  {
    "service_request": "2022-874070",
    "request_type": "Trash/Recycling",
    "request_reason": "Missed Trash Pick-Up",
    "date_created": "2022-04-11T21:25:57.000",
    "date_modified": "2022-04-11T21:25:58.000",
    "request_status": "Pending",
    "responsible_agency": "Department of Sanitation",
    "final_address": "531 Second St",
    "address_councildis": "B",
    "status": "Assigned to Contractor",
    "contractor": "Richards Disposal",
    "rowid": "874070",
    "final_x": "3678946.68136",
    "final_y": "519703.907704",
    "longitude": "-90.07654202089383",
    "latitude": "29.923082616838766",
    "geocoded_column": {
      "latitude": "29.923082616838766",
      "longitude": "-90.07654202089383"
    }
  },
  {
    "service_request": "2022-874069",
    "request_type": "Trash/Recycling",
    "request_reason": "Illegal Dumping",
    "date_created": "2022-04-11T21:02:26.000",
    "date_modified": "2022-04-11T21:02:26.000",
    "request_status": "Pending",
    "responsible_agency": "Department of Sanitation",
    "final_address": "2514 N Robertson St",
    "address_councildis": "C",
    "status": "Pending",
    "rowid": "874069",
    "final_x": "3687241.30793",
    "final_y": "537933.401353",
    "longitude": "-90.04971452095528",
    "latitude": "29.972954740661983",
    "geocoded_column": {
      "latitude": "29.972954740661983",
      "longitude": "-90.04971452095528"
    }
  },
  {
    "service_request": "2022-874068",
    "request_type": "Traffic Signals/Signs/Striping/Streetlights",
    "request_reason": "Street Light Outage/Malfunction",
    "date_created": "2022-04-11T20:56:37.000",
    "date_modified": "2022-04-11T20:56:38.000",
    "request_status": "Pending",
    "responsible_agency": "Department of Public Works",
    "final_address": "325 Carondelet St",
    "address_councildis": "B",
    "status": "Pending",
    "contractor": "Royal Engineering",
    "rowid": "874068",
    "final_x": "3680420.33288",
    "final_y": "529976.844865",
    "longitude": "-90.07153317878856",
    "latitude": "29.951285263924042",
    "geocoded_column": {
      "latitude": "29.951285263924042",
      "longitude": "-90.07153317878856"
    }
  },
  {
    "service_request": "2022-874067",
    "request_type": "Trash/Recycling",
    "request_reason": "Missed Trash Pick-Up",
    "date_created": "2022-04-11T20:51:28.000",
    "date_modified": "2022-04-11T20:51:28.000",
    "request_status": "Pending",
    "responsible_agency": "Department of Sanitation",
    "final_address": "4730 Pontchartrain Blvd",
    "address_councildis": "A",
    "status": "Assigned to Contractor",
    "contractor": "Richards Disposal",
    "rowid": "874067",
    "final_x": "3667497.33172",
    "final_y": "538483.786121",
    "longitude": "-90.11205149100157",
    "latitude": "29.975061512618705",
    "geocoded_column": {
      "latitude": "29.975061512618705",
      "longitude": "-90.11205149100157"
    }
  },
  {
    "service_request": "2022-874066",
    "request_type": "Traffic Signals/Signs/Striping/Streetlights",
    "request_reason": "Street Light Outage/Malfunction",
    "date_created": "2022-04-11T20:43:04.000",
    "date_modified": "2022-04-11T20:43:05.000",
    "request_status": "Pending",
    "responsible_agency": "Department of Public Works",
    "final_address": "330 Carondelet St",
    "address_councildis": "B",
    "status": "Pending",
    "contractor": "Royal Engineering",
    "rowid": "874066",
    "final_x": "3680490.83061",
    "final_y": "529959.555713",
    "longitude": "-90.07131118307936",
    "latitude": "29.95123558976461",
    "geocoded_column": {
      "latitude": "29.95123558976461",
      "longitude": "-90.07131118307936"
    }
  },
  {
    "service_request": "2022-874065",
    "request_type": "Traffic Signals/Signs/Striping/Streetlights",
    "request_reason": "Street Light Outage/Malfunction",
    "date_created": "2022-04-11T20:37:15.000",
    "date_modified": "2022-04-11T20:37:16.000",
    "request_status": "Pending",
    "responsible_agency": "Department of Public Works",
    "final_address": "330 Carondelet St",
    "address_councildis": "B",
    "status": "Pending",
    "contractor": "Royal Engineering",
    "rowid": "874065",
    "final_x": "3680490.83061",
    "final_y": "529959.555713",
    "longitude": "-90.07131118307936",
    "latitude": "29.95123558976461",
    "geocoded_column": {
      "latitude": "29.95123558976461",
      "longitude": "-90.07131118307936"
    }
  },
  {
    "service_request": "2022-874064",
    "request_type": "Traffic Signals/Signs/Striping/Streetlights",
    "request_reason": "Traffic Signal Malfunctioning/Damaged",
    "date_created": "2022-04-11T20:31:01.000",
    "date_modified": "2022-04-11T20:31:01.000",
    "request_status": "Pending",
    "responsible_agency": "Department of Public Works",
    "final_address": "419 Carondelet St H",
    "address_councildis": "B",
    "status": "Pending",
    "rowid": "874064",
    "final_x": "3680319.9677",
    "final_y": "529623.197441",
    "longitude": "-90.07186237569015",
    "latitude": "29.95031589104918",
    "geocoded_column": {
      "latitude": "29.95031589104918",
      "longitude": "-90.07186237569015"
    }
  },
  {
    "service_request": "2022-874063",
    "request_type": "Trash/Recycling",
    "request_reason": "Request a Large Item Pick Up",
    "date_created": "2022-04-11T20:07:17.000",
    "date_modified": "2022-04-11T20:07:18.000",
    "request_status": "Pending",
    "responsible_agency": "Department of Sanitation",
    "final_address": "214 Porteous St",
    "address_councildis": "A",
    "status": "Assigned to Contractor",
    "contractor": "Metro Disposal",
    "rowid": "874063",
    "final_x": "3667369.57978",
    "final_y": "551619.140373",
    "longitude": "-90.11201278973255",
    "latitude": "30.011182981097097",
    "geocoded_column": {
      "latitude": "30.011182981097097",
      "longitude": "-90.11201278973255"
    }
  },
  {
    "service_request": "2022-874062",
    "request_type": "Abandoned Vehicles",
    "request_reason": "Vehicle Blocking Your Driveway",
    "date_created": "2022-04-11T20:06:45.000",
    "date_modified": "2022-04-11T20:06:45.000",
    "request_status": "Pending",
    "responsible_agency": "Department of Public Works",
    "final_address": "7509 Maple St, New Orleans, Louisiana, 70118",
    "address_councildis": "A",
    "status": "Pending",
    "rowid": "874062",
    "final_x": "3662540.48794",
    "final_y": "526001.863485",
    "longitude": "-90.12812120417814",
    "latitude": "29.9408846160399",
    "geocoded_column": {
      "latitude": "29.9408846160399",
      "longitude": "-90.12812120417814"
    }
  },
  {
    "service_request": "2022-874061",
    "request_type": "Trash/Recycling",
    "request_reason": "Replace Trash Cart",
    "date_created": "2022-04-11T19:53:03.000",
    "date_modified": "2022-04-11T19:53:04.000",
    "request_status": "Pending",
    "responsible_agency": "Department of Sanitation",
    "final_address": "2713 Dante St",
    "address_councildis": "A",
    "status": "Assigned to Contractor",
    "contractor": "Richards Disposal",
    "rowid": "874061",
    "final_x": "3665178.53837",
    "final_y": "532931.376324",
    "longitude": "-90.11956062799926",
    "latitude": "29.95986197300416",
    "geocoded_column": {
      "latitude": "29.95986197300416",
      "longitude": "-90.11956062799926"
    }
  },
  {
    "service_request": "2022-874060",
    "request_type": "Trash/Recycling",
    "request_reason": "Order Trash Cart",
    "date_created": "2022-04-11T19:47:25.000",
    "date_modified": "2022-04-11T19:47:26.000",
    "request_status": "Pending",
    "responsible_agency": "Department of Sanitation",
    "final_address": "6476 Louisville St",
    "address_councildis": "A",
    "status": "Assigned to Contractor",
    "contractor": "Metro Disposal",
    "rowid": "874060",
    "final_x": "3667952.02733",
    "final_y": "550674.70946",
    "longitude": "-90.11020444811582",
    "latitude": "30.00856904357885",
    "geocoded_column": {
      "latitude": "30.00856904357885",
      "longitude": "-90.11020444811582"
    }
  },
  {
    "service_request": "2022-874059",
    "request_type": "Abandoned Vehicles",
    "request_reason": "Abandoned/Junk Vehicles",
    "date_created": "2022-04-11T19:42:32.000",
    "date_modified": "2022-04-11T19:42:32.000",
    "request_status": "Pending",
    "responsible_agency": "Department of Public Works",
    "final_address": "330 S Bernadotte St",
    "address_councildis": "A",
    "status": "Pending",
    "rowid": "874059",
    "final_x": "3668198.20423",
    "final_y": "539198.477898",
    "longitude": "-90.10981384470726",
    "latitude": "29.977006115700448",
    "geocoded_column": {
      "latitude": "29.977006115700448",
      "longitude": "-90.10981384470726"
    }
  },
  {
    "service_request": "2022-874058",
    "request_type": "Trash/Recycling",
    "request_reason": "Request a Large Item Pick Up",
    "date_created": "2022-04-11T19:25:43.000",
    "date_modified": "2022-04-11T19:25:44.000",
    "request_status": "Pending",
    "responsible_agency": "Department of Sanitation",
    "final_address": "43 Yosemite Dr",
    "address_councildis": "C",
    "status": "Assigned to Contractor",
    "contractor": "Richards Disposal",
    "rowid": "874058",
    "final_x": "3699901.08375",
    "final_y": "517001.975797",
    "longitude": "-90.01049593159685",
    "latitude": "29.9150046279479",
    "geocoded_column": {
      "latitude": "29.9150046279479",
      "longitude": "-90.01049593159685"
    }
  },
  {
    "service_request": "2022-874057",
    "request_type": "Trash/Recycling",
    "request_reason": "Request a Large Item Pick Up",
    "date_created": "2022-04-11T19:24:34.000",
    "date_modified": "2022-04-11T19:24:35.000",
    "request_status": "Pending",
    "responsible_agency": "Department of Sanitation",
    "final_address": "500 S Cortez St, New Orleans, Louisiana, 70119",
    "address_councildis": "B",
    "status": "Assigned to Contractor",
    "contractor": "Richards Disposal",
    "rowid": "874057",
    "final_x": "3671102.27995",
    "final_y": "536267.239431",
    "longitude": "-90.10074140704499",
    "latitude": "29.96886061351797",
    "geocoded_column": {
      "latitude": "29.96886061351797",
      "longitude": "-90.10074140704499"
    }
  },
  {
    "service_request": "2022-874056",
    "request_type": "Trash/Recycling",
    "request_reason": "Request a Large Item Pick Up",
    "date_created": "2022-04-11T19:22:41.000",
    "date_modified": "2022-04-11T19:22:42.000",
    "request_status": "Pending",
    "responsible_agency": "Department of Sanitation",
    "final_address": "107 Alden Pl",
    "address_councildis": "D",
    "status": "Assigned to Contractor",
    "contractor": "Metro Disposal",
    "rowid": "874056",
    "final_x": "3678657.95246",
    "final_y": "543904.45851",
    "longitude": "-90.07661558816092",
    "latitude": "29.989634675826697",
    "geocoded_column": {
      "latitude": "29.989634675826697",
      "longitude": "-90.07661558816092"
    }
  },
  {
    "service_request": "2022-874055",
    "request_type": "Trash/Recycling",
    "request_reason": "Order Recycling Cart",
    "date_created": "2022-04-11T19:09:28.000",
    "date_modified": "2022-04-11T19:09:28.000",
    "request_status": "Pending",
    "responsible_agency": "Department of Sanitation",
    "final_address": "4814 Nottingham Dr",
    "address_councildis": "E",
    "status": "Pending",
    "rowid": "874055",
    "final_x": "3716286.26751",
    "final_y": "557214.636891",
    "longitude": "-89.95725473203404",
    "latitude": "30.025044048348413",
    "geocoded_column": {
      "latitude": "30.025044048348413",
      "longitude": "-89.95725473203404"
    }
  },
  {
    "service_request": "2022-874054",
    "request_type": "Abandoned Vehicles",
    "request_reason": "Abandoned/Junk Vehicles",
    "date_created": "2022-04-11T19:01:40.000",
    "date_modified": "2022-04-11T19:01:40.000",
    "request_status": "Pending",
    "responsible_agency": "Department of Public Works",
    "final_address": "1811 Baronne St, New Orleans, Louisiana, 70113",
    "address_councildis": "B",
    "status": "Pending",
    "rowid": "874054",
    "final_x": "3677772.31406",
    "final_y": "525124.958653",
    "longitude": "-90.08006188182834",
    "latitude": "29.938024101706638",
    "geocoded_column": {
      "latitude": "29.938024101706638",
      "longitude": "-90.08006188182834"
    }
  },
  {
    "service_request": "2022-874053",
    "request_type": "Abandoned Vehicles",
    "request_reason": "Abandoned/Junk Vehicles",
    "date_created": "2022-04-11T18:57:46.000",
    "date_modified": "2022-04-11T18:58:56.000",
    "request_status": "Pending",
    "responsible_agency": "Department of Public Works",
    "final_address": "1811 Baronne St",
    "address_councildis": "B",
    "status": "Pending",
    "rowid": "874053",
    "final_x": "3677772.31406",
    "final_y": "525124.958653",
    "longitude": "-90.08006188182834",
    "latitude": "29.938024101706638",
    "geocoded_column": {
      "latitude": "29.938024101706638",
      "longitude": "-90.08006188182834"
    }
  },
  {
    "service_request": "2022-874052",
    "request_type": "Trash/Recycling",
    "request_reason": "Missed Trash Pick-Up",
    "date_created": "2022-04-11T18:50:37.000",
    "date_modified": "2022-04-11T18:57:43.000",
    "request_status": "Pending",
    "responsible_agency": "Department of Sanitation",
    "final_address": "4730 Pontchartrain Blvd",
    "address_councildis": "A",
    "status": "Assigned to Contractor",
    "contractor": "Richards Disposal",
    "rowid": "874052",
    "final_x": "3667497.33172",
    "final_y": "538483.786121",
    "longitude": "-90.11205149100157",
    "latitude": "29.975061512618705",
    "geocoded_column": {
      "latitude": "29.975061512618705",
      "longitude": "-90.11205149100157"
    }
  },
  {
    "service_request": "2022-874051",
    "request_type": "Trash/Recycling",
    "request_reason": "Repair Trash Cart",
    "date_created": "2022-04-11T18:30:24.000",
    "date_modified": "2022-04-11T18:30:25.000",
    "request_status": "Pending",
    "responsible_agency": "Department of Sanitation",
    "final_address": "6206 Curie St",
    "address_councildis": "D",
    "status": "Assigned to Contractor",
    "contractor": "Metro Disposal",
    "rowid": "874051",
    "final_x": "3682443.85455",
    "final_y": "555781.938777",
    "longitude": "-90.06424146214795",
    "latitude": "30.022178752025248",
    "geocoded_column": {
      "latitude": "30.022178752025248",
      "longitude": "-90.06424146214795"
    }
  },
  {
    "service_request": "2022-874050",
    "request_type": "Trash/Recycling",
    "request_reason": "MIssed Recycling Pick-Up",
    "date_created": "2022-04-11T18:30:12.000",
    "date_modified": "2022-04-11T18:30:13.000",
    "request_status": "Pending",
    "responsible_agency": "Department of Sanitation",
    "final_address": "1101 Casa Calvo St",
    "address_councildis": "C",
    "status": "Assigned to Contractor",
    "contractor": "Richards Disposal",
    "rowid": "874050",
    "final_x": "3692070.148",
    "final_y": "527373.510591",
    "longitude": "-90.03484210538876",
    "latitude": "29.94376910275946",
    "geocoded_column": {
      "latitude": "29.94376910275946",
      "longitude": "-90.03484210538876"
    }
  },
  {
    "service_request": "2022-874049",
    "request_type": "Traffic Signals/Signs/Striping/Streetlights",
    "request_reason": "Traffic Signal Malfunctioning/Damaged",
    "date_created": "2022-04-11T18:28:30.000",
    "date_modified": "2022-04-11T18:38:57.000",
    "request_status": "Pending",
    "responsible_agency": "Department of Public Works",
    "final_address": "New Orleans,LA",
    "address_councildis": "A",
    "rowid": "874049",
    "final_x": "3671664.84",
    "final_y": "538868.67",
    "longitude": "-90.09887629451794",
    "latitude": "29.975997017851096",
    "geocoded_column": {
      "latitude": "29.975997017851096",
      "longitude": "-90.09887629451794"
    }
  },
  {
    "service_request": "2022-874048",
    "request_type": "Property Maintenance",
    "request_reason": "Property Maintenance",
    "date_created": "2022-04-11T18:17:07.000",
    "date_modified": "2022-04-11T18:17:07.000",
    "request_status": "Pending",
    "responsible_agency": "Department of Code Enforcement",
    "final_address": "2265 N Villere St",
    "address_councildis": "C",
    "status": "Pending",
    "rowid": "874048",
    "final_x": "3685558.41353",
    "final_y": "537504.205512",
    "longitude": "-90.05504453663616",
    "latitude": "29.97182633244571",
    "geocoded_column": {
      "latitude": "29.97182633244571",
      "longitude": "-90.05504453663616"
    }
  },
  {
    "service_request": "2022-874047",
    "request_type": "Traffic Signals/Signs/Striping/Streetlights",
    "request_reason": "Traffic Sign Missing/Damaged",
    "date_created": "2022-04-11T18:06:56.000",
    "date_modified": "2022-04-11T18:06:56.000",
    "request_status": "Pending",
    "responsible_agency": "Department of Public Works",
    "final_address": "1241 Frenchmen St",
    "address_councildis": "C",
    "status": "Pending",
    "rowid": "874047",
    "final_x": "3684586.30018",
    "final_y": "536967.742152",
    "longitude": "-90.05813347295022",
    "latitude": "29.97038102842954",
    "geocoded_column": {
      "latitude": "29.97038102842954",
      "longitude": "-90.05813347295022"
    }
  },
  {
    "service_request": "2022-874046",
    "request_type": "Roads/Drainage",
    "request_reason": "Accessibility Ramps, Curbs and Sidewalk Repair",
    "date_created": "2022-04-11T18:05:15.000",
    "date_modified": "2022-04-11T18:05:15.000",
    "request_status": "Pending",
    "responsible_agency": "Department of Public Works",
    "final_address": "830 Julia St",
    "address_councildis": "B",
    "status": "Pending",
    "rowid": "874046",
    "final_x": "3679742.20469",
    "final_y": "528146.135743",
    "longitude": "-90.07373791615615",
    "latitude": "29.946271943078706",
    "geocoded_column": {
      "latitude": "29.946271943078706",
      "longitude": "-90.07373791615615"
    }
  },
  {
    "service_request": "2022-874045",
    "request_type": "Roads/Drainage",
    "request_reason": "Accessibility Ramps, Curbs and Sidewalk Repair",
    "date_created": "2022-04-11T18:00:24.000",
    "date_modified": "2022-04-11T18:00:24.000",
    "request_status": "Pending",
    "responsible_agency": "Department of Public Works",
    "final_address": "440 Girod St",
    "address_councildis": "B",
    "status": "Pending",
    "rowid": "874045",
    "final_x": "3681410.34152",
    "final_y": "528298.279488",
    "longitude": "-90.06846572836024",
    "latitude": "29.946639760085688",
    "geocoded_column": {
      "latitude": "29.946639760085688",
      "longitude": "-90.06846572836024"
    }
  },
  {
    "service_request": "2022-874044",
    "request_type": "Trash/Recycling",
    "request_reason": "Request a Large Item Pick Up",
    "date_created": "2022-04-11T18:00:05.000",
    "date_modified": "2022-04-11T18:00:06.000",
    "request_status": "Pending",
    "responsible_agency": "Department of Sanitation",
    "final_address": "820 St Louis St",
    "address_councildis": "C",
    "status": "Assigned to Contractor",
    "contractor": "Empire Services",
    "rowid": "874044",
    "final_x": "3681637.37359",
    "final_y": "532172.183747",
    "longitude": "-90.0676137974015",
    "latitude": "29.957284794955438",
    "geocoded_column": {
      "latitude": "29.957284794955438",
      "longitude": "-90.0676137974015"
    }
  },
  {
    "service_request": "2022-874043",
    "request_type": "Roads/Drainage",
    "request_reason": "Catch Basin - Clogged",
    "date_created": "2022-04-11T17:58:10.000",
    "date_modified": "2022-04-11T17:58:10.000",
    "request_status": "Pending",
    "responsible_agency": "Department of Public Works",
    "final_address": "4340 Washington Ave",
    "address_councildis": "B",
    "status": "Pending",
    "rowid": "874043",
    "final_x": "3670498.46292",
    "final_y": "530807.592834",
    "longitude": "-90.10283346243595",
    "latitude": "29.9538662455875",
    "geocoded_column": {
      "latitude": "29.9538662455875",
      "longitude": "-90.10283346243595"
    }
  },
  {
    "service_request": "2022-874042",
    "request_type": "Roads/Drainage",
    "request_reason": "Street Subsidence (Sinking)",
    "date_created": "2022-04-11T17:57:12.000",
    "date_modified": "2022-04-11T17:57:12.000",
    "request_status": "Pending",
    "responsible_agency": "Department of Public Works",
    "final_address": "2101 Broadway St",
    "address_councildis": "A",
    "status": "Pending",
    "rowid": "874042",
    "final_x": "3666001.68871",
    "final_y": "529144.05824",
    "longitude": "-90.11708823529689",
    "latitude": "29.949424081658165",
    "geocoded_column": {
      "latitude": "29.949424081658165",
      "longitude": "-90.11708823529689"
    }
  },
  {
    "service_request": "2022-874040",
    "request_type": "Traffic Signals/Signs/Striping/Streetlights",
    "request_reason": "Street Light Outage/Malfunction",
    "date_created": "2022-04-11T17:53:19.000",
    "date_modified": "2022-04-11T17:53:20.000",
    "request_status": "Pending",
    "responsible_agency": "Department of Public Works",
    "final_address": "2139 Dauphine St",
    "address_councildis": "C",
    "status": "Pending",
    "contractor": "Royal Engineering",
    "rowid": "874040",
    "final_x": "3684967.56994",
    "final_y": "535270.498566",
    "longitude": "-90.05698908843827",
    "latitude": "29.965702524631983",
    "geocoded_column": {
      "latitude": "29.965702524631983",
      "longitude": "-90.05698908843827"
    }
  },
  {
    "service_request": "2022-874039",
    "request_type": "Roads/Drainage",
    "request_reason": "Damaged Sidewalk",
    "date_created": "2022-04-11T17:50:23.000",
    "date_modified": "2022-04-11T17:50:23.000",
    "request_status": "Pending",
    "responsible_agency": "Department of Public Works",
    "final_address": "1700 S Dupre St",
    "address_councildis": "B",
    "status": "Pending",
    "rowid": "874039",
    "final_x": "3670773.91105",
    "final_y": "530072.918657",
    "longitude": "-90.10198863750713",
    "latitude": "29.951837997097908",
    "geocoded_column": {
      "latitude": "29.951837997097908",
      "longitude": "-90.10198863750713"
    }
  },
  {
    "service_request": "2022-874038",
    "request_type": "Traffic Signals/Signs/Striping/Streetlights",
    "request_reason": "Traffic Signal Malfunctioning/Damaged",
    "date_created": "2022-04-11T17:49:40.000",
    "date_modified": "2022-04-11T17:49:40.000",
    "request_status": "Pending",
    "responsible_agency": "Department of Public Works",
    "final_address": "CITY PARK AVE & ORLEANS AVE",
    "address_councildis": "A",
    "status": "Pending",
    "rowid": "874038",
    "final_x": "3670423.5",
    "final_y": "541801.18",
    "longitude": "-90.10269734375164",
    "latitude": "29.984097138378488",
    "geocoded_column": {
      "latitude": "29.984097138378488",
      "longitude": "-90.10269734375164"
    }
  },
  {
    "service_request": "2022-874037",
    "request_type": "Safety & Permits",
    "request_reason": "School Bus Complaints",
    "date_created": "2022-04-11T17:44:40.000",
    "date_modified": "2022-04-11T17:44:40.000",
    "request_status": "Pending",
    "responsible_agency": "Safety and Permits",
    "status": "Pending",
    "rowid": "874037",
    "longitude": "0.0",
    "latitude": "0.0",
    "geocoded_column": {
      "latitude": "0.0",
      "longitude": "0.0"
    }
  },
  {
    "service_request": "2022-874036",
    "request_type": "Trash/Recycling",
    "request_reason": "Order Recycling Cart",
    "date_created": "2022-04-11T17:43:24.000",
    "date_modified": "2022-04-11T17:43:24.000",
    "request_status": "Pending",
    "responsible_agency": "Department of Sanitation",
    "final_address": "3601 Rue Nichole",
    "address_councildis": "C",
    "status": "Pending",
    "rowid": "874036",
    "final_x": "3703937.90186",
    "final_y": "517366.794997",
    "longitude": "-89.99774095980673",
    "latitude": "29.91587899305424",
    "geocoded_column": {
      "latitude": "29.91587899305424",
      "longitude": "-89.99774095980673"
    }
  },
  {
    "service_request": "2022-874035",
    "request_type": "Traffic Signals/Signs/Striping/Streetlights",
    "request_reason": "Traffic Signal Malfunctioning/Damaged",
    "date_created": "2022-04-11T17:41:22.000",
    "date_modified": "2022-04-11T17:41:22.000",
    "request_status": "Pending",
    "responsible_agency": "Department of Public Works",
    "final_address": "DAUPHINE ST & ELYSIAN FIELDS AVE",
    "address_councildis": "C",
    "status": "Pending",
    "rowid": "874035",
    "final_x": "3685137.2",
    "final_y": "535233.78",
    "longitude": "-90.05645469613737",
    "latitude": "29.965596364720028",
    "geocoded_column": {
      "latitude": "29.965596364720028",
      "longitude": "-90.05645469613737"
    }
  },
  {
    "service_request": "2022-874034",
    "request_type": "Trash/Recycling",
    "request_reason": "Missed Trash Pick-Up",
    "date_created": "2022-04-11T17:33:31.000",
    "date_modified": "2022-04-11T17:33:32.000",
    "request_status": "Pending",
    "responsible_agency": "Department of Sanitation",
    "final_address": "625 Lowerline St",
    "address_councildis": "A",
    "status": "Assigned to Contractor",
    "contractor": "Richards Disposal",
    "rowid": "874034",
    "final_x": "3662696.29882",
    "final_y": "525189.753853",
    "longitude": "-90.12765625785514",
    "latitude": "29.938647065437827",
    "geocoded_column": {
      "latitude": "29.938647065437827",
      "longitude": "-90.12765625785514"
    }
  },
  {
    "service_request": "2022-874033",
    "request_type": "Trash/Recycling",
    "request_reason": "Missed Trash Pick-Up",
    "date_created": "2022-04-11T17:33:11.000",
    "date_modified": "2022-04-11T17:33:11.000",
    "request_status": "Pending",
    "responsible_agency": "Department of Sanitation",
    "final_address": "1235 Hagan St",
    "address_councildis": "A",
    "status": "Assigned to Contractor",
    "contractor": "Richards Disposal",
    "rowid": "874033",
    "final_x": "3675610.75214",
    "final_y": "539929.56961",
    "longitude": "-90.0863774881643",
    "latitude": "29.978796648037193",
    "geocoded_column": {
      "latitude": "29.978796648037193",
      "longitude": "-90.0863774881643"
    }
  },
  {
    "service_request": "2022-874032",
    "request_type": "Abandoned Vehicles",
    "request_reason": "Abandoned/Junk Vehicles",
    "date_created": "2022-04-11T17:27:16.000",
    "date_modified": "2022-04-11T17:27:16.000",
    "request_status": "Pending",
    "responsible_agency": "Department of Public Works",
    "final_address": "4100 Erato St",
    "address_councildis": "B",
    "status": "Pending",
    "rowid": "874032",
    "final_x": "3671364.72769",
    "final_y": "531139.544642",
    "longitude": "-90.10008686723803",
    "latitude": "29.954753395742753",
    "geocoded_column": {
      "latitude": "29.954753395742753",
      "longitude": "-90.10008686723803"
    }
  },
  {
    "service_request": "2022-874031",
    "request_type": "Trash/Recycling",
    "request_reason": "Missed Trash Pick-Up",
    "date_created": "2022-04-11T17:24:29.000",
    "date_modified": "2022-04-11T17:24:30.000",
    "request_status": "Pending",
    "responsible_agency": "Department of Sanitation",
    "final_address": "3343 Annette St",
    "address_councildis": "D",
    "status": "Assigned to Contractor",
    "contractor": "Metro Disposal",
    "rowid": "874031",
    "final_x": "3682494.0557",
    "final_y": "544957.236879",
    "longitude": "-90.0644615975684",
    "latitude": "29.992413199812816",
    "geocoded_column": {
      "latitude": "29.992413199812816",
      "longitude": "-90.0644615975684"
    }
  },
  {
    "service_request": "2022-874030",
    "request_type": "Traffic Signals/Signs/Striping/Streetlights",
    "request_reason": "Traffic Signal Malfunctioning/Damaged",
    "date_created": "2022-04-11T17:18:00.000",
    "date_modified": "2022-04-11T17:18:00.000",
    "request_status": "Pending",
    "responsible_agency": "Department of Public Works",
    "final_address": "3101 Elysian Fields Ave",
    "address_councildis": "D",
    "status": "Pending",
    "rowid": "874030",
    "final_x": "3684496.30735",
    "final_y": "544270.927951",
    "longitude": "-90.05816100444085",
    "latitude": "29.99046497637227",
    "geocoded_column": {
      "latitude": "29.99046497637227",
      "longitude": "-90.05816100444085"
    }
  },
  {
    "service_request": "2022-874029",
    "request_type": "Trash/Recycling",
    "request_reason": "MIssed Recycling Pick-Up",
    "date_created": "2022-04-11T17:17:20.000",
    "date_modified": "2022-04-11T17:17:20.000",
    "request_status": "Pending",
    "responsible_agency": "Department of Sanitation",
    "final_address": "1256 Leboeuf St",
    "address_councildis": "C",
    "status": "Assigned to Contractor",
    "contractor": "Richards Disposal",
    "rowid": "874029",
    "final_x": "3689757.25193",
    "final_y": "526671.122686",
    "longitude": "-90.04216950542569",
    "latitude": "29.941909642437555",
    "geocoded_column": {
      "latitude": "29.941909642437555",
      "longitude": "-90.04216950542569"
    }
  },
  {
    "service_request": "2022-874028",
    "request_type": "Trash/Recycling",
    "request_reason": "Illegal Dumping",
    "date_created": "2022-04-11T17:16:17.000",
    "date_modified": "2022-04-11T17:16:17.000",
    "request_status": "Pending",
    "responsible_agency": "Department of Sanitation",
    "final_address": "3303 Louisiana Avenue Prkwy",
    "address_councildis": "B",
    "status": "Pending",
    "rowid": "874028",
    "final_x": "3671920.3675",
    "final_y": "527252.429759",
    "longitude": "-90.09846464280167",
    "latitude": "29.94404865269235",
    "geocoded_column": {
      "latitude": "29.94404865269235",
      "longitude": "-90.09846464280167"
    }
  },
  {
    "service_request": "2022-874027",
    "request_type": "Trash/Recycling",
    "request_reason": "Dead Animal Pick Up",
    "date_created": "2022-04-11T17:12:37.000",
    "date_modified": "2022-04-11T17:12:38.000",
    "request_status": "Pending",
    "responsible_agency": "Department of Sanitation",
    "final_address": "3336 Dumaine St",
    "address_councildis": "A",
    "status": "Assigned to Contractor",
    "contractor": "Richards Disposal",
    "rowid": "874027",
    "final_x": "3674863.04737",
    "final_y": "539225.414026",
    "longitude": "-90.08876318123133",
    "latitude": "29.976882813630166",
    "geocoded_column": {
      "latitude": "29.976882813630166",
      "longitude": "-90.08876318123133"
    }
  },
  {
    "service_request": "2022-874026",
    "request_type": "Traffic Signals/Signs/Striping/Streetlights",
    "request_reason": "Street Light Outage/Malfunction",
    "date_created": "2022-04-11T17:11:29.000",
    "date_modified": "2022-04-11T17:11:30.000",
    "request_status": "Pending",
    "responsible_agency": "Department of Public Works",
    "final_address": "4638 Kendall Dr",
    "address_councildis": "D",
    "status": "Pending",
    "contractor": "Royal Engineering",
    "rowid": "874026",
    "final_x": "3690411.35376",
    "final_y": "550512.883156",
    "longitude": "-90.03925426028643",
    "latitude": "30.00744575427334",
    "geocoded_column": {
      "latitude": "30.00744575427334",
      "longitude": "-90.03925426028643"
    }
  },
  {
    "service_request": "2022-874025",
    "request_type": "Roads/Drainage",
    "request_reason": "Pothole",
    "date_created": "2022-04-11T17:08:01.000",
    "date_modified": "2022-04-11T17:08:01.000",
    "request_status": "Pending",
    "responsible_agency": "Department of Public Works",
    "final_address": "650 Bienville St",
    "address_councildis": "C",
    "status": "Pending",
    "rowid": "874025",
    "final_x": "3681863.04636",
    "final_y": "531130.195138",
    "longitude": "-90.06693755643228",
    "latitude": "29.95441282369094",
    "geocoded_column": {
      "latitude": "29.95441282369094",
      "longitude": "-90.06693755643228"
    }
  },
  {
    "service_request": "2022-874024",
    "request_type": "Property Maintenance",
    "request_reason": "Property Maintenance",
    "date_created": "2022-04-11T17:04:38.000",
    "date_modified": "2022-04-11T17:04:38.000",
    "request_status": "Pending",
    "responsible_agency": "Department of Code Enforcement",
    "final_address": "136 S Scott St",
    "address_councildis": "A",
    "status": "Pending",
    "rowid": "874024",
    "final_x": "3671582.19681",
    "final_y": "537494.501576",
    "longitude": "-90.09918405122492",
    "latitude": "29.972220967264597",
    "geocoded_column": {
      "latitude": "29.972220967264597",
      "longitude": "-90.09918405122492"
    }
  },
  {
    "service_request": "2022-874023",
    "request_type": "Trash/Recycling",
    "request_reason": "Replace Trash Cart",
    "date_created": "2022-04-11T17:03:30.000",
    "date_modified": "2022-04-11T17:03:31.000",
    "request_status": "Pending",
    "responsible_agency": "Department of Sanitation",
    "final_address": "1711 Milan St",
    "address_councildis": "B",
    "status": "Assigned to Contractor",
    "contractor": "Richards Disposal",
    "rowid": "874023",
    "final_x": "3671586.28251",
    "final_y": "521441.770361",
    "longitude": "-90.09971695679681",
    "latitude": "29.92808111550677",
    "geocoded_column": {
      "latitude": "29.92808111550677",
      "longitude": "-90.09971695679681"
    }
  },
  {
    "service_request": "2022-874022",
    "request_type": "Trash/Recycling",
    "request_reason": "Request a Large Item Pick Up",
    "date_created": "2022-04-11T17:00:41.000",
    "date_modified": "2022-04-11T17:00:41.000",
    "request_status": "Pending",
    "responsible_agency": "Department of Sanitation",
    "final_address": "936 Clouet St",
    "address_councildis": "C",
    "status": "Assigned to Contractor",
    "contractor": "Metro Disposal",
    "rowid": "874022",
    "final_x": "3688841.65724",
    "final_y": "535501.754758",
    "longitude": "-90.04474668784049",
    "latitude": "29.966219173191256",
    "geocoded_column": {
      "latitude": "29.966219173191256",
      "longitude": "-90.04474668784049"
    }
  },
  {
    "service_request": "2022-874021",
    "request_type": "Trash/Recycling",
    "request_reason": "Replace Recycling Cart",
    "date_created": "2022-04-11T16:59:14.000",
    "date_modified": "2022-04-11T16:59:14.000",
    "request_status": "Pending",
    "responsible_agency": "Department of Sanitation",
    "final_address": "308 Bellaire Dr",
    "address_councildis": "A",
    "status": "Pending",
    "rowid": "874021",
    "final_x": "3663840.8368",
    "final_y": "541605.374348",
    "longitude": "-90.1234956076525",
    "latitude": "29.98375149152478",
    "geocoded_column": {
      "latitude": "29.98375149152478",
      "longitude": "-90.1234956076525"
    }
  },
  {
    "service_request": "2022-874020",
    "request_type": "Trash/Recycling",
    "request_reason": "Illegal Dumping",
    "date_created": "2022-04-11T16:59:12.000",
    "date_modified": "2022-04-11T16:59:12.000",
    "request_status": "Pending",
    "responsible_agency": "Department of Sanitation",
    "final_address": "1458 Casa Calvo St",
    "address_councildis": "C",
    "status": "Pending",
    "rowid": "874020",
    "final_x": "3692084.82646",
    "final_y": "525718.431869",
    "longitude": "-90.0348549778822",
    "latitude": "29.93921774619926",
    "geocoded_column": {
      "latitude": "29.93921774619926",
      "longitude": "-90.0348549778822"
    }
  },
  {
    "service_request": "2022-874019",
    "request_type": "Trash/Recycling",
    "request_reason": "Order Trash Cart",
    "date_created": "2022-04-11T16:58:07.000",
    "date_modified": "2022-04-11T16:58:08.000",
    "request_status": "Pending",
    "responsible_agency": "Department of Sanitation",
    "final_address": "New Orleans,LA",
    "status": "Assigned to Contractor",
    "rowid": "874019",
    "longitude": "0.0",
    "latitude": "0.0",
    "geocoded_column": {
      "latitude": "0.0",
      "longitude": "0.0"
    }
  },
  {
    "service_request": "2022-874018",
    "request_type": "Trash/Recycling",
    "request_reason": "Order Trash Cart",
    "date_created": "2022-04-11T16:57:58.000",
    "date_modified": "2022-04-11T16:57:58.000",
    "request_status": "Pending",
    "responsible_agency": "Department of Sanitation",
    "final_address": "308 Bellaire Dr",
    "address_councildis": "A",
    "status": "Assigned to Contractor",
    "contractor": "Metro Disposal",
    "rowid": "874018",
    "final_x": "3663840.8368",
    "final_y": "541605.374348",
    "longitude": "-90.1234956076525",
    "latitude": "29.98375149152478",
    "geocoded_column": {
      "latitude": "29.98375149152478",
      "longitude": "-90.1234956076525"
    }
  },
  {
    "service_request": "2022-874017",
    "request_type": "Traffic Signals/Signs/Striping/Streetlights",
    "request_reason": "Striping/Road Surface Markings",
    "date_created": "2022-04-11T16:57:50.000",
    "date_modified": "2022-04-11T16:57:50.000",
    "request_status": "Pending",
    "responsible_agency": "Department of Public Works",
    "final_address": "738 Canal St",
    "address_councildis": "B",
    "status": "Pending",
    "rowid": "874017",
    "final_x": "3680890.00399",
    "final_y": "530786.066242",
    "longitude": "-90.07002201917162",
    "latitude": "29.953496120016577",
    "geocoded_column": {
      "latitude": "29.953496120016577",
      "longitude": "-90.07002201917162"
    }
  },
  {
    "service_request": "2022-874016",
    "request_type": "Traffic Signals/Signs/Striping/Streetlights",
    "request_reason": "Street Light Knocked Down/Leaning",
    "date_created": "2022-04-11T16:56:42.000",
    "date_modified": "2022-04-11T16:56:42.000",
    "request_status": "Pending",
    "responsible_agency": "Department of Public Works",
    "final_address": "617 Bienville St",
    "address_councildis": "C",
    "status": "Pending",
    "contractor": "Royal Engineering",
    "rowid": "874016",
    "final_x": "3681840.67503",
    "final_y": "531200.801154",
    "longitude": "-90.06700573232304",
    "latitude": "29.95460764613661",
    "geocoded_column": {
      "latitude": "29.95460764613661",
      "longitude": "-90.06700573232304"
    }
  },
  {
    "service_request": "2022-874015",
    "request_type": "Trash/Recycling",
    "request_reason": "Missed Trash Pick-Up",
    "date_created": "2022-04-11T16:55:06.000",
    "date_modified": "2022-04-11T16:55:07.000",
    "request_status": "Pending",
    "responsible_agency": "Department of Sanitation",
    "final_address": "923 Philip St",
    "address_councildis": "B",
    "status": "Assigned to Contractor",
    "contractor": "Richards Disposal",
    "rowid": "874015",
    "final_x": "3678900.55323",
    "final_y": "521431.654457",
    "longitude": "-90.07662781451171",
    "latitude": "29.927834748646372",
    "geocoded_column": {
      "latitude": "29.927834748646372",
      "longitude": "-90.07662781451171"
    }
  },
  {
    "service_request": "2022-874014",
    "request_type": "Trash/Recycling",
    "request_reason": "Illegal Dumping",
    "date_created": "2022-04-11T16:54:51.000",
    "date_modified": "2022-04-11T16:54:51.000",
    "request_status": "Pending",
    "responsible_agency": "Department of Sanitation",
    "final_address": "1458 Casa Calvo St",
    "address_councildis": "C",
    "status": "Pending",
    "rowid": "874014",
    "final_x": "3692084.82646",
    "final_y": "525718.431869",
    "longitude": "-90.0348549778822",
    "latitude": "29.93921774619926",
    "geocoded_column": {
      "latitude": "29.93921774619926",
      "longitude": "-90.0348549778822"
    }
  },
  {
    "service_request": "2022-874013",
    "request_type": "Traffic Signals/Signs/Striping/Streetlights",
    "request_reason": "Striping/Road Surface Markings",
    "date_created": "2022-04-11T16:53:30.000",
    "date_modified": "2022-04-11T16:53:30.000",
    "request_status": "Pending",
    "responsible_agency": "Department of Public Works",
    "final_address": "739 Canal St",
    "address_councildis": "C",
    "status": "Pending",
    "rowid": "874013",
    "final_x": "3681011.37141",
    "final_y": "530920.698434",
    "longitude": "-90.06963410407758",
    "latitude": "29.953862633161567",
    "geocoded_column": {
      "latitude": "29.953862633161567",
      "longitude": "-90.06963410407758"
    }
  },
  {
    "service_request": "2022-874012",
    "request_type": "Trash/Recycling",
    "request_reason": "Replace Trash Cart",
    "date_created": "2022-04-11T16:52:32.000",
    "date_modified": "2022-04-11T16:52:33.000",
    "request_status": "Pending",
    "responsible_agency": "Department of Sanitation",
    "final_address": "617 Bienville St",
    "address_councildis": "C",
    "status": "Assigned to Contractor",
    "contractor": "Empire Services",
    "rowid": "874012",
    "final_x": "3681840.67503",
    "final_y": "531200.801154",
    "longitude": "-90.06700573232304",
    "latitude": "29.95460764613661",
    "geocoded_column": {
      "latitude": "29.95460764613661",
      "longitude": "-90.06700573232304"
    }
  },
  {
    "service_request": "2022-874011",
    "request_type": "Traffic Signals/Signs/Striping/Streetlights",
    "request_reason": "Striping/Road Surface Markings",
    "date_created": "2022-04-11T16:50:11.000",
    "date_modified": "2022-04-11T16:50:11.000",
    "request_status": "Pending",
    "responsible_agency": "Department of Public Works",
    "final_address": "801 Canal St",
    "address_councildis": "C",
    "status": "Pending",
    "rowid": "874011",
    "final_x": "3680951.89391",
    "final_y": "530998.395906",
    "longitude": "-90.0698192041145",
    "latitude": "29.954078078458494",
    "geocoded_column": {
      "latitude": "29.954078078458494",
      "longitude": "-90.0698192041145"
    }
  },
  {
    "service_request": "2022-874010",
    "request_type": "Traffic Signals/Signs/Striping/Streetlights",
    "request_reason": "Striping/Road Surface Markings",
    "date_created": "2022-04-11T16:47:49.000",
    "date_modified": "2022-04-11T16:47:49.000",
    "request_status": "Pending",
    "responsible_agency": "Department of Public Works",
    "final_address": "801 Canal St",
    "address_councildis": "C",
    "status": "Pending",
    "rowid": "874010",
    "final_x": "3680951.89391",
    "final_y": "530998.395906",
    "longitude": "-90.0698192041145",
    "latitude": "29.954078078458494",
    "geocoded_column": {
      "latitude": "29.954078078458494",
      "longitude": "-90.0698192041145"
    }
  },
  {
    "service_request": "2022-874009",
    "request_type": "Trash/Recycling",
    "request_reason": "Repair Trash Cart",
    "date_created": "2022-04-11T16:44:12.000",
    "date_modified": "2022-04-11T16:44:12.000",
    "request_status": "Pending",
    "responsible_agency": "Department of Sanitation",
    "final_address": "11420 Curran Rd",
    "address_councildis": "E",
    "status": "Assigned to Contractor",
    "contractor": "Metro Disposal",
    "rowid": "874009",
    "final_x": "3711538.58142",
    "final_y": "566725.827363",
    "longitude": "-89.97189943198902",
    "latitude": "30.05135193881434",
    "geocoded_column": {
      "latitude": "30.05135193881434",
      "longitude": "-89.97189943198902"
    }
  },
  {
    "service_request": "2022-874008",
    "request_type": "Property Maintenance",
    "request_reason": "Property Maintenance",
    "date_created": "2022-04-11T16:42:12.000",
    "date_modified": "2022-04-11T16:42:12.000",
    "request_status": "Pending",
    "responsible_agency": "Department of Code Enforcement",
    "final_address": "620 Broadway St",
    "address_councildis": "A",
    "status": "Pending",
    "rowid": "874008",
    "final_x": "3663041.62368",
    "final_y": "524889.693756",
    "longitude": "-90.1265760020027",
    "latitude": "29.93781199976584",
    "geocoded_column": {
      "latitude": "29.93781199976584",
      "longitude": "-90.1265760020027"
    }
  },
  {
    "service_request": "2022-874007",
    "request_type": "Trash/Recycling",
    "request_reason": "MIssed Recycling Pick-Up",
    "date_created": "2022-04-11T16:39:56.000",
    "date_modified": "2022-04-11T16:39:57.000",
    "request_status": "Pending",
    "responsible_agency": "Department of Sanitation",
    "final_address": "8126 Apple St",
    "address_councildis": "A",
    "status": "Assigned to Contractor",
    "contractor": "Richards Disposal",
    "rowid": "874007",
    "final_x": "3665183.4953",
    "final_y": "532199.455235",
    "longitude": "-90.11956945759181",
    "latitude": "29.95784928496541",
    "geocoded_column": {
      "latitude": "29.95784928496541",
      "longitude": "-90.11956945759181"
    }
  },
  {
    "service_request": "2022-874006",
    "request_type": "Traffic Signals/Signs/Striping/Streetlights",
    "request_reason": "Street Light Outage/Malfunction",
    "date_created": "2022-04-11T16:39:25.000",
    "date_modified": "2022-04-11T16:39:26.000",
    "request_status": "Pending",
    "responsible_agency": "Department of Public Works",
    "final_address": "317 Homer St",
    "address_councildis": "C",
    "status": "Pending",
    "contractor": "Royal Engineering",
    "rowid": "874006",
    "final_x": "3686314.83881",
    "final_y": "528240.193152",
    "longitude": "-90.05298254903028",
    "latitude": "29.9463302652577",
    "geocoded_column": {
      "latitude": "29.9463302652577",
      "longitude": "-90.05298254903028"
    }
  },
  {
    "service_request": "2022-874005",
    "request_type": "Trash/Recycling",
    "request_reason": "Replace Trash Cart",
    "date_created": "2022-04-11T16:37:31.000",
    "date_modified": "2022-04-11T16:37:32.000",
    "request_status": "Pending",
    "responsible_agency": "Department of Sanitation",
    "final_address": "1121 N Prieur St",
    "address_councildis": "D",
    "status": "Assigned to Contractor",
    "contractor": "Richards Disposal",
    "rowid": "874005",
    "final_x": "3679913.78491",
    "final_y": "536624.409479",
    "longitude": "-90.07290171870355",
    "latitude": "29.969579136817675",
    "geocoded_column": {
      "latitude": "29.969579136817675",
      "longitude": "-90.07290171870355"
    }
  },
  {
    "service_request": "2022-874004",
    "request_type": "Roads/Drainage",
    "request_reason": "Catch Basin - Broken/Damage",
    "date_created": "2022-04-11T16:36:25.000",
    "date_modified": "2022-04-11T16:36:25.000",
    "request_status": "Pending",
    "responsible_agency": "Department of Public Works",
    "final_address": "8800 Palm St",
    "address_councildis": "A",
    "status": "Pending",
    "rowid": "874004",
    "final_x": "3665836.18061",
    "final_y": "536361.372359",
    "longitude": "-90.11736899118254",
    "latitude": "29.969274159687213",
    "geocoded_column": {
      "latitude": "29.969274159687213",
      "longitude": "-90.11736899118254"
    }
  },
  {
    "service_request": "2022-874003",
    "request_type": "Trash/Recycling",
    "request_reason": "Request a Large Item Pick Up",
    "date_created": "2022-04-11T16:34:34.000",
    "date_modified": "2022-04-11T16:34:35.000",
    "request_status": "Pending",
    "responsible_agency": "Department of Sanitation",
    "final_address": "7221 Ridgefield Dr",
    "address_councildis": "E",
    "status": "Assigned to Contractor",
    "contractor": "Metro Disposal",
    "rowid": "874003",
    "final_x": "3718875.51308",
    "final_y": "570407.332839",
    "longitude": "-89.9485694396989",
    "latitude": "30.061232816035844",
    "geocoded_column": {
      "latitude": "30.061232816035844",
      "longitude": "-89.9485694396989"
    }
  },
  {
    "service_request": "2022-874002",
    "request_type": "Property Maintenance",
    "request_reason": "Property Maintenance",
    "date_created": "2022-04-11T16:30:37.000",
    "date_modified": "2022-04-11T16:30:37.000",
    "request_status": "Pending",
    "responsible_agency": "Department of Code Enforcement",
    "final_address": "4934 Camelia St",
    "address_councildis": "E",
    "status": "Pending",
    "rowid": "874002",
    "final_x": "3701380.54276",
    "final_y": "555297.668569",
    "longitude": "-90.0044243946784",
    "latitude": "30.020256902671925",
    "geocoded_column": {
      "latitude": "30.020256902671925",
      "longitude": "-90.0044243946784"
    }
  },
  {
    "service_request": "2022-874001",
    "request_type": "Trash/Recycling",
    "request_reason": "Repair Trash Cart",
    "date_created": "2022-04-11T16:28:17.000",
    "date_modified": "2022-04-11T16:29:35.000",
    "request_status": "Pending",
    "responsible_agency": "Department of Sanitation",
    "final_address": "7221 Ridgefield Dr",
    "address_councildis": "E",
    "status": "Assigned to Contractor",
    "contractor": "Metro Disposal",
    "rowid": "874001",
    "final_x": "3718875.51308",
    "final_y": "570407.332839",
    "longitude": "-89.9485694396989",
    "latitude": "30.061232816035844",
    "geocoded_column": {
      "latitude": "30.061232816035844",
      "longitude": "-89.9485694396989"
    }
  },
  {
    "service_request": "2022-874000",
    "request_type": "Trash/Recycling",
    "request_reason": "Request a Large Item Pick Up",
    "date_created": "2022-04-11T16:28:05.000",
    "date_modified": "2022-04-11T16:28:06.000",
    "request_status": "Pending",
    "responsible_agency": "Department of Sanitation",
    "final_address": "754 Delachaise St, New Orleans, Louisiana, 70115",
    "address_councildis": "B",
    "status": "Assigned to Contractor",
    "contractor": "Richards Disposal",
    "rowid": "874000",
    "final_x": "3675137.00693",
    "final_y": "518297.811894",
    "longitude": "-90.08861592492855",
    "latitude": "29.91933065216286",
    "geocoded_column": {
      "latitude": "29.91933065216286",
      "longitude": "-90.08861592492855"
    }
  },
  {
    "service_request": "2022-873999",
    "request_type": "Roads/Drainage",
    "request_reason": "Street Subsidence (Sinking)",
    "date_created": "2022-04-11T16:25:37.000",
    "date_modified": "2022-04-11T16:25:37.000",
    "request_status": "Pending",
    "responsible_agency": "Department of Public Works",
    "final_address": "2372 Constance St",
    "address_councildis": "B",
    "status": "Pending",
    "rowid": "873999",
    "final_x": "3678323.21269",
    "final_y": "521186.852985",
    "longitude": "-90.07845880652175",
    "latitude": "29.927179022740024",
    "geocoded_column": {
      "latitude": "29.927179022740024",
      "longitude": "-90.07845880652175"
    }
  },
  {
    "service_request": "2022-873998",
    "request_type": "Trash/Recycling",
    "request_reason": "Replace Trash Cart",
    "date_created": "2022-04-11T16:23:59.000",
    "date_modified": "2022-04-11T16:23:59.000",
    "request_status": "Pending",
    "responsible_agency": "Department of Sanitation",
    "final_address": "7221 Ridgefield Dr, New Orleans, Louisiana, 70128",
    "address_councildis": "E",
    "status": "Assigned to Contractor",
    "contractor": "Metro Disposal",
    "rowid": "873998",
    "final_x": "3718875.51308",
    "final_y": "570407.332839",
    "longitude": "-89.9485694396989",
    "latitude": "30.061232816035844",
    "geocoded_column": {
      "latitude": "30.061232816035844",
      "longitude": "-89.9485694396989"
    }
  },
  {
    "service_request": "2022-873997",
    "request_type": "Trash/Recycling",
    "request_reason": "Order Recycling Cart",
    "date_created": "2022-04-11T16:23:18.000",
    "date_modified": "2022-04-11T16:23:18.000",
    "request_status": "Pending",
    "responsible_agency": "Department of Sanitation",
    "final_address": "8716 Hickory St",
    "address_councildis": "A",
    "status": "Pending",
    "rowid": "873997",
    "final_x": "3661676.34528",
    "final_y": "531438.147587",
    "longitude": "-90.13066932524208",
    "latitude": "29.955857620559524",
    "geocoded_column": {
      "latitude": "29.955857620559524",
      "longitude": "-90.13066932524208"
    }
  },
  {
    "service_request": "2022-873996",
    "request_type": "Trash/Recycling",
    "request_reason": "Order Trash Cart",
    "date_created": "2022-04-11T16:22:17.000",
    "date_modified": "2022-04-11T16:22:18.000",
    "request_status": "Pending",
    "responsible_agency": "Department of Sanitation",
    "final_address": "8716 Hickory St",
    "address_councildis": "A",
    "status": "Assigned to Contractor",
    "contractor": "Richards Disposal",
    "rowid": "873996",
    "final_x": "3661676.34528",
    "final_y": "531438.147587",
    "longitude": "-90.13066932524208",
    "latitude": "29.955857620559524",
    "geocoded_column": {
      "latitude": "29.955857620559524",
      "longitude": "-90.13066932524208"
    }
  },
  {
    "service_request": "2022-873995",
    "request_type": "Trash/Recycling",
    "request_reason": "Order Trash Cart",
    "date_created": "2022-04-11T16:21:42.000",
    "date_modified": "2022-04-11T16:21:43.000",
    "request_status": "Pending",
    "responsible_agency": "Department of Sanitation",
    "final_address": "4903 Lonely Oak Dr",
    "address_councildis": "E",
    "status": "Assigned to Contractor",
    "contractor": "Metro Disposal",
    "rowid": "873995",
    "final_x": "3702308.3466",
    "final_y": "555167.216601",
    "longitude": "-90.00149763388215",
    "latitude": "30.019868590111695",
    "geocoded_column": {
      "latitude": "30.019868590111695",
      "longitude": "-90.00149763388215"
    }
  },
  {
    "service_request": "2022-873994",
    "request_type": "Trash/Recycling",
    "request_reason": "Missed Trash Pick-Up",
    "date_created": "2022-04-11T16:16:05.000",
    "date_modified": "2022-04-11T16:16:06.000",
    "request_status": "Pending",
    "responsible_agency": "Department of Sanitation",
    "final_address": "2548 Dumaine St",
    "address_councildis": "D",
    "status": "Assigned to Contractor",
    "contractor": "Richards Disposal",
    "rowid": "873994",
    "final_x": "3677629.14235",
    "final_y": "537113.276104",
    "longitude": "-90.08009993303688",
    "latitude": "29.970992257462196",
    "geocoded_column": {
      "latitude": "29.970992257462196",
      "longitude": "-90.08009993303688"
    }
  },
  {
    "service_request": "2022-873993",
    "request_type": "Trash/Recycling",
    "request_reason": "Missed Trash Pick-Up",
    "date_created": "2022-04-11T16:14:55.000",
    "date_modified": "2022-04-11T16:14:55.000",
    "request_status": "Pending",
    "responsible_agency": "Department of Sanitation",
    "final_address": "2546 Dumaine St",
    "address_councildis": "D",
    "status": "Assigned to Contractor",
    "contractor": "Richards Disposal",
    "rowid": "873993",
    "final_x": "3677637.75342",
    "final_y": "537106.053896",
    "longitude": "-90.08007298761224",
    "latitude": "29.97097213989023",
    "geocoded_column": {
      "latitude": "29.97097213989023",
      "longitude": "-90.08007298761224"
    }
  },
  {
    "service_request": "2022-873992",
    "request_type": "Traffic Signals/Signs/Striping/Streetlights",
    "request_reason": "Traffic Signal Malfunctioning/Damaged",
    "date_created": "2022-04-11T16:09:05.000",
    "date_modified": "2022-04-11T16:09:05.000",
    "request_status": "Pending",
    "responsible_agency": "Department of Public Works",
    "final_address": "ELYSIAN FIELDS AVE & BENEFIT ST & ELYSIAN FIELDS EXIT",
    "address_councildis": "D",
    "status": "Pending",
    "rowid": "873992",
    "final_x": "3684317.2",
    "final_y": "544420.78",
    "longitude": "-90.0587214929242",
    "latitude": "29.990882495714988",
    "geocoded_column": {
      "latitude": "29.990882495714988",
      "longitude": "-90.0587214929242"
    }
  },
  {
    "service_request": "2022-873990",
    "request_type": "Trash/Recycling",
    "request_reason": "Illegal Dumping",
    "date_created": "2022-04-11T16:04:22.000",
    "date_modified": "2022-04-11T16:04:22.000",
    "request_status": "Pending",
    "responsible_agency": "Department of Code Enforcement",
    "final_address": "ALABO ST & CHARTRES ST & GORDON ST",
    "address_councildis": "E",
    "status": "Pending",
    "rowid": "873990",
    "final_x": "3698426.9",
    "final_y": "531688.68",
    "longitude": "-90.01461545322235",
    "latitude": "29.955434697157262",
    "geocoded_column": {
      "latitude": "29.955434697157262",
      "longitude": "-90.01461545322235"
    }
  },
  {
    "service_request": "2022-873987",
    "request_type": "Trash/Recycling",
    "request_reason": "Illegal Dumping",
    "date_created": "2022-04-11T15:54:21.000",
    "date_modified": "2022-04-11T15:54:21.000",
    "request_status": "Pending",
    "responsible_agency": "Department of Sanitation",
    "final_address": "8721 Peach St",
    "address_councildis": "A",
    "status": "Pending",
    "rowid": "873987",
    "final_x": "3666985.67962",
    "final_y": "537360.031752",
    "longitude": "-90.1137052034057",
    "latitude": "29.971986548701835",
    "geocoded_column": {
      "latitude": "29.971986548701835",
      "longitude": "-90.1137052034057"
    }
  },
  {
    "service_request": "2022-873986",
    "request_type": "Trash/Recycling",
    "request_reason": "Missed Trash Pick-Up",
    "date_created": "2022-04-11T15:50:46.000",
    "date_modified": "2022-04-11T15:50:46.000",
    "request_status": "Pending",
    "responsible_agency": "Department of Sanitation",
    "final_address": "234 S Norman C Francis Pkwy, New Orleans, Louisiana, 70119",
    "status": "Assigned to Contractor",
    "rowid": "873986",
    "longitude": "0.0",
    "latitude": "0.0",
    "geocoded_column": {
      "latitude": "0.0",
      "longitude": "0.0"
    }
  },
  {
    "service_request": "2022-873984",
    "request_type": "Property Maintenance",
    "request_reason": "Property Maintenance",
    "date_created": "2022-04-11T15:41:39.000",
    "date_modified": "2022-04-11T15:41:39.000",
    "request_status": "Pending",
    "responsible_agency": "Department of Code Enforcement",
    "final_address": "4536 Louisa Dr",
    "address_councildis": "D",
    "status": "Pending",
    "rowid": "873984",
    "final_x": "3690875.55843",
    "final_y": "550638.179028",
    "longitude": "-90.03778323527908",
    "latitude": "30.007775848389638",
    "geocoded_column": {
      "latitude": "30.007775848389638",
      "longitude": "-90.03778323527908"
    }
  },
  {
    "service_request": "2022-873983",
    "request_type": "Trash/Recycling",
    "request_reason": "Missed Trash Pick-Up",
    "date_created": "2022-04-11T15:40:40.000",
    "date_modified": "2022-04-11T15:40:41.000",
    "request_status": "Pending",
    "responsible_agency": "Department of Sanitation",
    "final_address": "2730 Banks St",
    "address_councildis": "B",
    "status": "Assigned to Contractor",
    "contractor": "Richards Disposal",
    "rowid": "873983",
    "final_x": "3674346.48353",
    "final_y": "534272.293061",
    "longitude": "-90.09056432432821",
    "latitude": "29.96327882673036",
    "geocoded_column": {
      "latitude": "29.96327882673036",
      "longitude": "-90.09056432432821"
    }
  },
  {
    "service_request": "2022-873982",
    "request_type": "Trash/Recycling",
    "request_reason": "Request a Large Item Pick Up",
    "date_created": "2022-04-11T15:39:27.000",
    "date_modified": "2022-04-11T15:39:28.000",
    "request_status": "Pending",
    "responsible_agency": "Department of Sanitation",
    "final_address": "3941 Piedmont Dr",
    "address_councildis": "D",
    "status": "Assigned to Contractor",
    "contractor": "Metro Disposal",
    "rowid": "873982",
    "final_x": "3685387.14588",
    "final_y": "547243.187025",
    "longitude": "-90.05524235424207",
    "latitude": "29.998610335142036",
    "geocoded_column": {
      "latitude": "29.998610335142036",
      "longitude": "-90.05524235424207"
    }
  },
  {
    "service_request": "2022-873981",
    "request_type": "Trash/Recycling",
    "request_reason": "MIssed Recycling Pick-Up",
    "date_created": "2022-04-11T15:38:46.000",
    "date_modified": "2022-04-11T15:39:07.000",
    "case_close_date": "2021-12-20T18:00:00.000",
    "request_status": "Pending",
    "responsible_agency": "Department of Sanitation",
    "final_address": "2110 State St",
    "address_councildis": "A",
    "status": "Assigned to Contractor",
    "contractor": "Richards Disposal",
    "rowid": "873981",
    "final_x": "3666357.28788",
    "final_y": "524538.958012",
    "longitude": "-90.11611990601128",
    "latitude": "29.93675115534343",
    "geocoded_column": {
      "latitude": "29.93675115534343",
      "longitude": "-90.11611990601128"
    }
  },
  {
    "service_request": "2022-873980",
    "request_type": "Trash/Recycling",
    "request_reason": "Repair Trash Cart",
    "date_created": "2022-04-11T15:38:01.000",
    "date_modified": "2022-04-11T15:38:02.000",
    "request_status": "Pending",
    "responsible_agency": "Department of Sanitation",
    "final_address": "4320 St Peter St",
    "address_councildis": "A",
    "status": "Assigned to Contractor",
    "contractor": "Richards Disposal",
    "rowid": "873980",
    "final_x": "3671405.16839",
    "final_y": "540758.467019",
    "longitude": "-90.09963215250731",
    "latitude": "29.981201007186165",
    "geocoded_column": {
      "latitude": "29.981201007186165",
      "longitude": "-90.09963215250731"
    }
  },
  {
    "service_request": "2022-873979",
    "request_type": "Trash/Recycling",
    "request_reason": "Repair Trash Cart",
    "date_created": "2022-04-11T15:33:32.000",
    "date_modified": "2022-04-11T15:33:33.000",
    "request_status": "Pending",
    "responsible_agency": "Department of Sanitation",
    "final_address": "4320 St Peter St",
    "address_councildis": "A",
    "status": "Assigned to Contractor",
    "contractor": "Richards Disposal",
    "rowid": "873979",
    "final_x": "3671405.16839",
    "final_y": "540758.467019",
    "longitude": "-90.09963215250731",
    "latitude": "29.981201007186165",
    "geocoded_column": {
      "latitude": "29.981201007186165",
      "longitude": "-90.09963215250731"
    }
  },
  {
    "service_request": "2022-873978",
    "request_type": "Trash/Recycling",
    "request_reason": "Missed Trash Pick-Up",
    "date_created": "2022-04-11T15:32:07.000",
    "date_modified": "2022-04-11T15:32:08.000",
    "request_status": "Pending",
    "responsible_agency": "Department of Sanitation",
    "final_address": "1009 N Dorgenois St",
    "address_councildis": "D",
    "status": "Assigned to Contractor",
    "contractor": "Richards Disposal",
    "rowid": "873978",
    "final_x": "3677856.61013",
    "final_y": "537603.51636",
    "longitude": "-90.07936461641404",
    "latitude": "29.972333407581882",
    "geocoded_column": {
      "latitude": "29.972333407581882",
      "longitude": "-90.07936461641404"
    }
  },
  {
    "service_request": "2022-873977",
    "request_type": "Trash/Recycling",
    "request_reason": "Repair Trash Cart",
    "date_created": "2022-04-11T15:29:23.000",
    "date_modified": "2022-04-11T15:29:24.000",
    "request_status": "Pending",
    "responsible_agency": "Department of Sanitation",
    "final_address": "2821 Laurel St",
    "address_councildis": "B",
    "status": "Assigned to Contractor",
    "contractor": "Richards Disposal",
    "rowid": "873977",
    "final_x": "3677254.51336",
    "final_y": "520145.977016",
    "longitude": "-90.0818683055732",
    "latitude": "29.9243490903508",
    "geocoded_column": {
      "latitude": "29.9243490903508",
      "longitude": "-90.0818683055732"
    }
  },
  {
    "service_request": "2022-873976",
    "request_type": "Roads/Drainage",
    "request_reason": "Debris in Roadway",
    "date_created": "2022-04-11T15:22:18.000",
    "date_modified": "2022-04-11T15:22:18.000",
    "request_status": "Pending",
    "responsible_agency": "Department of Public Works",
    "final_address": "7840 Branch Dr",
    "address_councildis": "E",
    "status": "Pending",
    "rowid": "873976",
    "final_x": "3714127.21387",
    "final_y": "569382.534566",
    "longitude": "-89.96361731877626",
    "latitude": "30.05857197113325",
    "geocoded_column": {
      "latitude": "30.05857197113325",
      "longitude": "-89.96361731877626"
    }
  },
  {
    "service_request": "2022-873975",
    "request_type": "Traffic Signals/Signs/Striping/Streetlights",
    "request_reason": "Street Light Outage/Malfunction",
    "date_created": "2022-04-11T15:19:35.000",
    "date_modified": "2022-04-11T15:19:36.000",
    "request_status": "Pending",
    "responsible_agency": "Department of Public Works",
    "final_address": "3731 Red Cypress Dr",
    "address_councildis": "C",
    "status": "Pending",
    "contractor": "Royal Engineering",
    "rowid": "873975",
    "final_x": "3703294.45092",
    "final_y": "512170.390577",
    "longitude": "-89.999962786411",
    "latitude": "29.901611258923314",
    "geocoded_column": {
      "latitude": "29.901611258923314",
      "longitude": "-89.999962786411"
    }
  },
  {
    "service_request": "2022-873973",
    "request_type": "Trash/Recycling",
    "request_reason": "MIssed Recycling Pick-Up",
    "date_created": "2022-04-11T15:14:22.000",
    "date_modified": "2022-04-11T15:14:23.000",
    "request_status": "Pending",
    "responsible_agency": "Department of Sanitation",
    "final_address": "4621 Lennox Blvd",
    "address_councildis": "C",
    "status": "Assigned to Contractor",
    "contractor": "Richards Disposal",
    "rowid": "873973",
    "final_x": "3700675.33949",
    "final_y": "513845.040242",
    "longitude": "-90.0081673570154",
    "latitude": "29.906299525100106",
    "geocoded_column": {
      "latitude": "29.906299525100106",
      "longitude": "-90.0081673570154"
    }
  },
  {
    "service_request": "2022-873972",
    "request_type": "Trash/Recycling",
    "request_reason": "Request a Large Item Pick Up",
    "date_created": "2022-04-11T15:11:13.000",
    "date_modified": "2022-04-11T15:11:14.000",
    "request_status": "Pending",
    "responsible_agency": "Department of Sanitation",
    "final_address": "4509 Duplessis St",
    "address_councildis": "D",
    "status": "Assigned to Contractor",
    "contractor": "Metro Disposal",
    "rowid": "873972",
    "final_x": "3678314.42011",
    "final_y": "549117.824467",
    "longitude": "-90.07752023059119",
    "latitude": "30.00397994747285",
    "geocoded_column": {
      "latitude": "30.00397994747285",
      "longitude": "-90.07752023059119"
    }
  },
  {
    "service_request": "2022-873971",
    "request_type": "Trash/Recycling",
    "request_reason": "Request a Large Item Pick Up",
    "date_created": "2022-04-11T15:11:06.000",
    "date_modified": "2022-04-11T15:11:07.000",
    "request_status": "Pending",
    "responsible_agency": "Department of Sanitation",
    "final_address": "1849 W Homestead Dr",
    "address_councildis": "C",
    "status": "Assigned to Contractor",
    "contractor": "Richards Disposal",
    "rowid": "873971",
    "final_x": "3696860.36848",
    "final_y": "525013.637117",
    "longitude": "-90.01980358490151",
    "latitude": "29.937130136905253",
    "geocoded_column": {
      "latitude": "29.937130136905253",
      "longitude": "-90.01980358490151"
    }
  },
  {
    "service_request": "2022-873970",
    "request_type": "Trash/Recycling",
    "request_reason": "Replace Trash Cart",
    "date_created": "2022-04-11T15:10:16.000",
    "date_modified": "2022-04-11T15:10:17.000",
    "request_status": "Pending",
    "responsible_agency": "Department of Sanitation",
    "final_address": "2931 Bacchus Dr",
    "address_councildis": "C",
    "status": "Assigned to Contractor",
    "contractor": "Richards Disposal",
    "rowid": "873970",
    "final_x": "3710161.84862",
    "final_y": "518643.020343",
    "longitude": "-89.97804832129685",
    "latitude": "29.919187220615434",
    "geocoded_column": {
      "latitude": "29.919187220615434",
      "longitude": "-89.97804832129685"
    }
  },
  {
    "service_request": "2022-873969",
    "request_type": "Trash/Recycling",
    "request_reason": "Repair Trash Cart",
    "date_created": "2022-04-11T15:09:44.000",
    "date_modified": "2022-04-11T15:09:45.000",
    "request_status": "Pending",
    "responsible_agency": "Department of Sanitation",
    "final_address": "1858 Halsey Ave",
    "address_councildis": "C",
    "status": "Assigned to Contractor",
    "contractor": "Richards Disposal",
    "rowid": "873969",
    "final_x": "3697826.38115",
    "final_y": "523821.299451",
    "longitude": "-90.01679709393073",
    "latitude": "29.933821135567037",
    "geocoded_column": {
      "latitude": "29.933821135567037",
      "longitude": "-90.01679709393073"
    }
  },
  {
    "service_request": "2022-873968",
    "request_type": "Trash/Recycling",
    "request_reason": "Repair Trash Cart",
    "date_created": "2022-04-11T15:06:34.000",
    "date_modified": "2022-04-11T15:06:35.000",
    "request_status": "Pending",
    "responsible_agency": "Department of Sanitation",
    "final_address": "5415 Rhodes Ave",
    "address_councildis": "C",
    "status": "Assigned to Contractor",
    "contractor": "Richards Disposal",
    "rowid": "873968",
    "final_x": "3704055.79985",
    "final_y": "519864.155512",
    "longitude": "-89.99727691928692",
    "latitude": "29.922742093311456",
    "geocoded_column": {
      "latitude": "29.922742093311456",
      "longitude": "-89.99727691928692"
    }
  },
  {
    "service_request": "2022-873967",
    "request_type": "Traffic Signals/Signs/Striping/Streetlights",
    "request_reason": "Street Light Outage/Malfunction",
    "date_created": "2022-04-11T15:05:52.000",
    "date_modified": "2022-04-11T15:05:53.000",
    "request_status": "Pending",
    "responsible_agency": "Department of Public Works",
    "final_address": "3824 S Inwood Ave",
    "address_councildis": "C",
    "status": "Pending",
    "contractor": "Royal Engineering",
    "rowid": "873967",
    "final_x": "3705104.25739",
    "final_y": "514402.996019",
    "longitude": "-89.99416885229617",
    "latitude": "29.9076921303527",
    "geocoded_column": {
      "latitude": "29.9076921303527",
      "longitude": "-89.99416885229617"
    }
  },
  {
    "service_request": "2022-873966",
    "request_type": "Traffic Signals/Signs/Striping/Streetlights",
    "request_reason": "Request for Traffic Calming due to Speeding",
    "date_created": "2022-04-11T15:05:25.000",
    "date_modified": "2022-04-11T15:05:25.000",
    "request_status": "Pending",
    "responsible_agency": "Department of Public Works",
    "final_address": "2635 State St",
    "address_councildis": "A",
    "status": "Pending",
    "rowid": "873966",
    "final_x": "3667025.25959",
    "final_y": "526205.373566",
    "longitude": "-90.11395509438292",
    "latitude": "29.941313735207462",
    "geocoded_column": {
      "latitude": "29.941313735207462",
      "longitude": "-90.11395509438292"
    }
  },
  {
    "service_request": "2022-873965",
    "request_type": "Traffic Signals/Signs/Striping/Streetlights",
    "request_reason": "Street Light Outage/Malfunction",
    "date_created": "2022-04-11T15:03:18.000",
    "date_modified": "2022-04-11T15:03:18.000",
    "request_status": "Pending",
    "responsible_agency": "Department of Public Works",
    "final_address": "3776 Inwood Ave",
    "address_councildis": "C",
    "status": "Pending",
    "contractor": "Royal Engineering",
    "rowid": "873965",
    "final_x": "3705071.64555",
    "final_y": "514690.024755",
    "longitude": "-89.99426119195707",
    "latitude": "29.908482409142927",
    "geocoded_column": {
      "latitude": "29.908482409142927",
      "longitude": "-89.99426119195707"
    }
  },
  {
    "service_request": "2022-873964",
    "request_type": "Trash/Recycling",
    "request_reason": "Request a Large Item Pick Up",
    "date_created": "2022-04-11T14:58:47.000",
    "date_modified": "2022-04-11T14:58:47.000",
    "request_status": "Pending",
    "responsible_agency": "Department of Sanitation",
    "final_address": "2525 Lapeyrouse St",
    "address_councildis": "D",
    "status": "Assigned to Contractor",
    "contractor": "Metro Disposal",
    "rowid": "873964",
    "final_x": "3679416.77391",
    "final_y": "539962.651018",
    "longitude": "-90.0743554879856",
    "latitude": "29.97877317394535",
    "geocoded_column": {
      "latitude": "29.97877317394535",
      "longitude": "-90.0743554879856"
    }
  },
  {
    "service_request": "2022-873961",
    "request_type": "Traffic Signals/Signs/Striping/Streetlights",
    "request_reason": "Traffic Signal Malfunctioning/Damaged",
    "date_created": "2022-04-11T14:52:57.000",
    "date_modified": "2022-04-11T14:52:57.000",
    "request_status": "Pending",
    "responsible_agency": "Department of Public Works",
    "final_address": "PRENTISS AVE & ELYSIAN FIELDS AVE",
    "address_councildis": "D",
    "status": "Pending",
    "rowid": "873961",
    "final_x": "3683661.2",
    "final_y": "553842.08",
    "longitude": "-90.0604630484582",
    "latitude": "30.01680772340767",
    "geocoded_column": {
      "latitude": "30.01680772340767",
      "longitude": "-90.0604630484582"
    }
  },
  {
    "service_request": "2022-873960",
    "request_type": "Trash/Recycling",
    "request_reason": "Missed Trash Pick-Up",
    "date_created": "2022-04-11T14:52:23.000",
    "date_modified": "2022-04-11T14:52:24.000",
    "request_status": "Pending",
    "responsible_agency": "Department of Sanitation",
    "final_address": "9013 Olive St",
    "address_councildis": "A",
    "status": "Assigned to Contractor",
    "contractor": "Richards Disposal",
    "rowid": "873960",
    "final_x": "3664829.40192",
    "final_y": "536426.704007",
    "longitude": "-90.120546304541",
    "latitude": "29.96948313886403",
    "geocoded_column": {
      "latitude": "29.96948313886403",
      "longitude": "-90.120546304541"
    }
  },
  {
    "service_request": "2022-873959",
    "request_type": "Trash/Recycling",
    "request_reason": "Repair Trash Cart",
    "date_created": "2022-04-11T14:51:44.000",
    "date_modified": "2022-04-11T14:51:44.000",
    "request_status": "Pending",
    "responsible_agency": "Department of Sanitation",
    "final_address": "6301 Brighton Pl",
    "address_councildis": "C",
    "status": "Assigned to Contractor",
    "contractor": "Richards Disposal",
    "rowid": "873959",
    "final_x": "3707458.76344",
    "final_y": "519993.139448",
    "longitude": "-89.98653042063906",
    "latitude": "29.922987212128113",
    "geocoded_column": {
      "latitude": "29.922987212128113",
      "longitude": "-89.98653042063906"
    }
  },
  {
    "service_request": "2022-873958",
    "request_type": "Roads/Drainage",
    "request_reason": "Pothole",
    "date_created": "2022-04-11T14:48:21.000",
    "date_modified": "2022-04-11T14:52:28.000",
    "request_status": "Pending",
    "responsible_agency": "Department of Public Works",
    "final_address": "8400 BLK Zimpel St",
    "address_councildis": "A",
    "status": "Inspected",
    "rowid": "873958",
    "final_x": "3660800.64687",
    "final_y": "528956.387085",
    "longitude": "-90.13351654757068",
    "latitude": "29.949058819797724",
    "geocoded_column": {
      "latitude": "29.949058819797724",
      "longitude": "-90.13351654757068"
    }
  },
  {
    "service_request": "2022-873957",
    "request_type": "Safety & Permits",
    "request_reason": "Construction permit",
    "date_created": "2022-04-11T14:44:35.000",
    "date_modified": "2022-04-11T14:44:35.000",
    "request_status": "Pending",
    "responsible_agency": "Department of Code Enforcement",
    "final_address": "4517 S Saratoga St",
    "address_councildis": "B",
    "status": "Pending",
    "rowid": "873957",
    "final_x": "3670102.68289",
    "final_y": "522692.71449",
    "longitude": "-90.10435800171888",
    "latitude": "29.931564647191923",
    "geocoded_column": {
      "latitude": "29.931564647191923",
      "longitude": "-90.10435800171888"
    }
  },
  {
    "service_request": "2022-873956",
    "request_type": "Property Maintenance",
    "request_reason": "Property Maintenance",
    "date_created": "2022-04-11T14:43:47.000",
    "date_modified": "2022-04-11T15:04:08.000",
    "request_status": "Pending",
    "responsible_agency": "Department of Code Enforcement",
    "final_address": "WALES ST & FLOUNDER ST",
    "address_councildis": "E",
    "rowid": "873956",
    "final_x": "3699812.2",
    "final_y": "561221.48",
    "longitude": "-90.0091635364239",
    "latitude": "30.03659502366877",
    "geocoded_column": {
      "latitude": "30.03659502366877",
      "longitude": "-90.0091635364239"
    }
  },
  {
    "service_request": "2022-873955",
    "request_type": "Trash/Recycling",
    "request_reason": "Request a Large Item Pick Up",
    "date_created": "2022-04-11T14:35:41.000",
    "date_modified": "2022-04-11T14:35:42.000",
    "request_status": "Pending",
    "responsible_agency": "Department of Sanitation",
    "final_address": "2422 Hyman Pl",
    "address_councildis": "C",
    "status": "Assigned to Contractor",
    "contractor": "Richards Disposal",
    "rowid": "873955",
    "final_x": "3701131.4881",
    "final_y": "522189.424378",
    "longitude": "-90.00642275195021",
    "latitude": "29.929229213838386",
    "geocoded_column": {
      "latitude": "29.929229213838386",
      "longitude": "-90.00642275195021"
    }
  },
  {
    "service_request": "2022-873954",
    "request_type": "Trash/Recycling",
    "request_reason": "Request a Large Item Pick Up",
    "date_created": "2022-04-11T14:21:24.000",
    "date_modified": "2022-04-11T14:21:25.000",
    "request_status": "Pending",
    "responsible_agency": "Department of Sanitation",
    "final_address": "6043 Pratt Dr",
    "address_councildis": "D",
    "status": "Assigned to Contractor",
    "contractor": "Metro Disposal",
    "rowid": "873954",
    "final_x": "3680284.68725",
    "final_y": "554848.607768",
    "longitude": "-90.07109637818904",
    "latitude": "30.0196780108524",
    "geocoded_column": {
      "latitude": "30.0196780108524",
      "longitude": "-90.07109637818904"
    }
  },
  {
    "service_request": "2022-873953",
    "request_type": "Roads/Drainage",
    "request_reason": "Pothole",
    "date_created": "2022-04-11T14:19:05.000",
    "date_modified": "2022-04-11T14:19:05.000",
    "request_status": "Pending",
    "responsible_agency": "Department of Public Works",
    "final_address": "1466 N Derbigny St",
    "address_councildis": "D",
    "status": "Pending",
    "rowid": "873953",
    "final_x": "3681361.39746",
    "final_y": "537259.384392",
    "longitude": "-90.06830789851142",
    "latitude": "29.971281234435384",
    "geocoded_column": {
      "latitude": "29.971281234435384",
      "longitude": "-90.06830789851142"
    }
  },
  {
    "service_request": "2022-873952",
    "request_type": "Trash/Recycling",
    "request_reason": "Request a Large Item Pick Up",
    "date_created": "2022-04-11T14:18:27.000",
    "date_modified": "2022-04-11T14:18:29.000",
    "request_status": "Pending",
    "responsible_agency": "Department of Sanitation",
    "final_address": "2121 Delachaise St",
    "address_councildis": "B",
    "status": "Assigned to Contractor",
    "contractor": "Richards Disposal",
    "rowid": "873952",
    "final_x": "3673080.88635",
    "final_y": "523211.055483",
    "longitude": "-90.09493845975737",
    "latitude": "29.932901748960443",
    "geocoded_column": {
      "latitude": "29.932901748960443",
      "longitude": "-90.09493845975737"
    }
  },
  {
    "service_request": "2022-873951",
    "request_type": "Trash/Recycling",
    "request_reason": "Replace Trash Cart",
    "date_created": "2022-04-11T14:18:25.000",
    "date_modified": "2022-04-11T14:18:26.000",
    "request_status": "Pending",
    "responsible_agency": "Department of Sanitation",
    "final_address": "5330 Constance St",
    "address_councildis": "B",
    "status": "Assigned to Contractor",
    "contractor": "Richards Disposal",
    "rowid": "873951",
    "final_x": "3667187.43079",
    "final_y": "518259.738614",
    "longitude": "-90.11371009951668",
    "latitude": "29.91946101931607",
    "geocoded_column": {
      "latitude": "29.91946101931607",
      "longitude": "-90.11371009951668"
    }
  },
  {
    "service_request": "2022-873950",
    "request_type": "Property Maintenance",
    "request_reason": "Property Maintenance",
    "date_created": "2022-04-11T14:18:16.000",
    "date_modified": "2022-04-11T14:18:16.000",
    "request_status": "Pending",
    "responsible_agency": "Department of Code Enforcement",
    "final_address": "5501 Edenboro Rd",
    "address_councildis": "E",
    "status": "Pending",
    "rowid": "873950",
    "final_x": "3708222.78052",
    "final_y": "558086.456859",
    "longitude": "-89.98270137350146",
    "latitude": "30.027705012642564",
    "geocoded_column": {
      "latitude": "30.027705012642564",
      "longitude": "-89.98270137350146"
    }
  },
  {
    "service_request": "2022-873949",
    "request_type": "Trash/Recycling",
    "request_reason": "Order Trash Cart",
    "date_created": "2022-04-11T14:12:50.000",
    "date_modified": "2022-04-11T14:12:51.000",
    "request_status": "Pending",
    "responsible_agency": "Department of Sanitation",
    "final_address": "New Orleans,LA",
    "status": "Assigned to Contractor",
    "rowid": "873949",
    "longitude": "0.0",
    "latitude": "0.0",
    "geocoded_column": {
      "latitude": "0.0",
      "longitude": "0.0"
    }
  },
  {
    "service_request": "2022-873948",
    "request_type": "Traffic Signals/Signs/Striping/Streetlights",
    "request_reason": "Traffic Signal Malfunctioning/Damaged",
    "date_created": "2022-04-11T14:11:09.000",
    "date_modified": "2022-04-11T14:11:09.000",
    "request_status": "Pending",
    "responsible_agency": "Department of Public Works",
    "final_address": "1601 Magazine St",
    "address_councildis": "B",
    "status": "Pending",
    "rowid": "873948",
    "final_x": "3679986.73013",
    "final_y": "523100.633595",
    "longitude": "-90.07314106656567",
    "latitude": "29.932391092561822",
    "geocoded_column": {
      "latitude": "29.932391092561822",
      "longitude": "-90.07314106656567"
    }
  },
  {
    "service_request": "2022-873947",
    "request_type": "Trash/Recycling",
    "request_reason": "Illegal Dumping",
    "date_created": "2022-04-11T14:09:33.000",
    "date_modified": "2022-04-11T14:09:33.000",
    "request_status": "Pending",
    "responsible_agency": "Department of Code Enforcement",
    "final_address": "BERKLEY DR & BOYD ST",
    "address_councildis": "C",
    "status": "Pending",
    "rowid": "873947",
    "final_x": "3707975.7",
    "final_y": "518050.68",
    "longitude": "-89.98497082036224",
    "latitude": "29.917629409464976",
    "geocoded_column": {
      "latitude": "29.917629409464976",
      "longitude": "-89.98497082036224"
    }
  },
  {
    "service_request": "2022-873946",
    "request_type": "Trash/Recycling",
    "request_reason": "Repair Trash Cart",
    "date_created": "2022-04-11T14:07:56.000",
    "date_modified": "2022-04-11T14:07:57.000",
    "request_status": "Pending",
    "responsible_agency": "Department of Sanitation",
    "final_address": "508 Philip St",
    "address_councildis": "B",
    "status": "Assigned to Contractor",
    "contractor": "Richards Disposal",
    "rowid": "873946",
    "final_x": "3679825.75855",
    "final_y": "520117.679864",
    "longitude": "-90.07375275579042",
    "latitude": "29.924193813866793",
    "geocoded_column": {
      "latitude": "29.924193813866793",
      "longitude": "-90.07375275579042"
    }
  },
  {
    "service_request": "2022-873944",
    "request_type": "Trash/Recycling",
    "request_reason": "Return Trash Cart",
    "date_created": "2022-04-11T14:05:13.000",
    "date_modified": "2022-04-11T14:05:14.000",
    "request_status": "Pending",
    "responsible_agency": "Department of Sanitation",
    "final_address": "654 Aurora Oaks Dr",
    "address_councildis": "C",
    "status": "Assigned to Contractor",
    "contractor": "Richards Disposal",
    "rowid": "873944",
    "final_x": "3701297.68657",
    "final_y": "520276.139576",
    "longitude": "-90.00596806571446",
    "latitude": "29.923963048231045",
    "geocoded_column": {
      "latitude": "29.923963048231045",
      "longitude": "-90.00596806571446"
    }
  },
  {
    "service_request": "2022-873943",
    "request_type": "Trash/Recycling",
    "request_reason": "Replace Trash Cart",
    "date_created": "2022-04-11T14:04:23.000",
    "date_modified": "2022-04-11T14:04:24.000",
    "request_status": "Pending",
    "responsible_agency": "Department of Sanitation",
    "final_address": "7141 Salem Dr",
    "address_councildis": "E",
    "status": "Assigned to Contractor",
    "contractor": "Metro Disposal",
    "rowid": "873943",
    "final_x": "3706456.96676",
    "final_y": "561342.234206",
    "longitude": "-89.9881603901651",
    "latitude": "30.036714235091537",
    "geocoded_column": {
      "latitude": "30.036714235091537",
      "longitude": "-89.9881603901651"
    }
  },
  {
    "service_request": "2022-873942",
    "request_type": "Trash/Recycling",
    "request_reason": "Missed Trash Pick-Up",
    "date_created": "2022-04-11T14:03:28.000",
    "date_modified": "2022-04-11T14:03:29.000",
    "request_status": "Pending",
    "responsible_agency": "Department of Sanitation",
    "final_address": "7209 St Charles Ave",
    "address_councildis": "A",
    "status": "Assigned to Contractor",
    "contractor": "Richards Disposal",
    "rowid": "873942",
    "final_x": "3662928.73587",
    "final_y": "524836.241788",
    "longitude": "-90.1269341763332",
    "latitude": "29.93766829239644",
    "geocoded_column": {
      "latitude": "29.93766829239644",
      "longitude": "-90.1269341763332"
    }
  },
  {
    "service_request": "2022-873941",
    "request_type": "Trash/Recycling",
    "request_reason": "Order Trash Cart",
    "date_created": "2022-04-11T14:02:44.000",
    "date_modified": "2022-04-11T14:02:45.000",
    "request_status": "Pending",
    "responsible_agency": "Department of Sanitation",
    "final_address": "9112 Palmetto St",
    "address_councildis": "A",
    "status": "Assigned to Contractor",
    "contractor": "Richards Disposal",
    "rowid": "873941",
    "final_x": "3665379.26061",
    "final_y": "537555.149256",
    "longitude": "-90.11877202367857",
    "latitude": "29.97256997469547",
    "geocoded_column": {
      "latitude": "29.97256997469547",
      "longitude": "-90.11877202367857"
    }
  },
  {
    "service_request": "2022-873940",
    "request_type": "Trash/Recycling",
    "request_reason": "Request a Large Item Pick Up",
    "date_created": "2022-04-11T14:02:06.000",
    "date_modified": "2022-04-11T14:02:07.000",
    "request_status": "Pending",
    "responsible_agency": "Department of Sanitation",
    "final_address": "4651 St Roch Ave",
    "address_councildis": "D",
    "status": "Assigned to Contractor",
    "contractor": "Metro Disposal",
    "rowid": "873940",
    "final_x": "3685464.43983",
    "final_y": "549984.31266",
    "longitude": "-90.05490157047741",
    "latitude": "30.006145069403953",
    "geocoded_column": {
      "latitude": "30.006145069403953",
      "longitude": "-90.05490157047741"
    }
  },
  {
    "service_request": "2022-873939",
    "request_type": "Traffic Signals/Signs/Striping/Streetlights",
    "request_reason": "Street Light Outage/Malfunction",
    "date_created": "2022-04-11T14:00:55.000",
    "date_modified": "2022-04-11T14:00:56.000",
    "request_status": "Pending",
    "responsible_agency": "Department of Public Works",
    "final_address": "3099 Ridgeway Blvd",
    "address_councildis": "E",
    "status": "Pending",
    "contractor": "Royal Engineering",
    "rowid": "873939",
    "final_x": "3744430.91963",
    "final_y": "597191.564864",
    "longitude": "-89.86670714548117",
    "latitude": "30.1340032036044",
    "geocoded_column": {
      "latitude": "30.1340032036044",
      "longitude": "-89.86670714548117"
    }
  },
  {
    "service_request": "2022-873938",
    "request_type": "Trash/Recycling",
    "request_reason": "Request a Large Item Pick Up",
    "date_created": "2022-04-11T13:58:53.000",
    "date_modified": "2022-04-11T13:58:55.000",
    "request_status": "Pending",
    "responsible_agency": "Department of Sanitation",
    "final_address": "7209 St Charles Ave",
    "address_councildis": "A",
    "status": "Assigned to Contractor",
    "contractor": "Richards Disposal",
    "rowid": "873938",
    "final_x": "3662928.73587",
    "final_y": "524836.241788",
    "longitude": "-90.1269341763332",
    "latitude": "29.93766829239644",
    "geocoded_column": {
      "latitude": "29.93766829239644",
      "longitude": "-90.1269341763332"
    }
  },
  {
    "service_request": "2022-873937",
    "request_type": "Trash/Recycling",
    "request_reason": "Missed Trash Pick-Up",
    "date_created": "2022-04-11T13:57:58.000",
    "date_modified": "2022-04-11T13:57:59.000",
    "request_status": "Pending",
    "responsible_agency": "Department of Sanitation",
    "final_address": "3705 Camp St",
    "address_councildis": "B",
    "status": "Assigned to Contractor",
    "contractor": "Richards Disposal",
    "rowid": "873937",
    "final_x": "3673502.82459",
    "final_y": "519503.798647",
    "longitude": "-90.09373304196723",
    "latitude": "29.922695441224793",
    "geocoded_column": {
      "latitude": "29.922695441224793",
      "longitude": "-90.09373304196723"
    }
  },
  {
    "service_request": "2022-873936",
    "request_type": "Trash/Recycling",
    "request_reason": "Replace Trash Cart",
    "date_created": "2022-04-11T13:56:26.000",
    "date_modified": "2022-04-11T13:56:27.000",
    "request_status": "Pending",
    "responsible_agency": "Department of Sanitation",
    "final_address": "2343 Prentiss Ave",
    "address_councildis": "D",
    "status": "Assigned to Contractor",
    "contractor": "Metro Disposal",
    "rowid": "873936",
    "final_x": "3684710.60181",
    "final_y": "553997.883096",
    "longitude": "-90.05714190118718",
    "latitude": "30.01720402938333",
    "geocoded_column": {
      "latitude": "30.01720402938333",
      "longitude": "-90.05714190118718"
    }
  },
  {
    "service_request": "2022-873935",
    "request_type": "Trash/Recycling",
    "request_reason": "Missed Trash Pick-Up",
    "date_created": "2022-04-11T13:54:09.000",
    "date_modified": "2022-04-11T13:54:10.000",
    "request_status": "Pending",
    "responsible_agency": "Department of Sanitation",
    "final_address": "4133 Iberville St",
    "address_councildis": "A",
    "status": "Assigned to Contractor",
    "contractor": "Richards Disposal",
    "rowid": "873935",
    "final_x": "3671141.79239",
    "final_y": "538911.087434",
    "longitude": "-90.10052679253299",
    "latitude": "29.976129135351396",
    "geocoded_column": {
      "latitude": "29.976129135351396",
      "longitude": "-90.10052679253299"
    }
  },