[
  {
    "service_request": "2022-928828",
    "request_type": "Health Related Questions",
    "request_reason": "Noise Ordinance Complaint",
    "date_created": "2022-10-15T00:51:31.000",
    "date_modified": "2022-10-15T00:51:31.000",
    "request_status": "Pending",
    "responsible_agency": "Health Department",
    "final_address": "BURGUNDY ST & FRENCHMEN ST",
    "address_councildis": "C",
    "status": "Pending",
    "rowid": "928828",
    "final_x": "3684651.7",
    "final_y": "535550.98",
    "longitude": "-90.05797673365942",
    "latitude": "29.966483422338076",
    "geocoded_column": {
      "latitude": "29.966483422338076",
      "longitude": "-90.05797673365942"
    }
  },
  {
    "service_request": "2022-928827",
    "request_type": "Health Related Questions",
    "request_reason": "Noise Ordinance Complaint",
    "date_created": "2022-10-14T23:11:07.000",
    "date_modified": "2022-10-14T23:11:07.000",
    "request_status": "Pending",
    "responsible_agency": "Health Department",
    "final_address": "1355 St Bernard Ave",
    "address_councildis": "C",
    "status": "Pending",
    "rowid": "928827",
    "final_x": "3682740.64648",
    "final_y": "536936.85716",
    "longitude": "-90.06396332640323",
    "latitude": "29.970352454742336",
    "geocoded_column": {
      "latitude": "29.970352454742336",
      "longitude": "-90.06396332640323"
    }
  },
  {
    "service_request": "2022-928825",
    "request_type": "Safety & Permits",
    "request_reason": "Licenses & Permits",
    "date_created": "2022-10-14T22:10:27.000",
    "date_modified": "2022-10-14T22:10:27.000",
    "request_status": "Pending",
    "responsible_agency": "Safety and Permits",
    "status": "Pending",
    "rowid": "928825",
    "longitude": "0.0",
    "latitude": "0.0",
    "geocoded_column": {
      "latitude": "0.0",
      "longitude": "0.0"
    }
  },
  {
    "service_request": "2022-928824",
    "request_type": "Health Related Questions",
    "request_reason": "Noise Ordinance Complaint",
    "date_created": "2022-10-14T22:08:55.000",
    "date_modified": "2022-10-14T22:08:55.000",
    "request_status": "Pending",
    "responsible_agency": "Health Department",
    "final_address": "316 Chartres St, New Orleans, Louisiana, 70130",
    "address_councildis": "C",
    "status": "Pending",
    "rowid": "928824",
    "final_x": "3682048.77532",
    "final_y": "531162.123394",
    "longitude": "-90.06634998337161",
    "latitude": "29.954494970034958",
    "geocoded_column": {
      "latitude": "29.954494970034958",
      "longitude": "-90.06634998337161"
    }
  },
  {
    "service_request": "2022-928823",
    "request_type": "Property Maintenance",
    "request_reason": "Property Maintenance",
    "date_created": "2022-10-14T20:44:41.000",
    "date_modified": "2022-10-14T20:44:41.000",
    "request_status": "Pending",
    "responsible_agency": "Department of Code Enforcement",
    "final_address": "5801 Read Blvd",
    "address_councildis": "E",
    "status": "Pending",
    "rowid": "928823",
    "final_x": "3711130.32971",
    "final_y": "560962.831134",
    "longitude": "-89.97340595179783",
    "latitude": "30.035519345897097",
    "geocoded_column": {
      "latitude": "30.035519345897097",
      "longitude": "-89.97340595179783"
    }
  },
  {
    "service_request": "2022-928821",
    "request_type": "Traffic Signals/Signs/Striping/Streetlights",
    "request_reason": "Street Light Outage/Malfunction",
    "date_created": "2022-10-14T20:41:41.000",
    "date_modified": "2022-10-14T20:41:42.000",
    "request_status": "Pending",
    "responsible_agency": "Department of Public Works",
    "final_address": "3469 Vespasian St",
    "address_councildis": "C",
    "status": "Pending",
    "contractor": "Legacy Professional Services",
    "rowid": "928821",
    "final_x": "3696053.47414",
    "final_y": "522570.257786",
    "longitude": "-90.02243923494422",
    "latitude": "29.930437091892376",
    "geocoded_column": {
      "latitude": "29.930437091892376",
      "longitude": "-90.02243923494422"
    }
  },
  {
    "service_request": "2022-928820",
    "request_type": "Property Maintenance",
    "request_reason": "Property Maintenance",
    "date_created": "2022-10-14T20:41:03.000",
    "date_modified": "2022-10-14T20:41:03.000",
    "request_status": "Pending",
    "responsible_agency": "Department of Code Enforcement",
    "final_address": "4046 Chef Menteur Hwy",
    "address_councildis": "D",
    "status": "Pending",
    "rowid": "928820",
    "final_x": "3689563.47318",
    "final_y": "548862.437843",
    "longitude": "-90.04199171111547",
    "latitude": "30.002933936230633",
    "geocoded_column": {
      "latitude": "30.002933936230633",
      "longitude": "-90.04199171111547"
    }
  },
  {
    "service_request": "2022-928819",
    "request_type": "Trash/Recycling",
    "request_reason": "MIssed Recycling Pick-Up",
    "date_created": "2022-10-14T20:28:38.000",
    "date_modified": "2022-10-14T20:28:38.000",
    "request_status": "Pending",
    "responsible_agency": "Department of Sanitation",
    "final_address": "8237 Apricot St",
    "address_councildis": "A",
    "status": "Assigned to Contractor",
    "contractor": "Richards Disposal",
    "rowid": "928819",
    "final_x": "3665372.41389",
    "final_y": "533087.166724",
    "longitude": "-90.11894319578644",
    "latitude": "29.960284697163896",
    "geocoded_column": {
      "latitude": "29.960284697163896",
      "longitude": "-90.11894319578644"
    }
  },
  {
    "service_request": "2022-928818",
    "request_type": "Abandoned Vehicles",
    "request_reason": "Abandoned/Junk Vehicles",
    "date_created": "2022-10-14T20:26:38.000",
    "date_modified": "2022-10-14T20:26:38.000",
    "request_status": "Pending",
    "responsible_agency": "Department of Public Works",
    "final_address": "705 Race St",
    "address_councildis": "B",
    "status": "Pending",
    "rowid": "928818",
    "final_x": "3681547.61717",
    "final_y": "523612.648955",
    "longitude": "-90.06819564497594",
    "latitude": "29.933751670693265",
    "geocoded_column": {
      "latitude": "29.933751670693265",
      "longitude": "-90.06819564497594"
    }
  },
  {
    "service_request": "2022-928817",
    "request_type": "Trash/Recycling",
    "request_reason": "Missed Trash Pick-Up",
    "date_created": "2022-10-14T20:11:45.000",
    "date_modified": "2022-10-14T20:11:46.000",
    "request_status": "Pending",
    "responsible_agency": "Department of Sanitation",
    "final_address": "6659 Wales St",
    "address_councildis": "E",
    "status": "Assigned to Contractor",
    "contractor": "Metro Disposal",
    "rowid": "928817",
    "final_x": "3697565.38467",
    "final_y": "560533.324894",
    "longitude": "-90.01628889638079",
    "latitude": "30.03477406527213",
    "geocoded_column": {
      "latitude": "30.03477406527213",
      "longitude": "-90.01628889638079"
    }
  },
  {
    "service_request": "2022-928816",
    "request_type": "Health Related Questions",
    "request_reason": "Noise Ordinance Complaint",
    "date_created": "2022-10-14T20:10:41.000",
    "date_modified": "2022-10-14T20:10:41.000",
    "request_status": "Pending",
    "responsible_agency": "Health Department",
    "final_address": "5723 Eads St. 70122",
    "status": "Pending",
    "rowid": "928816",
    "longitude": "0.0",
    "latitude": "0.0",
    "geocoded_column": {
      "latitude": "0.0",
      "longitude": "0.0"
    }
  },
  {
    "service_request": "2022-928815",
    "request_type": "Roads/Drainage",
    "request_reason": "Ditch Issue",
    "date_created": "2022-10-14T19:58:24.000",
    "date_modified": "2022-10-14T19:58:24.000",
    "request_status": "Pending",
    "responsible_agency": "Department of Public Works",
    "final_address": "3421 Cecil St",
    "address_councildis": "A",
    "status": "Pending",
    "rowid": "928815",
    "final_x": "3663430.14541",
    "final_y": "537906.953225",
    "longitude": "-90.12491599220616",
    "latitude": "29.973593983445653",
    "geocoded_column": {
      "latitude": "29.973593983445653",
      "longitude": "-90.12491599220616"
    }
  },
  {
    "service_request": "2022-928814",
    "request_type": "Traffic Signals/Signs/Striping/Streetlights",
    "request_reason": "Traffic Sign Missing/Damaged",
    "date_created": "2022-10-14T19:43:15.000",
    "date_modified": "2022-10-14T19:43:15.000",
    "request_status": "Pending",
    "responsible_agency": "Department of Public Works",
    "final_address": "8437 S Claiborne Ave",
    "address_councildis": "A",
    "status": "Pending",
    "rowid": "928814",
    "final_x": "3663897.36435",
    "final_y": "532537.97818",
    "longitude": "-90.12361942474328",
    "latitude": "29.95881751074908",
    "geocoded_column": {
      "latitude": "29.95881751074908",
      "longitude": "-90.12361942474328"
    }
  },
  {
    "service_request": "2022-928813",
    "request_type": "Property Maintenance",
    "request_reason": "Property Maintenance",
    "date_created": "2022-10-14T19:37:06.000",
    "date_modified": "2022-10-14T19:37:06.000",
    "request_status": "Pending",
    "responsible_agency": "Department of Code Enforcement",
    "final_address": "2300 Martin Luther King, Jr. Blvd",
    "address_councildis": "B",
    "status": "Pending",
    "rowid": "928813",
    "final_x": "3676893.60219",
    "final_y": "526905.784766",
    "longitude": "-90.08277469333801",
    "latitude": "29.94294718432226",
    "geocoded_column": {
      "latitude": "29.94294718432226",
      "longitude": "-90.08277469333801"
    }
  },
  {
    "service_request": "2022-928812",
    "request_type": "Trash/Recycling",
    "request_reason": "MIssed Recycling Pick-Up",
    "date_created": "2022-10-14T19:36:17.000",
    "date_modified": "2022-10-14T19:36:17.000",
    "request_status": "Pending",
    "responsible_agency": "Department of Sanitation",
    "final_address": "7830 Walmsley Ave",
    "address_councildis": "A",
    "status": "Assigned to Contractor",
    "contractor": "Richards Disposal",
    "rowid": "928812",
    "final_x": "3666497.44282",
    "final_y": "531951.214659",
    "longitude": "-90.11542870264954",
    "latitude": "29.957128368437502",
    "geocoded_column": {
      "latitude": "29.957128368437502",
      "longitude": "-90.11542870264954"
    }
  },
  {
    "service_request": "2022-928811",
    "request_type": "Property Maintenance",
    "request_reason": "Property Maintenance",
    "date_created": "2022-10-14T19:35:46.000",
    "date_modified": "2022-10-14T19:35:46.000",
    "request_status": "Pending",
    "responsible_agency": "Department of Code Enforcement",
    "final_address": "2336 Martin Luther King, Jr. Blvd",
    "address_councildis": "B",
    "status": "Pending",
    "rowid": "928811",
    "final_x": "3676659.91605",
    "final_y": "527053.698814",
    "longitude": "-90.08350740399912",
    "latitude": "29.94336090984334",
    "geocoded_column": {
      "latitude": "29.94336090984334",
      "longitude": "-90.08350740399912"
    }
  },
  {
    "service_request": "2022-928810",
    "request_type": "Trash/Recycling",
    "request_reason": "Illegal Dumping",
    "date_created": "2022-10-14T19:34:05.000",
    "date_modified": "2022-10-14T19:34:05.000",
    "request_status": "Pending",
    "responsible_agency": "Department of Sanitation",
    "final_address": "2626 St Andrew St",
    "address_councildis": "B",
    "status": "Pending",
    "rowid": "928810",
    "final_x": "3675693.99432",
    "final_y": "527045.809854",
    "longitude": "-90.08655734040823",
    "latitude": "29.943368152400367",
    "geocoded_column": {
      "latitude": "29.943368152400367",
      "longitude": "-90.08655734040823"
    }
  },
  {
    "service_request": "2022-928809",
    "request_type": "Trash/Recycling",
    "request_reason": "Illegal Dumping",
    "date_created": "2022-10-14T19:32:24.000",
    "date_modified": "2022-10-14T19:32:24.000",
    "request_status": "Pending",
    "responsible_agency": "Department of Sanitation",
    "final_address": "2000 Magnolia St",
    "address_councildis": "B",
    "status": "Pending",
    "rowid": "928809",
    "final_x": "3675630.72341",
    "final_y": "527122.170431",
    "longitude": "-90.08675448023934",
    "latitude": "29.943580011653886",
    "geocoded_column": {
      "latitude": "29.943580011653886",
      "longitude": "-90.08675448023934"
    }
  },
  {
    "service_request": "2022-928808",
    "request_type": "Traffic Signals/Signs/Striping/Streetlights",
    "request_reason": "Street Light Outage/Malfunction",
    "date_created": "2022-10-14T19:30:45.000",
    "date_modified": "2022-10-14T19:30:46.000",
    "request_status": "Pending",
    "responsible_agency": "Department of Public Works",
    "final_address": "COLISEUM ST & BORDEAUX ST",
    "address_councildis": "B",
    "status": "Pending",
    "contractor": "Legacy Professional Services",
    "rowid": "928808",
    "final_x": "3669486.5",
    "final_y": "519677.18",
    "longitude": "-90.10640515838965",
    "latitude": "29.923291046510606",
    "geocoded_column": {
      "latitude": "29.923291046510606",
      "longitude": "-90.10640515838965"
    }
  },
  {
    "service_request": "2022-928807",
    "request_type": "Traffic Signals/Signs/Striping/Streetlights",
    "request_reason": "Street Light Outage/Malfunction",
    "date_created": "2022-10-14T19:30:21.000",
    "date_modified": "2022-10-14T19:30:22.000",
    "request_status": "Pending",
    "responsible_agency": "Department of Public Works",
    "final_address": "3524 Pin Oak Ave",
    "address_councildis": "C",
    "status": "Pending",
    "contractor": "Legacy Professional Services",
    "rowid": "928807",
    "final_x": "3703346.6691",
    "final_y": "515056.148019",
    "longitude": "-89.99969199142255",
    "latitude": "29.90954444049545",
    "geocoded_column": {
      "latitude": "29.90954444049545",
      "longitude": "-89.99969199142255"
    }
  },
  {
    "service_request": "2022-928806",
    "request_type": "Traffic Signals/Signs/Striping/Streetlights",
    "request_reason": "Street Light Outage/Malfunction",
    "date_created": "2022-10-14T19:28:36.000",
    "date_modified": "2022-10-14T19:28:37.000",
    "request_status": "Pending",
    "responsible_agency": "Department of Public Works",
    "final_address": "3548 Pin Oak Ave",
    "address_councildis": "C",
    "status": "Pending",
    "contractor": "Legacy Professional Services",
    "rowid": "928806",
    "final_x": "3703561.99921",
    "final_y": "515018.192435",
    "longitude": "-89.999013769562",
    "latitude": "29.909433182545833",
    "geocoded_column": {
      "latitude": "29.909433182545833",
      "longitude": "-89.999013769562"
    }
  },
  {
    "service_request": "2022-928805",
    "request_type": "Traffic Signals/Signs/Striping/Streetlights",
    "request_reason": "Street Light Outage/Malfunction",
    "date_created": "2022-10-14T19:28:20.000",
    "date_modified": "2022-10-14T19:28:21.000",
    "request_status": "Pending",
    "responsible_agency": "Department of Public Works",
    "final_address": "VALENCE ST & COLISEUM ST",
    "address_councildis": "B",
    "status": "Pending",
    "contractor": "Legacy Professional Services",
    "rowid": "928805",
    "final_x": "3669845.2",
    "final_y": "519709.28",
    "longitude": "-90.10527178919823",
    "latitude": "29.923368745369025",
    "geocoded_column": {
      "latitude": "29.923368745369025",
      "longitude": "-90.10527178919823"
    }
  },
  {
    "service_request": "2022-928804",
    "request_type": "Trash/Recycling",
    "request_reason": "Replace Trash Cart",
    "date_created": "2022-10-14T19:21:12.000",
    "date_modified": "2022-10-14T19:21:13.000",
    "request_status": "Pending",
    "responsible_agency": "Department of Sanitation",
    "final_address": "2402 Franklin Ave",
    "address_councildis": "D",
    "status": "Assigned to Contractor",
    "contractor": "Metro Disposal",
    "rowid": "928804",
    "final_x": "3687455.64169",
    "final_y": "541364.191628",
    "longitude": "-90.04891616070967",
    "latitude": "29.98238159968381",
    "geocoded_column": {
      "latitude": "29.98238159968381",
      "longitude": "-90.04891616070967"
    }
  },
  {
    "service_request": "2022-928803",
    "request_type": "Trash/Recycling",
    "request_reason": "Illegal Dumping",
    "date_created": "2022-10-14T19:01:34.000",
    "date_modified": "2022-10-14T19:01:34.000",
    "request_status": "Pending",
    "responsible_agency": "Department of Sanitation",
    "final_address": "12441 Morrison Rd",
    "address_councildis": "E",
    "status": "Pending",
    "rowid": "928803",
    "final_x": "3715033.6757",
    "final_y": "567960.433189",
    "longitude": "-89.96080595577186",
    "latitude": "30.05463195240162",
    "geocoded_column": {
      "latitude": "30.05463195240162",
      "longitude": "-89.96080595577186"
    }
  },
  {
    "service_request": "2022-928802",
    "request_type": "Trash/Recycling",
    "request_reason": "MIssed Recycling Pick-Up",
    "date_created": "2022-10-14T18:52:02.000",
    "date_modified": "2022-10-14T18:52:03.000",
    "request_status": "Pending",
    "responsible_agency": "Department of Sanitation",
    "final_address": "8506 Apricot St",
    "address_councildis": "A",
    "status": "Assigned to Contractor",
    "contractor": "Richards Disposal",
    "rowid": "928802",
    "final_x": "3664686.92685",
    "final_y": "533611.932741",
    "longitude": "-90.12109029887758",
    "latitude": "29.961747590287853",
    "geocoded_column": {
      "latitude": "29.961747590287853",
      "longitude": "-90.12109029887758"
    }
  },
  {
    "service_request": "2022-928801",
    "request_type": "Trash/Recycling",
    "request_reason": "Replace Trash Cart",
    "date_created": "2022-10-14T18:48:43.000",
    "date_modified": "2022-10-14T18:48:44.000",
    "request_status": "Pending",
    "responsible_agency": "Department of Sanitation",
    "final_address": "8823 Colapissa St",
    "address_councildis": "A",
    "status": "Assigned to Contractor",
    "contractor": "Richards Disposal",
    "rowid": "928801",
    "final_x": "3664569.88436",
    "final_y": "535247.568838",
    "longitude": "-90.12140527184842",
    "latitude": "29.966248456504",
    "geocoded_column": {
      "latitude": "29.966248456504",
      "longitude": "-90.12140527184842"
    }
  },
  {
    "service_request": "2022-928800",
    "request_type": "Trash/Recycling",
    "request_reason": "Repair Trash Cart",
    "date_created": "2022-10-14T18:41:43.000",
    "date_modified": "2022-10-14T18:41:44.000",
    "request_status": "Pending",
    "responsible_agency": "Department of Sanitation",
    "final_address": "5908 Annunciation St",
    "address_councildis": "A",
    "status": "Assigned to Contractor",
    "contractor": "Richards Disposal",
    "rowid": "928800",
    "final_x": "3664818.02356",
    "final_y": "517653.774006",
    "longitude": "-90.12120939949",
    "latitude": "29.91786393931924",
    "geocoded_column": {
      "latitude": "29.91786393931924",
      "longitude": "-90.12120939949"
    }
  },
  {
    "service_request": "2022-928799",
    "request_type": "Trash/Recycling",
    "request_reason": "Repair Trash Cart",
    "date_created": "2022-10-14T18:31:17.000",
    "date_modified": "2022-10-14T18:31:17.000",
    "request_status": "Pending",
    "responsible_agency": "Department of Sanitation",
    "final_address": "4528 Constance St",
    "address_councildis": "B",
    "status": "Assigned to Contractor",
    "contractor": "Richards Disposal",
    "rowid": "928799",
    "final_x": "3670453.14318",
    "final_y": "518287.188918",
    "longitude": "-90.10340092085346",
    "latitude": "29.919440516272086",
    "geocoded_column": {
      "latitude": "29.919440516272086",
      "longitude": "-90.10340092085346"
    }
  },
  {
    "service_request": "2022-928798",
    "request_type": "Trash/Recycling",
    "request_reason": "Order Trash Cart",
    "date_created": "2022-10-14T18:28:49.000",
    "date_modified": "2022-10-14T18:28:49.000",
    "request_status": "Pending",
    "responsible_agency": "Department of Sanitation",
    "final_address": "3210 Pauger St",
    "address_councildis": "D",
    "status": "Assigned to Contractor",
    "contractor": "Metro Disposal",
    "rowid": "928798",
    "final_x": "3683409.60194",
    "final_y": "541477.027724",
    "longitude": "-90.06169156863899",
    "latitude": "29.982815945553135",
    "geocoded_column": {
      "latitude": "29.982815945553135",
      "longitude": "-90.06169156863899"
    }
  },
  {
    "service_request": "2022-928797",
    "request_type": "Traffic Signals/Signs/Striping/Streetlights",
    "request_reason": "Disabled Parking Sign ",
    "date_created": "2022-10-14T18:14:33.000",
    "date_modified": "2022-10-14T18:14:34.000",
    "request_status": "Pending",
    "responsible_agency": "Department of Public Works",
    "final_address": "2112 Iberville St",
    "address_councildis": "B",
    "status": "Pending",
    "rowid": "928797",
    "final_x": "3677406.35477",
    "final_y": "534041.408005",
    "longitude": "-90.08090956322225",
    "latitude": "29.96255236294202",
    "geocoded_column": {
      "latitude": "29.96255236294202",
      "longitude": "-90.08090956322225"
    }
  },
  {
    "service_request": "2022-928796",
    "request_type": "Trash/Recycling",
    "request_reason": "Request a Large Item Pick Up",
    "date_created": "2022-10-14T18:10:51.000",
    "date_modified": "2022-10-14T18:10:52.000",
    "request_status": "Pending",
    "responsible_agency": "Department of Sanitation",
    "final_address": "4937 Congress Dr",
    "address_councildis": "D",
    "status": "Assigned to Contractor",
    "contractor": "Metro Disposal",
    "rowid": "928796",
    "final_x": "3692191.72131",
    "final_y": "552426.07119",
    "longitude": "-90.03356103229888",
    "latitude": "30.012650905891398",
    "geocoded_column": {
      "latitude": "30.012650905891398",
      "longitude": "-90.03356103229888"
    }
  },
  {
    "service_request": "2022-928795",
    "request_type": "Traffic Signals/Signs/Striping/Streetlights",
    "request_reason": "Street Light Outage/Malfunction",
    "date_created": "2022-10-14T18:10:51.000",
    "date_modified": "2022-10-14T18:10:51.000",
    "request_status": "Pending",
    "responsible_agency": "Department of Public Works",
    "final_address": "1320 Marigny St",
    "address_councildis": "C",
    "status": "Pending",
    "contractor": "Legacy Professional Services",
    "rowid": "928795",
    "final_x": "3685306.08508",
    "final_y": "537239.589512",
    "longitude": "-90.05585074503183",
    "latitude": "29.97110646840198",
    "geocoded_column": {
      "latitude": "29.97110646840198",
      "longitude": "-90.05585074503183"
    }
  },
  {
    "service_request": "2022-928794",
    "request_type": "Traffic Signals/Signs/Striping/Streetlights",
    "request_reason": "Street Light Outage/Malfunction",
    "date_created": "2022-10-14T18:07:52.000",
    "date_modified": "2022-10-14T18:07:52.000",
    "request_status": "Pending",
    "responsible_agency": "Department of Public Works",
    "final_address": "1315 Marigny St",
    "address_councildis": "C",
    "status": "Pending",
    "contractor": "Legacy Professional Services",
    "rowid": "928794",
    "final_x": "3685436.87509",
    "final_y": "537238.586376",
    "longitude": "-90.05543772878123",
    "latitude": "29.971099700040252",
    "geocoded_column": {
      "latitude": "29.971099700040252",
      "longitude": "-90.05543772878123"
    }
  },
  {
    "service_request": "2022-928793",
    "request_type": "Trash/Recycling",
    "request_reason": "Replace Trash Cart",
    "date_created": "2022-10-14T18:05:36.000",
    "date_modified": "2022-10-14T18:05:37.000",
    "request_status": "Pending",
    "responsible_agency": "Department of Sanitation",
    "final_address": "3537 Republic St",
    "address_councildis": "D",
    "status": "Assigned to Contractor",
    "contractor": "Metro Disposal",
    "rowid": "928793",
    "final_x": "3680505.59976",
    "final_y": "545487.173648",
    "longitude": "-90.07072430093648",
    "latitude": "29.993930734999136",
    "geocoded_column": {
      "latitude": "29.993930734999136",
      "longitude": "-90.07072430093648"
    }
  },
  {
    "service_request": "2022-928792",
    "request_type": "Abandoned Vehicles",
    "request_reason": "Abandoned/Junk Vehicles",
    "date_created": "2022-10-14T17:53:58.000",
    "date_modified": "2022-10-14T17:53:59.000",
    "request_status": "Pending",
    "responsible_agency": "Department of Public Works",
    "final_address": "2831 St Peter St",
    "address_councildis": "A",
    "status": "Pending",
    "rowid": "928792",
    "final_x": "3676019.25013",
    "final_y": "537386.532872",
    "longitude": "-90.08517478691941",
    "latitude": "29.971791937622317",
    "geocoded_column": {
      "latitude": "29.971791937622317",
      "longitude": "-90.08517478691941"
    }
  },
  {
    "service_request": "2022-928791",
    "request_type": "Traffic Signals/Signs/Striping/Streetlights",
    "request_reason": "Street Light Outage/Malfunction",
    "date_created": "2022-10-14T17:40:57.000",
    "date_modified": "2022-10-14T17:40:58.000",
    "request_status": "Pending",
    "responsible_agency": "Department of Public Works",
    "final_address": "2340 N Rampart St",
    "address_councildis": "C",
    "status": "Pending",
    "contractor": "Legacy Professional Services",
    "rowid": "928791",
    "final_x": "3685755.35913",
    "final_y": "535954.581447",
    "longitude": "-90.0544771735119",
    "latitude": "29.967559363072287",
    "geocoded_column": {
      "latitude": "29.967559363072287",
      "longitude": "-90.0544771735119"
    }
  },
  {
    "service_request": "2022-928790",
    "request_type": "Trash/Recycling",
    "request_reason": "Return Trash Cart",
    "date_created": "2022-10-14T17:38:34.000",
    "date_modified": "2022-10-14T17:38:34.000",
    "request_status": "Pending",
    "responsible_agency": "Department of Sanitation",
    "final_address": "1461 Magazine St",
    "address_councildis": "B",
    "status": "Assigned to Contractor",
    "contractor": "Richards Disposal",
    "rowid": "928790",
    "final_x": "3680202.78491",
    "final_y": "524023.150652",
    "longitude": "-90.0724269539209",
    "latitude": "29.934921174757065",
    "geocoded_column": {
      "latitude": "29.934921174757065",
      "longitude": "-90.0724269539209"
    }
  },
  {
    "service_request": "2022-928789",
    "request_type": "Trash/Recycling",
    "request_reason": "Order Recycling Cart",
    "date_created": "2022-10-14T17:35:55.000",
    "date_modified": "2022-10-14T17:35:55.000",
    "request_status": "Pending",
    "responsible_agency": "Department of Sanitation",
    "final_address": "9643 River Rd",
    "address_councildis": "C",
    "status": "Pending",
    "rowid": "928789",
    "final_x": "3720772.76121",
    "final_y": "518377.19615",
    "longitude": "-89.94456567805084",
    "latitude": "29.91810694028004",
    "geocoded_column": {
      "latitude": "29.91810694028004",
      "longitude": "-89.94456567805084"
    }
  },
  {
    "service_request": "2022-928788",
    "request_type": "Abandoned Vehicles",
    "request_reason": "Abandoned/Junk Vehicles",
    "date_created": "2022-10-14T17:32:36.000",
    "date_modified": "2022-10-14T17:32:36.000",
    "request_status": "Pending",
    "responsible_agency": "Department of Public Works",
    "final_address": "233 S Bernadotte St",
    "address_councildis": "A",
    "status": "Pending",
    "rowid": "928788",
    "final_x": "3668336.21991",
    "final_y": "539509.335242",
    "longitude": "-90.10936745823622",
    "latitude": "29.977856815735194",
    "geocoded_column": {
      "latitude": "29.977856815735194",
      "longitude": "-90.10936745823622"
    }
  },
  {
    "service_request": "2022-928787",
    "request_type": "Abandoned Vehicles",
    "request_reason": "Abandoned/Junk Vehicles",
    "date_created": "2022-10-14T17:27:53.000",
    "date_modified": "2022-10-14T17:27:53.000",
    "request_status": "Pending",
    "responsible_agency": "Department of Public Works",
    "final_address": "233 S Bernadotte St",
    "address_councildis": "A",
    "status": "Pending",
    "rowid": "928787",
    "final_x": "3668336.21991",
    "final_y": "539509.335242",
    "longitude": "-90.10936745823622",
    "latitude": "29.977856815735194",
    "geocoded_column": {
      "latitude": "29.977856815735194",
      "longitude": "-90.10936745823622"
    }
  },
  {
    "service_request": "2022-928786",
    "request_type": "Parks & Parkways",
    "request_reason": "Request Tree Service (Right of Way/Public Property)",
    "date_created": "2022-10-14T17:18:18.000",
    "date_modified": "2022-10-14T17:18:18.000",
    "request_status": "Pending",
    "responsible_agency": "Department of Parks & Parkway",
    "final_address": "2501 Elysian Fields Ave",
    "address_councildis": "D",
    "status": "Pending",
    "rowid": "928786",
    "final_x": "3684712.22882",
    "final_y": "541736.654412",
    "longitude": "-90.05756809244224",
    "latitude": "29.98349001297375",
    "geocoded_column": {
      "latitude": "29.98349001297375",
      "longitude": "-90.05756809244224"
    }
  },
  {
    "service_request": "2022-928785",
    "request_type": "Roads/Drainage",
    "request_reason": "Pothole",
    "date_created": "2022-10-14T17:14:39.000",
    "date_modified": "2022-10-14T17:14:40.000",
    "request_status": "Pending",
    "responsible_agency": "Department of Public Works",
    "final_address": "LOMBARD ST & ANNETTE ST",
    "address_councildis": "D",
    "status": "Pending",
    "rowid": "928785",
    "final_x": "3682109.1",
    "final_y": "549047.48",
    "longitude": "-90.06553464309583",
    "latitude": "30.00367162537719",
    "geocoded_column": {
      "latitude": "30.00367162537719",
      "longitude": "-90.06553464309583"
    }
  },
  {
    "service_request": "2022-928784",
    "request_type": "Abandoned Vehicles",
    "request_reason": "Abandoned/Junk Vehicles",
    "date_created": "2022-10-14T17:07:40.000",
    "date_modified": "2022-10-14T17:07:40.000",
    "request_status": "Pending",
    "responsible_agency": "Department of Public Works",
    "final_address": "300 S Bernadotte St",
    "address_councildis": "A",
    "status": "Pending",
    "rowid": "928784",
    "final_x": "3668132.20577",
    "final_y": "539563.136778",
    "longitude": "-90.11000999378794",
    "latitude": "29.97801074242445",
    "geocoded_column": {
      "latitude": "29.97801074242445",
      "longitude": "-90.11000999378794"
    }
  },
  {
    "service_request": "2022-928783",
    "request_type": "Trash/Recycling",
    "request_reason": "Order Trash Cart",
    "date_created": "2022-10-14T17:07:25.000",
    "date_modified": "2022-10-14T17:07:26.000",
    "request_status": "Pending",
    "responsible_agency": "Department of Sanitation",
    "final_address": "2334 Barracks St",
    "address_councildis": "D",
    "status": "Assigned to Contractor",
    "contractor": "Richards Disposal",
    "rowid": "928783",
    "final_x": "3679171.2052",
    "final_y": "537795.174024",
    "longitude": "-90.07520625200519",
    "latitude": "29.972820776902832",
    "geocoded_column": {
      "latitude": "29.972820776902832",
      "longitude": "-90.07520625200519"
    }
  },
  {
    "service_request": "2022-928782",
    "request_type": "Roads/Drainage",
    "request_reason": "Street Subsidence (Sinking)",
    "date_created": "2022-10-14T16:57:59.000",
    "date_modified": "2022-10-14T16:58:00.000",
    "request_status": "Pending",
    "responsible_agency": "Department of Public Works",
    "final_address": "8330 Nelson St",
    "address_councildis": "A",
    "status": "Pending",
    "rowid": "928782",
    "final_x": "3664369.8864",
    "final_y": "532478.539332",
    "longitude": "-90.12212929802139",
    "latitude": "29.95864034780944",
    "geocoded_column": {
      "latitude": "29.95864034780944",
      "longitude": "-90.12212929802139"
    }
  },
  {
    "service_request": "2022-928781",
    "request_type": "Abandoned Vehicles",
    "request_reason": "Abandoned/Junk Vehicles",
    "date_created": "2022-10-14T16:57:51.000",
    "date_modified": "2022-10-14T16:57:51.000",
    "request_status": "Pending",
    "responsible_agency": "Department of Public Works",
    "final_address": "120 S Bernadotte St",
    "address_councildis": "A",
    "status": "Pending",
    "rowid": "928781",
    "final_x": "3668727.5163",
    "final_y": "539865.192458",
    "longitude": "-90.10811958658877",
    "latitude": "29.97882380426673",
    "geocoded_column": {
      "latitude": "29.97882380426673",
      "longitude": "-90.10811958658877"
    }
  },
  {
    "service_request": "2022-928780",
    "request_type": "Abandoned Vehicles",
    "request_reason": "Abandoned/Junk Vehicles",
    "date_created": "2022-10-14T16:55:33.000",
    "date_modified": "2022-10-14T16:55:33.000",
    "request_status": "Pending",
    "responsible_agency": "Department of Public Works",
    "final_address": "126 S Bernadotte St",
    "address_councildis": "A",
    "status": "Pending",
    "rowid": "928780",
    "final_x": "3668636.74503",
    "final_y": "539759.378186",
    "longitude": "-90.10840985017066",
    "latitude": "29.9785355192202",
    "geocoded_column": {
      "latitude": "29.9785355192202",
      "longitude": "-90.10840985017066"
    }
  },
  {
    "service_request": "2022-928778",
    "request_type": "Parks & Parkways",
    "request_reason": "Request Tree Service (Right of Way/Public Property)",
    "date_created": "2022-10-14T16:42:38.000",
    "date_modified": "2022-10-14T16:42:38.000",
    "request_status": "Pending",
    "responsible_agency": "Department of Parks & Parkway",
    "final_address": "1600 Simon Bolivar Ave",
    "address_councildis": "B",
    "status": "Pending",
    "rowid": "928778",
    "final_x": "3677194.24021",
    "final_y": "526402.011134",
    "longitude": "-90.08184287738845",
    "latitude": "29.941552947878524",
    "geocoded_column": {
      "latitude": "29.941552947878524",
      "longitude": "-90.08184287738845"
    }
  },
  {
    "service_request": "2022-928777",
    "request_type": "Safety & Permits",
    "request_reason": "Licenses & Permits",
    "date_created": "2022-10-14T16:35:42.000",
    "date_modified": "2022-10-14T16:35:42.000",
    "request_status": "Pending",
    "responsible_agency": "Safety and Permits",
    "final_address": "1249 Southlawn Blvd",
    "address_councildis": "C",
    "status": "Pending",
    "rowid": "928777",
    "final_x": "3695123.08067",
    "final_y": "526848.09043",
    "longitude": "-90.02522216149036",
    "latitude": "29.942228897292413",
    "geocoded_column": {
      "latitude": "29.942228897292413",
      "longitude": "-90.02522216149036"
    }
  },
  {
    "service_request": "2022-928776",
    "request_type": "Abandoned Vehicles",
    "request_reason": "Abandoned/Junk Vehicles",
    "date_created": "2022-10-14T16:30:13.000",
    "date_modified": "2022-10-14T16:30:14.000",
    "request_status": "Pending",
    "responsible_agency": "Department of Public Works",
    "final_address": "BELFAST ST & DANTE ST",
    "address_councildis": "A",
    "status": "Pending",
    "rowid": "928776",
    "final_x": "3665057.1",
    "final_y": "532850.08",
    "longitude": "-90.119946823525",
    "latitude": "29.959641971270994",
    "geocoded_column": {
      "latitude": "29.959641971270994",
      "longitude": "-90.119946823525"
    }
  },
  {
    "service_request": "2022-928775",
    "request_type": "Traffic Signals/Signs/Striping/Streetlights",
    "request_reason": "Street Light Outage/Malfunction",
    "date_created": "2022-10-14T16:23:59.000",
    "date_modified": "2022-10-14T16:24:00.000",
    "request_status": "Pending",
    "responsible_agency": "Department of Public Works",
    "final_address": "4800 Metropolitan Dr",
    "address_councildis": "D",
    "status": "Pending",
    "contractor": "Legacy Professional Services",
    "rowid": "928775",
    "final_x": "3690576.58185",
    "final_y": "550876.692757",
    "longitude": "-90.03871927346856",
    "latitude": "30.008440964818444",
    "geocoded_column": {
      "latitude": "30.008440964818444",
      "longitude": "-90.03871927346856"
    }
  },
  {
    "service_request": "2022-928774",
    "request_type": "Trash/Recycling",
    "request_reason": "Missed Trash Pick-Up",
    "date_created": "2022-10-14T16:18:00.000",
    "date_modified": "2022-10-14T16:18:01.000",
    "request_status": "Pending",
    "responsible_agency": "Department of Sanitation",
    "final_address": "709 Nashville Ave",
    "address_councildis": "A",
    "status": "Assigned to Contractor",
    "contractor": "Richards Disposal",
    "rowid": "928774",
    "final_x": "3665526.26132",
    "final_y": "518747.047991",
    "longitude": "-90.11893730024484",
    "latitude": "29.920849481124637",
    "geocoded_column": {
      "latitude": "29.920849481124637",
      "longitude": "-90.11893730024484"
    }
  },
  {
    "service_request": "2022-928773",
    "request_type": "Trash/Recycling",
    "request_reason": "MIssed Recycling Pick-Up",
    "date_created": "2022-10-14T16:15:49.000",
    "date_modified": "2022-10-14T16:15:50.000",
    "request_status": "Pending",
    "responsible_agency": "Department of Sanitation",
    "final_address": "2219 Burdette St",
    "address_councildis": "A",
    "status": "Assigned to Contractor",
    "contractor": "Richards Disposal",
    "rowid": "928773",
    "final_x": "3665349.0224",
    "final_y": "530294.324929",
    "longitude": "-90.11911051698317",
    "latitude": "29.952605974912668",
    "geocoded_column": {
      "latitude": "29.952605974912668",
      "longitude": "-90.11911051698317"
    }
  },
  {
    "service_request": "2022-928772",
    "request_type": "Trash/Recycling",
    "request_reason": "Request a Large Item Pick Up",
    "date_created": "2022-10-14T16:08:38.000",
    "date_modified": "2022-10-14T16:08:38.000",
    "request_status": "Pending",
    "responsible_agency": "Department of Sanitation",
    "final_address": "526 S Hennessey St",
    "address_councildis": "A",
    "status": "Assigned to Contractor",
    "contractor": "Richards Disposal",
    "rowid": "928772",
    "final_x": "3669218.21742",
    "final_y": "537479.91508",
    "longitude": "-90.10665041357578",
    "latitude": "29.97225065849027",
    "geocoded_column": {
      "latitude": "29.97225065849027",
      "longitude": "-90.10665041357578"
    }
  },
  {
    "service_request": "2022-928771",
    "request_type": "Traffic Signals/Signs/Striping/Streetlights",
    "request_reason": "Street Light Outage/Malfunction",
    "date_created": "2022-10-14T16:08:27.000",
    "date_modified": "2022-10-14T16:08:28.000",
    "request_status": "Pending",
    "responsible_agency": "Department of Public Works",
    "final_address": "5852 Catina St",
    "address_councildis": "A",
    "status": "Pending",
    "contractor": "Legacy Professional Services",
    "rowid": "928771",
    "final_x": "3666688.75335",
    "final_y": "546875.106705",
    "longitude": "-90.1143232571773",
    "latitude": "29.99815846953292",
    "geocoded_column": {
      "latitude": "29.99815846953292",
      "longitude": "-90.1143232571773"
    }
  },
  {
    "service_request": "2022-928770",
    "request_type": "Abandoned Vehicles",
    "request_reason": "Abandoned/Junk Vehicles",
    "date_created": "2022-10-14T16:05:53.000",
    "date_modified": "2022-10-14T16:05:53.000",
    "request_status": "Pending",
    "responsible_agency": "Department of Public Works",
    "final_address": "401 St Joseph St",
    "address_councildis": "B",
    "status": "Pending",
    "rowid": "928770",
    "final_x": "3681281.52002",
    "final_y": "527260.582271",
    "longitude": "-90.06890861851",
    "latitude": "29.94379034985457",
    "geocoded_column": {
      "latitude": "29.94379034985457",
      "longitude": "-90.06890861851"
    }
  },
  {
    "service_request": "2022-928769",
    "request_type": "Trash/Recycling",
    "request_reason": "Repair Trash Cart",
    "date_created": "2022-10-14T16:02:49.000",
    "date_modified": "2022-10-14T16:02:50.000",
    "request_status": "Pending",
    "responsible_agency": "Department of Sanitation",
    "final_address": "2012 Annette St",
    "address_councildis": "D",
    "status": "Assigned to Contractor",
    "contractor": "Metro Disposal",
    "rowid": "928769",
    "final_x": "3682829.03125",
    "final_y": "539594.001866",
    "longitude": "-90.06359120843166",
    "latitude": "29.977655986926482",
    "geocoded_column": {
      "latitude": "29.977655986926482",
      "longitude": "-90.06359120843166"
    }
  },
  {
    "service_request": "2022-928768",
    "request_type": "Trash/Recycling",
    "request_reason": "MIssed Recycling Pick-Up",
    "date_created": "2022-10-14T15:58:12.000",
    "date_modified": "2022-10-14T15:58:13.000",
    "request_status": "Pending",
    "responsible_agency": "Department of Sanitation",
    "final_address": "625 S Rocheblave St",
    "address_councildis": "B",
    "status": "Assigned to Contractor",
    "contractor": "Richards Disposal",
    "rowid": "928768",
    "final_x": "3674667.03649",
    "final_y": "532757.690692",
    "longitude": "-90.08960396867559",
    "latitude": "29.959104614912476",
    "geocoded_column": {
      "latitude": "29.959104614912476",
      "longitude": "-90.08960396867559"
    }
  },
  {
    "service_request": "2022-928767",
    "request_type": "Abandoned Vehicles",
    "request_reason": "Abandoned/Junk Vehicles",
    "date_created": "2022-10-14T15:51:56.000",
    "date_modified": "2022-10-14T15:51:56.000",
    "request_status": "Pending",
    "responsible_agency": "Department of Public Works",
    "final_address": "7000 E Renaissance Ct",
    "address_councildis": "E",
    "status": "Pending",
    "rowid": "928767",
    "final_x": "3717270.09349",
    "final_y": "567175.10378",
    "longitude": "-89.95376710264327",
    "latitude": "30.052398772238057",
    "geocoded_column": {
      "latitude": "30.052398772238057",
      "longitude": "-89.95376710264327"
    }
  },
  {
    "service_request": "2022-928766",
    "request_type": "Trash/Recycling",
    "request_reason": "Order Trash Cart",
    "date_created": "2022-10-14T15:50:17.000",
    "date_modified": "2022-10-14T15:50:18.000",
    "request_status": "Pending",
    "responsible_agency": "Department of Sanitation",
    "final_address": "5620 New England Dr",
    "address_councildis": "E",
    "status": "Assigned to Contractor",
    "contractor": "Metro Disposal",
    "rowid": "928766",
    "final_x": "3723578.98175",
    "final_y": "564220.931169",
    "longitude": "-89.93394085926474",
    "latitude": "30.044065661332613",
    "geocoded_column": {
      "latitude": "30.044065661332613",
      "longitude": "-89.93394085926474"
    }
  },
  {
    "service_request": "2022-928765",
    "request_type": "Trash/Recycling",
    "request_reason": "Request a Large Item Pick Up",
    "date_created": "2022-10-14T15:48:05.000",
    "date_modified": "2022-10-14T15:48:06.000",
    "request_status": "Pending",
    "responsible_agency": "Department of Sanitation",
    "final_address": "802 Eighth St",
    "address_councildis": "B",
    "status": "Assigned to Contractor",
    "contractor": "Richards Disposal",
    "rowid": "928765",
    "final_x": "3676674.23144",
    "final_y": "519305.931959",
    "longitude": "-90.08372897528238",
    "latitude": "29.92205665183123",
    "geocoded_column": {
      "latitude": "29.92205665183123",
      "longitude": "-90.08372897528238"
    }
  },
  {
    "service_request": "2022-928764",
    "request_type": "Trash/Recycling",
    "request_reason": "Repair Trash Cart",
    "date_created": "2022-10-14T15:42:30.000",
    "date_modified": "2022-10-14T15:42:30.000",
    "request_status": "Pending",
    "responsible_agency": "Department of Sanitation",
    "final_address": "4811 Congress Dr",
    "address_councildis": "D",
    "status": "Assigned to Contractor",
    "contractor": "Metro Disposal",
    "rowid": "928764",
    "final_x": "3692317.15088",
    "final_y": "552000.748502",
    "longitude": "-90.03317999305948",
    "latitude": "30.01147751364647",
    "geocoded_column": {
      "latitude": "30.01147751364647",
      "longitude": "-90.03317999305948"
    }
  },
  {
    "service_request": "2022-928763",
    "request_type": "Trash/Recycling",
    "request_reason": "Repair Trash Cart",
    "date_created": "2022-10-14T15:42:29.000",
    "date_modified": "2022-10-14T15:42:30.000",
    "request_status": "Pending",
    "responsible_agency": "Department of Sanitation",
    "final_address": "4811 Congress Dr",
    "address_councildis": "D",
    "status": "Assigned to Contractor",
    "contractor": "Metro Disposal",
    "rowid": "928763",
    "final_x": "3692317.15088",
    "final_y": "552000.748502",
    "longitude": "-90.03317999305948",
    "latitude": "30.01147751364647",
    "geocoded_column": {
      "latitude": "30.01147751364647",
      "longitude": "-90.03317999305948"
    }
  },
  {
    "service_request": "2022-928762",
    "request_type": "Traffic Signals/Signs/Striping/Streetlights",
    "request_reason": "Street Light Outage/Malfunction",
    "date_created": "2022-10-14T15:36:18.000",
    "date_modified": "2022-10-14T15:36:18.000",
    "request_status": "Pending",
    "responsible_agency": "Department of Public Works",
    "final_address": "6302 General Meyer Ave",
    "address_councildis": "C",
    "status": "Pending",
    "contractor": "Legacy Professional Services",
    "rowid": "928762",
    "final_x": "3707561.00036",
    "final_y": "520658.392377",
    "longitude": "-89.98618301253555",
    "latitude": "29.92481312030824",
    "geocoded_column": {
      "latitude": "29.92481312030824",
      "longitude": "-89.98618301253555"
    }
  },
  {
    "service_request": "2022-928760",
    "request_type": "Trash/Recycling",
    "request_reason": "Repair Trash Cart",
    "date_created": "2022-10-14T15:33:07.000",
    "date_modified": "2022-10-14T15:33:07.000",
    "request_status": "Pending",
    "responsible_agency": "Department of Sanitation",
    "final_address": "2629 Somerset Dr",
    "address_councildis": "C",
    "status": "Assigned to Contractor",
    "contractor": "Richards Disposal",
    "rowid": "928760",
    "final_x": "3702816.92561",
    "final_y": "521289.690745",
    "longitude": "-90.00113520890092",
    "latitude": "29.92670148374208",
    "geocoded_column": {
      "latitude": "29.92670148374208",
      "longitude": "-90.00113520890092"
    }
  },
  {
    "service_request": "2022-928759",
    "request_type": "Trash/Recycling",
    "request_reason": "MIssed Recycling Pick-Up",
    "date_created": "2022-10-14T15:31:42.000",
    "date_modified": "2022-10-14T15:31:43.000",
    "request_status": "Pending",
    "responsible_agency": "Department of Sanitation",
    "final_address": "2439 Hamilton St",
    "address_councildis": "A",
    "status": "Assigned to Contractor",
    "contractor": "Richards Disposal",
    "rowid": "928759",
    "final_x": "3662485.02835",
    "final_y": "534134.442373",
    "longitude": "-90.12802621512728",
    "latitude": "29.96324819105583",
    "geocoded_column": {
      "latitude": "29.96324819105583",
      "longitude": "-90.12802621512728"
    }
  },
  {
    "service_request": "2022-928758",
    "request_type": "Traffic Signals/Signs/Striping/Streetlights",
    "request_reason": "Street Light Outage/Malfunction",
    "date_created": "2022-10-14T15:30:51.000",
    "date_modified": "2022-10-14T15:30:53.000",
    "request_status": "Pending",
    "responsible_agency": "Department of Public Works",
    "final_address": "300 Wallace Dr",
    "address_councildis": "D",
    "status": "Pending",
    "contractor": "Legacy Professional Services",
    "rowid": "928758",
    "final_x": "3682336.83413",
    "final_y": "547681.49365",
    "longitude": "-90.06486296623059",
    "latitude": "29.99990872219239",
    "geocoded_column": {
      "latitude": "29.99990872219239",
      "longitude": "-90.06486296623059"
    }
  },
  {
    "service_request": "2022-928757",
    "request_type": "Trash/Recycling",
    "request_reason": "Order Recycling Cart",
    "date_created": "2022-10-14T15:30:19.000",
    "date_modified": "2022-10-14T15:30:20.000",
    "request_status": "Pending",
    "responsible_agency": "Department of Sanitation",
    "final_address": "2525 Pauger St",
    "address_councildis": "D",
    "status": "Pending",
    "rowid": "928757",
    "final_x": "3683683.11893",
    "final_y": "538985.459978",
    "longitude": "-90.06091505474598",
    "latitude": "29.975956657774084",
    "geocoded_column": {
      "latitude": "29.975956657774084",
      "longitude": "-90.06091505474598"
    }
  },
  {
    "service_request": "2022-928756",
    "request_type": "Trash/Recycling",
    "request_reason": "Repair Trash Cart",
    "date_created": "2022-10-14T15:30:07.000",
    "date_modified": "2022-10-14T15:30:08.000",
    "request_status": "Pending",
    "responsible_agency": "Department of Sanitation",
    "final_address": "5025 Mirabeau Ave",
    "address_councildis": "D",
    "status": "Assigned to Contractor",
    "contractor": "Metro Disposal",
    "rowid": "928756",
    "final_x": "3692400.79696",
    "final_y": "552242.863318",
    "longitude": "-90.03290704030717",
    "latitude": "30.012140629535182",
    "geocoded_column": {
      "latitude": "30.012140629535182",
      "longitude": "-90.03290704030717"
    }
  },
  {
    "service_request": "2022-928755",
    "request_type": "Trash/Recycling",
    "request_reason": "Order Trash Cart",
    "date_created": "2022-10-14T15:30:00.000",
    "date_modified": "2022-10-14T15:30:00.000",
    "request_status": "Pending",
    "responsible_agency": "Department of Sanitation",
    "final_address": "2525 Pauger St",
    "address_councildis": "D",
    "status": "Assigned to Contractor",
    "contractor": "Metro Disposal",
    "rowid": "928755",
    "final_x": "3683683.11893",
    "final_y": "538985.459978",
    "longitude": "-90.06091505474598",
    "latitude": "29.975956657774084",
    "geocoded_column": {
      "latitude": "29.975956657774084",
      "longitude": "-90.06091505474598"
    }
  },
  {
    "service_request": "2022-928754",
    "request_type": "Trash/Recycling",
    "request_reason": "Request a Large Item Pick Up",
    "date_created": "2022-10-14T15:29:30.000",
    "date_modified": "2022-10-14T15:29:30.000",
    "request_status": "Pending",
    "responsible_agency": "Department of Sanitation",
    "final_address": "2759 Conti St",
    "address_councildis": "B",
    "status": "Assigned to Contractor",
    "contractor": "Richards Disposal",
    "rowid": "928754",
    "final_x": "3675667.96008",
    "final_y": "536373.928903",
    "longitude": "-90.08631902006394",
    "latitude": "29.969018138162255",
    "geocoded_column": {
      "latitude": "29.969018138162255",
      "longitude": "-90.08631902006394"
    }
  },
  {
    "service_request": "2022-928753",
    "request_type": "Trash/Recycling",
    "request_reason": "Start Trash Service",
    "date_created": "2022-10-14T15:29:16.000",
    "date_modified": "2022-10-14T15:29:17.000",
    "request_status": "Pending",
    "responsible_agency": "Department of Sanitation",
    "final_address": "2525 Pauger St",
    "address_councildis": "D",
    "status": "Assigned to Contractor",
    "contractor": "Metro Disposal",
    "rowid": "928753",
    "final_x": "3683683.11893",
    "final_y": "538985.459978",
    "longitude": "-90.06091505474598",
    "latitude": "29.975956657774084",
    "geocoded_column": {
      "latitude": "29.975956657774084",
      "longitude": "-90.06091505474598"
    }
  },
  {
    "service_request": "2022-928752",
    "request_type": "Trash/Recycling",
    "request_reason": "Missed Trash Pick-Up",
    "date_created": "2022-10-14T15:25:35.000",
    "date_modified": "2022-10-14T15:25:36.000",
    "request_status": "Pending",
    "responsible_agency": "Department of Sanitation",
    "final_address": "4728 Shalimar Dr",
    "address_councildis": "D",
    "status": "Assigned to Contractor",
    "contractor": "Metro Disposal",
    "rowid": "928752",
    "final_x": "3697088.54058",
    "final_y": "554169.735256",
    "longitude": "-90.01802662759829",
    "latitude": "30.017291683548404",
    "geocoded_column": {
      "latitude": "30.017291683548404",
      "longitude": "-90.01802662759829"
    }
  },
  {
    "service_request": "2022-928751",
    "request_type": "Trash/Recycling",
    "request_reason": "MIssed Recycling Pick-Up",
    "date_created": "2022-10-14T15:25:29.000",
    "date_modified": "2022-10-14T15:25:30.000",
    "request_status": "Pending",
    "responsible_agency": "Department of Sanitation",
    "final_address": "2832 Conti St",
    "address_councildis": "B",
    "status": "Assigned to Contractor",
    "contractor": "Richards Disposal",
    "rowid": "928751",
    "final_x": "3675354.41992",
    "final_y": "536523.729095",
    "longitude": "-90.08730405786339",
    "latitude": "29.969439416649116",
    "geocoded_column": {
      "latitude": "29.969439416649116",
      "longitude": "-90.08730405786339"
    }
  },
  {
    "service_request": "2022-928749",
    "request_type": "Traffic Signals/Signs/Striping/Streetlights",
    "request_reason": "Street Light Outage/Malfunction",
    "date_created": "2022-10-14T15:22:27.000",
    "date_modified": "2022-10-14T15:22:28.000",
    "request_status": "Pending",
    "responsible_agency": "Department of Public Works",
    "final_address": "7221 Camberley Dr",
    "address_councildis": "E",
    "status": "Pending",
    "contractor": "Legacy Professional Services",
    "rowid": "928749",
    "final_x": "3713178.73438",
    "final_y": "565127.75677",
    "longitude": "-89.96677573485155",
    "latitude": "30.046904208728506",
    "geocoded_column": {
      "latitude": "30.046904208728506",
      "longitude": "-89.96677573485155"
    }
  },
  {
    "service_request": "2022-928748",
    "request_type": "Trash/Recycling",
    "request_reason": "Missed Trash Pick-Up",
    "date_created": "2022-10-14T15:22:21.000",
    "date_modified": "2022-10-14T15:22:22.000",
    "request_status": "Pending",
    "responsible_agency": "Department of Sanitation",
    "final_address": "1400 BLK Prytania St",
    "address_councildis": "B",
    "status": "Assigned to Contractor",
    "contractor": "Richards Disposal",
    "rowid": "928748",
    "final_x": "3679729.28289",
    "final_y": "525385.287928",
    "longitude": "-90.07387452783159",
    "latitude": "29.9386809206597",
    "geocoded_column": {
      "latitude": "29.9386809206597",
      "longitude": "-90.07387452783159"
    }
  },
  {
    "service_request": "2022-928747",
    "request_type": "Trash/Recycling",
    "request_reason": "Request a Large Item Pick Up",
    "date_created": "2022-10-14T15:21:55.000",
    "date_modified": "2022-10-14T15:21:55.000",
    "request_status": "Pending",
    "responsible_agency": "Department of Sanitation",
    "final_address": "1228 Decatur St",
    "address_councildis": "C",
    "status": "Assigned to Contractor",
    "contractor": "Empire Services",
    "rowid": "928747",
    "final_x": "3684456.02645",
    "final_y": "533603.125765",
    "longitude": "-90.05866309634294",
    "latitude": "29.961133481826195",
    "geocoded_column": {
      "latitude": "29.961133481826195",
      "longitude": "-90.05866309634294"
    }
  },
  {
    "service_request": "2022-928746",
    "request_type": "Trash/Recycling",
    "request_reason": "Request a Large Item Pick Up",
    "date_created": "2022-10-14T15:19:04.000",
    "date_modified": "2022-10-14T15:19:05.000",
    "request_status": "Pending",
    "responsible_agency": "Department of Sanitation",
    "final_address": "7118 Foch Rd",
    "address_councildis": "D",
    "status": "Assigned to Contractor",
    "contractor": "Metro Disposal",
    "rowid": "928746",
    "final_x": "3696377.5192",
    "final_y": "556906.82505",
    "longitude": "-90.02017404722558",
    "latitude": "30.024840066646735",
    "geocoded_column": {
      "latitude": "30.024840066646735",
      "longitude": "-90.02017404722558"
    }
  },
  {
    "service_request": "2022-928745",
    "request_type": "Trash/Recycling",
    "request_reason": "Request a Large Item Pick Up",
    "date_created": "2022-10-14T15:18:00.000",
    "date_modified": "2022-10-14T15:18:01.000",
    "request_status": "Pending",
    "responsible_agency": "Department of Sanitation",
    "final_address": "8621 Edinburgh St, New Orleans, Louisiana, 70118",
    "address_councildis": "A",
    "status": "Assigned to Contractor",
    "contractor": "Richards Disposal",
    "rowid": "928745",
    "final_x": "3666044.77844",
    "final_y": "535795.096839",
    "longitude": "-90.1167292086766",
    "latitude": "29.96771100129557",
    "geocoded_column": {
      "latitude": "29.96771100129557",
      "longitude": "-90.1167292086766"
    }
  },
  {
    "service_request": "2022-928744",
    "request_type": "Trash/Recycling",
    "request_reason": "Repair Trash Cart",
    "date_created": "2022-10-14T15:17:25.000",
    "date_modified": "2022-10-14T15:17:25.000",
    "request_status": "Pending",
    "responsible_agency": "Department of Sanitation",
    "final_address": "5018 Debore Cir",
    "address_councildis": "D",
    "status": "Assigned to Contractor",
    "contractor": "Metro Disposal",
    "rowid": "928744",
    "final_x": "3692171.64509",
    "final_y": "552883.053527",
    "longitude": "-90.033608084722",
    "latitude": "30.013908063628254",
    "geocoded_column": {
      "latitude": "30.013908063628254",
      "longitude": "-90.033608084722"
    }
  },
  {
    "service_request": "2022-928743",
    "request_type": "Trash/Recycling",
    "request_reason": "Repair Trash Cart",
    "date_created": "2022-10-14T15:15:28.000",
    "date_modified": "2022-10-14T15:15:29.000",
    "request_status": "Pending",
    "responsible_agency": "Department of Sanitation",
    "final_address": "4936 Debore Cir",
    "address_councildis": "D",
    "status": "Assigned to Contractor",
    "contractor": "Metro Disposal",
    "rowid": "928743",
    "final_x": "3692288.96233",
    "final_y": "552456.452566",
    "longitude": "-90.03325271636265",
    "latitude": "30.012731410061118",
    "geocoded_column": {
      "latitude": "30.012731410061118",
      "longitude": "-90.03325271636265"
    }
  },
  {
    "service_request": "2022-928742",
    "request_type": "Abandoned Vehicles",
    "request_reason": "Abandoned/Junk Vehicles",
    "date_created": "2022-10-14T15:14:52.000",
    "date_modified": "2022-10-14T15:14:52.000",
    "request_status": "Pending",
    "responsible_agency": "Department of Public Works",
    "final_address": "600 S Clark St",
    "address_councildis": "B",
    "status": "Pending",
    "rowid": "928742",
    "final_x": "3671619.51713",
    "final_y": "535296.060358",
    "longitude": "-90.09914097117324",
    "latitude": "29.966174887808183",
    "geocoded_column": {
      "latitude": "29.966174887808183",
      "longitude": "-90.09914097117324"
    }
  },
  {
    "service_request": "2022-928741",
    "request_type": "Trash/Recycling",
    "request_reason": "Replace Trash Cart",
    "date_created": "2022-10-14T15:09:18.000",
    "date_modified": "2022-10-14T15:09:18.000",
    "request_status": "Pending",
    "responsible_agency": "Department of Sanitation",
    "final_address": "1822 Benefit St",
    "address_councildis": "D",
    "status": "Assigned to Contractor",
    "contractor": "Metro Disposal",
    "rowid": "928741",
    "final_x": "3681601.51791",
    "final_y": "544136.79483",
    "longitude": "-90.06730958588302",
    "latitude": "29.99018442068574",
    "geocoded_column": {
      "latitude": "29.99018442068574",
      "longitude": "-90.06730958588302"
    }
  },
  {
    "service_request": "2022-928740",
    "request_type": "Trash/Recycling",
    "request_reason": "Order Trash Cart",
    "date_created": "2022-10-14T15:08:38.000",
    "date_modified": "2022-10-14T15:08:39.000",
    "request_status": "Pending",
    "responsible_agency": "Department of Sanitation",
    "final_address": "2525 Pauger St",
    "address_councildis": "D",
    "status": "Assigned to Contractor",
    "contractor": "Metro Disposal",
    "rowid": "928740",
    "final_x": "3683683.11893",
    "final_y": "538985.459978",
    "longitude": "-90.06091505474598",
    "latitude": "29.975956657774084",
    "geocoded_column": {
      "latitude": "29.975956657774084",
      "longitude": "-90.06091505474598"
    }
  },
  {
    "service_request": "2022-928739",
    "request_type": "Mayor's Request",
    "request_reason": "Requests to the Mayor",
    "date_created": "2022-10-14T15:08:02.000",
    "date_modified": "2022-10-14T15:08:02.000",
    "request_status": "Pending",
    "responsible_agency": "Executive Office of the Mayor",
    "status": "Pending",
    "rowid": "928739",
    "longitude": "0.0",
    "latitude": "0.0",
    "geocoded_column": {
      "latitude": "0.0",
      "longitude": "0.0"
    }
  },
  {
    "service_request": "2022-928738",
    "request_type": "Mayor's Request",
    "request_reason": "Requests to the Mayor",
    "date_created": "2022-10-14T15:08:02.000",
    "date_modified": "2022-10-14T15:08:02.000",
    "request_status": "Pending",
    "responsible_agency": "Executive Office of the Mayor",
    "status": "Pending",
    "rowid": "928738",
    "longitude": "0.0",
    "latitude": "0.0",
    "geocoded_column": {
      "latitude": "0.0",
      "longitude": "0.0"
    }
  },
  {
    "service_request": "2022-928737",
    "request_type": "Roads/Drainage",
    "request_reason": "Street Subsidence (Sinking)",
    "date_created": "2022-10-14T15:07:07.000",
    "date_modified": "2022-10-14T15:12:51.000",
    "request_status": "Pending",
    "responsible_agency": "Department of Public Works",
    "final_address": "CANAL ST & LA SALLE ST & MARAIS ST",
    "address_councildis": "B",
    "status": "Pending",
    "rowid": "928737",
    "final_x": "3679172.2",
    "final_y": "532156.58",
    "longitude": "-90.0753986084514",
    "latitude": "29.957316535242803",
    "geocoded_column": {
      "latitude": "29.957316535242803",
      "longitude": "-90.0753986084514"
    }
  },
  {
    "service_request": "2022-928736",
    "request_type": "Trash/Recycling",
    "request_reason": "Replace Trash Cart",
    "date_created": "2022-10-14T15:06:19.000",
    "date_modified": "2022-10-14T15:06:19.000",
    "request_status": "Pending",
    "responsible_agency": "Department of Sanitation",
    "final_address": "2713 New Orleans St",
    "address_councildis": "D",
    "status": "Assigned to Contractor",
    "contractor": "Metro Disposal",
    "rowid": "928736",
    "final_x": "3681938.4532",
    "final_y": "542505.494349",
    "longitude": "-90.06630227493785",
    "latitude": "29.985688678543546",
    "geocoded_column": {
      "latitude": "29.985688678543546",
      "longitude": "-90.06630227493785"
    }
  },
  {
    "service_request": "2022-928735",
    "request_type": "Abandoned Vehicles",
    "request_reason": "Abandoned/Junk Vehicles",
    "date_created": "2022-10-14T15:02:01.000",
    "date_modified": "2022-10-14T15:02:01.000",
    "request_status": "Pending",
    "responsible_agency": "Department of Public Works",
    "final_address": "300 S Bernadotte St",
    "address_councildis": "A",
    "status": "Pending",
    "rowid": "928735",
    "final_x": "3668132.20577",
    "final_y": "539563.136778",
    "longitude": "-90.11000999378794",
    "latitude": "29.97801074242445",
    "geocoded_column": {
      "latitude": "29.97801074242445",
      "longitude": "-90.11000999378794"
    }
  },
  {
    "service_request": "2022-928734",
    "request_type": "Trash/Recycling",
    "request_reason": "Repair Trash Cart",
    "date_created": "2022-10-14T15:00:38.000",
    "date_modified": "2022-10-14T15:00:38.000",
    "request_status": "Pending",
    "responsible_agency": "Department of Sanitation",
    "final_address": "2036 Prytania St",
    "address_councildis": "B",
    "status": "Assigned to Contractor",
    "contractor": "Richards Disposal",
    "rowid": "928734",
    "final_x": "3678325.67426",
    "final_y": "523535.877179",
    "longitude": "-90.07836982142187",
    "latitude": "29.933637996808077",
    "geocoded_column": {
      "latitude": "29.933637996808077",
      "longitude": "-90.07836982142187"
    }
  },
  {
    "service_request": "2022-928733",
    "request_type": "Trash/Recycling",
    "request_reason": "Order Trash Cart",
    "date_created": "2022-10-14T14:59:37.000",
    "date_modified": "2022-10-14T14:59:38.000",
    "request_status": "Pending",
    "responsible_agency": "Department of Sanitation",
    "final_address": "2034 Prytania St",
    "address_councildis": "B",
    "status": "Assigned to Contractor",
    "contractor": "Richards Disposal",
    "rowid": "928733",
    "final_x": "3678354.09109",
    "final_y": "523559.678011",
    "longitude": "-90.07827928793493",
    "latitude": "29.933702585469398",
    "geocoded_column": {
      "latitude": "29.933702585469398",
      "longitude": "-90.07827928793493"
    }
  },
  {
    "service_request": "2022-928732",
    "request_type": "Traffic Signals/Signs/Striping/Streetlights",
    "request_reason": "Request for Stop Sign",
    "date_created": "2022-10-14T14:56:48.000",
    "date_modified": "2022-10-14T14:56:48.000",
    "request_status": "Pending",
    "responsible_agency": "Department of Public Works",
    "final_address": "4113 Jumonville St",
    "address_councildis": "D",
    "status": "Pending",
    "rowid": "928732",
    "final_x": "3678091.32667",
    "final_y": "547378.288081",
    "longitude": "-90.07828521464342",
    "latitude": "29.999203560728578",
    "geocoded_column": {
      "latitude": "29.999203560728578",
      "longitude": "-90.07828521464342"
    }
  },
  {
    "service_request": "2022-928731",
    "request_type": "Trash/Recycling",
    "request_reason": "Repair Recycling Cart",
    "date_created": "2022-10-14T14:55:24.000",
    "date_modified": "2022-10-14T14:55:25.000",
    "request_status": "Pending",
    "responsible_agency": "Department of Sanitation",
    "final_address": "830 Hidalgo St",
    "address_councildis": "A",
    "status": "Pending",
    "contractor": "Metro Disposal",
    "rowid": "928731",
    "final_x": "3669022.36846",
    "final_y": "544005.510606",
    "longitude": "-90.10704838150558",
    "latitude": "29.990199598006598",
    "geocoded_column": {
      "latitude": "29.990199598006598",
      "longitude": "-90.10704838150558"
    }
  },
  {
    "service_request": "2022-928728",
    "request_type": "Roads/Drainage",
    "request_reason": "Catch Basin - Broken/Damage",
    "date_created": "2022-10-14T14:49:49.000",
    "date_modified": "2022-10-14T15:04:32.000",
    "request_status": "Pending",
    "responsible_agency": "Department of Public Works",
    "final_address": "7849 S Coronet Ct",
    "address_councildis": "E",
    "status": "Pending",
    "rowid": "928728",
    "final_x": "3703388.74865",
    "final_y": "557456.815003",
    "longitude": "-89.99799962943206",
    "latitude": "30.02612952918831",
    "geocoded_column": {
      "latitude": "30.02612952918831",
      "longitude": "-89.99799962943206"
    }
  },
  {
    "service_request": "2022-928727",
    "request_type": "Trash/Recycling",
    "request_reason": "Dead Animal Pick Up",
    "date_created": "2022-10-14T14:41:53.000",
    "date_modified": "2022-10-14T14:41:54.000",
    "request_status": "Pending",
    "responsible_agency": "Department of Sanitation",
    "final_address": "1719 Shirley Dr",
    "address_councildis": "C",
    "status": "Assigned to Contractor",
    "contractor": "Richards Disposal",
    "rowid": "928727",
    "final_x": "3692913.45008",
    "final_y": "523811.855931",
    "longitude": "-90.03230726566242",
    "latitude": "29.93394946827565",
    "geocoded_column": {
      "latitude": "29.93394946827565",
      "longitude": "-90.03230726566242"
    }
  },
  {
    "service_request": "2022-928726",
    "request_type": "Traffic Signals/Signs/Striping/Streetlights",
    "request_reason": "Street Light Outage/Malfunction",
    "date_created": "2022-10-14T14:40:54.000",
    "date_modified": "2022-10-14T14:40:55.000",
    "request_status": "Pending",
    "responsible_agency": "Department of Public Works",
    "final_address": "3RD ST & S ROMAN ST",
    "address_councildis": "B",
    "status": "Pending",
    "contractor": "Legacy Professional Services",
    "rowid": "928726",
    "final_x": "3673282.6",
    "final_y": "527662.88",
    "longitude": "-90.09414967405912",
    "latitude": "29.94513681870462",
    "geocoded_column": {
      "latitude": "29.94513681870462",
      "longitude": "-90.09414967405912"
    }
  },
  {
    "service_request": "2022-928725",
    "request_type": "Traffic Signals/Signs/Striping/Streetlights",
    "request_reason": "Street Light Outage/Malfunction",
    "date_created": "2022-10-14T14:39:40.000",
    "date_modified": "2022-10-14T14:39:41.000",
    "request_status": "Pending",
    "responsible_agency": "Department of Public Works",
    "final_address": "3223 Third St",
    "address_councildis": "B",
    "status": "Pending",
    "contractor": "Legacy Professional Services",
    "rowid": "928725",
    "final_x": "3673216.45371",
    "final_y": "527804.632959",
    "longitude": "-90.09435367953864",
    "latitude": "29.945528559596557",
    "geocoded_column": {
      "latitude": "29.945528559596557",
      "longitude": "-90.09435367953864"
    }
  },
  {
    "service_request": "2022-928724",
    "request_type": "Trash/Recycling",
    "request_reason": "Missed Trash Pick-Up",
    "date_created": "2022-10-14T14:39:30.000",
    "date_modified": "2022-10-14T14:39:32.000",
    "request_status": "Pending",
    "responsible_agency": "Department of Sanitation",
    "final_address": "1619 Eighth St",
    "address_councildis": "B",
    "status": "Assigned to Contractor",
    "contractor": "Richards Disposal",
    "rowid": "928724",
    "final_x": "3674882.57531",
    "final_y": "522130.592506",
    "longitude": "-90.0892876879156",
    "latitude": "29.92987716137391",
    "geocoded_column": {
      "latitude": "29.92987716137391",
      "longitude": "-90.0892876879156"
    }
  },
  {
    "service_request": "2022-928723",
    "request_type": "Traffic Signals/Signs/Striping/Streetlights",
    "request_reason": "Street Light Outage/Malfunction",
    "date_created": "2022-10-14T14:37:55.000",
    "date_modified": "2022-10-14T14:37:56.000",
    "request_status": "Pending",
    "responsible_agency": "Department of Public Works",
    "final_address": "3223 Third St",
    "address_councildis": "B",
    "status": "Pending",
    "contractor": "Legacy Professional Services",
    "rowid": "928723",
    "final_x": "3673216.45371",
    "final_y": "527804.632959",
    "longitude": "-90.09435367953864",
    "latitude": "29.945528559596557",
    "geocoded_column": {
      "latitude": "29.945528559596557",
      "longitude": "-90.09435367953864"
    }
  },
  {
    "service_request": "2022-928722",
    "request_type": "Trash/Recycling",
    "request_reason": "Repair Trash Cart",
    "date_created": "2022-10-14T14:34:40.000",
    "date_modified": "2022-10-14T14:34:40.000",
    "request_status": "Pending",
    "responsible_agency": "Department of Sanitation",
    "final_address": "3530 Frenchmen St",
    "address_councildis": "D",
    "status": "Assigned to Contractor",
    "contractor": "Metro Disposal",
    "rowid": "928722",
    "final_x": "3683780.05513",
    "final_y": "545739.768144",
    "longitude": "-90.06037191640341",
    "latitude": "29.994525662244417",
    "geocoded_column": {
      "latitude": "29.994525662244417",
      "longitude": "-90.06037191640341"
    }
  },
  {
    "service_request": "2022-928721",
    "request_type": "Trash/Recycling",
    "request_reason": "MIssed Recycling Pick-Up",
    "date_created": "2022-10-14T14:28:54.000",
    "date_modified": "2022-10-14T14:28:54.000",
    "request_status": "Pending",
    "responsible_agency": "Department of Sanitation",
    "final_address": "9015 Belfast St",
    "address_councildis": "A",
    "status": "Assigned to Contractor",
    "contractor": "Richards Disposal",
    "rowid": "928721",
    "final_x": "3663146.99898",
    "final_y": "534634.328198",
    "longitude": "-90.12591914378343",
    "latitude": "29.964603550230148",
    "geocoded_column": {
      "latitude": "29.964603550230148",
      "longitude": "-90.12591914378343"
    }
  },
  {
    "service_request": "2022-928720",
    "request_type": "Trash/Recycling",
    "request_reason": "MIssed Recycling Pick-Up",
    "date_created": "2022-10-14T14:26:38.000",
    "date_modified": "2022-10-14T14:26:38.000",
    "request_status": "Pending",
    "responsible_agency": "Department of Sanitation",
    "final_address": "2524 Hamilton St",
    "address_councildis": "A",
    "status": "Assigned to Contractor",
    "contractor": "Richards Disposal",
    "rowid": "928720",
    "final_x": "3662601.19322",
    "final_y": "534373.478917",
    "longitude": "-90.12765143526424",
    "latitude": "29.96390210301948",
    "geocoded_column": {
      "latitude": "29.96390210301948",
      "longitude": "-90.12765143526424"
    }
  },
  {
    "service_request": "2022-928719",
    "request_type": "Trash/Recycling",
    "request_reason": "Request a Large Item Pick Up",
    "date_created": "2022-10-14T14:24:04.000",
    "date_modified": "2022-10-14T14:24:05.000",
    "request_status": "Pending",
    "responsible_agency": "Department of Sanitation",
    "final_address": "3914 Coliseum St",
    "address_councildis": "B",
    "status": "Assigned to Contractor",
    "contractor": "Richards Disposal",
    "rowid": "928719",
    "final_x": "3672699.15028",
    "final_y": "519955.304504",
    "longitude": "-90.09625454007715",
    "latitude": "29.923960820102163",
    "geocoded_column": {
      "latitude": "29.923960820102163",
      "longitude": "-90.09625454007715"
    }
  },
  {
    "service_request": "2022-928718",
    "request_type": "Parks & Parkways",
    "request_reason": "Request Tree Service (Right of Way/Public Property)",
    "date_created": "2022-10-14T14:22:48.000",
    "date_modified": "2022-10-14T14:22:49.000",
    "request_status": "Pending",
    "responsible_agency": "Department of Parks & Parkway",
    "final_address": "2340 Chartres St",
    "address_councildis": "C",
    "status": "Pending",
    "rowid": "928718",
    "final_x": "3685874.68098",
    "final_y": "534539.651205",
    "longitude": "-90.05415023696072",
    "latitude": "29.96366513308795",
    "geocoded_column": {
      "latitude": "29.96366513308795",
      "longitude": "-90.05415023696072"
    }
  },
  {
    "service_request": "2022-928716",
    "request_type": "Abandoned Vehicles",
    "request_reason": "Abandoned/Junk Vehicles",
    "date_created": "2022-10-14T14:07:42.000",
    "date_modified": "2022-10-14T14:11:12.000",
    "request_status": "Pending",
    "responsible_agency": "Department of Public Works",
    "final_address": "347 Verret St",
    "address_councildis": "C",
    "status": "Pending",
    "rowid": "928716",
    "final_x": "3686881.45263",
    "final_y": "530358.980354",
    "longitude": "-90.05111869574561",
    "latitude": "29.95213878599684",
    "geocoded_column": {
      "latitude": "29.95213878599684",
      "longitude": "-90.05111869574561"
    }
  },
  {
    "service_request": "2022-928715",
    "request_type": "Trash/Recycling",
    "request_reason": "Illegal Dumping",
    "date_created": "2022-10-14T14:04:34.000",
    "date_modified": "2022-10-14T14:04:34.000",
    "request_status": "Pending",
    "responsible_agency": "Department of Sanitation",
    "final_address": "5645 Milne St",
    "address_councildis": "A",
    "status": "Pending",
    "rowid": "928715",
    "final_x": "3666876.52161",
    "final_y": "545107.132559",
    "longitude": "-90.11378953949486",
    "latitude": "29.99329165332862",
    "geocoded_column": {
      "latitude": "29.99329165332862",
      "longitude": "-90.11378953949486"
    }
  },
  {
    "service_request": "2022-928714",
    "request_type": "Trash/Recycling",
    "request_reason": "Request a Large Item Pick Up",
    "date_created": "2022-10-14T14:03:10.000",
    "date_modified": "2022-10-14T14:03:11.000",
    "request_status": "Pending",
    "responsible_agency": "Department of Sanitation",
    "final_address": "1427 Terpsichore St",
    "address_councildis": "B",
    "status": "Assigned to Contractor",
    "contractor": "Richards Disposal",
    "rowid": "928714",
    "final_x": "3679665.11496",
    "final_y": "524955.291581",
    "longitude": "-90.07409203186047",
    "latitude": "29.937500512240693",
    "geocoded_column": {
      "latitude": "29.937500512240693",
      "longitude": "-90.07409203186047"
    }
  },
  {
    "service_request": "2022-928713",
    "request_type": "Trash/Recycling",
    "request_reason": "Repair Trash Cart",
    "date_created": "2022-10-14T14:01:24.000",
    "date_modified": "2022-10-14T14:01:25.000",
    "request_status": "Pending",
    "responsible_agency": "Department of Sanitation",
    "final_address": "3334 Clouet St",
    "address_councildis": "D",
    "status": "Assigned to Contractor",
    "contractor": "Metro Disposal",
    "rowid": "928713",
    "final_x": "3691174.9976",
    "final_y": "544952.183567",
    "longitude": "-90.03704044615037",
    "latitude": "29.992132124523625",
    "geocoded_column": {
      "latitude": "29.992132124523625",
      "longitude": "-90.03704044615037"
    }
  },
  {
    "service_request": "2022-928712",
    "request_type": "Trash/Recycling",
    "request_reason": "Repair Trash Cart",
    "date_created": "2022-10-14T13:59:31.000",
    "date_modified": "2022-10-14T13:59:32.000",
    "request_status": "Pending",
    "responsible_agency": "Department of Sanitation",
    "final_address": "3332 Clouet St",
    "address_councildis": "D",
    "status": "Assigned to Contractor",
    "contractor": "Metro Disposal",
    "rowid": "928712",
    "final_x": "3691177.92739",
    "final_y": "544945.345935",
    "longitude": "-90.03703143591336",
    "latitude": "29.9921132323733",
    "geocoded_column": {
      "latitude": "29.9921132323733",
      "longitude": "-90.03703143591336"
    }
  },
  {
    "service_request": "2022-928711",
    "request_type": "Trash/Recycling",
    "request_reason": "Missed Trash Pick-Up",
    "date_created": "2022-10-14T13:50:10.000",
    "date_modified": "2022-10-14T13:50:11.000",
    "request_status": "Pending",
    "responsible_agency": "Department of Sanitation",
    "final_address": "735 8th St, New Orleans, Louisiana, 70115",
    "status": "Assigned to Contractor",
    "rowid": "928711",
    "longitude": "0.0",
    "latitude": "0.0",
    "geocoded_column": {
      "latitude": "0.0",
      "longitude": "0.0"
    }
  },
  {
    "service_request": "2022-928710",
    "request_type": "Trash/Recycling",
    "request_reason": "Order Recycling Cart",
    "date_created": "2022-10-14T13:46:12.000",
    "date_modified": "2022-10-14T13:46:12.000",
    "request_status": "Pending",
    "responsible_agency": "Department of Sanitation",
    "final_address": "4301 Iberville St",
    "address_councildis": "A",
    "status": "Pending",
    "rowid": "928710",
    "final_x": "3670545.52846",
    "final_y": "539351.30273",
    "longitude": "-90.10239503769802",
    "latitude": "29.97735720454978",
    "geocoded_column": {
      "latitude": "29.97735720454978",
      "longitude": "-90.10239503769802"
    }
  },
  {
    "service_request": "2022-928709",
    "request_type": "Trash/Recycling",
    "request_reason": "Start Trash Service",
    "date_created": "2022-10-14T13:44:44.000",
    "date_modified": "2022-10-14T13:44:45.000",
    "request_status": "Pending",
    "responsible_agency": "Department of Sanitation",
    "final_address": "1917 Gallier St",
    "address_councildis": "D",
    "status": "Assigned to Contractor",
    "contractor": "Metro Disposal",
    "rowid": "928709",
    "final_x": "3691294.99004",
    "final_y": "538781.171337",
    "longitude": "-90.03688196699",
    "latitude": "29.97516032015437",
    "geocoded_column": {
      "latitude": "29.97516032015437",
      "longitude": "-90.03688196699"
    }
  },
  {
    "service_request": "2022-928708",
    "request_type": "Trash/Recycling",
    "request_reason": "Order Recycling Cart",
    "date_created": "2022-10-14T13:44:32.000",
    "date_modified": "2022-10-14T13:44:33.000",
    "request_status": "Pending",
    "responsible_agency": "Department of Sanitation",
    "final_address": "1917 Gallier St",
    "address_councildis": "D",
    "status": "Pending",
    "rowid": "928708",
    "final_x": "3691294.99004",
    "final_y": "538781.171337",
    "longitude": "-90.03688196699",
    "latitude": "29.97516032015437",
    "geocoded_column": {
      "latitude": "29.97516032015437",
      "longitude": "-90.03688196699"
    }
  },
  {
    "service_request": "2022-928707",
    "request_type": "Trash/Recycling",
    "request_reason": "Order Trash Cart",
    "date_created": "2022-10-14T13:44:07.000",
    "date_modified": "2022-10-14T13:44:08.000",
    "request_status": "Pending",
    "responsible_agency": "Department of Sanitation",
    "final_address": "1917 Gallier St",
    "address_councildis": "D",
    "status": "Assigned to Contractor",
    "contractor": "Metro Disposal",
    "rowid": "928707",
    "final_x": "3691294.99004",
    "final_y": "538781.171337",
    "longitude": "-90.03688196699",
    "latitude": "29.97516032015437",
    "geocoded_column": {
      "latitude": "29.97516032015437",
      "longitude": "-90.03688196699"
    }
  },
  {
    "service_request": "2022-928706",
    "request_type": "Property Maintenance",
    "request_reason": "Property Maintenance",
    "date_created": "2022-10-14T13:38:46.000",
    "date_modified": "2022-10-14T13:38:46.000",
    "request_status": "Pending",
    "responsible_agency": "Department of Code Enforcement",
    "final_address": "2620 Castiglione St",
    "address_councildis": "D",
    "status": "Pending",
    "rowid": "928706",
    "final_x": "3680012.92719",
    "final_y": "541739.672396",
    "longitude": "-90.0724108499706",
    "latitude": "29.983641340251378",
    "geocoded_column": {
      "latitude": "29.983641340251378",
      "longitude": "-90.0724108499706"
    }
  },
  {
    "service_request": "2022-928705",
    "request_type": "Trash/Recycling",
    "request_reason": "Order Trash Cart",
    "date_created": "2022-10-14T13:37:26.000",
    "date_modified": "2022-10-14T13:37:26.000",
    "request_status": "Pending",
    "responsible_agency": "Department of Sanitation",
    "final_address": "722 Forstall St",
    "address_councildis": "E",
    "status": "Assigned to Contractor",
    "contractor": "Metro Disposal",
    "rowid": "928705",
    "final_x": "3695846.77878",
    "final_y": "532917.690372",
    "longitude": "-90.02271811178056",
    "latitude": "29.958895439084365",
    "geocoded_column": {
      "latitude": "29.958895439084365",
      "longitude": "-90.02271811178056"
    }
  },
  {
    "service_request": "2022-928704",
    "request_type": "Abandoned Vehicles",
    "request_reason": "Abandoned/Junk Vehicles",
    "date_created": "2022-10-14T13:33:32.000",
    "date_modified": "2022-10-14T13:33:32.000",
    "request_status": "Pending",
    "responsible_agency": "Department of Public Works",
    "final_address": "3942 Prytania St",
    "address_councildis": "B",
    "status": "Pending",
    "rowid": "928704",
    "final_x": "3672412.93415",
    "final_y": "520397.818296",
    "longitude": "-90.09714295387802",
    "latitude": "29.925186084941654",
    "geocoded_column": {
      "latitude": "29.925186084941654",
      "longitude": "-90.09714295387802"
    }
  },
  {
    "service_request": "2022-928702",
    "request_type": "Property Maintenance",
    "request_reason": "Property Maintenance",
    "date_created": "2022-10-14T13:31:32.000",
    "date_modified": "2022-10-14T13:31:33.000",
    "request_status": "Pending",
    "responsible_agency": "Department of Code Enforcement",
    "final_address": "1531 Gordon St",
    "address_councildis": "E",
    "status": "Pending",
    "rowid": "928702",
    "final_x": "3699848.37706",
    "final_y": "535066.128454",
    "longitude": "-90.01000380520654",
    "latitude": "29.96467641689751",
    "geocoded_column": {
      "latitude": "29.96467641689751",
      "longitude": "-90.01000380520654"
    }
  },
  {
    "service_request": "2022-928701",
    "request_type": "Abandoned Vehicles",
    "request_reason": "Abandoned/Junk Vehicles",
    "date_created": "2022-10-14T13:30:37.000",
    "date_modified": "2022-10-14T13:30:37.000",
    "request_status": "Pending",
    "responsible_agency": "Department of Public Works",
    "final_address": "3942 Prytania St",
    "address_councildis": "B",
    "status": "Pending",
    "rowid": "928701",
    "final_x": "3672412.93415",
    "final_y": "520397.818296",
    "longitude": "-90.09714295387802",
    "latitude": "29.925186084941654",
    "geocoded_column": {
      "latitude": "29.925186084941654",
      "longitude": "-90.09714295387802"
    }
  },
  {
    "service_request": "2022-928700",
    "request_type": "Trash/Recycling",
    "request_reason": "Replace Trash Cart",
    "date_created": "2022-10-14T13:30:27.000",
    "date_modified": "2022-10-14T13:30:28.000",
    "request_status": "Pending",
    "responsible_agency": "Department of Sanitation",
    "final_address": "3 N Oak Ridge Ct",
    "address_councildis": "E",
    "status": "Assigned to Contractor",
    "contractor": "Metro Disposal",
    "rowid": "928700",
    "final_x": "3713173.17304",
    "final_y": "567666.557412",
    "longitude": "-89.966697610517",
    "latitude": "30.05388505996307",
    "geocoded_column": {
      "latitude": "30.05388505996307",
      "longitude": "-89.966697610517"
    }
  },
  {
    "service_request": "2022-928699",
    "request_type": "Trash/Recycling",
    "request_reason": "Illegal Dumping",
    "date_created": "2022-10-14T13:29:12.000",
    "date_modified": "2022-10-14T13:29:13.000",
    "request_status": "Pending",
    "responsible_agency": "Department of Sanitation",
    "final_address": "1531 Gordon St",
    "address_councildis": "E",
    "status": "Pending",
    "rowid": "928699",
    "final_x": "3699848.37706",
    "final_y": "535066.128454",
    "longitude": "-90.01000380520654",
    "latitude": "29.96467641689751",
    "geocoded_column": {
      "latitude": "29.96467641689751",
      "longitude": "-90.01000380520654"
    }
  },
  {
    "service_request": "2022-928698",
    "request_type": "Roads/Drainage",
    "request_reason": "Catch Basin - Broken/Damage",
    "date_created": "2022-10-14T13:26:09.000",
    "date_modified": "2022-10-14T15:12:13.000",
    "case_close_date": "2022-10-14T10:12:13.000",
    "request_status": "Closed",
    "responsible_agency": "Department of Public Works",
    "final_address": "1531 Gordon St",
    "address_councildis": "E",
    "status": "Duplicate Request",
    "rowid": "928698",
    "final_x": "3699848.37706",
    "final_y": "535066.128454",
    "longitude": "-90.01000380520654",
    "latitude": "29.96467641689751",
    "geocoded_column": {
      "latitude": "29.96467641689751",
      "longitude": "-90.01000380520654"
    }
  },
  {
    "service_request": "2022-928697",
    "request_type": "Trash/Recycling",
    "request_reason": "Request a Large Item Pick Up",
    "date_created": "2022-10-14T13:24:35.000",
    "date_modified": "2022-10-14T13:24:36.000",
    "request_status": "Pending",
    "responsible_agency": "Department of Sanitation",
    "final_address": "4735 Redwood St",
    "address_councildis": "E",
    "status": "Assigned to Contractor",
    "contractor": "Metro Disposal",
    "rowid": "928697",
    "final_x": "3712570.0869",
    "final_y": "556125.234138",
    "longitude": "-89.96903813821453",
    "latitude": "30.02217080927678",
    "geocoded_column": {
      "latitude": "30.02217080927678",
      "longitude": "-89.96903813821453"
    }
  },
  {
    "service_request": "2022-928696",
    "request_type": "Trash/Recycling",
    "request_reason": "Replace Trash Cart",
    "date_created": "2022-10-14T13:19:37.000",
    "date_modified": "2022-10-14T13:19:38.000",
    "request_status": "Pending",
    "responsible_agency": "Department of Sanitation",
    "final_address": "5433 Durham Dr",
    "address_councildis": "C",
    "status": "Assigned to Contractor",
    "contractor": "Richards Disposal",
    "rowid": "928696",
    "final_x": "3704181.79204",
    "final_y": "518804.897463",
    "longitude": "-89.99691821255264",
    "latitude": "29.919825460071372",
    "geocoded_column": {
      "latitude": "29.919825460071372",
      "longitude": "-89.99691821255264"
    }
  },
  {
    "service_request": "2022-928695",
    "request_type": "Roads/Drainage",
    "request_reason": "Pothole",
    "date_created": "2022-10-14T13:19:18.000",
    "date_modified": "2022-10-14T15:16:18.000",
    "case_close_date": "2022-10-14T10:16:18.000",
    "request_status": "Closed",
    "responsible_agency": "Department of Public Works",
    "final_address": "1614 Painters St",
    "address_councildis": "D",
    "status": "Duplicate Request",
    "rowid": "928695",
    "final_x": "3687362.49878",
    "final_y": "538498.587209",
    "longitude": "-90.04931177569073",
    "latitude": "29.974505069728085",
    "geocoded_column": {
      "latitude": "29.974505069728085",
      "longitude": "-90.04931177569073"
    }
  },
  {
    "service_request": "2022-928694",
    "request_type": "Trash/Recycling",
    "request_reason": "MIssed Recycling Pick-Up",
    "date_created": "2022-10-14T13:18:21.000",
    "date_modified": "2022-10-14T13:18:21.000",
    "request_status": "Pending",
    "responsible_agency": "Department of Sanitation",
    "final_address": "908 Fern St",
    "address_councildis": "A",
    "status": "Assigned to Contractor",
    "contractor": "Richards Disposal",
    "rowid": "928694",
    "final_x": "3661854.66298",
    "final_y": "527171.849215",
    "longitude": "-90.13024770251916",
    "latitude": "29.944121521820318",
    "geocoded_column": {
      "latitude": "29.944121521820318",
      "longitude": "-90.13024770251916"
    }
  },
  {
    "service_request": "2022-928693",
    "request_type": "Roads/Drainage",
    "request_reason": "Catch Basin - Broken/Damage",
    "date_created": "2022-10-14T13:17:55.000",
    "date_modified": "2022-10-14T15:10:23.000",
    "request_status": "Pending",
    "responsible_agency": "Department of Public Works",
    "final_address": "GORDON ST & N CLAIBORNE AVE",
    "address_councildis": "E",
    "status": "Inspected",
    "rowid": "928693",
    "final_x": "3699871.2",
    "final_y": "535208.78",
    "longitude": "-90.00992652949054",
    "latitude": "29.965067932738656",
    "geocoded_column": {
      "latitude": "29.965067932738656",
      "longitude": "-90.00992652949054"
    }
  },
  {
    "service_request": "2022-928692",
    "request_type": "Trash/Recycling",
    "request_reason": "Request a Large Item Pick Up",
    "date_created": "2022-10-14T13:16:25.000",
    "date_modified": "2022-10-14T13:16:26.000",
    "request_status": "Pending",
    "responsible_agency": "Department of Sanitation",
    "final_address": "520 N Salcedo St",
    "address_councildis": "A",
    "status": "Assigned to Contractor",
    "contractor": "Richards Disposal",
    "rowid": "928692",
    "final_x": "3675129.11259",
    "final_y": "537389.872264",
    "longitude": "-90.08798586862079",
    "latitude": "29.971827751089823",
    "geocoded_column": {
      "latitude": "29.971827751089823",
      "longitude": "-90.08798586862079"
    }
  },
  {
    "service_request": "2022-928691",
    "request_type": "Trash/Recycling",
    "request_reason": "Repair Trash Cart",
    "date_created": "2022-10-14T13:12:10.000",
    "date_modified": "2022-10-14T13:12:11.000",
    "request_status": "Pending",
    "responsible_agency": "Department of Sanitation",
    "final_address": "2717 Dauphine St",
    "address_councildis": "C",
    "status": "Assigned to Contractor",
    "contractor": "Metro Disposal",
    "rowid": "928691",
    "final_x": "3687279.56598",
    "final_y": "535243.640454",
    "longitude": "-90.0496888589301",
    "latitude": "29.965557659236794",
    "geocoded_column": {
      "latitude": "29.965557659236794",
      "longitude": "-90.0496888589301"
    }
  },
  {
    "service_request": "2022-928690",
    "request_type": "Trash/Recycling",
    "request_reason": "Repair Trash Cart",
    "date_created": "2022-10-14T13:11:52.000",
    "date_modified": "2022-10-14T13:11:53.000",
    "request_status": "Pending",
    "responsible_agency": "Department of Sanitation",
    "final_address": "2715 Dauphine St",
    "address_councildis": "C",
    "status": "Assigned to Contractor",
    "contractor": "Metro Disposal",
    "rowid": "928690",
    "final_x": "3687266.37154",
    "final_y": "535246.418182",
    "longitude": "-90.04973042805301",
    "latitude": "29.965565703449986",
    "geocoded_column": {
      "latitude": "29.965565703449986",
      "longitude": "-90.04973042805301"
    }
  },
  {
    "service_request": "2022-928688",
    "request_type": "Traffic Signals/Signs/Striping/Streetlights",
    "request_reason": "Traffic Sign Missing/Damaged",
    "date_created": "2022-10-14T13:09:30.000",
    "date_modified": "2022-10-14T13:09:30.000",
    "request_status": "Pending",
    "responsible_agency": "Department of Public Works",
    "final_address": "415 N Solomon St",
    "address_councildis": "A",
    "status": "Pending",
    "rowid": "928688",
    "final_x": "3671233.31547",
    "final_y": "539881.152906",
    "longitude": "-90.10020476370241",
    "latitude": "29.978793778447173",
    "geocoded_column": {
      "latitude": "29.978793778447173",
      "longitude": "-90.10020476370241"
    }
  },
  {
    "service_request": "2022-928687",
    "request_type": "Trash/Recycling",
    "request_reason": "Missed Trash Pick-Up",
    "date_created": "2022-10-14T13:04:45.000",
    "date_modified": "2022-10-14T13:04:46.000",
    "request_status": "Pending",
    "responsible_agency": "Department of Sanitation",
    "final_address": "1600 BLK Eighth St",
    "address_councildis": "B",
    "status": "Assigned to Contractor",
    "contractor": "Richards Disposal",
    "rowid": "928687",
    "final_x": "3674871.76374",
    "final_y": "522087.371623",
    "longitude": "-90.08932329954897",
    "latitude": "29.92975864070744",
    "geocoded_column": {
      "latitude": "29.92975864070744",
      "longitude": "-90.08932329954897"
    }
  },
  {
    "service_request": "2022-928686",
    "request_type": "Abandoned Vehicles",
    "request_reason": "Abandoned/Junk Vehicles",
    "date_created": "2022-10-14T13:04:11.000",
    "date_modified": "2022-10-14T13:04:11.000",
    "request_status": "Pending",
    "responsible_agency": "Department of Public Works",
    "final_address": "2026 Baronne St",
    "address_councildis": "B",
    "status": "Pending",
    "rowid": "928686",
    "final_x": "3677425.13422",
    "final_y": "524709.097852",
    "longitude": "-90.08117230675592",
    "latitude": "29.936891058056386",
    "geocoded_column": {
      "latitude": "29.936891058056386",
      "longitude": "-90.08117230675592"
    }
  },
  {
    "service_request": "2022-928685",
    "request_type": "Trash/Recycling",
    "request_reason": "Order Trash Cart",
    "date_created": "2022-10-14T13:02:39.000",
    "date_modified": "2022-10-14T13:02:40.000",
    "request_status": "Pending",
    "responsible_agency": "Department of Sanitation",
    "final_address": "1727 Clio St",
    "address_councildis": "B",
    "status": "Assigned to Contractor",
    "contractor": "Richards Disposal",
    "rowid": "928685",
    "final_x": "3679148.1028",
    "final_y": "526760.882622",
    "longitude": "-90.07566170856823",
    "latitude": "29.942480902375834",
    "geocoded_column": {
      "latitude": "29.942480902375834",
      "longitude": "-90.07566170856823"
    }
  },
  {
    "service_request": "2022-928684",
    "request_type": "Trash/Recycling",
    "request_reason": "Order Recycling Cart",
    "date_created": "2022-10-14T13:00:17.000",
    "date_modified": "2022-10-14T13:00:17.000",
    "request_status": "Pending",
    "responsible_agency": "Department of Sanitation",
    "final_address": "3032 Toulouse St",
    "address_councildis": "A",
    "status": "Pending",
    "rowid": "928684",
    "final_x": "3675203.85096",
    "final_y": "537458.073992",
    "longitude": "-90.08774749143173",
    "latitude": "29.9720130489101",
    "geocoded_column": {
      "latitude": "29.9720130489101",
      "longitude": "-90.08774749143173"
    }
  },
  {
    "service_request": "2022-928683",
    "request_type": "Abandoned Vehicles",
    "request_reason": "Abandoned/Junk Vehicles",
    "date_created": "2022-10-14T12:56:11.000",
    "date_modified": "2022-10-14T12:56:11.000",
    "request_status": "Pending",
    "responsible_agency": "Department of Public Works",
    "final_address": "4300 Eden St",
    "address_councildis": "B",
    "status": "Pending",
    "rowid": "928683",
    "final_x": "3670084.31943",
    "final_y": "530514.164866",
    "longitude": "-90.10415109981831",
    "latitude": "29.953071637605937",
    "geocoded_column": {
      "latitude": "29.953071637605937",
      "longitude": "-90.10415109981831"
    }
  },
  {
    "service_request": "2022-928682",
    "request_type": "Safety & Permits",
    "request_reason": "Licenses & Permits",
    "date_created": "2022-10-14T12:54:45.000",
    "date_modified": "2022-10-14T12:54:45.000",
    "request_status": "Pending",
    "responsible_agency": "Safety and Permits",
    "final_address": "1931 Orleans Ave",
    "address_councildis": "D",
    "status": "Pending",
    "rowid": "928682",
    "final_x": "3679105.96098",
    "final_y": "535350.26855",
    "longitude": "-90.07549706731277",
    "latitude": "29.966100093909354",
    "geocoded_column": {
      "latitude": "29.966100093909354",
      "longitude": "-90.07549706731277"
    }
  },
  {
    "service_request": "2022-928681",
    "request_type": "Trash/Recycling",
    "request_reason": "Repair Recycling Cart",
    "date_created": "2022-10-14T12:52:59.000",
    "date_modified": "2022-10-14T12:53:23.000",
    "request_status": "Pending",
    "responsible_agency": "Department of Sanitation",
    "final_address": "1637 Robert St",
    "address_councildis": "B",
    "status": "Assigned to Contractor",
    "contractor": "Richards Disposal",
    "rowid": "928681",
    "final_x": "3668778.84801",
    "final_y": "521201.496505",
    "longitude": "-90.10858752423648",
    "latitude": "29.927503249161493",
    "geocoded_column": {
      "latitude": "29.927503249161493",
      "longitude": "-90.10858752423648"
    }
  },
  {
    "service_request": "2022-928680",
    "request_type": "Trash/Recycling",
    "request_reason": "Request a Large Item Pick Up",
    "date_created": "2022-10-14T12:50:45.000",
    "date_modified": "2022-10-14T12:51:10.000",
    "request_status": "Pending",
    "responsible_agency": "Department of Sanitation",
    "final_address": "7743 Shubert St",
    "address_councildis": "E",
    "status": "Assigned to Contractor",
    "contractor": "Metro Disposal",
    "rowid": "928680",
    "final_x": "3695645.57328",
    "final_y": "559291.320733",
    "longitude": "-90.02240066236045",
    "latitude": "30.03141956510274",
    "geocoded_column": {
      "latitude": "30.03141956510274",
      "longitude": "-90.02240066236045"
    }
  },