[
  {
    "service_request": "2026-1260306",
    "request_type": "Streetlights",
    "request_reason": "Streetlight Outage/Malfunction",
    "date_created": "2026-02-23T22:53:07.000",
    "date_modified": "2026-02-23T22:53:10.000",
    "request_status": "Pending",
    "responsible_agency": "Department of Public Works",
    "final_address": "3621 White Oak Ave",
    "address_councildis": "C",
    "status": "Pending",
    "rowid": "1260306",
    "final_x": "3703595.02449",
    "final_y": "514269.956595",
    "longitude": "-89.99893703826794",
    "latitude": "29.90737473159547",
    "geocoded_column": {
      "latitude": "29.90737473159547",
      "longitude": "-89.99893703826794"
    }
  },
  {
    "service_request": "2026-1260305",
    "request_type": "Street and Traffic Signs",
    "request_reason": "Stop Sign Missing or Damaged",
    "date_created": "2026-02-23T22:36:16.000",
    "date_modified": "2026-02-23T22:36:19.000",
    "request_status": "Pending",
    "responsible_agency": "Department of Public Works",
    "final_address": "KNIGHT DR & GRANT ST",
    "address_councildis": "E",
    "status": "Pending",
    "rowid": "1260305",
    "final_x": "3708233.9",
    "final_y": "554554.68",
    "longitude": "-89.98279777494909",
    "latitude": "30.017993643118327",
    "geocoded_column": {
      "latitude": "30.017993643118327",
      "longitude": "-89.98279777494909"
    }
  },
  {
    "service_request": "2026-1260304",
    "request_type": "General Services",
    "request_reason": "General Service Request",
    "date_created": "2026-02-23T21:42:55.000",
    "date_modified": "2026-02-23T21:42:57.000",
    "request_status": "Pending",
    "responsible_agency": "Orleans Parish Communication District",
    "final_address": "9135 Edinburgh St",
    "address_councildis": "A",
    "status": "Pending",
    "rowid": "1260304",
    "final_x": "3664688.4754",
    "final_y": "537023.624136",
    "longitude": "-90.12097141838045",
    "latitude": "29.971128572243327",
    "geocoded_column": {
      "latitude": "29.971128572243327",
      "longitude": "-90.12097141838045"
    }
  },
  {
    "service_request": "2026-1260303",
    "request_type": "Streetlights",
    "request_reason": "Streetlight Outage/Malfunction",
    "date_created": "2026-02-23T21:40:14.000",
    "date_modified": "2026-02-23T21:40:16.000",
    "request_status": "Pending",
    "responsible_agency": "Department of Public Works",
    "final_address": "0 BLK Chatham Dr",
    "address_councildis": "D",
    "status": "Pending",
    "rowid": "1260303",
    "final_x": "3679840.64258",
    "final_y": "551512.611001",
    "longitude": "-90.07261538765654",
    "latitude": "30.010518669910642",
    "geocoded_column": {
      "latitude": "30.010518669910642",
      "longitude": "-90.07261538765654"
    }
  },
  {
    "service_request": "2026-1260302",
    "request_type": "Roads and Streets",
    "request_reason": "Abandoned Service Cut",
    "date_created": "2026-02-23T21:28:40.000",
    "date_modified": "2026-02-23T21:28:42.000",
    "request_status": "Pending",
    "responsible_agency": "Department of Public Works",
    "final_address": "9135 Edinburgh St",
    "address_councildis": "A",
    "status": "Pending",
    "rowid": "1260302",
    "final_x": "3664688.4754",
    "final_y": "537023.624136",
    "longitude": "-90.12097141838045",
    "latitude": "29.971128572243327",
    "geocoded_column": {
      "latitude": "29.971128572243327",
      "longitude": "-90.12097141838045"
    }
  },
  {
    "service_request": "2026-1260301",
    "request_type": "Trash/Recycling",
    "request_reason": "Order Trash Cart",
    "date_created": "2026-02-23T21:06:37.000",
    "date_modified": "2026-02-23T21:06:40.000",
    "request_status": "Pending",
    "responsible_agency": "Department of Sanitation",
    "final_address": "4210 Alfred St",
    "address_councildis": "D",
    "status": "Assigned to Contractor",
    "contractor": "IV Waste",
    "rowid": "1260301",
    "final_x": "3677576.0676",
    "final_y": "547669.290834",
    "longitude": "-90.07990287492258",
    "latitude": "30.000019223457443",
    "geocoded_column": {
      "latitude": "30.000019223457443",
      "longitude": "-90.07990287492258"
    }
  },
  {
    "service_request": "2026-1260300",
    "request_type": "Streetlights",
    "request_reason": "Streetlight Outage/Malfunction",
    "date_created": "2026-02-23T21:04:01.000",
    "date_modified": "2026-02-23T21:04:03.000",
    "request_status": "Pending",
    "responsible_agency": "Department of Public Works",
    "final_address": "819 Nunez St",
    "address_councildis": "C",
    "status": "Pending",
    "rowid": "1260300",
    "final_x": "3686866.60348",
    "final_y": "528534.71616",
    "longitude": "-90.05123003400847",
    "latitude": "29.94712313909898",
    "geocoded_column": {
      "latitude": "29.94712313909898",
      "longitude": "-90.05123003400847"
    }
  },
  {
    "service_request": "2026-1260299",
    "request_type": "Streetlights",
    "request_reason": "Streetlight Outage/Malfunction",
    "date_created": "2026-02-23T20:59:46.000",
    "date_modified": "2026-02-23T20:59:48.000",
    "request_status": "Pending",
    "responsible_agency": "Department of Public Works",
    "final_address": "819 Nunez St",
    "address_councildis": "C",
    "status": "Pending",
    "rowid": "1260299",
    "final_x": "3686866.60348",
    "final_y": "528534.71616",
    "longitude": "-90.05123003400847",
    "latitude": "29.94712313909898",
    "geocoded_column": {
      "latitude": "29.94712313909898",
      "longitude": "-90.05123003400847"
    }
  },
  {
    "service_request": "2026-1260298",
    "request_type": "Streetlights",
    "request_reason": "Streetlight Outage/Malfunction",
    "date_created": "2026-02-23T20:43:17.000",
    "date_modified": "2026-02-23T20:43:18.000",
    "request_status": "Pending",
    "responsible_agency": "Department of Public Works",
    "final_address": "2084 N Rocheblave St",
    "address_councildis": "D",
    "status": "Pending",
    "rowid": "1260298",
    "final_x": "3683321.14684",
    "final_y": "540951.307083",
    "longitude": "-90.06198937776132",
    "latitude": "29.98137309731253",
    "geocoded_column": {
      "latitude": "29.98137309731253",
      "longitude": "-90.06198937776132"
    }
  },
  {
    "service_request": "2026-1260297",
    "request_type": "Streetlights",
    "request_reason": "Streetlight Knocked Down/Leaning",
    "date_created": "2026-02-23T20:34:26.000",
    "date_modified": "2026-02-23T20:34:28.000",
    "request_status": "Pending",
    "responsible_agency": "Department of Public Works",
    "final_address": "10000 S Interstate 10 Service Rd Ste A",
    "address_councildis": "E",
    "status": "Pending",
    "rowid": "1260297",
    "final_x": "3710761.17208",
    "final_y": "561351.380254",
    "longitude": "-89.97455798194513",
    "latitude": "30.036599743048058",
    "geocoded_column": {
      "latitude": "30.036599743048058",
      "longitude": "-89.97455798194513"
    }
  },
  {
    "service_request": "2026-1260296",
    "request_type": "Trash/Recycling",
    "request_reason": "Order Recycling Cart",
    "date_created": "2026-02-23T20:19:27.000",
    "date_modified": "2026-02-23T20:19:28.000",
    "request_status": "Pending",
    "responsible_agency": "Department of Sanitation",
    "final_address": "10911 Yardley Rd",
    "address_councildis": "E",
    "status": "Pending",
    "rowid": "1260296",
    "final_x": "3711721.99192",
    "final_y": "563587.731296",
    "longitude": "-89.97143762339216",
    "latitude": "30.04271744913748",
    "geocoded_column": {
      "latitude": "30.04271744913748",
      "longitude": "-89.97143762339216"
    }
  },
  {
    "service_request": "2026-1260295",
    "request_type": "Trash/Recycling",
    "request_reason": "Request a Large Item Pick Up",
    "date_created": "2026-02-23T20:17:20.000",
    "date_modified": "2026-02-23T20:17:21.000",
    "request_status": "Pending",
    "responsible_agency": "Department of Sanitation",
    "final_address": "8521 Morrison Rd",
    "address_councildis": "E",
    "status": "Assigned to Contractor",
    "contractor": "Waste Pro",
    "rowid": "1260295",
    "final_x": "3704443.51031",
    "final_y": "561369.103262",
    "longitude": "-89.99452229678239",
    "latitude": "30.036852954107587",
    "geocoded_column": {
      "latitude": "30.036852954107587",
      "longitude": "-89.99452229678239"
    }
  },
  {
    "service_request": "2026-1260294",
    "request_type": "Property Maintenance",
    "request_reason": "Property Maintenance",
    "date_created": "2026-02-23T19:54:22.000",
    "date_modified": "2026-02-23T19:54:25.000",
    "request_status": "Pending",
    "responsible_agency": "Department of Code Enforcement",
    "final_address": "4619 Western St",
    "address_councildis": "D",
    "status": "Pending",
    "rowid": "1260294",
    "final_x": "3684226.09461",
    "final_y": "549592.340691",
    "longitude": "-90.05882757222102",
    "latitude": "30.005105220275663",
    "geocoded_column": {
      "latitude": "30.005105220275663",
      "longitude": "-90.05882757222102"
    }
  },
  {
    "service_request": "2026-1260293",
    "request_type": "Trash/Recycling",
    "request_reason": "Request a Large Item Pick Up",
    "date_created": "2026-02-23T19:50:08.000",
    "date_modified": "2026-02-23T19:50:11.000",
    "request_status": "Pending",
    "responsible_agency": "Department of Sanitation",
    "final_address": "DESOTO ST & N GAYOSO ST",
    "address_councildis": "A",
    "status": "Assigned to Contractor",
    "contractor": "IV Waste",
    "rowid": "1260293",
    "final_x": "3676768.3",
    "final_y": "539698.98",
    "longitude": "-90.08272946129895",
    "latitude": "29.978127917894053",
    "geocoded_column": {
      "latitude": "29.978127917894053",
      "longitude": "-90.08272946129895"
    }
  },
  {
    "service_request": "2026-1260292",
    "request_type": "Safety & Permits",
    "request_reason": "Construction permit",
    "date_created": "2026-02-23T19:40:58.000",
    "date_modified": "2026-02-23T19:41:01.000",
    "request_status": "Pending",
    "responsible_agency": "Safety and Permits",
    "final_address": "1448 Nashville Ave",
    "address_councildis": "A",
    "status": "Pending",
    "rowid": "1260292",
    "final_x": "3665999.93824",
    "final_y": "521434.971577",
    "longitude": "-90.11735207303983",
    "latitude": "29.928226612182215",
    "geocoded_column": {
      "latitude": "29.928226612182215",
      "longitude": "-90.11735207303983"
    }
  },
  {
    "service_request": "2026-1260290",
    "request_type": "Roads and Streets",
    "request_reason": "Street Subsidence (Sinking)",
    "date_created": "2026-02-23T19:30:14.000",
    "date_modified": "2026-02-23T19:30:17.000",
    "request_status": "Pending",
    "responsible_agency": "Sewerage & Water Board",
    "final_address": "6010 Chamberlain Dr",
    "address_councildis": "D",
    "status": "Pending",
    "rowid": "1260290",
    "final_x": "3679210.50837",
    "final_y": "554525.03228",
    "longitude": "-90.07450166324195",
    "latitude": "30.01882078841244",
    "geocoded_column": {
      "latitude": "30.01882078841244",
      "longitude": "-90.07450166324195"
    }
  },
  {
    "service_request": "2026-1260289",
    "request_type": "Trash/Recycling",
    "request_reason": "Request a Large Item Pick Up",
    "date_created": "2026-02-23T19:23:16.000",
    "date_modified": "2026-02-23T19:23:18.000",
    "request_status": "Pending",
    "responsible_agency": "Department of Sanitation",
    "final_address": "8612 Dinkins St",
    "address_councildis": "E",
    "status": "Assigned to Contractor",
    "contractor": "Waste Pro",
    "rowid": "1260289",
    "final_x": "3703876.96074",
    "final_y": "562932.418592",
    "longitude": "-89.99625505270375",
    "latitude": "30.04116964568193",
    "geocoded_column": {
      "latitude": "30.04116964568193",
      "longitude": "-89.99625505270375"
    }
  },
  {
    "service_request": "2026-1260288",
    "request_type": "Trash/Recycling",
    "request_reason": "Request a Large Item Pick Up",
    "date_created": "2026-02-23T19:13:46.000",
    "date_modified": "2026-02-23T19:13:49.000",
    "request_status": "Pending",
    "responsible_agency": "Department of Sanitation",
    "final_address": "8612 Dinkins St",
    "address_councildis": "E",
    "status": "Assigned to Contractor",
    "contractor": "Waste Pro",
    "rowid": "1260288",
    "final_x": "3703876.96074",
    "final_y": "562932.418592",
    "longitude": "-89.99625505270375",
    "latitude": "30.04116964568193",
    "geocoded_column": {
      "latitude": "30.04116964568193",
      "longitude": "-89.99625505270375"
    }
  },
  {
    "service_request": "2026-1260287",
    "request_type": "Street and Traffic Signs",
    "request_reason": "Street Name Sign Damaged or Missing",
    "date_created": "2026-02-23T19:09:49.000",
    "date_modified": "2026-02-23T19:09:51.000",
    "request_status": "Pending",
    "responsible_agency": "Department of Public Works",
    "final_address": "0 BLK Agriculture Pl",
    "address_councildis": "D",
    "status": "Pending",
    "rowid": "1260287",
    "final_x": "3689891.40135",
    "final_y": "543419.290574",
    "longitude": "-90.04114966127275",
    "latitude": "29.987957086684915",
    "geocoded_column": {
      "latitude": "29.987957086684915",
      "longitude": "-90.04114966127275"
    }
  },
  {
    "service_request": "2026-1260286",
    "request_type": "Street and Traffic Signs",
    "request_reason": "Stop Sign Missing or Damaged",
    "date_created": "2026-02-23T19:05:36.000",
    "date_modified": "2026-02-23T19:05:38.000",
    "request_status": "Pending",
    "responsible_agency": "Department of Public Works",
    "final_address": "1303 Jourdan Ave",
    "address_councildis": "E",
    "status": "Pending",
    "rowid": "1260286",
    "final_x": "3695303.16483",
    "final_y": "535253.39143",
    "longitude": "-90.02435044224983",
    "latitude": "29.965334877388504",
    "geocoded_column": {
      "latitude": "29.965334877388504",
      "longitude": "-90.02435044224983"
    }
  },
  {
    "service_request": "2026-1260285",
    "request_type": "General Services",
    "request_reason": "General Service Request",
    "date_created": "2026-02-23T18:57:01.000",
    "date_modified": "2026-02-23T18:57:03.000",
    "request_status": "Pending",
    "responsible_agency": "Orleans Parish Communication District",
    "final_address": "13000 N Lake Carmel Dr",
    "address_councildis": "E",
    "status": "Pending",
    "rowid": "1260285",
    "final_x": "3716608.4597",
    "final_y": "568675.093413",
    "longitude": "-89.9558013131371",
    "latitude": "30.0565450125185",
    "geocoded_column": {
      "latitude": "30.0565450125185",
      "longitude": "-89.9558013131371"
    }
  },
  {
    "service_request": "2026-1260284",
    "request_type": "General Services",
    "request_reason": "General Service Request",
    "date_created": "2026-02-23T18:57:00.000",
    "date_modified": "2026-02-23T18:57:02.000",
    "request_status": "Pending",
    "responsible_agency": "Orleans Parish Communication District",
    "final_address": "13000 N Lake Carmel Dr",
    "address_councildis": "E",
    "status": "Pending",
    "rowid": "1260284",
    "final_x": "3716608.4597",
    "final_y": "568675.093413",
    "longitude": "-89.9558013131371",
    "latitude": "30.0565450125185",
    "geocoded_column": {
      "latitude": "30.0565450125185",
      "longitude": "-89.9558013131371"
    }
  },
  {
    "service_request": "2026-1260283",
    "request_type": "Trash/Recycling",
    "request_reason": "Order Trash Cart",
    "date_created": "2026-02-23T18:50:11.000",
    "date_modified": "2026-02-23T18:50:14.000",
    "request_status": "Pending",
    "responsible_agency": "Department of Sanitation",
    "final_address": "7120 E Renaissance Ct",
    "address_councildis": "E",
    "status": "Assigned to Contractor",
    "contractor": "Waste Pro",
    "rowid": "1260283",
    "final_x": "3717255.39698",
    "final_y": "567805.111972",
    "longitude": "-89.95378957948357",
    "latitude": "30.054131521787703",
    "geocoded_column": {
      "latitude": "30.054131521787703",
      "longitude": "-89.95378957948357"
    }
  },
  {
    "service_request": "2026-1260282",
    "request_type": "Trash/Recycling",
    "request_reason": "Replace Trash Cart",
    "date_created": "2026-02-23T18:36:17.000",
    "date_modified": "2026-02-23T18:36:18.000",
    "request_status": "Pending",
    "responsible_agency": "Department of Sanitation",
    "final_address": "938 Wilson Dr",
    "address_councildis": "A",
    "status": "Assigned to Contractor",
    "contractor": "IV Waste",
    "rowid": "1260282",
    "final_x": "3674157.06504",
    "final_y": "540162.695947",
    "longitude": "-90.0909608042194",
    "latitude": "29.979481084261522",
    "geocoded_column": {
      "latitude": "29.979481084261522",
      "longitude": "-90.0909608042194"
    }
  },
  {
    "service_request": "2026-1260281",
    "request_type": "Streetlights",
    "request_reason": "Streetlight Outage/Malfunction",
    "date_created": "2026-02-23T18:33:05.000",
    "date_modified": "2026-02-23T18:33:07.000",
    "request_status": "Pending",
    "responsible_agency": "Department of Public Works",
    "final_address": "938 Wilson Dr",
    "address_councildis": "A",
    "status": "Pending",
    "rowid": "1260281",
    "final_x": "3674157.06504",
    "final_y": "540162.695947",
    "longitude": "-90.0909608042194",
    "latitude": "29.979481084261522",
    "geocoded_column": {
      "latitude": "29.979481084261522",
      "longitude": "-90.0909608042194"
    }
  },
  {
    "service_request": "2026-1260280",
    "request_type": "Trash/Recycling",
    "request_reason": "Missed Trash Pick-Up",
    "date_created": "2026-02-23T18:28:29.000",
    "date_modified": "2026-02-23T18:28:31.000",
    "request_status": "Pending",
    "responsible_agency": "Department of Sanitation",
    "final_address": "1221 Ursulines Ave",
    "address_councildis": "C",
    "status": "Assigned to Contractor",
    "contractor": "IV Waste",
    "rowid": "1260280",
    "final_x": "3681823.16578",
    "final_y": "534935.066118",
    "longitude": "-90.06693069959506",
    "latitude": "29.96487613349695",
    "geocoded_column": {
      "latitude": "29.96487613349695",
      "longitude": "-90.06693069959506"
    }
  },
  {
    "service_request": "2026-1260279",
    "request_type": "Street and Traffic Signs",
    "request_reason": "One Way Sign Missing or Damaged",
    "date_created": "2026-02-23T18:24:59.000",
    "date_modified": "2026-02-23T18:25:02.000",
    "request_status": "Pending",
    "responsible_agency": "Department of Public Works",
    "final_address": "940 Poland Ave",
    "address_councildis": "C",
    "status": "Pending",
    "rowid": "1260279",
    "final_x": "3692863.24067",
    "final_y": "534535.510277",
    "longitude": "-90.03208131654651",
    "latitude": "29.96343737303003",
    "geocoded_column": {
      "latitude": "29.96343737303003",
      "longitude": "-90.03208131654651"
    }
  },
  {
    "service_request": "2026-1260278",
    "request_type": "General Services",
    "request_reason": "General Service Request",
    "date_created": "2026-02-23T18:12:53.000",
    "date_modified": "2026-02-23T18:12:56.000",
    "request_status": "Pending",
    "responsible_agency": "Orleans Parish Communication District",
    "final_address": "3215 Cherry St",
    "address_councildis": "A",
    "status": "Pending",
    "rowid": "1260278",
    "final_x": "3663758.11635",
    "final_y": "536570.515207",
    "longitude": "-90.12392473466345",
    "latitude": "29.9699097064629",
    "geocoded_column": {
      "latitude": "29.9699097064629",
      "longitude": "-90.12392473466345"
    }
  },
  {
    "service_request": "2026-1260277",
    "request_type": "Abandoned Vehicles",
    "request_reason": "Abandoned/Junk Vehicles",
    "date_created": "2026-02-23T18:05:31.000",
    "date_modified": "2026-02-23T18:05:32.000",
    "request_status": "Pending",
    "responsible_agency": "Department of Public Works",
    "final_address": "1220 Frenchmen St",
    "address_councildis": "C",
    "status": "Pending",
    "rowid": "1260277",
    "final_x": "3684510.74594",
    "final_y": "536805.16308",
    "longitude": "-90.05837779421782",
    "latitude": "29.96993630425056",
    "geocoded_column": {
      "latitude": "29.96993630425056",
      "longitude": "-90.05837779421782"
    }
  },
  {
    "service_request": "2026-1260276",
    "request_type": "Abandoned Vehicles",
    "request_reason": "Abandoned/Junk Vehicles",
    "date_created": "2026-02-23T18:03:00.000",
    "date_modified": "2026-02-23T18:03:01.000",
    "request_status": "Pending",
    "responsible_agency": "Department of Public Works",
    "final_address": "1200 Frenchmen St",
    "address_councildis": "C",
    "status": "Pending",
    "rowid": "1260276",
    "final_x": "3684498.6285",
    "final_y": "536673.452167",
    "longitude": "-90.05842069031115",
    "latitude": "29.969574515689832",
    "geocoded_column": {
      "latitude": "29.969574515689832",
      "longitude": "-90.05842069031115"
    }
  },
  {
    "service_request": "2026-1260275",
    "request_type": "Trash/Recycling",
    "request_reason": "Replace Trash Cart",
    "date_created": "2026-02-23T17:31:38.000",
    "date_modified": "2026-02-23T17:31:40.000",
    "request_status": "Pending",
    "responsible_agency": "Department of Sanitation",
    "final_address": "4320 S Liberty St",
    "address_councildis": "B",
    "status": "Assigned to Contractor",
    "contractor": "IV Waste",
    "rowid": "1260275",
    "final_x": "3670847.39028",
    "final_y": "523329.802235",
    "longitude": "-90.10198542885165",
    "latitude": "29.933294449843462",
    "geocoded_column": {
      "latitude": "29.933294449843462",
      "longitude": "-90.10198542885165"
    }
  },
  {
    "service_request": "2026-1260274",
    "request_type": "Trash/Recycling",
    "request_reason": "Repair Trash Cart",
    "date_created": "2026-02-23T17:30:11.000",
    "date_modified": "2026-02-23T17:30:13.000",
    "request_status": "Pending",
    "responsible_agency": "Department of Sanitation",
    "final_address": "4320 S Liberty St",
    "address_councildis": "B",
    "status": "Assigned to Contractor",
    "contractor": "IV Waste",
    "rowid": "1260274",
    "final_x": "3670847.39028",
    "final_y": "523329.802235",
    "longitude": "-90.10198542885165",
    "latitude": "29.933294449843462",
    "geocoded_column": {
      "latitude": "29.933294449843462",
      "longitude": "-90.10198542885165"
    }
  },
  {
    "service_request": "2026-1260273",
    "request_type": "Trash/Recycling",
    "request_reason": "Request a Large Item Pick Up",
    "date_created": "2026-02-23T17:27:33.000",
    "date_modified": "2026-02-23T17:27:35.000",
    "request_status": "Pending",
    "responsible_agency": "Department of Sanitation",
    "final_address": "4320 S Liberty St",
    "address_councildis": "B",
    "status": "Assigned to Contractor",
    "contractor": "IV Waste",
    "rowid": "1260273",
    "final_x": "3670847.39028",
    "final_y": "523329.802235",
    "longitude": "-90.10198542885165",
    "latitude": "29.933294449843462",
    "geocoded_column": {
      "latitude": "29.933294449843462",
      "longitude": "-90.10198542885165"
    }
  },
  {
    "service_request": "2026-1260272",
    "request_type": "General Services",
    "request_reason": "General Service Request",
    "date_created": "2026-02-23T17:18:16.000",
    "date_modified": "2026-02-23T17:18:18.000",
    "request_status": "Pending",
    "responsible_agency": "Orleans Parish Communication District",
    "final_address": "5645 Woodlawn Pl",
    "address_councildis": "A",
    "status": "Pending",
    "rowid": "1260272",
    "final_x": "3667599.47585",
    "final_y": "545017.757775",
    "longitude": "-90.11150884793611",
    "latitude": "29.99302472612093",
    "geocoded_column": {
      "latitude": "29.99302472612093",
      "longitude": "-90.11150884793611"
    }
  },
  {
    "service_request": "2026-1260271",
    "request_type": "Trash/Recycling",
    "request_reason": "Replace Trash Cart",
    "date_created": "2026-02-23T16:57:28.000",
    "date_modified": "2026-02-23T16:57:30.000",
    "request_status": "Pending",
    "responsible_agency": "Department of Sanitation",
    "final_address": "5711 Carlisle Ct",
    "address_councildis": "C",
    "status": "Assigned to Contractor",
    "contractor": "Richards Disposal",
    "rowid": "1260271",
    "final_x": "3704655.68874",
    "final_y": "516494.516149",
    "longitude": "-89.99550751016767",
    "latitude": "29.913457501626414",
    "geocoded_column": {
      "latitude": "29.913457501626414",
      "longitude": "-89.99550751016767"
    }
  },
  {
    "service_request": "2026-1260270",
    "request_type": "Trash/Recycling",
    "request_reason": "Request a Large Item Pick Up",
    "date_created": "2026-02-23T16:51:08.000",
    "date_modified": "2026-02-23T16:52:05.000",
    "request_status": "Pending",
    "responsible_agency": "Department of Sanitation",
    "final_address": "8631 Cohn St",
    "address_councildis": "A",
    "status": "Pending",
    "contractor": "IV Waste",
    "rowid": "1260270",
    "final_x": "3662152.29402",
    "final_y": "531573.520643",
    "longitude": "-90.12916194524814",
    "latitude": "29.956216108082657",
    "geocoded_column": {
      "latitude": "29.956216108082657",
      "longitude": "-90.12916194524814"
    }
  },
  {
    "service_request": "2026-1260269",
    "request_type": "Trash/Recycling",
    "request_reason": "Request a Large Item Pick Up",
    "date_created": "2026-02-23T16:46:53.000",
    "date_modified": "2026-02-23T16:46:55.000",
    "request_status": "Pending",
    "responsible_agency": "Department of Sanitation",
    "final_address": "1441 St Andrew St",
    "address_councildis": "B",
    "status": "Assigned to Contractor",
    "contractor": "IV Waste",
    "rowid": "1260269",
    "final_x": "3678651.30504",
    "final_y": "523656.843963",
    "longitude": "-90.07733763567856",
    "latitude": "29.93396080521924",
    "geocoded_column": {
      "latitude": "29.93396080521924",
      "longitude": "-90.07733763567856"
    }
  },
  {
    "service_request": "2026-1260268",
    "request_type": "Roads and Streets",
    "request_reason": "Pothole",
    "date_created": "2026-02-23T16:42:19.000",
    "date_modified": "2026-02-23T16:42:20.000",
    "request_status": "Pending",
    "responsible_agency": "Department of Public Works",
    "final_address": "4700 BLK Conti St",
    "address_councildis": "A",
    "status": "Pending",
    "rowid": "1260268",
    "final_x": "3669675.47295",
    "final_y": "540888.272998",
    "longitude": "-90.10509093591918",
    "latitude": "29.981609023685827",
    "geocoded_column": {
      "latitude": "29.981609023685827",
      "longitude": "-90.10509093591918"
    }
  },
  {
    "service_request": "2026-1260267",
    "request_type": "Streetlights",
    "request_reason": "Streetlight Knocked Down/Leaning",
    "date_created": "2026-02-23T16:42:17.000",
    "date_modified": "2026-02-23T16:42:19.000",
    "request_status": "Pending",
    "responsible_agency": "Department of Public Works",
    "final_address": "TENNESSEE ST & N CLAIBORNE AVE",
    "address_councildis": "E",
    "status": "Pending",
    "rowid": "1260267",
    "final_x": "3696177.3",
    "final_y": "536095.98",
    "longitude": "-90.02155951871875",
    "latitude": "29.967624209323066",
    "geocoded_column": {
      "latitude": "29.967624209323066",
      "longitude": "-90.02155951871875"
    }
  },
  {
    "service_request": "2026-1260266",
    "request_type": "Roads and Streets",
    "request_reason": "Pothole",
    "date_created": "2026-02-23T16:40:24.000",
    "date_modified": "2026-02-23T16:40:25.000",
    "request_status": "Pending",
    "responsible_agency": "Department of Public Works",
    "final_address": "300 N Bernadotte St",
    "address_councildis": "A",
    "status": "Pending",
    "rowid": "1260266",
    "final_x": "3669380.79527",
    "final_y": "540748.845067",
    "longitude": "-90.10602638508458",
    "latitude": "29.98123432620579",
    "geocoded_column": {
      "latitude": "29.98123432620579",
      "longitude": "-90.10602638508458"
    }
  },
  {
    "service_request": "2026-1260265",
    "request_type": "Trash/Recycling",
    "request_reason": "Request a Large Item Pick Up",
    "date_created": "2026-02-23T16:40:17.000",
    "date_modified": "2026-02-23T16:40:19.000",
    "request_status": "Pending",
    "responsible_agency": "Department of Sanitation",
    "final_address": "5204 N Claiborne Ave",
    "address_councildis": "E",
    "status": "Assigned to Contractor",
    "contractor": "Waste Pro",
    "rowid": "1260265",
    "final_x": "3697067.03927",
    "final_y": "535767.540295",
    "longitude": "-90.01876161608159",
    "latitude": "29.966693079780125",
    "geocoded_column": {
      "latitude": "29.966693079780125",
      "longitude": "-90.01876161608159"
    }
  },
  {
    "service_request": "2026-1260264",
    "request_type": "Trash/Recycling",
    "request_reason": "Replace Trash Cart",
    "date_created": "2026-02-23T16:37:15.000",
    "date_modified": "2026-02-23T16:37:17.000",
    "request_status": "Pending",
    "responsible_agency": "Department of Sanitation",
    "final_address": "3135 Blair St",
    "address_councildis": "C",
    "status": "Assigned to Contractor",
    "contractor": "Richards Disposal",
    "rowid": "1260264",
    "final_x": "3709446.74545",
    "final_y": "519246.609591",
    "longitude": "-89.98028301942003",
    "latitude": "29.92087011738743",
    "geocoded_column": {
      "latitude": "29.92087011738743",
      "longitude": "-89.98028301942003"
    }
  },
  {
    "service_request": "2026-1260262",
    "request_type": "Trash/Recycling",
    "request_reason": "Request a Large Item Pick Up",
    "date_created": "2026-02-23T16:34:56.000",
    "date_modified": "2026-02-23T16:36:55.000",
    "request_status": "Pending",
    "responsible_agency": "Department of Sanitation",
    "final_address": "13000 N Lake Carmel Dr",
    "address_councildis": "E",
    "status": "Pending",
    "contractor": "Waste Pro",
    "rowid": "1260262",
    "final_x": "3716608.4597",
    "final_y": "568675.093413",
    "longitude": "-89.9558013131371",
    "latitude": "30.0565450125185",
    "geocoded_column": {
      "latitude": "30.0565450125185",
      "longitude": "-89.9558013131371"
    }
  },
  {
    "service_request": "2026-1260261",
    "request_type": "Trash/Recycling",
    "request_reason": "Request a Large Item Pick Up",
    "date_created": "2026-02-23T16:28:34.000",
    "date_modified": "2026-02-23T16:35:56.000",
    "request_status": "Pending",
    "responsible_agency": "Department of Sanitation",
    "final_address": "13000 N Lake Carmel Dr",
    "address_councildis": "E",
    "status": "Pending",
    "contractor": "Waste Pro",
    "rowid": "1260261",
    "final_x": "3716608.4597",
    "final_y": "568675.093413",
    "longitude": "-89.9558013131371",
    "latitude": "30.0565450125185",
    "geocoded_column": {
      "latitude": "30.0565450125185",
      "longitude": "-89.9558013131371"
    }
  },
  {
    "service_request": "2026-1260260",
    "request_type": "Trash/Recycling",
    "request_reason": "Request a Large Item Pick Up",
    "date_created": "2026-02-23T16:23:16.000",
    "date_modified": "2026-02-23T16:23:17.000",
    "request_status": "Pending",
    "responsible_agency": "Department of Sanitation",
    "final_address": "4809 Wright Rd",
    "address_councildis": "E",
    "status": "Assigned to Contractor",
    "contractor": "Waste Pro",
    "rowid": "1260260",
    "final_x": "3716729.92652",
    "final_y": "557208.343707",
    "longitude": "-89.95585309538883",
    "latitude": "30.025012087003766",
    "geocoded_column": {
      "latitude": "30.025012087003766",
      "longitude": "-89.95585309538883"
    }
  },
  {
    "service_request": "2026-1260259",
    "request_type": "Trash/Recycling",
    "request_reason": "Order Recycling Cart",
    "date_created": "2026-02-23T16:17:46.000",
    "date_modified": "2026-02-23T16:17:48.000",
    "request_status": "Pending",
    "responsible_agency": "Department of Sanitation",
    "final_address": "721 Sixth St",
    "address_councildis": "B",
    "status": "Pending",
    "rowid": "1260259",
    "final_x": "3677399.56053",
    "final_y": "519448.418999",
    "longitude": "-90.08143449910642",
    "latitude": "29.92242667490231",
    "geocoded_column": {
      "latitude": "29.92242667490231",
      "longitude": "-90.08143449910642"
    }
  },
  {
    "service_request": "2026-1260258",
    "request_type": "Trash/Recycling",
    "request_reason": "Illegal Dumping",
    "date_created": "2026-02-23T16:17:30.000",
    "date_modified": "2026-02-23T16:17:32.000",
    "request_status": "Pending",
    "responsible_agency": "Department of Sanitation",
    "final_address": "ELYSIAN FIELDS AVE & I 610 E",
    "address_councildis": "D",
    "status": "Pending",
    "rowid": "1260258",
    "final_x": "3684304.5",
    "final_y": "544551.28",
    "longitude": "-90.05875702380456",
    "latitude": "29.99124171275241",
    "geocoded_column": {
      "latitude": "29.99124171275241",
      "longitude": "-90.05875702380456"
    }
  },
  {
    "service_request": "2026-1260257",
    "request_type": "Abandoned Vehicles",
    "request_reason": "Abandoned/Junk Vehicles",
    "date_created": "2026-02-23T16:17:09.000",
    "date_modified": "2026-02-23T16:17:10.000",
    "request_status": "Pending",
    "responsible_agency": "Department of Public Works",
    "final_address": "7500 Benson St",
    "address_councildis": "E",
    "status": "Pending",
    "rowid": "1260257",
    "final_x": "3704429.9034",
    "final_y": "562245.347231",
    "longitude": "-89.9945329428918",
    "latitude": "30.03926271748268",
    "geocoded_column": {
      "latitude": "30.03926271748268",
      "longitude": "-89.9945329428918"
    }
  },
  {
    "service_request": "2026-1260256",
    "request_type": "Trash/Recycling",
    "request_reason": "Order Trash Cart",
    "date_created": "2026-02-23T16:16:53.000",
    "date_modified": "2026-02-23T16:16:54.000",
    "request_status": "Pending",
    "responsible_agency": "Department of Sanitation",
    "final_address": "721 Sixth St",
    "address_councildis": "B",
    "status": "Assigned to Contractor",
    "contractor": "IV Waste",
    "rowid": "1260256",
    "final_x": "3677399.56053",
    "final_y": "519448.418999",
    "longitude": "-90.08143449910642",
    "latitude": "29.92242667490231",
    "geocoded_column": {
      "latitude": "29.92242667490231",
      "longitude": "-90.08143449910642"
    }
  },
  {
    "service_request": "2026-1260255",
    "request_type": "Trash/Recycling",
    "request_reason": "Request a Large Item Pick Up",
    "date_created": "2026-02-23T16:13:27.000",
    "date_modified": "2026-02-23T16:13:28.000",
    "request_status": "Pending",
    "responsible_agency": "Department of Sanitation",
    "final_address": "401 Tricou St",
    "address_councildis": "E",
    "status": "Assigned to Contractor",
    "contractor": "Waste Pro",
    "rowid": "1260255",
    "final_x": "3699220.54583",
    "final_y": "530706.988546",
    "longitude": "-90.01214516440753",
    "latitude": "29.952710254015454",
    "geocoded_column": {
      "latitude": "29.952710254015454",
      "longitude": "-90.01214516440753"
    }
  },
  {
    "service_request": "2026-1260254",
    "request_type": "Trash/Recycling",
    "request_reason": "Order Trash Cart",
    "date_created": "2026-02-23T16:08:42.000",
    "date_modified": "2026-02-23T16:08:45.000",
    "request_status": "Pending",
    "responsible_agency": "Department of Sanitation",
    "final_address": "2224 Port St A",
    "address_councildis": "D",
    "status": "Assigned to Contractor",
    "contractor": "IV Waste",
    "rowid": "1260254",
    "final_x": "3688495.0934",
    "final_y": "540747.462347",
    "longitude": "-90.04565496191421",
    "latitude": "29.980653734430703",
    "geocoded_column": {
      "latitude": "29.980653734430703",
      "longitude": "-90.04565496191421"
    }
  },
  {
    "service_request": "2026-1260253",
    "request_type": "Trash/Recycling",
    "request_reason": "Repair Trash Cart",
    "date_created": "2026-02-23T16:05:23.000",
    "date_modified": "2026-02-23T16:05:24.000",
    "request_status": "Pending",
    "responsible_agency": "Department of Sanitation",
    "final_address": "3819 Marais St",
    "address_councildis": "D",
    "status": "Assigned to Contractor",
    "contractor": "IV Waste",
    "rowid": "1260253",
    "final_x": "3691472.79843",
    "final_y": "535835.734023",
    "longitude": "-90.03642569241454",
    "latitude": "29.967055876164817",
    "geocoded_column": {
      "latitude": "29.967055876164817",
      "longitude": "-90.03642569241454"
    }
  },
  {
    "service_request": "2026-1260252",
    "request_type": "Trash/Recycling",
    "request_reason": "Request a Large Item Pick Up",
    "date_created": "2026-02-23T16:00:42.000",
    "date_modified": "2026-02-23T16:00:45.000",
    "request_status": "Pending",
    "responsible_agency": "Department of Sanitation",
    "final_address": "3819 Marais St",
    "address_councildis": "D",
    "status": "Assigned to Contractor",
    "contractor": "IV Waste",
    "rowid": "1260252",
    "final_x": "3691472.79843",
    "final_y": "535835.734023",
    "longitude": "-90.03642569241454",
    "latitude": "29.967055876164817",
    "geocoded_column": {
      "latitude": "29.967055876164817",
      "longitude": "-90.03642569241454"
    }
  },
  {
    "service_request": "2026-1260251",
    "request_type": "Health Related Request",
    "request_reason": "Noise Ordinance Complaint",
    "date_created": "2026-02-23T16:00:33.000",
    "date_modified": "2026-02-23T16:04:44.000",
    "case_close_date": "2026-02-23T10:04:43.000",
    "request_status": "Closed",
    "responsible_agency": "Health Department",
    "final_address": "908 Burdette St",
    "address_councildis": "A",
    "status": "Not Enough Information- Resubmittal Required",
    "rowid": "1260251",
    "final_x": "3662109.00672",
    "final_y": "526956.23123",
    "longitude": "-90.12945181654705",
    "latitude": "29.943521295644235",
    "geocoded_column": {
      "latitude": "29.943521295644235",
      "longitude": "-90.12945181654705"
    }
  },
  {
    "service_request": "2026-1260250",
    "request_type": "Trash/Recycling",
    "request_reason": "Request a Large Item Pick Up",
    "date_created": "2026-02-23T16:00:28.000",
    "date_modified": "2026-02-23T16:00:30.000",
    "request_status": "Pending",
    "responsible_agency": "Department of Sanitation",
    "final_address": "7525 Garnet St",
    "address_councildis": "D",
    "status": "Assigned to Contractor",
    "contractor": "IV Waste",
    "rowid": "1260250",
    "final_x": "3667497.22759",
    "final_y": "556670.267098",
    "longitude": "-90.11143931956086",
    "latitude": "30.025068053781492",
    "geocoded_column": {
      "latitude": "30.025068053781492",
      "longitude": "-90.11143931956086"
    }
  },
  {
    "service_request": "2026-1260249",
    "request_type": "Trash/Recycling",
    "request_reason": "Order Recycling Cart",
    "date_created": "2026-02-23T16:00:13.000",
    "date_modified": "2026-02-23T16:00:15.000",
    "request_status": "Pending",
    "responsible_agency": "Department of Sanitation",
    "final_address": "2536 Milan St",
    "address_councildis": "B",
    "status": "Pending",
    "rowid": "1260249",
    "final_x": "3671207.1947",
    "final_y": "524415.973436",
    "longitude": "-90.10081266232187",
    "latitude": "29.936270433364296",
    "geocoded_column": {
      "latitude": "29.936270433364296",
      "longitude": "-90.10081266232187"
    }
  },
  {
    "service_request": "2026-1260248",
    "request_type": "Trash/Recycling",
    "request_reason": "Dead Animal Pick Up",
    "date_created": "2026-02-23T16:00:11.000",
    "date_modified": "2026-02-23T16:00:14.000",
    "request_status": "Pending",
    "responsible_agency": "Department of Sanitation",
    "final_address": "2950 St Bernard Ave",
    "address_councildis": "D",
    "status": "Assigned to Contractor",
    "contractor": "IV Waste",
    "rowid": "1260248",
    "final_x": "3679297.04482",
    "final_y": "543087.833613",
    "longitude": "-90.07462520984106",
    "latitude": "29.98736995474998",
    "geocoded_column": {
      "latitude": "29.98736995474998",
      "longitude": "-90.07462520984106"
    }
  },
  {
    "service_request": "2026-1260247",
    "request_type": "Trash/Recycling",
    "request_reason": "Order Trash Cart",
    "date_created": "2026-02-23T15:58:45.000",
    "date_modified": "2026-02-23T15:58:47.000",
    "request_status": "Pending",
    "responsible_agency": "Department of Sanitation",
    "final_address": "2536 Milan St",
    "address_councildis": "B",
    "status": "Assigned to Contractor",
    "contractor": "IV Waste",
    "rowid": "1260247",
    "final_x": "3671207.1947",
    "final_y": "524415.973436",
    "longitude": "-90.10081266232187",
    "latitude": "29.936270433364296",
    "geocoded_column": {
      "latitude": "29.936270433364296",
      "longitude": "-90.10081266232187"
    }
  },
  {
    "service_request": "2026-1260246",
    "request_type": "Street and Traffic Signs",
    "request_reason": "Street Name Sign Damaged or Missing",
    "date_created": "2026-02-23T15:56:58.000",
    "date_modified": "2026-02-23T15:56:59.000",
    "request_status": "Pending",
    "responsible_agency": "Department of Public Works",
    "final_address": "6200 BLK Vermillion Blvd",
    "address_councildis": "D",
    "status": "Pending",
    "rowid": "1260246",
    "final_x": "3682968.69505",
    "final_y": "556411.734405",
    "longitude": "-90.06256102894895",
    "latitude": "30.023894464246172",
    "geocoded_column": {
      "latitude": "30.023894464246172",
      "longitude": "-90.06256102894895"
    }
  },
  {
    "service_request": "2026-1260245",
    "request_type": "Trash/Recycling",
    "request_reason": "Repair Trash Cart",
    "date_created": "2026-02-23T15:56:40.000",
    "date_modified": "2026-02-23T15:56:41.000",
    "request_status": "Pending",
    "responsible_agency": "Department of Sanitation",
    "final_address": "6315 Cartier Dr",
    "address_councildis": "D",
    "status": "Assigned to Contractor",
    "contractor": "IV Waste",
    "rowid": "1260245",
    "final_x": "3677658.146",
    "final_y": "556128.090522",
    "longitude": "-90.07935114801901",
    "latitude": "30.023275419030103",
    "geocoded_column": {
      "latitude": "30.023275419030103",
      "longitude": "-90.07935114801901"
    }
  },
  {
    "service_request": "2026-1260244",
    "request_type": "Trash/Recycling",
    "request_reason": "Request a Large Item Pick Up",
    "date_created": "2026-02-23T15:54:28.000",
    "date_modified": "2026-02-23T15:54:31.000",
    "request_status": "Pending",
    "responsible_agency": "Department of Sanitation",
    "final_address": "7340 Shubrick Ave",
    "address_councildis": "E",
    "status": "Assigned to Contractor",
    "contractor": "Waste Pro",
    "rowid": "1260244",
    "final_x": "3707087.21976",
    "final_y": "563017.064608",
    "longitude": "-89.98610644422524",
    "latitude": "30.041298995900505",
    "geocoded_column": {
      "latitude": "30.041298995900505",
      "longitude": "-89.98610644422524"
    }
  },
  {
    "service_request": "2026-1260243",
    "request_type": "Trash/Recycling",
    "request_reason": "Request a Large Item Pick Up",
    "date_created": "2026-02-23T15:53:41.000",
    "date_modified": "2026-02-23T15:53:43.000",
    "request_status": "Pending",
    "responsible_agency": "Department of Sanitation",
    "final_address": "4758 Camelot Dr",
    "address_councildis": "E",
    "status": "Assigned to Contractor",
    "contractor": "Waste Pro",
    "rowid": "1260243",
    "final_x": "3708291.78628",
    "final_y": "555690.003289",
    "longitude": "-89.98257259101992",
    "latitude": "30.021113464904975",
    "geocoded_column": {
      "latitude": "30.021113464904975",
      "longitude": "-89.98257259101992"
    }
  },
  {
    "service_request": "2026-1260242",
    "request_type": "Trash/Recycling",
    "request_reason": "Order Second Trash Cart",
    "date_created": "2026-02-23T15:50:35.000",
    "date_modified": "2026-02-23T15:50:37.000",
    "request_status": "Pending",
    "responsible_agency": "Department of Sanitation",
    "final_address": "2013 Ursulines Ave",
    "address_councildis": "D",
    "status": "Assigned to Contractor",
    "contractor": "IV Waste",
    "rowid": "1260242",
    "final_x": "3679744.41147",
    "final_y": "536574.214727",
    "longitude": "-90.07343835741482",
    "latitude": "29.969446240319765",
    "geocoded_column": {
      "latitude": "29.969446240319765",
      "longitude": "-90.07343835741482"
    }
  },
  {
    "service_request": "2026-1260241",
    "request_type": "Trash/Recycling",
    "request_reason": "Request a Large Item Pick Up",
    "date_created": "2026-02-23T15:50:21.000",
    "date_modified": "2026-02-23T15:50:24.000",
    "request_status": "Pending",
    "responsible_agency": "Department of Sanitation",
    "final_address": "13653 N Lemans St",
    "address_councildis": "E",
    "status": "Assigned to Contractor",
    "contractor": "Waste Pro",
    "rowid": "1260241",
    "final_x": "3726098.21721",
    "final_y": "563437.573152",
    "longitude": "-89.92600948148534",
    "latitude": "30.041826914299968",
    "geocoded_column": {
      "latitude": "30.041826914299968",
      "longitude": "-89.92600948148534"
    }
  },
  {
    "service_request": "2026-1260240",
    "request_type": "Trash/Recycling",
    "request_reason": "Request a Large Item Pick Up",
    "date_created": "2026-02-23T15:48:23.000",
    "date_modified": "2026-02-23T15:48:25.000",
    "request_status": "Pending",
    "responsible_agency": "Department of Sanitation",
    "final_address": "8913 Bunker Hill Rd",
    "address_councildis": "E",
    "status": "Assigned to Contractor",
    "contractor": "Waste Pro",
    "rowid": "1260240",
    "final_x": "3705884.18167",
    "final_y": "561645.729951",
    "longitude": "-89.9899592527617",
    "latitude": "30.037567205519174",
    "geocoded_column": {
      "latitude": "30.037567205519174",
      "longitude": "-89.9899592527617"
    }
  },
  {
    "service_request": "2026-1260239",
    "request_type": "Trash/Recycling",
    "request_reason": "Repair Trash Cart",
    "date_created": "2026-02-23T15:45:10.000",
    "date_modified": "2026-02-23T15:45:12.000",
    "request_status": "Pending",
    "responsible_agency": "Department of Sanitation",
    "final_address": "2013 Ursulines Ave",
    "address_councildis": "D",
    "status": "Assigned to Contractor",
    "contractor": "IV Waste",
    "rowid": "1260239",
    "final_x": "3679744.41147",
    "final_y": "536574.214727",
    "longitude": "-90.07343835741482",
    "latitude": "29.969446240319765",
    "geocoded_column": {
      "latitude": "29.969446240319765",
      "longitude": "-90.07343835741482"
    }
  },
  {
    "service_request": "2026-1260238",
    "request_type": "Property Maintenance",
    "request_reason": "Property Maintenance",
    "date_created": "2026-02-23T15:44:20.000",
    "date_modified": "2026-02-23T15:44:21.000",
    "request_status": "Pending",
    "responsible_agency": "Department of Code Enforcement",
    "final_address": "2318 N Prieur St",
    "address_councildis": "D",
    "status": "Pending",
    "rowid": "1260238",
    "final_x": "3685747.9469",
    "final_y": "539299.477578",
    "longitude": "-90.05438267784253",
    "latitude": "29.976756886991883",
    "geocoded_column": {
      "latitude": "29.976756886991883",
      "longitude": "-90.05438267784253"
    }
  },
  {
    "service_request": "2026-1260237",
    "request_type": "Abandoned Vehicles",
    "request_reason": "Abandoned/Junk Vehicles",
    "date_created": "2026-02-23T15:43:40.000",
    "date_modified": "2026-02-23T15:44:45.000",
    "request_status": "Pending",
    "responsible_agency": "Department of Public Works",
    "final_address": "4701 Pitt St",
    "address_councildis": "B",
    "status": "Pending",
    "rowid": "1260237",
    "final_x": "3669682.38644",
    "final_y": "520500.907448",
    "longitude": "-90.10575896060882",
    "latitude": "29.925550266311745",
    "geocoded_column": {
      "latitude": "29.925550266311745",
      "longitude": "-90.10575896060882"
    }
  },
  {
    "service_request": "2026-1260236",
    "request_type": "Healthy Homes",
    "request_reason": "Healthy Homes",
    "date_created": "2026-02-23T15:41:39.000",
    "date_modified": "2026-02-23T15:41:40.000",
    "request_status": "Pending",
    "responsible_agency": "Department of Code Enforcement",
    "final_address": "3400 St Anthony Ave",
    "address_councildis": "D",
    "status": "Pending",
    "rowid": "1260236",
    "final_x": "3682655.4797",
    "final_y": "545239.439823",
    "longitude": "-90.06394181517645",
    "latitude": "29.993184241587425",
    "geocoded_column": {
      "latitude": "29.993184241587425",
      "longitude": "-90.06394181517645"
    }
  },
  {
    "service_request": "2026-1260235",
    "request_type": "Safety & Permits",
    "request_reason": "Construction permit",
    "date_created": "2026-02-23T15:39:13.000",
    "date_modified": "2026-02-23T15:39:15.000",
    "request_status": "Pending",
    "responsible_agency": "Safety and Permits",
    "final_address": "2318 N Prieur St",
    "address_councildis": "D",
    "status": "Pending",
    "rowid": "1260235",
    "final_x": "3685747.9469",
    "final_y": "539299.477578",
    "longitude": "-90.05438267784253",
    "latitude": "29.976756886991883",
    "geocoded_column": {
      "latitude": "29.976756886991883",
      "longitude": "-90.05438267784253"
    }
  },
  {
    "service_request": "2026-1260234",
    "request_type": "Trash/Recycling",
    "request_reason": "Request a Large Item Pick Up",
    "date_created": "2026-02-23T15:38:36.000",
    "date_modified": "2026-02-23T16:10:52.000",
    "request_status": "Pending",
    "responsible_agency": "Department of Sanitation",
    "final_address": "9131 Dixon St",
    "address_councildis": "A",
    "status": "Assigned to Contractor",
    "contractor": "IV Waste",
    "rowid": "1260234",
    "final_x": "3665688.22772",
    "final_y": "538054.007561",
    "longitude": "-90.1177795325355",
    "latitude": "29.973932660217717",
    "geocoded_column": {
      "latitude": "29.973932660217717",
      "longitude": "-90.1177795325355"
    }
  },
  {
    "service_request": "2026-1260233",
    "request_type": "Graffiti Removal",
    "request_reason": "Graffiti Removal",
    "date_created": "2026-02-23T15:34:08.000",
    "date_modified": "2026-02-23T15:34:09.000",
    "request_status": "Pending",
    "responsible_agency": "Department of Code Enforcement",
    "final_address": "4822 Tchoupitoulas St",
    "address_councildis": "B",
    "status": "Pending",
    "rowid": "1260233",
    "final_x": "3669557.57326",
    "final_y": "517240.551861",
    "longitude": "-90.10626317416168",
    "latitude": "29.91658899669466",
    "geocoded_column": {
      "latitude": "29.91658899669466",
      "longitude": "-90.10626317416168"
    }
  },
  {
    "service_request": "2026-1260232",
    "request_type": "Trash/Recycling",
    "request_reason": "Replace Trash Cart",
    "date_created": "2026-02-23T15:33:20.000",
    "date_modified": "2026-02-23T15:33:22.000",
    "request_status": "Pending",
    "responsible_agency": "Department of Sanitation",
    "final_address": "2821 Amelia St",
    "address_councildis": "B",
    "status": "Assigned to Contractor",
    "contractor": "IV Waste",
    "rowid": "1260232",
    "final_x": "3672091.96615",
    "final_y": "525541.606845",
    "longitude": "-90.09798109214125",
    "latitude": "29.93933936145293",
    "geocoded_column": {
      "latitude": "29.93933936145293",
      "longitude": "-90.09798109214125"
    }
  },
  {
    "service_request": "2026-1260231",
    "request_type": "Trash/Recycling",
    "request_reason": "Order Recycling Cart",
    "date_created": "2026-02-23T15:28:22.000",
    "date_modified": "2026-02-23T15:28:23.000",
    "request_status": "Pending",
    "responsible_agency": "Department of Sanitation",
    "final_address": "918 Lyons St",
    "address_councildis": "B",
    "status": "Pending",
    "rowid": "1260231",
    "final_x": "3669157.11969",
    "final_y": "518760.842423",
    "longitude": "-90.10747583566132",
    "latitude": "29.920781101973933",
    "geocoded_column": {
      "latitude": "29.920781101973933",
      "longitude": "-90.10747583566132"
    }
  },
  {
    "service_request": "2026-1260230",
    "request_type": "Trash/Recycling",
    "request_reason": "Replace Recycling Cart",
    "date_created": "2026-02-23T15:28:02.000",
    "date_modified": "2026-02-23T15:28:04.000",
    "request_status": "Pending",
    "responsible_agency": "Department of Sanitation",
    "final_address": "930 Piety St",
    "address_councildis": "C",
    "status": "Pending",
    "rowid": "1260230",
    "final_x": "3689667.26409",
    "final_y": "535253.86343",
    "longitude": "-90.0421482682462",
    "latitude": "29.965512003545157",
    "geocoded_column": {
      "latitude": "29.965512003545157",
      "longitude": "-90.0421482682462"
    }
  },
  {
    "service_request": "2026-1260229",
    "request_type": "Street and Traffic Signs",
    "request_reason": "Stop Sign Missing or Damaged",
    "date_created": "2026-02-23T15:25:31.000",
    "date_modified": "2026-02-23T15:25:32.000",
    "request_status": "Pending",
    "responsible_agency": "Department of Public Works",
    "final_address": "LOWERLINE ST & FRERET ST",
    "address_councildis": "A",
    "status": "Pending",
    "rowid": "1260229",
    "final_x": "3663280.1",
    "final_y": "526228.18",
    "longitude": "-90.12577857642057",
    "latitude": "29.941485502920784",
    "geocoded_column": {
      "latitude": "29.941485502920784",
      "longitude": "-90.12577857642057"
    }
  },
  {
    "service_request": "2026-1260228",
    "request_type": "Abandoned Vehicles",
    "request_reason": "Abandoned/Junk Vehicles",
    "date_created": "2026-02-23T15:24:22.000",
    "date_modified": "2026-02-23T15:24:23.000",
    "request_status": "Pending",
    "responsible_agency": "Department of Public Works",
    "final_address": "2714 Dryades St",
    "address_councildis": "B",
    "status": "Pending",
    "rowid": "1260228",
    "final_x": "3675496.28347",
    "final_y": "523516.312315",
    "longitude": "-90.087302743938",
    "latitude": "29.933669104638085",
    "geocoded_column": {
      "latitude": "29.933669104638085",
      "longitude": "-90.087302743938"
    }
  },
  {
    "service_request": "2026-1260227",
    "request_type": "Trash/Recycling",
    "request_reason": "Request a Large Item Pick Up",
    "date_created": "2026-02-23T15:24:11.000",
    "date_modified": "2026-02-23T15:24:13.000",
    "request_status": "Pending",
    "responsible_agency": "Department of Sanitation",
    "final_address": "8853 Gervais St",
    "address_councildis": "E",
    "status": "Assigned to Contractor",
    "contractor": "Waste Pro",
    "rowid": "1260227",
    "final_x": "3704815.88561",
    "final_y": "563241.11664",
    "longitude": "-89.99327633286576",
    "latitude": "30.04198828422547",
    "geocoded_column": {
      "latitude": "30.04198828422547",
      "longitude": "-89.99327633286576"
    }
  },
  {
    "service_request": "2026-1260226",
    "request_type": "Trash/Recycling",
    "request_reason": "Illegal Dumping",
    "date_created": "2026-02-23T15:23:13.000",
    "date_modified": "2026-02-23T15:24:39.000",
    "request_status": "Pending",
    "responsible_agency": "Department of Sanitation",
    "final_address": "BOSTON DR & I 10 W SERVICE RD",
    "address_councildis": "E",
    "status": "Pending",
    "rowid": "1260226",
    "final_x": "3706761.2",
    "final_y": "559960.48",
    "longitude": "-89.98725025415393",
    "latitude": "30.032905131376985",
    "geocoded_column": {
      "latitude": "30.032905131376985",
      "longitude": "-89.98725025415393"
    }
  },
  {
    "service_request": "2026-1260225",
    "request_type": "Roads and Streets",
    "request_reason": "Pothole",
    "date_created": "2026-02-23T15:22:29.000",
    "date_modified": "2026-02-23T15:22:31.000",
    "request_status": "Pending",
    "responsible_agency": "Department of Public Works",
    "final_address": "BORDEAUX ST & ST CHARLES AVE",
    "address_councildis": "B",
    "status": "Pending",
    "rowid": "1260225",
    "final_x": "3669391.7",
    "final_y": "520671.58",
    "longitude": "-90.10667080342613",
    "latitude": "29.926028121419574",
    "geocoded_column": {
      "latitude": "29.926028121419574",
      "longitude": "-90.10667080342613"
    }
  },
  {
    "service_request": "2026-1260224",
    "request_type": "Safety & Permits",
    "request_reason": "Zoning Enforcement",
    "date_created": "2026-02-23T15:21:23.000",
    "date_modified": "2026-02-23T15:21:26.000",
    "request_status": "Pending",
    "responsible_agency": "Safety and Permits",
    "final_address": "2500 BLK Onzaga St",
    "address_councildis": "D",
    "status": "Pending",
    "rowid": "1260224",
    "final_x": "3679459.15548",
    "final_y": "540341.353488",
    "longitude": "-90.0742084876686",
    "latitude": "29.979813193950495",
    "geocoded_column": {
      "latitude": "29.979813193950495",
      "longitude": "-90.0742084876686"
    }
  },
  {
    "service_request": "2026-1260223",
    "request_type": "Trash/Recycling",
    "request_reason": "Request a Large Item Pick Up",
    "date_created": "2026-02-23T15:18:01.000",
    "date_modified": "2026-02-23T15:18:03.000",
    "request_status": "Pending",
    "responsible_agency": "Department of Sanitation",
    "final_address": "7935 Jahncke Rd",
    "address_councildis": "E",
    "status": "Assigned to Contractor",
    "contractor": "Waste Pro",
    "rowid": "1260223",
    "final_x": "3713532.49343",
    "final_y": "569319.718502",
    "longitude": "-89.96549952325599",
    "latitude": "30.058418786811792",
    "geocoded_column": {
      "latitude": "30.058418786811792",
      "longitude": "-89.96549952325599"
    }
  },
  {
    "service_request": "2026-1260222",
    "request_type": "Trash/Recycling",
    "request_reason": "Repair Recycling Cart",
    "date_created": "2026-02-23T15:16:01.000",
    "date_modified": "2026-02-23T15:16:02.000",
    "request_status": "Pending",
    "responsible_agency": "Department of Sanitation",
    "final_address": "17 Eugenie Ct",
    "address_councildis": "C",
    "status": "Pending",
    "rowid": "1260222",
    "final_x": "3700174.82909",
    "final_y": "511941.168176",
    "longitude": "-90.00981640463321",
    "latitude": "29.901080424011187",
    "geocoded_column": {
      "latitude": "29.901080424011187",
      "longitude": "-90.00981640463321"
    }
  },
  {
    "service_request": "2026-1260221",
    "request_type": "Trash/Recycling",
    "request_reason": "Request a Large Item Pick Up",
    "date_created": "2026-02-23T15:15:54.000",
    "date_modified": "2026-02-23T15:15:56.000",
    "request_status": "Pending",
    "responsible_agency": "Department of Sanitation",
    "final_address": "7817 Hickory St",
    "address_councildis": "A",
    "status": "Assigned to Contractor",
    "contractor": "IV Waste",
    "rowid": "1260221",
    "final_x": "3664124.03796",
    "final_y": "529307.512641",
    "longitude": "-90.12301139463862",
    "latitude": "29.94992819642213",
    "geocoded_column": {
      "latitude": "29.94992819642213",
      "longitude": "-90.12301139463862"
    }
  },
  {
    "service_request": "2026-1260220",
    "request_type": "Trash/Recycling",
    "request_reason": "Repair Trash Cart",
    "date_created": "2026-02-23T15:15:38.000",
    "date_modified": "2026-02-23T15:15:40.000",
    "request_status": "Pending",
    "responsible_agency": "Department of Sanitation",
    "final_address": "4851 Bundy Rd",
    "address_councildis": "E",
    "status": "Assigned to Contractor",
    "contractor": "Waste Pro",
    "rowid": "1260220",
    "final_x": "3709392.23685",
    "final_y": "556499.27625",
    "longitude": "-89.97906528917103",
    "latitude": "30.023302933821103",
    "geocoded_column": {
      "latitude": "30.023302933821103",
      "longitude": "-89.97906528917103"
    }
  },
  {
    "service_request": "2026-1260219",
    "request_type": "Trash/Recycling",
    "request_reason": "Replace Trash Cart",
    "date_created": "2026-02-23T15:14:18.000",
    "date_modified": "2026-02-23T15:14:19.000",
    "request_status": "Pending",
    "responsible_agency": "Department of Sanitation",
    "final_address": "17 Eugenie Ct",
    "address_councildis": "C",
    "status": "Assigned to Contractor",
    "contractor": "Richards Disposal",
    "rowid": "1260219",
    "final_x": "3700174.82909",
    "final_y": "511941.168176",
    "longitude": "-90.00981640463321",
    "latitude": "29.901080424011187",
    "geocoded_column": {
      "latitude": "29.901080424011187",
      "longitude": "-90.00981640463321"
    }
  },
  {
    "service_request": "2026-1260218",
    "request_type": "Abandoned Vehicles",
    "request_reason": "Abandoned/Junk Vehicles",
    "date_created": "2026-02-23T15:12:07.000",
    "date_modified": "2026-02-23T15:12:09.000",
    "request_status": "Pending",
    "responsible_agency": "Department of Public Works",
    "final_address": "2515 Onzaga St",
    "address_councildis": "D",
    "status": "Pending",
    "rowid": "1260218",
    "final_x": "3679703.06312",
    "final_y": "540199.385483",
    "longitude": "-90.07344305780474",
    "latitude": "29.979415459285985",
    "geocoded_column": {
      "latitude": "29.979415459285985",
      "longitude": "-90.07344305780474"
    }
  },
  {
    "service_request": "2026-1260217",
    "request_type": "Trash/Recycling",
    "request_reason": "Request a Large Item Pick Up",
    "date_created": "2026-02-23T15:12:00.000",
    "date_modified": "2026-02-23T16:10:26.000",
    "request_status": "Pending",
    "responsible_agency": "Department of Sanitation",
    "final_address": "3030 General Ogden St",
    "address_councildis": "A",
    "status": "Assigned to Contractor",
    "contractor": "IV Waste",
    "rowid": "1260217",
    "final_x": "3664341.83117",
    "final_y": "535248.24711",
    "longitude": "-90.12212543983718",
    "latitude": "29.966256951920627",
    "geocoded_column": {
      "latitude": "29.966256951920627",
      "longitude": "-90.12212543983718"
    }
  },
  {
    "service_request": "2026-1260216",
    "request_type": "Trash/Recycling",
    "request_reason": "Request a Large Item Pick Up",
    "date_created": "2026-02-23T15:11:18.000",
    "date_modified": "2026-02-23T15:11:20.000",
    "request_status": "Pending",
    "responsible_agency": "Department of Sanitation",
    "final_address": "7530 Symmes Ave",
    "address_councildis": "E",
    "status": "Assigned to Contractor",
    "contractor": "Waste Pro",
    "rowid": "1260216",
    "final_x": "3707937.65444",
    "final_y": "564372.484129",
    "longitude": "-89.98336832421217",
    "latitude": "30.044998338125065",
    "geocoded_column": {
      "latitude": "30.044998338125065",
      "longitude": "-89.98336832421217"
    }
  },
  {
    "service_request": "2026-1260215",
    "request_type": "Roads and Streets",
    "request_reason": "Sidewalk Damaged or Missing",
    "date_created": "2026-02-23T15:08:20.000",
    "date_modified": "2026-02-23T15:08:21.000",
    "request_status": "Pending",
    "responsible_agency": "Department of Public Works",
    "final_address": "10 Olympic Ct",
    "address_councildis": "C",
    "status": "Pending",
    "rowid": "1260215",
    "final_x": "3700007.67556",
    "final_y": "516377.521653",
    "longitude": "-90.01018225167297",
    "latitude": "29.913284207139174",
    "geocoded_column": {
      "latitude": "29.913284207139174",
      "longitude": "-90.01018225167297"
    }
  },
  {
    "service_request": "2026-1260214",
    "request_type": "Trash/Recycling",
    "request_reason": "Request a Large Item Pick Up",
    "date_created": "2026-02-23T15:05:01.000",
    "date_modified": "2026-02-23T15:05:03.000",
    "request_status": "Pending",
    "responsible_agency": "Department of Sanitation",
    "final_address": "2211 S Claiborne Ave",
    "address_councildis": "B",
    "status": "Assigned to Contractor",
    "contractor": "IV Waste",
    "rowid": "1260214",
    "final_x": "3674335.24744",
    "final_y": "527635.309119",
    "longitude": "-90.09082707655584",
    "latitude": "29.94502966368877",
    "geocoded_column": {
      "latitude": "29.94502966368877",
      "longitude": "-90.09082707655584"
    }
  },
  {
    "service_request": "2026-1260213",
    "request_type": "Trash/Recycling",
    "request_reason": "Repair Recycling Cart",
    "date_created": "2026-02-23T15:04:02.000",
    "date_modified": "2026-02-23T15:14:38.000",
    "request_status": "Pending",
    "responsible_agency": "Department of Sanitation",
    "final_address": "4603 Annunciation St",
    "address_councildis": "B",
    "status": "Pending",
    "rowid": "1260213",
    "final_x": "3670360.73262",
    "final_y": "517711.30591",
    "longitude": "-90.10371212237901",
    "latitude": "29.917859747329697",
    "geocoded_column": {
      "latitude": "29.917859747329697",
      "longitude": "-90.10371212237901"
    }
  },
  {
    "service_request": "2026-1260212",
    "request_type": "Trash/Recycling",
    "request_reason": "Request a Large Item Pick Up",
    "date_created": "2026-02-23T15:02:22.000",
    "date_modified": "2026-02-23T16:09:12.000",
    "request_status": "Pending",
    "responsible_agency": "Department of Sanitation",
    "final_address": "3636 Monroe St",
    "address_councildis": "A",
    "status": "Assigned to Contractor",
    "contractor": "IV Waste",
    "rowid": "1260212",
    "final_x": "3666303.12231",
    "final_y": "536384.515783",
    "longitude": "-90.11589357161647",
    "latitude": "29.969324163095756",
    "geocoded_column": {
      "latitude": "29.969324163095756",
      "longitude": "-90.11589357161647"
    }
  },
  {
    "service_request": "2026-1260211",
    "request_type": "Trash/Recycling",
    "request_reason": "Request a Large Item Pick Up",
    "date_created": "2026-02-23T15:01:48.000",
    "date_modified": "2026-02-23T15:01:50.000",
    "request_status": "Pending",
    "responsible_agency": "Department of Sanitation",
    "final_address": "7731 Pebble Dr",
    "address_councildis": "E",
    "status": "Assigned to Contractor",
    "contractor": "Waste Pro",
    "rowid": "1260211",
    "final_x": "3714857.97272",
    "final_y": "569475.925158",
    "longitude": "-89.96130395104898",
    "latitude": "30.058804717705716",
    "geocoded_column": {
      "latitude": "30.058804717705716",
      "longitude": "-89.96130395104898"
    }
  },
  {
    "service_request": "2026-1260210",
    "request_type": "Trash/Recycling",
    "request_reason": "Order Recycling Cart",
    "date_created": "2026-02-23T14:59:49.000",
    "date_modified": "2026-02-23T14:59:51.000",
    "request_status": "Pending",
    "responsible_agency": "Department of Sanitation",
    "final_address": "3313 St Claude Ave",
    "address_councildis": "C",
    "status": "Pending",
    "rowid": "1260210",
    "final_x": "3689977.76681",
    "final_y": "535864.435911",
    "longitude": "-90.04114597305119",
    "latitude": "29.967181239502885",
    "geocoded_column": {
      "latitude": "29.967181239502885",
      "longitude": "-90.04114597305119"
    }
  },
  {
    "service_request": "2026-1260209",
    "request_type": "Trash/Recycling",
    "request_reason": "Request a Large Item Pick Up",
    "date_created": "2026-02-23T14:57:09.000",
    "date_modified": "2026-02-23T14:57:10.000",
    "request_status": "Pending",
    "responsible_agency": "Department of Sanitation",
    "final_address": "8120 Lomond Rd",
    "address_councildis": "E",
    "status": "Assigned to Contractor",
    "contractor": "Waste Pro",
    "rowid": "1260209",
    "final_x": "3702677.39095",
    "final_y": "561481.336479",
    "longitude": "-90.00009944815555",
    "latitude": "30.037218173111096",
    "geocoded_column": {
      "latitude": "30.037218173111096",
      "longitude": "-90.00009944815555"
    }
  },
  {
    "service_request": "2026-1260208",
    "request_type": "Trash/Recycling",
    "request_reason": "Order Recycling Cart",
    "date_created": "2026-02-23T14:56:12.000",
    "date_modified": "2026-02-23T14:56:13.000",
    "request_status": "Pending",
    "responsible_agency": "Department of Sanitation",
    "final_address": "3938 Magazine St",
    "address_councildis": "B",
    "status": "Pending",
    "rowid": "1260208",
    "final_x": "3672753.08827",
    "final_y": "518910.512631",
    "longitude": "-90.09611988712318",
    "latitude": "29.921086375113134",
    "geocoded_column": {
      "latitude": "29.921086375113134",
      "longitude": "-90.09611988712318"
    }
  },
  {
    "service_request": "2026-1260207",
    "request_type": "Streetlights",
    "request_reason": "Streetlight Outage/Malfunction",
    "date_created": "2026-02-23T14:54:22.000",
    "date_modified": "2026-02-23T14:54:24.000",
    "request_status": "Pending",
    "responsible_agency": "Department of Public Works",
    "final_address": "2917 Bell St",
    "address_councildis": "A",
    "status": "Pending",
    "rowid": "1260207",
    "final_x": "3676848.82049",
    "final_y": "539287.253962",
    "longitude": "-90.08248934416054",
    "latitude": "29.97699339616135",
    "geocoded_column": {
      "latitude": "29.97699339616135",
      "longitude": "-90.08248934416054"
    }
  },
  {
    "service_request": "2026-1260206",
    "request_type": "Trash/Recycling",
    "request_reason": "Request a Large Item Pick Up",
    "date_created": "2026-02-23T14:52:34.000",
    "date_modified": "2026-02-23T14:52:37.000",
    "request_status": "Pending",
    "responsible_agency": "Department of Sanitation",
    "final_address": "6000 Elysian Fields Ave",
    "address_councildis": "D",
    "status": "Assigned to Contractor",
    "contractor": "IV Waste",
    "rowid": "1260206",
    "final_x": "3683342.35292",
    "final_y": "554958.288088",
    "longitude": "-90.06143132289029",
    "latitude": "30.019886621914463",
    "geocoded_column": {
      "latitude": "30.019886621914463",
      "longitude": "-90.06143132289029"
    }
  },
  {
    "service_request": "2026-1260205",
    "request_type": "Abandoned Vehicles",
    "request_reason": "Abandoned/Junk Vehicles",
    "date_created": "2026-02-23T14:43:54.000",
    "date_modified": "2026-02-23T14:43:56.000",
    "request_status": "Pending",
    "responsible_agency": "Department of Public Works",
    "final_address": "S LOPEZ ST & EVE ST",
    "address_councildis": "B",
    "status": "Pending",
    "rowid": "1260205",
    "final_x": "3670136.9",
    "final_y": "530873.68",
    "longitude": "-90.10397289352866",
    "latitude": "29.95405863490161",
    "geocoded_column": {
      "latitude": "29.95405863490161",
      "longitude": "-90.10397289352866"
    }
  },
  {
    "service_request": "2026-1260204",
    "request_type": "Trash/Recycling",
    "request_reason": "Request a Large Item Pick Up",
    "date_created": "2026-02-23T14:43:53.000",
    "date_modified": "2026-02-23T14:43:55.000",
    "request_status": "Pending",
    "responsible_agency": "Department of Sanitation",
    "final_address": "7551 Lafourche St",
    "address_councildis": "E",
    "status": "Assigned to Contractor",
    "contractor": "Waste Pro",
    "rowid": "1260204",
    "final_x": "3710508.43544",
    "final_y": "565151.194082",
    "longitude": "-89.9752143464889",
    "latitude": "30.047055947511968",
    "geocoded_column": {
      "latitude": "30.047055947511968",
      "longitude": "-89.9752143464889"
    }
  },
  {
    "service_request": "2026-1260203",
    "request_type": "Roads and Streets",
    "request_reason": "Debris in Driving Lanes",
    "date_created": "2026-02-23T14:39:22.000",
    "date_modified": "2026-02-23T14:39:24.000",
    "request_status": "Pending",
    "responsible_agency": "Department of Public Works",
    "final_address": "7537 Stonewood St",
    "address_councildis": "E",
    "status": "Pending",
    "rowid": "1260203",
    "final_x": "3719963.01132",
    "final_y": "572267.190889",
    "longitude": "-89.94506068614595",
    "latitude": "30.0663104640921",
    "geocoded_column": {
      "latitude": "30.0663104640921",
      "longitude": "-89.94506068614595"
    }
  },
  {
    "service_request": "2026-1260202",
    "request_type": "Trash/Recycling",
    "request_reason": "Request a Large Item Pick Up",
    "date_created": "2026-02-23T14:38:49.000",
    "date_modified": "2026-02-23T16:08:41.000",
    "request_status": "Pending",
    "responsible_agency": "Department of Sanitation",
    "final_address": "8319 Belfast St",
    "address_councildis": "A",
    "status": "Assigned to Contractor",
    "contractor": "IV Waste",
    "rowid": "1260202",
    "final_x": "3664963.36039",
    "final_y": "532995.460036",
    "longitude": "-90.1202379727792",
    "latitude": "29.960044447935914",
    "geocoded_column": {
      "latitude": "29.960044447935914",
      "longitude": "-90.1202379727792"
    }
  },
  {
    "service_request": "2026-1260201",
    "request_type": "Trash/Recycling",
    "request_reason": "Order Recycling Cart",
    "date_created": "2026-02-23T14:36:36.000",
    "date_modified": "2026-02-23T14:36:39.000",
    "request_status": "Pending",
    "responsible_agency": "Department of Sanitation",
    "final_address": "502 N Solomon St",
    "address_councildis": "A",
    "status": "Pending",
    "rowid": "1260201",
    "final_x": "3671579.66772",
    "final_y": "539896.818058",
    "longitude": "-90.09911031720584",
    "latitude": "29.97882659876444",
    "geocoded_column": {
      "latitude": "29.97882659876444",
      "longitude": "-90.09911031720584"
    }
  },
  {
    "service_request": "2026-1260200",
    "request_type": "Abandoned Vehicles",
    "request_reason": "Abandoned/Junk Vehicles",
    "date_created": "2026-02-23T14:35:24.000",
    "date_modified": "2026-02-23T14:35:26.000",
    "request_status": "Pending",
    "responsible_agency": "Department of Public Works",
    "final_address": "3000 Block of Urquhart St, New Orleans, Louisiana, 70117",
    "status": "Pending",
    "rowid": "1260200",
    "longitude": "0.0",
    "latitude": "0.0",
    "geocoded_column": {
      "latitude": "0.0",
      "longitude": "0.0"
    }
  },
  {
    "service_request": "2026-1260199",
    "request_type": "Abandoned Vehicles",
    "request_reason": "Abandoned/Junk Vehicles",
    "date_created": "2026-02-23T14:33:27.000",
    "date_modified": "2026-02-23T14:33:28.000",
    "request_status": "Pending",
    "responsible_agency": "Department of Public Works",
    "final_address": "502 N Solomon St",
    "address_councildis": "A",
    "status": "Pending",
    "rowid": "1260199",
    "final_x": "3671579.66772",
    "final_y": "539896.818058",
    "longitude": "-90.09911031720584",
    "latitude": "29.97882659876444",
    "geocoded_column": {
      "latitude": "29.97882659876444",
      "longitude": "-90.09911031720584"
    }
  },
  {
    "service_request": "2026-1260198",
    "request_type": "Parks & Parkways",
    "request_reason": "Request Tree Service (Right of Way/Public Property)",
    "date_created": "2026-02-23T14:32:31.000",
    "date_modified": "2026-02-23T14:32:33.000",
    "request_status": "Pending",
    "responsible_agency": "Department of Parks & Parkway",
    "final_address": "4444 Dodt Ave",
    "address_councildis": "E",
    "status": "Pending",
    "rowid": "1260198",
    "final_x": "3705551.04625",
    "final_y": "553695.131799",
    "longitude": "-89.99130630817118",
    "latitude": "30.01571689027482",
    "geocoded_column": {
      "latitude": "30.01571689027482",
      "longitude": "-89.99130630817118"
    }
  },
  {
    "service_request": "2026-1260197",
    "request_type": "Streetlights",
    "request_reason": "Streetlight Outage/Malfunction",
    "date_created": "2026-02-23T14:31:27.000",
    "date_modified": "2026-02-23T14:31:31.000",
    "request_status": "Pending",
    "responsible_agency": "Department of Public Works",
    "final_address": "818 Ursulines Ave",
    "address_councildis": "C",
    "status": "Pending",
    "rowid": "1260197",
    "final_x": "3683003.83343",
    "final_y": "533933.123845",
    "longitude": "-90.06323730196664",
    "latitude": "29.96208520338457",
    "geocoded_column": {
      "latitude": "29.96208520338457",
      "longitude": "-90.06323730196664"
    }
  },
  {
    "service_request": "2026-1260196",
    "request_type": "Trash/Recycling",
    "request_reason": "MIssed Recycling Pick-Up",
    "date_created": "2026-02-23T14:31:26.000",
    "date_modified": "2026-02-23T14:31:30.000",
    "request_status": "Pending",
    "responsible_agency": "Department of Sanitation",
    "final_address": "6415 N Robertson St",
    "address_councildis": "E",
    "status": "Assigned to Contractor",
    "contractor": "Waste Pro",
    "rowid": "1260196",
    "final_x": "3701144.15498",
    "final_y": "534311.479365",
    "longitude": "-90.00593946379801",
    "latitude": "29.962560190903687",
    "geocoded_column": {
      "latitude": "29.962560190903687",
      "longitude": "-90.00593946379801"
    }
  },
  {
    "service_request": "2026-1260195",
    "request_type": "Trash/Recycling",
    "request_reason": "Repair Trash Cart",
    "date_created": "2026-02-23T14:29:48.000",
    "date_modified": "2026-02-23T14:29:50.000",
    "request_status": "Pending",
    "responsible_agency": "Department of Sanitation",
    "final_address": "2437 Bristol Pl",
    "address_councildis": "C",
    "status": "Assigned to Contractor",
    "contractor": "Richards Disposal",
    "rowid": "1260195",
    "final_x": "3702584.84561",
    "final_y": "522012.564538",
    "longitude": "-90.00184130094007",
    "latitude": "29.928696553193703",
    "geocoded_column": {
      "latitude": "29.928696553193703",
      "longitude": "-90.00184130094007"
    }
  },
  {
    "service_request": "2026-1260194",
    "request_type": "Trash/Recycling",
    "request_reason": "Request a Large Item Pick Up",
    "date_created": "2026-02-23T14:28:06.000",
    "date_modified": "2026-02-23T14:28:07.000",
    "request_status": "Pending",
    "responsible_agency": "Department of Sanitation",
    "final_address": "7729 Shelly St",
    "address_councildis": "E",
    "status": "Assigned to Contractor",
    "contractor": "Waste Pro",
    "rowid": "1260194",
    "final_x": "3695936.94627",
    "final_y": "559324.056861",
    "longitude": "-90.02147873128754",
    "latitude": "30.031500407712254",
    "geocoded_column": {
      "latitude": "30.031500407712254",
      "longitude": "-90.02147873128754"
    }
  },
  {
    "service_request": "2026-1260193",
    "request_type": "Streetlights",
    "request_reason": "Streetlight Outage/Malfunction",
    "date_created": "2026-02-23T14:27:51.000",
    "date_modified": "2026-02-23T14:27:53.000",
    "request_status": "Pending",
    "responsible_agency": "Department of Public Works",
    "final_address": "1480 Foy St Apt 2511",
    "address_councildis": "D",
    "status": "Pending",
    "rowid": "1260193",
    "final_x": "3678710.00334",
    "final_y": "546488.539601",
    "longitude": "-90.07636163362406",
    "latitude": "29.996738419943718",
    "geocoded_column": {
      "latitude": "29.996738419943718",
      "longitude": "-90.07636163362406"
    }
  },
  {
    "service_request": "2026-1260192",
    "request_type": "Trash/Recycling",
    "request_reason": "Replace Trash Cart",
    "date_created": "2026-02-23T14:25:08.000",
    "date_modified": "2026-02-23T14:25:10.000",
    "request_status": "Pending",
    "responsible_agency": "Department of Sanitation",
    "final_address": "2620 Bienville Ave",
    "address_councildis": "B",
    "status": "Assigned to Contractor",
    "contractor": "IV Waste",
    "rowid": "1260192",
    "final_x": "3676074.47099",
    "final_y": "535454.121542",
    "longitude": "-90.08506687456925",
    "latitude": "29.966476809161982",
    "geocoded_column": {
      "latitude": "29.966476809161982",
      "longitude": "-90.08506687456925"
    }
  },
  {
    "service_request": "2026-1260191",
    "request_type": "Abandoned Vehicles",
    "request_reason": "Abandoned/Junk Vehicles",
    "date_created": "2026-02-23T14:24:30.000",
    "date_modified": "2026-02-23T14:24:33.000",
    "request_status": "Pending",
    "responsible_agency": "Department of Public Works",
    "final_address": "2700 BLK Dante St",
    "address_councildis": "A",
    "status": "Pending",
    "rowid": "1260191",
    "final_x": "3665173.82349",
    "final_y": "532978.823266",
    "longitude": "-90.11957392952574",
    "latitude": "29.959992573888943",
    "geocoded_column": {
      "latitude": "29.959992573888943",
      "longitude": "-90.11957392952574"
    }
  },
  {
    "service_request": "2026-1260190",
    "request_type": "Trash/Recycling",
    "request_reason": "Missed Trash Pick-Up",
    "date_created": "2026-02-23T14:15:01.000",
    "date_modified": "2026-02-23T14:25:18.000",
    "case_close_date": "2026-02-23T08:25:18.000",
    "request_status": "Closed",
    "responsible_agency": "Department of Sanitation",
    "final_address": "1726 St Ann St",
    "address_councildis": "D",
    "status": "Invalid Request",
    "contractor": "IV Waste",
    "contractor_action": "Invalid Request",
    "rowid": "1260190",
    "final_x": "3679719.4013",
    "final_y": "535025.071686",
    "longitude": "-90.07357112879214",
    "latitude": "29.965187383171163",
    "geocoded_column": {
      "latitude": "29.965187383171163",
      "longitude": "-90.07357112879214"
    }
  },
  {
    "service_request": "2026-1260189",
    "request_type": "Trash/Recycling",
    "request_reason": "Request a Large Item Pick Up",
    "date_created": "2026-02-23T14:13:45.000",
    "date_modified": "2026-02-23T14:13:47.000",
    "request_status": "Pending",
    "responsible_agency": "Department of Sanitation",
    "final_address": "10220 Brookfield Dr",
    "address_councildis": "E",
    "status": "Assigned to Contractor",
    "contractor": "Waste Pro",
    "rowid": "1260189",
    "final_x": "3710276.59096",
    "final_y": "562967.53456",
    "longitude": "-89.97602884490662",
    "latitude": "30.041059313955582",
    "geocoded_column": {
      "latitude": "30.041059313955582",
      "longitude": "-89.97602884490662"
    }
  },
  {
    "service_request": "2026-1260188",
    "request_type": "Trash/Recycling",
    "request_reason": "Request a Large Item Pick Up",
    "date_created": "2026-02-23T14:12:43.000",
    "date_modified": "2026-02-23T14:12:45.000",
    "request_status": "Pending",
    "responsible_agency": "Department of Sanitation",
    "final_address": "617 S Scott St",
    "address_councildis": "B",
    "status": "Assigned to Contractor",
    "contractor": "IV Waste",
    "rowid": "1260188",
    "final_x": "3670435.98977",
    "final_y": "536126.360135",
    "longitude": "-90.10285037653694",
    "latitude": "29.968492933611227",
    "geocoded_column": {
      "latitude": "29.968492933611227",
      "longitude": "-90.10285037653694"
    }
  },
  {
    "service_request": "2026-1260187",
    "request_type": "Trash/Recycling",
    "request_reason": "Replace Trash Cart",
    "date_created": "2026-02-23T14:12:16.000",
    "date_modified": "2026-02-23T14:12:18.000",
    "request_status": "Pending",
    "responsible_agency": "Department of Sanitation",
    "final_address": "702 N Carrollton Ave",
    "address_councildis": "A",
    "status": "Assigned to Contractor",
    "contractor": "IV Waste",
    "rowid": "1260187",
    "final_x": "3672689.67707",
    "final_y": "539924.332554",
    "longitude": "-90.0956035422111",
    "latitude": "29.978869331898792",
    "geocoded_column": {
      "latitude": "29.978869331898792",
      "longitude": "-90.0956035422111"
    }
  },
  {
    "service_request": "2026-1260186",
    "request_type": "Streetlights",
    "request_reason": "New Streetlight Request",
    "date_created": "2026-02-23T14:11:40.000",
    "date_modified": "2026-02-23T14:11:42.000",
    "request_status": "Pending",
    "responsible_agency": "Department of Public Works",
    "final_address": "5043 Debore Cir",
    "address_councildis": "D",
    "status": "Pending",
    "rowid": "1260186",
    "final_x": "3692274.7272",
    "final_y": "553066.930711",
    "longitude": "-90.0332758077426",
    "latitude": "30.014410442013997",
    "geocoded_column": {
      "latitude": "30.014410442013997",
      "longitude": "-90.0332758077426"
    }
  },
  {
    "service_request": "2026-1260185",
    "request_type": "Safety & Permits",
    "request_reason": "Zoning Enforcement",
    "date_created": "2026-02-23T14:09:24.000",
    "date_modified": "2026-02-23T14:09:27.000",
    "request_status": "Pending",
    "responsible_agency": "Safety and Permits",
    "final_address": "S NORMAN C FRANCIS PKWY & GRAVIER ST",
    "address_councildis": "B",
    "status": "Pending",
    "rowid": "1260185",
    "final_x": "3671663.7",
    "final_y": "534538.28",
    "longitude": "-90.09902722046705",
    "latitude": "29.964089936811025",
    "geocoded_column": {
      "latitude": "29.964089936811025",
      "longitude": "-90.09902722046705"
    }
  },
  {
    "service_request": "2026-1260184",
    "request_type": "Trash/Recycling",
    "request_reason": "Request a Large Item Pick Up",
    "date_created": "2026-02-23T14:07:52.000",
    "date_modified": "2026-02-23T14:07:54.000",
    "request_status": "Pending",
    "responsible_agency": "Department of Sanitation",
    "final_address": "7519 Scottwood Dr",
    "address_councildis": "E",
    "status": "Assigned to Contractor",
    "contractor": "Waste Pro",
    "rowid": "1260184",
    "final_x": "3717730.70361",
    "final_y": "570262.493863",
    "longitude": "-89.95219364414879",
    "latitude": "30.060872560695774",
    "geocoded_column": {
      "latitude": "30.060872560695774",
      "longitude": "-89.95219364414879"
    }
  },
  {
    "service_request": "2026-1260183",
    "request_type": "Trash/Recycling",
    "request_reason": "Request a Large Item Pick Up",
    "date_created": "2026-02-23T14:07:15.000",
    "date_modified": "2026-02-23T14:07:18.000",
    "request_status": "Pending",
    "responsible_agency": "Department of Sanitation",
    "final_address": "1115 Numa St",
    "address_councildis": "C",
    "status": "Assigned to Contractor",
    "contractor": "Richards Disposal",
    "rowid": "1260183",
    "final_x": "3691776.7775",
    "final_y": "527226.348415",
    "longitude": "-90.03577361287799",
    "latitude": "29.943373595394366",
    "geocoded_column": {
      "latitude": "29.943373595394366",
      "longitude": "-90.03577361287799"
    }
  },
  {
    "service_request": "2026-1260182",
    "request_type": "Abandoned Vehicles",
    "request_reason": "Abandoned/Junk Vehicles",
    "date_created": "2026-02-23T14:06:52.000",
    "date_modified": "2026-02-23T14:06:55.000",
    "request_status": "Pending",
    "responsible_agency": "Department of Public Works",
    "final_address": "2843 Boyd St",
    "address_councildis": "C",
    "status": "Pending",
    "rowid": "1260182",
    "final_x": "3708096.74814",
    "final_y": "519744.977208",
    "longitude": "-89.98452579001307",
    "latitude": "29.92228421826589",
    "geocoded_column": {
      "latitude": "29.92228421826589",
      "longitude": "-89.98452579001307"
    }
  },
  {
    "service_request": "2026-1260179",
    "request_type": "Trash/Recycling",
    "request_reason": "Order Trash Cart",
    "date_created": "2026-02-23T14:04:16.000",
    "date_modified": "2026-02-23T14:04:18.000",
    "request_status": "Pending",
    "responsible_agency": "Department of Sanitation",
    "final_address": "1442 Tennessee St",
    "address_councildis": "E",
    "status": "Assigned to Contractor",
    "contractor": "Waste Pro",
    "rowid": "1260179",
    "final_x": "3696044.37616",
    "final_y": "535770.446983",
    "longitude": "-90.02199105843431",
    "latitude": "29.966733292980955",
    "geocoded_column": {
      "latitude": "29.966733292980955",
      "longitude": "-90.02199105843431"
    }
  },
  {
    "service_request": "2026-1260178",
    "request_type": "New Orleans Recreation Development Commission (NORDC)",
    "request_reason": "Facilities and Parks Maintenance/Clean Up",
    "date_created": "2026-02-23T14:04:04.000",
    "date_modified": "2026-02-23T14:04:06.000",
    "request_status": "Pending",
    "responsible_agency": "New Orleans Recreation Development Commission",
    "final_address": "2000 Philip St",
    "address_councildis": "B",
    "status": "Pending",
    "rowid": "1260178",
    "final_x": "3676304.89902",
    "final_y": "524556.311484",
    "longitude": "-90.08471420609314",
    "latitude": "29.936504558990464",
    "geocoded_column": {
      "latitude": "29.936504558990464",
      "longitude": "-90.08471420609314"
    }
  },
  {
    "service_request": "2026-1260177",
    "request_type": "Trash/Recycling",
    "request_reason": "Request a Large Item Pick Up",
    "date_created": "2026-02-23T14:02:19.000",
    "date_modified": "2026-02-23T14:02:24.000",
    "request_status": "Pending",
    "responsible_agency": "Department of Sanitation",
    "final_address": "8600 BLK Lake Forest Blvd",
    "address_councildis": "E",
    "status": "Assigned to Contractor",
    "contractor": "Waste Pro",
    "rowid": "1260177",
    "final_x": "3706176.47967",
    "final_y": "558201.78135",
    "longitude": "-89.98916320393113",
    "latitude": "30.028088272944885",
    "geocoded_column": {
      "latitude": "30.028088272944885",
      "longitude": "-89.98916320393113"
    }
  },
  {
    "service_request": "2026-1260176",
    "request_type": "Abandoned Vehicles",
    "request_reason": "Abandoned/Junk Vehicles",
    "date_created": "2026-02-23T14:02:00.000",
    "date_modified": "2026-02-23T14:02:06.000",
    "request_status": "Pending",
    "responsible_agency": "Department of Public Works",
    "final_address": "2400 BLK N Galvez St",
    "address_councildis": "D",
    "status": "Pending",
    "rowid": "1260176",
    "final_x": "3686393.53827",
    "final_y": "540121.800778",
    "longitude": "-90.05231466739704",
    "latitude": "29.978998156868734",
    "geocoded_column": {
      "latitude": "29.978998156868734",
      "longitude": "-90.05231466739704"
    }
  },
  {
    "service_request": "2026-1260175",
    "request_type": "Parks & Parkways",
    "request_reason": "Park Maintenance/Clean Up",
    "date_created": "2026-02-23T14:01:12.000",
    "date_modified": "2026-02-23T15:01:04.000",
    "request_status": "Pending",
    "responsible_agency": "New Orleans Recreation Development Commission",
    "final_address": "2000 BLK Philip St",
    "address_councildis": "B",
    "status": "Pending",
    "rowid": "1260175",
    "final_x": "3676254.42633",
    "final_y": "524682.938283",
    "longitude": "-90.0848691947947",
    "latitude": "29.936854253418108",
    "geocoded_column": {
      "latitude": "29.936854253418108",
      "longitude": "-90.0848691947947"
    }
  },
  {
    "service_request": "2026-1260174",
    "request_type": "Streetlights",
    "request_reason": "Streetlight Outage/Malfunction",
    "date_created": "2026-02-23T13:58:07.000",
    "date_modified": "2026-02-23T13:58:10.000",
    "request_status": "Pending",
    "responsible_agency": "Department of Public Works",
    "final_address": "26 Charlotte Dr",
    "address_councildis": "D",
    "status": "Pending",
    "rowid": "1260174",
    "final_x": "3680056.23707",
    "final_y": "551826.194582",
    "longitude": "-90.07192333595943",
    "latitude": "30.011374387576762",
    "geocoded_column": {
      "latitude": "30.011374387576762",
      "longitude": "-90.07192333595943"
    }
  },
  {
    "service_request": "2026-1260173",
    "request_type": "Trash/Recycling",
    "request_reason": "Repair Recycling Cart",
    "date_created": "2026-02-23T13:52:57.000",
    "date_modified": "2026-02-23T13:52:58.000",
    "request_status": "Pending",
    "responsible_agency": "Department of Sanitation",
    "final_address": "5741 Waterford Blvd",
    "address_councildis": "E",
    "status": "Pending",
    "rowid": "1260173",
    "final_x": "3714096.56229",
    "final_y": "560930.37667",
    "longitude": "-89.96403346983818",
    "latitude": "30.035332976841016",
    "geocoded_column": {
      "latitude": "30.035332976841016",
      "longitude": "-89.96403346983818"
    }
  },
  {
    "service_request": "2026-1260172",
    "request_type": "Trash/Recycling",
    "request_reason": "Request a Large Item Pick Up",
    "date_created": "2026-02-23T13:51:14.000",
    "date_modified": "2026-02-23T13:51:15.000",
    "request_status": "Pending",
    "responsible_agency": "Department of Sanitation",
    "final_address": "911 Race St",
    "address_councildis": "B",
    "status": "Assigned to Contractor",
    "contractor": "IV Waste",
    "rowid": "1260172",
    "final_x": "3680883.94293",
    "final_y": "523720.705403",
    "longitude": "-90.0702870714362",
    "latitude": "29.934068922331125",
    "geocoded_column": {
      "latitude": "29.934068922331125",
      "longitude": "-90.0702870714362"
    }
  },
  {
    "service_request": "2026-1260171",
    "request_type": "Trash/Recycling",
    "request_reason": "Request a Large Item Pick Up",
    "date_created": "2026-02-23T13:49:28.000",
    "date_modified": "2026-02-23T13:49:29.000",
    "request_status": "Pending",
    "responsible_agency": "Department of Sanitation",
    "final_address": "4742 Lurline St",
    "address_councildis": "E",
    "status": "Assigned to Contractor",
    "contractor": "Waste Pro",
    "rowid": "1260171",
    "final_x": "3711897.67557",
    "final_y": "556116.596122",
    "longitude": "-89.97116309314504",
    "latitude": "30.02216905467571",
    "geocoded_column": {
      "latitude": "30.02216905467571",
      "longitude": "-89.97116309314504"
    }
  },
  {
    "service_request": "2026-1260170",
    "request_type": "Trash/Recycling",
    "request_reason": "Request a Large Item Pick Up",
    "date_created": "2026-02-23T13:49:07.000",
    "date_modified": "2026-02-23T16:07:39.000",
    "request_status": "Pending",
    "responsible_agency": "Department of Sanitation",
    "final_address": "81 Allard Blvd",
    "address_councildis": "A",
    "status": "Assigned to Contractor",
    "contractor": "IV Waste",
    "rowid": "1260170",
    "final_x": "3672756.03553",
    "final_y": "540322.265867",
    "longitude": "-90.09538037799916",
    "latitude": "29.979961541595568",
    "geocoded_column": {
      "latitude": "29.979961541595568",
      "longitude": "-90.09538037799916"
    }
  },
  {
    "service_request": "2026-1260169",
    "request_type": "Healthy Homes",
    "request_reason": "Healthy Homes",
    "date_created": "2026-02-23T13:47:58.000",
    "date_modified": "2026-02-23T14:02:52.000",
    "case_close_date": "2026-02-23T08:02:47.000",
    "request_status": "Closed",
    "responsible_agency": "Department of Code Enforcement",
    "final_address": "343 S Norman C Francis Prkwy",
    "address_councildis": "B",
    "status": "Referred to Code Enforcement",
    "rowid": "1260169",
    "final_x": "3672395.98094",
    "final_y": "535903.909319",
    "longitude": "-90.09666819336914",
    "latitude": "29.96782324900864",
    "geocoded_column": {
      "latitude": "29.96782324900864",
      "longitude": "-90.09666819336914"
    }
  },
  {
    "service_request": "2026-1260168",
    "request_type": "Trash/Recycling",
    "request_reason": "Request a Large Item Pick Up",
    "date_created": "2026-02-23T13:47:45.000",
    "date_modified": "2026-02-23T13:47:47.000",
    "request_status": "Pending",
    "responsible_agency": "Department of Sanitation",
    "final_address": "2508 Acacia St",
    "address_councildis": "D",
    "status": "Assigned to Contractor",
    "contractor": "IV Waste",
    "rowid": "1260168",
    "final_x": "3686498.04956",
    "final_y": "546254.396432",
    "longitude": "-90.05176794793155",
    "latitude": "29.995857398778096",
    "geocoded_column": {
      "latitude": "29.995857398778096",
      "longitude": "-90.05176794793155"
    }
  },
  {
    "service_request": "2026-1260167",
    "request_type": "Trash/Recycling",
    "request_reason": "Request a Large Item Pick Up",
    "date_created": "2026-02-23T13:47:26.000",
    "date_modified": "2026-02-23T13:47:29.000",
    "request_status": "Pending",
    "responsible_agency": "Department of Sanitation",
    "final_address": "1727 Bordeaux St",
    "address_councildis": "B",
    "status": "Assigned to Contractor",
    "contractor": "IV Waste",
    "rowid": "1260167",
    "final_x": "3669423.18746",
    "final_y": "521314.262521",
    "longitude": "-90.10654968566124",
    "latitude": "29.92779436673298",
    "geocoded_column": {
      "latitude": "29.92779436673298",
      "longitude": "-90.10654968566124"
    }
  },
  {
    "service_request": "2026-1260166",
    "request_type": "Trash/Recycling",
    "request_reason": "Request a Large Item Pick Up",
    "date_created": "2026-02-23T13:45:54.000",
    "date_modified": "2026-02-23T13:45:57.000",
    "request_status": "Pending",
    "responsible_agency": "Department of Sanitation",
    "final_address": "5455 Marais St",
    "address_councildis": "E",
    "status": "Assigned to Contractor",
    "contractor": "Waste Pro",
    "rowid": "1260166",
    "final_x": "3697698.52963",
    "final_y": "534251.010373",
    "longitude": "-90.01682240979383",
    "latitude": "29.962503227215628",
    "geocoded_column": {
      "latitude": "29.962503227215628",
      "longitude": "-90.01682240979383"
    }
  },
  {
    "service_request": "2026-1260165",
    "request_type": "Trash/Recycling",
    "request_reason": "Replace Trash Cart",
    "date_created": "2026-02-23T13:37:04.000",
    "date_modified": "2026-02-23T13:37:06.000",
    "request_status": "Pending",
    "responsible_agency": "Department of Sanitation",
    "final_address": "1019 Treme St",
    "address_councildis": "C",
    "status": "Assigned to Contractor",
    "contractor": "IV Waste",
    "rowid": "1260165",
    "final_x": "3681556.34024",
    "final_y": "534842.32199",
    "longitude": "-90.06777655196768",
    "latitude": "29.964629224980087",
    "geocoded_column": {
      "latitude": "29.964629224980087",
      "longitude": "-90.06777655196768"
    }
  },
  {
    "service_request": "2026-1260164",
    "request_type": "Abandoned Vehicles",
    "request_reason": "Abandoned/Junk Vehicles",
    "date_created": "2026-02-23T13:35:24.000",
    "date_modified": "2026-02-23T13:35:25.000",
    "request_status": "Pending",
    "responsible_agency": "Department of Public Works",
    "final_address": "4301 Dauphine St",
    "address_councildis": "C",
    "status": "Pending",
    "rowid": "1260164",
    "final_x": "3692458.11145",
    "final_y": "533958.732421",
    "longitude": "-90.03338132904442",
    "latitude": "29.961864080782767",
    "geocoded_column": {
      "latitude": "29.961864080782767",
      "longitude": "-90.03338132904442"
    }
  },