[
  {
    "service_request": "2026-1283150",
    "request_type": "Trash/Recycling",
    "request_reason": "Request a Large Item Pick Up",
    "date_created": "2026-05-20T22:48:00.000",
    "date_modified": "2026-05-20T22:48:02.000",
    "request_status": "Pending",
    "responsible_agency": "Department of Sanitation",
    "final_address": "2714 Palmer Ave",
    "address_councildis": "A",
    "status": "Assigned to Contractor",
    "contractor": "IV Waste",
    "rowid": "1283150",
    "final_x": "3666711.39905",
    "final_y": "526656.182462",
    "longitude": "-90.11493088157681",
    "latitude": "29.942562494858546",
    "geocoded_column": {
      "latitude": "29.942562494858546",
      "longitude": "-90.11493088157681"
    }
  },
  {
    "service_request": "2026-1283149",
    "request_type": "Health Related Request",
    "request_reason": "Noise Ordinance Complaint",
    "date_created": "2026-05-20T22:27:04.000",
    "date_modified": "2026-05-20T22:27:06.000",
    "request_status": "Pending",
    "responsible_agency": "Health Department",
    "final_address": "800 Bourbon St, New Orleans, Louisiana, 70116",
    "address_councildis": "C",
    "status": "Pending",
    "rowid": "1283149",
    "final_x": "3682553.51528",
    "final_y": "533013.631428",
    "longitude": "-90.06469148499534",
    "latitude": "29.95957063099051",
    "geocoded_column": {
      "latitude": "29.95957063099051",
      "longitude": "-90.06469148499534"
    }
  },
  {
    "service_request": "2026-1283148",
    "request_type": "Trash/Recycling",
    "request_reason": "Request a Large Item Pick Up",
    "date_created": "2026-05-20T22:25:51.000",
    "date_modified": "2026-05-20T22:25:56.000",
    "request_status": "Pending",
    "responsible_agency": "Department of Sanitation",
    "final_address": "1369 Annette St",
    "address_councildis": "C",
    "status": "Assigned to Contractor",
    "contractor": "IV Waste",
    "rowid": "1283148",
    "final_x": "3683099.44444",
    "final_y": "537097.662728",
    "longitude": "-90.06282457334996",
    "latitude": "29.97078368018883",
    "geocoded_column": {
      "latitude": "29.97078368018883",
      "longitude": "-90.06282457334996"
    }
  },
  {
    "service_request": "2026-1283147",
    "request_type": "Trash/Recycling",
    "request_reason": "Replace Recycling Cart",
    "date_created": "2026-05-20T21:38:46.000",
    "date_modified": "2026-05-20T21:38:48.000",
    "request_status": "Pending",
    "responsible_agency": "Department of Sanitation",
    "final_address": "506 Cherokee St",
    "address_councildis": "A",
    "status": "Pending",
    "rowid": "1283147",
    "final_x": "3661911.13267",
    "final_y": "525207.355517",
    "longitude": "-90.13013454047525",
    "latitude": "29.938718158011792",
    "geocoded_column": {
      "latitude": "29.938718158011792",
      "longitude": "-90.13013454047525"
    }
  },
  {
    "service_request": "2026-1283146",
    "request_type": "Safety & Permits",
    "request_reason": "Licenses & Permits",
    "date_created": "2026-05-20T21:13:03.000",
    "date_modified": "2026-05-20T21:13:04.000",
    "request_status": "Pending",
    "responsible_agency": "Safety and Permits",
    "final_address": "2600 Dumaine St",
    "address_councildis": "C",
    "status": "Pending",
    "rowid": "1283146",
    "final_x": "3677544.14728",
    "final_y": "537188.65172",
    "longitude": "-90.08036575566297",
    "latitude": "29.971202070477236",
    "geocoded_column": {
      "latitude": "29.971202070477236",
      "longitude": "-90.08036575566297"
    }
  },
  {
    "service_request": "2026-1283145",
    "request_type": "Parks & Grass Service",
    "request_reason": "Park Maintenance/Clean Up",
    "date_created": "2026-05-20T21:10:40.000",
    "date_modified": "2026-05-20T21:10:42.000",
    "request_status": "Pending",
    "responsible_agency": "Department of Parks & Parkways",
    "final_address": "1200 BLK Saint Philip St",
    "address_councildis": "C",
    "status": "Pending",
    "rowid": "1283145",
    "final_x": "3681608.30013",
    "final_y": "534588.225231",
    "longitude": "-90.06762133008787",
    "latitude": "29.963928967845668",
    "geocoded_column": {
      "latitude": "29.963928967845668",
      "longitude": "-90.06762133008787"
    }
  },
  {
    "service_request": "2026-1283144",
    "request_type": "Graffiti Removal",
    "request_reason": "Graffiti Removal",
    "date_created": "2026-05-20T21:05:46.000",
    "date_modified": "2026-05-20T21:05:51.000",
    "request_status": "Pending",
    "responsible_agency": "Department of Code Enforcement",
    "final_address": "1200 BLK Saint Philip St",
    "address_councildis": "C",
    "status": "Pending",
    "rowid": "1283144",
    "final_x": "3681608.30013",
    "final_y": "534588.225231",
    "longitude": "-90.06762133008787",
    "latitude": "29.963928967845668",
    "geocoded_column": {
      "latitude": "29.963928967845668",
      "longitude": "-90.06762133008787"
    }
  },
  {
    "service_request": "2026-1283143",
    "request_type": "Trash/Recycling",
    "request_reason": "Request a Large Item Pick Up",
    "date_created": "2026-05-20T20:44:54.000",
    "date_modified": "2026-05-20T20:44:56.000",
    "request_status": "Pending",
    "responsible_agency": "Department of Sanitation",
    "final_address": "1328 Holiday Pl",
    "address_councildis": "C",
    "status": "Assigned to Contractor",
    "contractor": "Richards Disposal",
    "rowid": "1283143",
    "final_x": "3699064.90596",
    "final_y": "526381.149566",
    "longitude": "-90.0127940176996",
    "latitude": "29.940820647833323",
    "geocoded_column": {
      "latitude": "29.940820647833323",
      "longitude": "-90.0127940176996"
    }
  },
  {
    "service_request": "2026-1283142",
    "request_type": "Streetlights",
    "request_reason": "Streetlight Outage/Malfunction",
    "date_created": "2026-05-20T20:42:27.000",
    "date_modified": "2026-05-20T20:42:29.000",
    "request_status": "Pending",
    "responsible_agency": "Department of Public Works",
    "final_address": "5515 Cameron Blvd",
    "address_councildis": "D",
    "status": "Pending",
    "rowid": "1283142",
    "final_x": "3682648.57314",
    "final_y": "553156.739863",
    "longitude": "-90.06368651532497",
    "latitude": "30.01495417946575",
    "geocoded_column": {
      "latitude": "30.01495417946575",
      "longitude": "-90.06368651532497"
    }
  },
  {
    "service_request": "2026-1283141",
    "request_type": "Trash/Recycling",
    "request_reason": "MIssed Recycling Pick-Up",
    "date_created": "2026-05-20T20:27:39.000",
    "date_modified": "2026-05-20T20:27:40.000",
    "request_status": "Pending",
    "responsible_agency": "Department of Sanitation",
    "final_address": "8834 Palm St",
    "address_councildis": "A",
    "status": "Assigned to Contractor",
    "contractor": "IV Waste",
    "rowid": "1283141",
    "final_x": "3665658.17287",
    "final_y": "536523.688711",
    "longitude": "-90.11792571810764",
    "latitude": "29.969725668794226",
    "geocoded_column": {
      "latitude": "29.969725668794226",
      "longitude": "-90.11792571810764"
    }
  },
  {
    "service_request": "2026-1283140",
    "request_type": "Mosquito, Termite & Rodent Control",
    "request_reason": "Rodent Complaint (Mice & Rats)",
    "date_created": "2026-05-20T20:26:23.000",
    "date_modified": "2026-05-20T20:26:24.000",
    "request_status": "Pending",
    "responsible_agency": "Mosquito, Termite & Rodent Control Board",
    "final_address": "5617 Canal Blvd",
    "address_councildis": "A",
    "status": "Pending",
    "rowid": "1283140",
    "final_x": "3668417.98074",
    "final_y": "544822.091151",
    "longitude": "-90.10892992814732",
    "latitude": "29.992462686189768",
    "geocoded_column": {
      "latitude": "29.992462686189768",
      "longitude": "-90.10892992814732"
    }
  },
  {
    "service_request": "2026-1283139",
    "request_type": "Trash/Recycling",
    "request_reason": "Request a Large Item Pick Up",
    "date_created": "2026-05-20T20:26:12.000",
    "date_modified": "2026-05-20T20:26:14.000",
    "request_status": "Pending",
    "responsible_agency": "Department of Sanitation",
    "final_address": "5412 York St",
    "address_councildis": "B",
    "status": "Assigned to Contractor",
    "contractor": "IV Waste",
    "rowid": "1283139",
    "final_x": "3668861.31015",
    "final_y": "528597.22432",
    "longitude": "-90.10807756463196",
    "latitude": "29.94783669544483",
    "geocoded_column": {
      "latitude": "29.94783669544483",
      "longitude": "-90.10807756463196"
    }
  },
  {
    "service_request": "2026-1283138",
    "request_type": "Streetlights",
    "request_reason": "Streetlight Outage/Malfunction",
    "date_created": "2026-05-20T20:22:20.000",
    "date_modified": "2026-05-20T20:22:22.000",
    "request_status": "Pending",
    "responsible_agency": "Department of Public Works",
    "final_address": "1023 Gordon St",
    "address_councildis": "E",
    "status": "Pending",
    "rowid": "1283138",
    "final_x": "3699119.19351",
    "final_y": "533238.047748",
    "longitude": "-90.01237305414278",
    "latitude": "29.95967298269034",
    "geocoded_column": {
      "latitude": "29.95967298269034",
      "longitude": "-90.01237305414278"
    }
  },
  {
    "service_request": "2026-1283137",
    "request_type": "Trash/Recycling",
    "request_reason": "Request a Large Item Pick Up",
    "date_created": "2026-05-20T20:21:19.000",
    "date_modified": "2026-05-20T20:21:21.000",
    "request_status": "Pending",
    "responsible_agency": "Department of Sanitation",
    "final_address": "6846 Lake Willow Dr",
    "address_councildis": "E",
    "status": "Assigned to Contractor",
    "contractor": "Waste Pro",
    "rowid": "1283137",
    "final_x": "3703448.721",
    "final_y": "558768.415388",
    "longitude": "-89.99776181826448",
    "latitude": "30.02973399955814",
    "geocoded_column": {
      "latitude": "30.02973399955814",
      "longitude": "-89.99776181826448"
    }
  },
  {
    "service_request": "2026-1283136",
    "request_type": "Drainage",
    "request_reason": "Catch Basin Not Draining",
    "date_created": "2026-05-20T20:13:12.000",
    "date_modified": "2026-05-20T20:13:14.000",
    "request_status": "Pending",
    "responsible_agency": "Sewerage & Water Board",
    "final_address": "1638 Peniston St",
    "address_councildis": "B",
    "status": "Pending",
    "rowid": "1283136",
    "final_x": "3672737.58369",
    "final_y": "521406.215673",
    "longitude": "-90.0960837655138",
    "latitude": "29.927949219250483",
    "geocoded_column": {
      "latitude": "29.927949219250483",
      "longitude": "-90.0960837655138"
    }
  },
  {
    "service_request": "2026-1283135",
    "request_type": "General Services",
    "request_reason": "General Service Request",
    "date_created": "2026-05-20T20:06:54.000",
    "date_modified": "2026-05-20T20:06:56.000",
    "request_status": "Pending",
    "responsible_agency": "Orleans Parish Communication District",
    "final_address": "5712 Mandeville St",
    "address_councildis": "D",
    "status": "Pending",
    "rowid": "1283135",
    "final_x": "3684308.25039",
    "final_y": "553994.154072",
    "longitude": "-90.05841329729121",
    "latitude": "30.017206091549223",
    "geocoded_column": {
      "latitude": "30.017206091549223",
      "longitude": "-90.05841329729121"
    }
  },
  {
    "service_request": "2026-1283134",
    "request_type": "Utility Poles",
    "request_reason": "Utility Pole Leaning",
    "date_created": "2026-05-20T19:53:16.000",
    "date_modified": "2026-05-20T19:53:19.000",
    "request_status": "Pending",
    "responsible_agency": "Utility Company Collective",
    "final_address": "1469 Westbrook Dr",
    "address_councildis": "D",
    "status": "Pending",
    "rowid": "1283134",
    "final_x": "3678305.70126",
    "final_y": "549532.335571",
    "longitude": "-90.0775334231763",
    "latitude": "30.005119968091385",
    "geocoded_column": {
      "latitude": "30.005119968091385",
      "longitude": "-90.0775334231763"
    }
  },
  {
    "service_request": "2026-1283133",
    "request_type": "Trash/Recycling",
    "request_reason": "Replace Trash Cart",
    "date_created": "2026-05-20T18:49:03.000",
    "date_modified": "2026-05-20T18:49:05.000",
    "request_status": "Pending",
    "responsible_agency": "Department of Sanitation",
    "final_address": "917 Dumaine St",
    "address_councildis": "C",
    "status": "Assigned to Contractor",
    "contractor": "IV Waste",
    "rowid": "1283133",
    "final_x": "3682339.55554",
    "final_y": "533590.571653",
    "longitude": "-90.06534695924431",
    "latitude": "29.961163531429314",
    "geocoded_column": {
      "latitude": "29.961163531429314",
      "longitude": "-90.06534695924431"
    }
  },
  {
    "service_request": "2026-1283132",
    "request_type": "Trash/Recycling",
    "request_reason": "Request a Large Item Pick Up",
    "date_created": "2026-05-20T18:46:50.000",
    "date_modified": "2026-05-20T18:46:52.000",
    "request_status": "Pending",
    "responsible_agency": "Department of Sanitation",
    "final_address": "6743 Colbert St",
    "address_councildis": "A",
    "status": "Assigned to Contractor",
    "contractor": "IV Waste",
    "rowid": "1283132",
    "final_x": "3667971.9305",
    "final_y": "552476.414742",
    "longitude": "-90.1100808001325",
    "latitude": "30.013522517359874",
    "geocoded_column": {
      "latitude": "30.013522517359874",
      "longitude": "-90.1100808001325"
    }
  },
  {
    "service_request": "2026-1283131",
    "request_type": "Trash/Recycling",
    "request_reason": "Illegal Dumping",
    "date_created": "2026-05-20T18:40:29.000",
    "date_modified": "2026-05-20T18:40:31.000",
    "request_status": "Pending",
    "responsible_agency": "Department of Sanitation",
    "final_address": "6500 Downman Rd",
    "address_councildis": "D",
    "status": "Pending",
    "rowid": "1283131",
    "final_x": "3695753.07664",
    "final_y": "554729.306904",
    "longitude": "-90.02222590285102",
    "latitude": "30.018872378259662",
    "geocoded_column": {
      "latitude": "30.018872378259662",
      "longitude": "-90.02222590285102"
    }
  },
  {
    "service_request": "2026-1283130",
    "request_type": "Trash/Recycling",
    "request_reason": "Illegal Dumping",
    "date_created": "2026-05-20T18:23:53.000",
    "date_modified": "2026-05-20T18:23:57.000",
    "request_status": "Pending",
    "responsible_agency": "Department of Sanitation",
    "final_address": "6500 Downman Rd",
    "address_councildis": "D",
    "status": "Pending",
    "rowid": "1283130",
    "final_x": "3695753.07664",
    "final_y": "554729.306904",
    "longitude": "-90.02222590285102",
    "latitude": "30.018872378259662",
    "geocoded_column": {
      "latitude": "30.018872378259662",
      "longitude": "-90.02222590285102"
    }
  },
  {
    "service_request": "2026-1283129",
    "request_type": "Trash/Recycling",
    "request_reason": "Request a Large Item Pick Up",
    "date_created": "2026-05-20T17:53:52.000",
    "date_modified": "2026-05-20T17:53:53.000",
    "request_status": "Pending",
    "responsible_agency": "Department of Sanitation",
    "final_address": "7915 Drum St",
    "address_councildis": "E",
    "status": "Assigned to Contractor",
    "contractor": "Waste Pro",
    "rowid": "1283129",
    "final_x": "3700045.26736",
    "final_y": "561485.215647",
    "longitude": "-90.00841736271329",
    "latitude": "30.037312786209515",
    "geocoded_column": {
      "latitude": "30.037312786209515",
      "longitude": "-90.00841736271329"
    }
  },
  {
    "service_request": "2026-1283128",
    "request_type": "Roads and Streets",
    "request_reason": "Abandoned Service Cut",
    "date_created": "2026-05-20T17:52:28.000",
    "date_modified": "2026-05-20T17:52:29.000",
    "request_status": "Pending",
    "responsible_agency": "Department of Public Works",
    "final_address": "623 Bartholomew St",
    "address_councildis": "C",
    "status": "Pending",
    "rowid": "1283128",
    "final_x": "3691419.08406",
    "final_y": "533642.330181",
    "longitude": "-90.03667370703859",
    "latitude": "29.961026456602053",
    "geocoded_column": {
      "latitude": "29.961026456602053",
      "longitude": "-90.03667370703859"
    }
  },
  {
    "service_request": "2026-1283127",
    "request_type": "Trash/Recycling",
    "request_reason": "Request a Large Item Pick Up",
    "date_created": "2026-05-20T17:49:02.000",
    "date_modified": "2026-05-20T17:49:04.000",
    "request_status": "Pending",
    "responsible_agency": "Department of Sanitation",
    "final_address": "623 Egania St",
    "address_councildis": "E",
    "status": "Assigned to Contractor",
    "contractor": "Waste Pro",
    "rowid": "1283127",
    "final_x": "3696388.05399",
    "final_y": "532380.035971",
    "longitude": "-90.0210283546438",
    "latitude": "29.957400044605542",
    "geocoded_column": {
      "latitude": "29.957400044605542",
      "longitude": "-90.0210283546438"
    }
  },
  {
    "service_request": "2026-1283126",
    "request_type": "Trash/Recycling",
    "request_reason": "MIssed Recycling Pick-Up",
    "date_created": "2026-05-20T17:46:42.000",
    "date_modified": "2026-05-20T17:46:44.000",
    "request_status": "Pending",
    "responsible_agency": "Department of Sanitation",
    "final_address": "7515 Michigan St",
    "address_councildis": "E",
    "status": "Assigned to Contractor",
    "contractor": "Waste Pro",
    "rowid": "1283126",
    "final_x": "3712231.3877",
    "final_y": "565922.436899",
    "longitude": "-89.9697399367572",
    "latitude": "30.04912028923194",
    "geocoded_column": {
      "latitude": "30.04912028923194",
      "longitude": "-89.9697399367572"
    }
  },
  {
    "service_request": "2026-1283125",
    "request_type": "General Services",
    "request_reason": "General Service Request",
    "date_created": "2026-05-20T17:45:55.000",
    "date_modified": "2026-05-20T17:45:57.000",
    "request_status": "Pending",
    "responsible_agency": "Orleans Parish Communication District",
    "final_address": "2300 BLK Gentilly Blvd",
    "address_councildis": "D",
    "status": "Pending",
    "rowid": "1283125",
    "final_x": "3681059.43214",
    "final_y": "544735.284661",
    "longitude": "-90.06900103210283",
    "latitude": "29.99184651423618",
    "geocoded_column": {
      "latitude": "29.99184651423618",
      "longitude": "-90.06900103210283"
    }
  },
  {
    "service_request": "2026-1283124",
    "request_type": "Trash/Recycling",
    "request_reason": "Illegal Dumping",
    "date_created": "2026-05-20T17:43:17.000",
    "date_modified": "2026-05-20T17:43:19.000",
    "request_status": "Pending",
    "responsible_agency": "Department of Sanitation",
    "final_address": "914 Lowerline St",
    "address_councildis": "A",
    "status": "Pending",
    "rowid": "1283124",
    "final_x": "3663136.68307",
    "final_y": "526082.05523",
    "longitude": "-90.12623623411938",
    "latitude": "29.941087861485936",
    "geocoded_column": {
      "latitude": "29.941087861485936",
      "longitude": "-90.12623623411938"
    }
  },
  {
    "service_request": "2026-1283123",
    "request_type": "Trash/Recycling",
    "request_reason": "Replace Trash Cart",
    "date_created": "2026-05-20T17:38:49.000",
    "date_modified": "2026-05-20T17:38:51.000",
    "request_status": "Pending",
    "responsible_agency": "Department of Sanitation",
    "final_address": "5964 Annunciation St",
    "address_councildis": "A",
    "status": "Assigned to Contractor",
    "contractor": "IV Waste",
    "rowid": "1283123",
    "final_x": "3664418.79079",
    "final_y": "517763.52319",
    "longitude": "-90.12246590237638",
    "latitude": "29.918177322018924",
    "geocoded_column": {
      "latitude": "29.918177322018924",
      "longitude": "-90.12246590237638"
    }
  },
  {
    "service_request": "2026-1283122",
    "request_type": "Trash/Recycling",
    "request_reason": "Request a Large Item Pick Up",
    "date_created": "2026-05-20T17:35:50.000",
    "date_modified": "2026-05-20T17:35:53.000",
    "request_status": "Pending",
    "responsible_agency": "Department of Sanitation",
    "final_address": "5002 Burgundy St",
    "address_councildis": "E",
    "status": "Assigned to Contractor",
    "contractor": "Waste Pro",
    "rowid": "1283122",
    "final_x": "3695782.54294",
    "final_y": "533444.600004",
    "longitude": "-90.02290192287434",
    "latitude": "29.960346274762294",
    "geocoded_column": {
      "latitude": "29.960346274762294",
      "longitude": "-90.02290192287434"
    }
  },
  {
    "service_request": "2026-1283121",
    "request_type": "General Services",
    "request_reason": "General Service Request",
    "date_created": "2026-05-20T17:26:06.000",
    "date_modified": "2026-05-20T17:26:07.000",
    "request_status": "Pending",
    "responsible_agency": "Orleans Parish Communication District",
    "final_address": "3200 BLK Paris Ave",
    "address_councildis": "D",
    "status": "Pending",
    "rowid": "1283121",
    "final_x": "3679818.98711",
    "final_y": "544281.94272",
    "longitude": "-90.07293508916793",
    "latitude": "29.99063756010379",
    "geocoded_column": {
      "latitude": "29.99063756010379",
      "longitude": "-90.07293508916793"
    }
  },
  {
    "service_request": "2026-1283120",
    "request_type": "Street and Traffic Signs",
    "request_reason": "Additional Signage Request",
    "date_created": "2026-05-20T17:26:04.000",
    "date_modified": "2026-05-20T17:26:06.000",
    "request_status": "Pending",
    "responsible_agency": "Department of Public Works",
    "final_address": "0 BLK Audubon Blvd",
    "address_councildis": "A",
    "status": "Pending",
    "rowid": "1283120",
    "final_x": "3665769.80622",
    "final_y": "527561.184495",
    "longitude": "-90.1178734101763",
    "latitude": "29.945078455935082",
    "geocoded_column": {
      "latitude": "29.945078455935082",
      "longitude": "-90.1178734101763"
    }
  },
  {
    "service_request": "2026-1283119",
    "request_type": "Trash/Recycling",
    "request_reason": "Repair Trash Cart",
    "date_created": "2026-05-20T17:21:58.000",
    "date_modified": "2026-05-20T17:22:00.000",
    "request_status": "Pending",
    "responsible_agency": "Department of Sanitation",
    "final_address": "1525 Hillary St",
    "address_councildis": "A",
    "status": "Assigned to Contractor",
    "contractor": "IV Waste",
    "rowid": "1283119",
    "final_x": "3664205.19796",
    "final_y": "528020.105023",
    "longitude": "-90.12279807832023",
    "latitude": "29.946385882725853",
    "geocoded_column": {
      "latitude": "29.946385882725853",
      "longitude": "-90.12279807832023"
    }
  },
  {
    "service_request": "2026-1283118",
    "request_type": "Drainage",
    "request_reason": "Catch Basin Not Draining",
    "date_created": "2026-05-20T17:21:18.000",
    "date_modified": "2026-05-20T17:21:19.000",
    "request_status": "Pending",
    "responsible_agency": "Sewerage & Water Board",
    "final_address": "1638 Peniston St",
    "address_councildis": "B",
    "status": "Pending",
    "rowid": "1283118",
    "final_x": "3672737.58369",
    "final_y": "521406.215673",
    "longitude": "-90.0960837655138",
    "latitude": "29.927949219250483",
    "geocoded_column": {
      "latitude": "29.927949219250483",
      "longitude": "-90.0960837655138"
    }
  },
  {
    "service_request": "2026-1283117",
    "request_type": "General Services",
    "request_reason": "General Service Request",
    "date_created": "2026-05-20T17:21:16.000",
    "date_modified": "2026-05-20T17:21:17.000",
    "request_status": "Pending",
    "responsible_agency": "Orleans Parish Communication District",
    "final_address": "5400 Crowder Blvd",
    "address_councildis": "E",
    "status": "Pending",
    "rowid": "1283117",
    "final_x": "3705758.88945",
    "final_y": "557325.205083",
    "longitude": "-89.99051521324888",
    "latitude": "30.025691492631534",
    "geocoded_column": {
      "latitude": "30.025691492631534",
      "longitude": "-89.99051521324888"
    }
  },
  {
    "service_request": "2026-1283116",
    "request_type": "Trash/Recycling",
    "request_reason": "Order Second Trash Cart",
    "date_created": "2026-05-20T17:18:54.000",
    "date_modified": "2026-05-20T17:18:56.000",
    "request_status": "Pending",
    "responsible_agency": "Department of Sanitation",
    "final_address": "4009 Elba St",
    "address_councildis": "B",
    "status": "Assigned to Contractor",
    "contractor": "IV Waste",
    "rowid": "1283116",
    "final_x": "3670815.62011",
    "final_y": "529783.329473",
    "longitude": "-90.10186676696715",
    "latitude": "29.951040489527337",
    "geocoded_column": {
      "latitude": "29.951040489527337",
      "longitude": "-90.10186676696715"
    }
  },
  {
    "service_request": "2026-1283115",
    "request_type": "Trash/Recycling",
    "request_reason": "Order Recycling Cart",
    "date_created": "2026-05-20T17:08:50.000",
    "date_modified": "2026-05-20T17:08:51.000",
    "request_status": "Pending",
    "responsible_agency": "Department of Sanitation",
    "final_address": "5207 N Robertson St",
    "address_councildis": "E",
    "status": "Pending",
    "rowid": "1283115",
    "final_x": "3697053.78877",
    "final_y": "535660.883654",
    "longitude": "-90.01880732490967",
    "latitude": "29.966400230042886",
    "geocoded_column": {
      "latitude": "29.966400230042886",
      "longitude": "-90.01880732490967"
    }
  },
  {
    "service_request": "2026-1283114",
    "request_type": "Trash/Recycling",
    "request_reason": "Missed Trash Pick-Up",
    "date_created": "2026-05-20T17:07:52.000",
    "date_modified": "2026-05-20T17:22:05.000",
    "case_close_date": "2026-05-20T12:22:04.000",
    "request_status": "Closed",
    "responsible_agency": "Department of Sanitation",
    "final_address": "4942 Sierra Madre Dr",
    "address_councildis": "E",
    "status": "Invalid Request",
    "contractor": "Waste Pro",
    "contractor_action": "Invalid",
    "rowid": "1283114",
    "final_x": "3713717.462",
    "final_y": "557617.759067",
    "longitude": "-89.96535645569399",
    "latitude": "30.02623704941542",
    "geocoded_column": {
      "latitude": "30.02623704941542",
      "longitude": "-89.96535645569399"
    }
  },
  {
    "service_request": "2026-1283113",
    "request_type": "Trash/Recycling",
    "request_reason": "Damaged Caused By Contractor",
    "date_created": "2026-05-20T16:56:12.000",
    "date_modified": "2026-05-20T16:56:14.000",
    "request_status": "Pending",
    "responsible_agency": "Department of Sanitation",
    "final_address": "7729 Belfast St",
    "address_councildis": "A",
    "status": "Assigned to Contractor",
    "contractor": "IV Waste",
    "rowid": "1283113",
    "final_x": "3666558.01985",
    "final_y": "531539.115779",
    "longitude": "-90.11525125159788",
    "latitude": "29.95599346080248",
    "geocoded_column": {
      "latitude": "29.95599346080248",
      "longitude": "-90.11525125159788"
    }
  },
  {
    "service_request": "2026-1283112",
    "request_type": "Trash/Recycling",
    "request_reason": "Request a Large Item Pick Up",
    "date_created": "2026-05-20T16:54:32.000",
    "date_modified": "2026-05-20T16:54:35.000",
    "request_status": "Pending",
    "responsible_agency": "Department of Sanitation",
    "final_address": "3236 Sabine St",
    "address_councildis": "C",
    "status": "Assigned to Contractor",
    "contractor": "Richards Disposal",
    "rowid": "1283112",
    "final_x": "3695079.22742",
    "final_y": "517872.247158",
    "longitude": "-90.02568402005211",
    "latitude": "29.917549766596093",
    "geocoded_column": {
      "latitude": "29.917549766596093",
      "longitude": "-90.02568402005211"
    }
  },
  {
    "service_request": "2026-1283111",
    "request_type": "Streetlights",
    "request_reason": "Streetlight Outage/Malfunction",
    "date_created": "2026-05-20T16:53:05.000",
    "date_modified": "2026-05-20T16:53:35.000",
    "request_status": "Pending",
    "responsible_agency": "Department of Public Works",
    "final_address": "6000 BLK Stratford Pl",
    "address_councildis": "C",
    "status": "Pending",
    "rowid": "1283111",
    "final_x": "3706371.27587",
    "final_y": "516174.0324",
    "longitude": "-89.99010448873601",
    "latitude": "29.91252109359429",
    "geocoded_column": {
      "latitude": "29.91252109359429",
      "longitude": "-89.99010448873601"
    }
  },
  {
    "service_request": "2026-1283110",
    "request_type": "Trash/Recycling",
    "request_reason": "Request a Large Item Pick Up",
    "date_created": "2026-05-20T16:52:45.000",
    "date_modified": "2026-05-20T16:52:46.000",
    "request_status": "Pending",
    "responsible_agency": "Department of Sanitation",
    "final_address": "4404 Rhodes Dr",
    "address_councildis": "E",
    "status": "Assigned to Contractor",
    "contractor": "Waste Pro",
    "rowid": "1283110",
    "final_x": "3702608.19818",
    "final_y": "552862.174359",
    "longitude": "-90.00063491510917",
    "latitude": "30.01352101854222",
    "geocoded_column": {
      "latitude": "30.01352101854222",
      "longitude": "-90.00063491510917"
    }
  },
  {
    "service_request": "2026-1283109",
    "request_type": "Trash/Recycling",
    "request_reason": "Request a Large Item Pick Up",
    "date_created": "2026-05-20T16:50:13.000",
    "date_modified": "2026-05-20T16:50:15.000",
    "request_status": "Pending",
    "responsible_agency": "Department of Sanitation",
    "final_address": "2927 Johnny Jackson Jr Blvd",
    "address_councildis": "D",
    "status": "Assigned to Contractor",
    "contractor": "IV Waste",
    "rowid": "1283109",
    "final_x": "3691472.59107",
    "final_y": "543224.557518",
    "longitude": "-90.0361621910732",
    "latitude": "29.987372516290684",
    "geocoded_column": {
      "latitude": "29.987372516290684",
      "longitude": "-90.0361621910732"
    }
  },
  {
    "service_request": "2026-1283108",
    "request_type": "Trash/Recycling",
    "request_reason": "Order Trash Cart",
    "date_created": "2026-05-20T16:49:57.000",
    "date_modified": "2026-05-20T16:49:59.000",
    "request_status": "Pending",
    "responsible_agency": "Department of Sanitation",
    "final_address": "322 33Rd St",
    "address_councildis": "A",
    "status": "Assigned to Contractor",
    "contractor": "IV Waste",
    "rowid": "1283108",
    "final_x": "3665082.04429",
    "final_y": "550928.406549",
    "longitude": "-90.11926318894874",
    "latitude": "30.009350547443475",
    "geocoded_column": {
      "latitude": "30.009350547443475",
      "longitude": "-90.11926318894874"
    }
  },
  {
    "service_request": "2026-1283107",
    "request_type": "Trash/Recycling",
    "request_reason": "Request a Large Item Pick Up",
    "date_created": "2026-05-20T16:47:42.000",
    "date_modified": "2026-05-20T16:47:44.000",
    "request_status": "Pending",
    "responsible_agency": "Department of Sanitation",
    "final_address": "5822 General Haig St",
    "address_councildis": "A",
    "status": "Assigned to Contractor",
    "contractor": "IV Waste",
    "rowid": "1283107",
    "final_x": "3670374.44794",
    "final_y": "545981.8948",
    "longitude": "-90.10271045685879",
    "latitude": "29.995594116233242",
    "geocoded_column": {
      "latitude": "29.995594116233242",
      "longitude": "-90.10271045685879"
    }
  },
  {
    "service_request": "2026-1283106",
    "request_type": "Trash/Recycling",
    "request_reason": "Replace Trash Cart",
    "date_created": "2026-05-20T16:44:01.000",
    "date_modified": "2026-05-20T16:44:04.000",
    "request_status": "Pending",
    "responsible_agency": "Department of Sanitation",
    "final_address": "422 14Th St",
    "address_councildis": "A",
    "status": "Assigned to Contractor",
    "contractor": "IV Waste",
    "rowid": "1283106",
    "final_x": "3664619.07367",
    "final_y": "548115.426386",
    "longitude": "-90.12081992221076",
    "latitude": "30.001629303697612",
    "geocoded_column": {
      "latitude": "30.001629303697612",
      "longitude": "-90.12081992221076"
    }
  },
  {
    "service_request": "2026-1283105",
    "request_type": "Trash/Recycling",
    "request_reason": "Illegal Dumping",
    "date_created": "2026-05-20T16:38:02.000",
    "date_modified": "2026-05-20T16:38:03.000",
    "request_status": "Pending",
    "responsible_agency": "Department of Sanitation",
    "final_address": "1155 S Galvez St",
    "address_councildis": "B",
    "status": "Pending",
    "rowid": "1283105",
    "final_x": "3673985.17467",
    "final_y": "530089.780097",
    "longitude": "-90.0918484022358",
    "latitude": "29.951789081760836",
    "geocoded_column": {
      "latitude": "29.951789081760836",
      "longitude": "-90.0918484022358"
    }
  },
  {
    "service_request": "2026-1283104",
    "request_type": "Traffic Signals",
    "request_reason": "Traffic Signal Malfunctioning or Damaged",
    "date_created": "2026-05-20T16:35:52.000",
    "date_modified": "2026-05-20T16:35:54.000",
    "request_status": "Pending",
    "responsible_agency": "Department of Public Works",
    "final_address": "N MIRO ST & ST BERNARD AVE",
    "address_councildis": "D",
    "status": "Pending",
    "rowid": "1283104",
    "final_x": "3681139.6",
    "final_y": "539920.98",
    "longitude": "-90.06891560989456",
    "latitude": "29.978606431550983",
    "geocoded_column": {
      "latitude": "29.978606431550983",
      "longitude": "-90.06891560989456"
    }
  },
  {
    "service_request": "2026-1283103",
    "request_type": "Traffic Signals",
    "request_reason": "Traffic Signal Malfunctioning or Damaged",
    "date_created": "2026-05-20T16:35:14.000",
    "date_modified": "2026-05-20T16:35:15.000",
    "request_status": "Pending",
    "responsible_agency": "Department of Public Works",
    "final_address": "ST BERNARD AVE & N GALVEZ ST",
    "address_councildis": "D",
    "status": "Pending",
    "rowid": "1283103",
    "final_x": "3681311.9",
    "final_y": "539580.88",
    "longitude": "-90.0683832810682",
    "latitude": "29.977666045789643",
    "geocoded_column": {
      "latitude": "29.977666045789643",
      "longitude": "-90.0683832810682"
    }
  },
  {
    "service_request": "2026-1283102",
    "request_type": "Traffic Signals",
    "request_reason": "Traffic Signal Malfunctioning or Damaged",
    "date_created": "2026-05-20T16:34:39.000",
    "date_modified": "2026-05-20T16:34:41.000",
    "request_status": "Pending",
    "responsible_agency": "Department of Public Works",
    "final_address": "N GALVEZ ST & A P TUREAUD AVE",
    "address_councildis": "D",
    "status": "Pending",
    "rowid": "1283102",
    "final_x": "3681745.8",
    "final_y": "539752.28",
    "longitude": "-90.06700689510753",
    "latitude": "29.978124158052033",
    "geocoded_column": {
      "latitude": "29.978124158052033",
      "longitude": "-90.06700689510753"
    }
  },
  {
    "service_request": "2026-1283101",
    "request_type": "Traffic Signals",
    "request_reason": "Traffic Signal Malfunctioning or Damaged",
    "date_created": "2026-05-20T16:33:46.000",
    "date_modified": "2026-05-20T16:33:47.000",
    "request_status": "Pending",
    "responsible_agency": "Department of Public Works",
    "final_address": "ELYSIAN FIELDS AVE & I 610 E",
    "address_councildis": "D",
    "status": "Pending",
    "rowid": "1283101",
    "final_x": "3684398.0",
    "final_y": "544559.38",
    "longitude": "-90.05846139447799",
    "latitude": "29.99126112477491",
    "geocoded_column": {
      "latitude": "29.99126112477491",
      "longitude": "-90.05846139447799"
    }
  },
  {
    "service_request": "2026-1283100",
    "request_type": "Traffic Signals",
    "request_reason": "Traffic Signal Malfunctioning or Damaged",
    "date_created": "2026-05-20T16:33:05.000",
    "date_modified": "2026-05-20T16:33:07.000",
    "request_status": "Pending",
    "responsible_agency": "Department of Public Works",
    "final_address": "ELYSIAN FIELDS AVE & N GALVEZ ST",
    "address_councildis": "D",
    "status": "Pending",
    "rowid": "1283100",
    "final_x": "3684673.9",
    "final_y": "539982.18",
    "longitude": "-90.05775084493696",
    "latitude": "29.978666998970876",
    "geocoded_column": {
      "latitude": "29.978666998970876",
      "longitude": "-90.05775084493696"
    }
  },
  {
    "service_request": "2026-1283099",
    "request_type": "Trash/Recycling",
    "request_reason": "Request a Large Item Pick Up",
    "date_created": "2026-05-20T16:30:44.000",
    "date_modified": "2026-05-20T16:30:47.000",
    "request_status": "Pending",
    "responsible_agency": "Department of Sanitation",
    "final_address": "8011 Vanderkloot Ave",
    "address_councildis": "E",
    "status": "Assigned to Contractor",
    "contractor": "Waste Pro",
    "rowid": "1283099",
    "final_x": "3705370.39735",
    "final_y": "564353.660129",
    "longitude": "-89.99148270482665",
    "latitude": "30.045029494568112",
    "geocoded_column": {
      "latitude": "30.045029494568112",
      "longitude": "-89.99148270482665"
    }
  },
  {
    "service_request": "2026-1283098",
    "request_type": "Trash/Recycling",
    "request_reason": "Missed Trash Pick-Up",
    "date_created": "2026-05-20T16:27:36.000",
    "date_modified": "2026-05-20T16:27:37.000",
    "request_status": "Pending",
    "responsible_agency": "Department of Sanitation",
    "final_address": "3810 Red Cypress Dr",
    "address_councildis": "C",
    "status": "Assigned to Contractor",
    "contractor": "Richards Disposal",
    "rowid": "1283098",
    "final_x": "3703705.04266",
    "final_y": "512268.912369",
    "longitude": "-89.99866337343259",
    "latitude": "29.901869016422804",
    "geocoded_column": {
      "latitude": "29.901869016422804",
      "longitude": "-89.99866337343259"
    }
  },
  {
    "service_request": "2026-1283097",
    "request_type": "Trash/Recycling",
    "request_reason": "Order Trash Cart",
    "date_created": "2026-05-20T16:27:00.000",
    "date_modified": "2026-05-20T16:27:02.000",
    "request_status": "Pending",
    "responsible_agency": "Department of Sanitation",
    "final_address": "5729 Franklin Ave",
    "address_councildis": "D",
    "status": "Assigned to Contractor",
    "contractor": "IV Waste",
    "rowid": "1283097",
    "final_x": "3686582.95586",
    "final_y": "554306.216728",
    "longitude": "-90.05121513585532",
    "latitude": "30.01799436064056",
    "geocoded_column": {
      "latitude": "30.01799436064056",
      "longitude": "-90.05121513585532"
    }
  },
  {
    "service_request": "2026-1283096",
    "request_type": "Trash/Recycling",
    "request_reason": "Replace Trash Cart",
    "date_created": "2026-05-20T16:26:38.000",
    "date_modified": "2026-05-20T16:26:40.000",
    "request_status": "Pending",
    "responsible_agency": "Department of Sanitation",
    "final_address": "4701 Viola St",
    "address_councildis": "E",
    "status": "Assigned to Contractor",
    "contractor": "Waste Pro",
    "rowid": "1283096",
    "final_x": "3704051.17246",
    "final_y": "554937.395864",
    "longitude": "-89.99599938313024",
    "latitude": "30.019180856422736",
    "geocoded_column": {
      "latitude": "30.019180856422736",
      "longitude": "-89.99599938313024"
    }
  },
  {
    "service_request": "2026-1283095",
    "request_type": "Trash/Recycling",
    "request_reason": "Order Second Trash Cart",
    "date_created": "2026-05-20T16:25:35.000",
    "date_modified": "2026-05-20T16:26:05.000",
    "request_status": "Pending",
    "responsible_agency": "Department of Sanitation",
    "final_address": "5515 Debore Dr",
    "address_councildis": "D",
    "status": "Assigned to Contractor",
    "contractor": "IV Waste",
    "rowid": "1283095",
    "final_x": "3691908.4607",
    "final_y": "554302.865752",
    "longitude": "-90.03438875704738",
    "latitude": "30.017820224096916",
    "geocoded_column": {
      "latitude": "30.017820224096916",
      "longitude": "-90.03438875704738"
    }
  },
  {
    "service_request": "2026-1283094",
    "request_type": "Abandoned Vehicles",
    "request_reason": "Abandoned/Junk Vehicles",
    "date_created": "2026-05-20T16:24:23.000",
    "date_modified": "2026-05-20T16:24:24.000",
    "request_status": "Pending",
    "responsible_agency": "Department of Public Works",
    "final_address": "5514 Debore Dr",
    "address_councildis": "D",
    "status": "Pending",
    "rowid": "1283094",
    "final_x": "3691759.48137",
    "final_y": "554264.265944",
    "longitude": "-90.03486085434132",
    "latitude": "30.017718731926468",
    "geocoded_column": {
      "latitude": "30.017718731926468",
      "longitude": "-90.03486085434132"
    }
  },
  {
    "service_request": "2026-1283093",
    "request_type": "Streetlights",
    "request_reason": "Streetlight Outage/Malfunction",
    "date_created": "2026-05-20T16:22:57.000",
    "date_modified": "2026-05-20T16:22:59.000",
    "request_status": "Pending",
    "responsible_agency": "Department of Public Works",
    "final_address": "2290 Coral Sea St",
    "address_councildis": "C",
    "status": "Pending",
    "rowid": "1283093",
    "final_x": "3692205.11344",
    "final_y": "529453.517889",
    "longitude": "-90.03434153604032",
    "latitude": "29.949484199475908",
    "geocoded_column": {
      "latitude": "29.949484199475908",
      "longitude": "-90.03434153604032"
    }
  },
  {
    "service_request": "2026-1283092",
    "request_type": "Trash/Recycling",
    "request_reason": "Request a Large Item Pick Up",
    "date_created": "2026-05-20T16:20:34.000",
    "date_modified": "2026-05-20T16:20:36.000",
    "request_status": "Pending",
    "responsible_agency": "Department of Sanitation",
    "final_address": "2125 Delachaise St",
    "address_councildis": "B",
    "status": "Assigned to Contractor",
    "contractor": "IV Waste",
    "rowid": "1283092",
    "final_x": "3673069.44443",
    "final_y": "523239.053435",
    "longitude": "-90.09497362586697",
    "latitude": "29.93297907428947",
    "geocoded_column": {
      "latitude": "29.93297907428947",
      "longitude": "-90.09497362586697"
    }
  },
  {
    "service_request": "2026-1283091",
    "request_type": "Drainage",
    "request_reason": "Illegal Dumping (Catch Basin)",
    "date_created": "2026-05-20T16:17:29.000",
    "date_modified": "2026-05-20T16:17:31.000",
    "request_status": "Pending",
    "responsible_agency": "Sewerage & Water Board",
    "final_address": "3154 State Street Dr",
    "address_councildis": "A",
    "status": "Pending",
    "rowid": "1283091",
    "final_x": "3667493.89831",
    "final_y": "528004.753599",
    "longitude": "-90.11241497492773",
    "latitude": "29.946247727510944",
    "geocoded_column": {
      "latitude": "29.946247727510944",
      "longitude": "-90.11241497492773"
    }
  },
  {
    "service_request": "2026-1283090",
    "request_type": "Trash/Recycling",
    "request_reason": "Request a Large Item Pick Up",
    "date_created": "2026-05-20T16:15:07.000",
    "date_modified": "2026-05-20T16:15:09.000",
    "request_status": "Pending",
    "responsible_agency": "Department of Sanitation",
    "final_address": "1434 Audubon St",
    "address_councildis": "A",
    "status": "Assigned to Contractor",
    "contractor": "IV Waste",
    "rowid": "1283090",
    "final_x": "3664896.74132",
    "final_y": "527102.732031",
    "longitude": "-90.12064527795641",
    "latitude": "29.94384329508611",
    "geocoded_column": {
      "latitude": "29.94384329508611",
      "longitude": "-90.12064527795641"
    }
  },
  {
    "service_request": "2026-1283089",
    "request_type": "Abandoned Vehicles",
    "request_reason": "Abandoned/Junk Vehicles",
    "date_created": "2026-05-20T16:15:01.000",
    "date_modified": "2026-05-20T16:15:02.000",
    "request_status": "Pending",
    "responsible_agency": "Department of Public Works",
    "final_address": "2519 Desire St",
    "address_councildis": "D",
    "status": "Pending",
    "rowid": "1283089",
    "final_x": "3691573.22761",
    "final_y": "541151.22254",
    "longitude": "-90.03591846915187",
    "latitude": "29.98166845664578",
    "geocoded_column": {
      "latitude": "29.98166845664578",
      "longitude": "-90.03591846915187"
    }
  },
  {
    "service_request": "2026-1283088",
    "request_type": "Tree Service",
    "request_reason": "Dead or Dying Tree",
    "date_created": "2026-05-20T16:09:12.000",
    "date_modified": "2026-05-20T16:09:14.000",
    "request_status": "Pending",
    "responsible_agency": "Department of Parks & Parkways",
    "final_address": "2716 Lavender St",
    "address_councildis": "D",
    "status": "Pending",
    "rowid": "1283088",
    "final_x": "3687982.4335",
    "final_y": "546959.373265",
    "longitude": "-90.04705391504636",
    "latitude": "29.99775009713774",
    "geocoded_column": {
      "latitude": "29.99775009713774",
      "longitude": "-90.04705391504636"
    }
  },
  {
    "service_request": "2026-1283087",
    "request_type": "Tree Service",
    "request_reason": "Tree Trim",
    "date_created": "2026-05-20T16:07:31.000",
    "date_modified": "2026-05-20T16:07:33.000",
    "request_status": "Pending",
    "responsible_agency": "Department of Parks & Parkways",
    "final_address": "7700 St Charles Ave",
    "address_councildis": "A",
    "status": "Pending",
    "rowid": "1283087",
    "final_x": "3661580.99885",
    "final_y": "525823.957821",
    "longitude": "-90.13115639045508",
    "latitude": "29.940423146864543",
    "geocoded_column": {
      "latitude": "29.940423146864543",
      "longitude": "-90.13115639045508"
    }
  },
  {
    "service_request": "2026-1283086",
    "request_type": "Trash/Recycling",
    "request_reason": "Change Size of Trash Cart",
    "date_created": "2026-05-20T16:04:59.000",
    "date_modified": "2026-05-20T16:05:46.000",
    "request_status": "Pending",
    "responsible_agency": "Department of Sanitation",
    "final_address": "1829 N Derbigny St",
    "address_councildis": "C",
    "status": "Assigned to Contractor",
    "contractor": "IV Waste",
    "rowid": "1283086",
    "final_x": "3683560.35023",
    "final_y": "538445.118729",
    "longitude": "-90.06132173772278",
    "latitude": "29.9744746557144",
    "geocoded_column": {
      "latitude": "29.9744746557144",
      "longitude": "-90.06132173772278"
    }
  },
  {
    "service_request": "2026-1283085",
    "request_type": "Trash/Recycling",
    "request_reason": "Repair Trash Cart",
    "date_created": "2026-05-20T16:04:53.000",
    "date_modified": "2026-05-20T16:04:56.000",
    "request_status": "Pending",
    "responsible_agency": "Department of Sanitation",
    "final_address": "7534 Birch St",
    "address_councildis": "A",
    "status": "Assigned to Contractor",
    "contractor": "IV Waste",
    "rowid": "1283085",
    "final_x": "3664291.62176",
    "final_y": "528107.041855",
    "longitude": "-90.12252230623676",
    "latitude": "29.94662242023292",
    "geocoded_column": {
      "latitude": "29.94662242023292",
      "longitude": "-90.12252230623676"
    }
  },
  {
    "service_request": "2026-1283084",
    "request_type": "Abandoned Vehicles",
    "request_reason": "Abandoned/Junk Vehicles",
    "date_created": "2026-05-20T16:00:26.000",
    "date_modified": "2026-05-20T16:00:28.000",
    "request_status": "Pending",
    "responsible_agency": "Department of Public Works",
    "final_address": "2745 Jonquil St",
    "address_councildis": "D",
    "status": "Pending",
    "rowid": "1283084",
    "final_x": "3688187.44611",
    "final_y": "547355.194769",
    "longitude": "-90.04639224296582",
    "latitude": "29.99883213340912",
    "geocoded_column": {
      "latitude": "29.99883213340912",
      "longitude": "-90.04639224296582"
    }
  },
  {
    "service_request": "2026-1283083",
    "request_type": "Abandoned Vehicles",
    "request_reason": "Abandoned/Junk Vehicles",
    "date_created": "2026-05-20T15:56:55.000",
    "date_modified": "2026-05-20T15:56:58.000",
    "request_status": "Pending",
    "responsible_agency": "Department of Public Works",
    "final_address": "2777 Jonquil St",
    "address_councildis": "D",
    "status": "Pending",
    "rowid": "1283083",
    "final_x": "3688421.67868",
    "final_y": "547368.471569",
    "longitude": "-90.04565183028859",
    "latitude": "29.998861404058815",
    "geocoded_column": {
      "latitude": "29.998861404058815",
      "longitude": "-90.04565183028859"
    }
  },
  {
    "service_request": "2026-1283082",
    "request_type": "Trash/Recycling",
    "request_reason": "Repair Recycling Cart",
    "date_created": "2026-05-20T15:55:54.000",
    "date_modified": "2026-05-20T15:55:56.000",
    "request_status": "Pending",
    "responsible_agency": "Department of Sanitation",
    "final_address": "1306 Elysian Fields Ave",
    "address_councildis": "C",
    "status": "Pending",
    "rowid": "1283082",
    "final_x": "3684837.99938",
    "final_y": "537098.74452",
    "longitude": "-90.05733397316044",
    "latitude": "29.970733534794547",
    "geocoded_column": {
      "latitude": "29.970733534794547",
      "longitude": "-90.05733397316044"
    }
  },
  {
    "service_request": "2026-1283081",
    "request_type": "Abandoned Vehicles",
    "request_reason": "Abandoned/Junk Vehicles",
    "date_created": "2026-05-20T15:53:40.000",
    "date_modified": "2026-05-20T15:53:41.000",
    "request_status": "Pending",
    "responsible_agency": "Department of Public Works",
    "final_address": "2749 Jonquil St",
    "address_councildis": "D",
    "status": "Pending",
    "rowid": "1283081",
    "final_x": "3688259.73679",
    "final_y": "547364.812369",
    "longitude": "-90.04616353519967",
    "latitude": "29.998856345619068",
    "geocoded_column": {
      "latitude": "29.998856345619068",
      "longitude": "-90.04616353519967"
    }
  },
  {
    "service_request": "2026-1283080",
    "request_type": "Trash/Recycling",
    "request_reason": "Request a Large Item Pick Up",
    "date_created": "2026-05-20T15:51:39.000",
    "date_modified": "2026-05-20T15:51:41.000",
    "request_status": "Pending",
    "responsible_agency": "Department of Sanitation",
    "final_address": "7822 Keats St",
    "address_councildis": "E",
    "status": "Assigned to Contractor",
    "contractor": "Waste Pro",
    "rowid": "1283080",
    "final_x": "3696035.1233",
    "final_y": "559635.824669",
    "longitude": "-90.02115720675803",
    "latitude": "30.032354558722172",
    "geocoded_column": {
      "latitude": "30.032354558722172",
      "longitude": "-90.02115720675803"
    }
  },
  {
    "service_request": "2026-1283079",
    "request_type": "Street and Traffic Signs",
    "request_reason": "Stop Sign Missing or Damaged",
    "date_created": "2026-05-20T15:42:33.000",
    "date_modified": "2026-05-20T15:42:34.000",
    "request_status": "Pending",
    "responsible_agency": "Department of Public Works",
    "final_address": "EDINBURGH ST & SHORT ST",
    "address_councildis": "B",
    "status": "Pending",
    "rowid": "1283079",
    "final_x": "3667810.5",
    "final_y": "534126.98",
    "longitude": "-90.11120918103879",
    "latitude": "29.963072565320736",
    "geocoded_column": {
      "latitude": "29.963072565320736",
      "longitude": "-90.11120918103879"
    }
  },
  {
    "service_request": "2026-1283078",
    "request_type": "Property Maintenance",
    "request_reason": "Property Maintenance",
    "date_created": "2026-05-20T15:38:53.000",
    "date_modified": "2026-05-20T15:40:34.000",
    "request_status": "Pending",
    "responsible_agency": "Department of Code Enforcement",
    "final_address": "2342 Odin St",
    "address_councildis": "D",
    "status": "Pending",
    "rowid": "1283078",
    "final_x": "3684838.83657",
    "final_y": "553095.368343",
    "longitude": "-90.05676850118601",
    "latitude": "30.014718516945752",
    "geocoded_column": {
      "latitude": "30.014718516945752",
      "longitude": "-90.05676850118601"
    }
  },
  {
    "service_request": "2026-1283077",
    "request_type": "Trash/Recycling",
    "request_reason": "Request a Large Item Pick Up",
    "date_created": "2026-05-20T15:33:00.000",
    "date_modified": "2026-05-20T15:33:02.000",
    "request_status": "Pending",
    "responsible_agency": "Department of Sanitation",
    "final_address": "3831 Virgil Blvd",
    "address_councildis": "D",
    "status": "Assigned to Contractor",
    "contractor": "IV Waste",
    "rowid": "1283077",
    "final_x": "3680550.56507",
    "final_y": "546626.345297",
    "longitude": "-90.07054260444973",
    "latitude": "29.99706169097642",
    "geocoded_column": {
      "latitude": "29.99706169097642",
      "longitude": "-90.07054260444973"
    }
  },
  {
    "service_request": "2026-1283076",
    "request_type": "Trash/Recycling",
    "request_reason": "Replace Trash Cart",
    "date_created": "2026-05-20T15:30:21.000",
    "date_modified": "2026-05-20T15:30:23.000",
    "request_status": "Pending",
    "responsible_agency": "Department of Sanitation",
    "final_address": "4637 Palmyra St",
    "address_councildis": "A",
    "status": "Assigned to Contractor",
    "contractor": "IV Waste",
    "rowid": "1283076",
    "final_x": "3668700.38791",
    "final_y": "539224.987018",
    "longitude": "-90.10822688747504",
    "latitude": "29.977064252863165",
    "geocoded_column": {
      "latitude": "29.977064252863165",
      "longitude": "-90.10822688747504"
    }
  },
  {
    "service_request": "2026-1283075",
    "request_type": "Abandoned Vehicles",
    "request_reason": "Abandoned/Junk Vehicles",
    "date_created": "2026-05-20T15:26:19.000",
    "date_modified": "2026-05-20T15:26:22.000",
    "request_status": "Pending",
    "responsible_agency": "Department of Public Works",
    "final_address": "5839 Canal Blvd",
    "address_councildis": "A",
    "status": "Pending",
    "rowid": "1283075",
    "final_x": "3668547.95502",
    "final_y": "546255.507728",
    "longitude": "-90.10847096120473",
    "latitude": "29.996400269209776",
    "geocoded_column": {
      "latitude": "29.996400269209776",
      "longitude": "-90.10847096120473"
    }
  },
  {
    "service_request": "2026-1283074",
    "request_type": "Safety & Permits",
    "request_reason": "Zoning Enforcement",
    "date_created": "2026-05-20T15:26:00.000",
    "date_modified": "2026-05-20T15:26:02.000",
    "request_status": "Pending",
    "responsible_agency": "Safety and Permits",
    "final_address": "1829 Feliciana St",
    "address_councildis": "D",
    "status": "Pending",
    "rowid": "1283074",
    "final_x": "3689491.23465",
    "final_y": "538928.692554",
    "longitude": "-90.042573433195",
    "latitude": "29.97562194413839",
    "geocoded_column": {
      "latitude": "29.97562194413839",
      "longitude": "-90.042573433195"
    }
  },
  {
    "service_request": "2026-1283073",
    "request_type": "Property Maintenance",
    "request_reason": "Property Maintenance",
    "date_created": "2026-05-20T15:25:15.000",
    "date_modified": "2026-05-20T15:25:17.000",
    "request_status": "Pending",
    "responsible_agency": "Department of Code Enforcement",
    "final_address": "1829 Feliciana St",
    "address_councildis": "D",
    "status": "Pending",
    "rowid": "1283073",
    "final_x": "3689491.23465",
    "final_y": "538928.692554",
    "longitude": "-90.042573433195",
    "latitude": "29.97562194413839",
    "geocoded_column": {
      "latitude": "29.97562194413839",
      "longitude": "-90.042573433195"
    }
  },
  {
    "service_request": "2026-1283072",
    "request_type": "Trash/Recycling",
    "request_reason": "Request a Large Item Pick Up",
    "date_created": "2026-05-20T15:24:13.000",
    "date_modified": "2026-05-20T15:24:15.000",
    "request_status": "Pending",
    "responsible_agency": "Department of Sanitation",
    "final_address": "4215 Dumaine St",
    "address_councildis": "A",
    "status": "Assigned to Contractor",
    "contractor": "IV Waste",
    "rowid": "1283072",
    "final_x": "3672315.16942",
    "final_y": "541240.413644",
    "longitude": "-90.09674152299965",
    "latitude": "29.982499223747062",
    "geocoded_column": {
      "latitude": "29.982499223747062",
      "longitude": "-90.09674152299965"
    }
  },
  {
    "service_request": "2026-1283071",
    "request_type": "Property Maintenance",
    "request_reason": "Property Maintenance",
    "date_created": "2026-05-20T15:23:34.000",
    "date_modified": "2026-05-20T15:23:35.000",
    "request_status": "Pending",
    "responsible_agency": "Department of Code Enforcement",
    "final_address": "5700 BLK Louis Prima Dr W",
    "address_councildis": "E",
    "status": "Pending",
    "rowid": "1283071",
    "final_x": "3715705.51639",
    "final_y": "562340.786851",
    "longitude": "-89.95889550010229",
    "latitude": "30.03915807041264",
    "geocoded_column": {
      "latitude": "30.03915807041264",
      "longitude": "-89.95889550010229"
    }
  },
  {
    "service_request": "2026-1283070",
    "request_type": "Trash/Recycling",
    "request_reason": "Request a Large Item Pick Up",
    "date_created": "2026-05-20T15:22:11.000",
    "date_modified": "2026-05-20T15:22:13.000",
    "request_status": "Pending",
    "responsible_agency": "Department of Sanitation",
    "final_address": "818 Bordeaux St",
    "address_councildis": "B",
    "status": "Assigned to Contractor",
    "contractor": "IV Waste",
    "rowid": "1283070",
    "final_x": "3669564.27969",
    "final_y": "518429.819446",
    "longitude": "-90.10620180454744",
    "latitude": "29.919858909799583",
    "geocoded_column": {
      "latitude": "29.919858909799583",
      "longitude": "-90.10620180454744"
    }
  },
  {
    "service_request": "2026-1283069",
    "request_type": "Streetlights",
    "request_reason": "Streetlight Outage/Malfunction",
    "date_created": "2026-05-20T15:19:12.000",
    "date_modified": "2026-05-20T15:19:14.000",
    "request_status": "Pending",
    "responsible_agency": "Department of Public Works",
    "final_address": "4943 Michoud Blvd",
    "address_councildis": "E",
    "status": "Pending",
    "rowid": "1283069",
    "final_x": "3725023.23865",
    "final_y": "561449.183902",
    "longitude": "-89.92948375578219",
    "latitude": "30.03639592323206",
    "geocoded_column": {
      "latitude": "30.03639592323206",
      "longitude": "-89.92948375578219"
    }
  },
  {
    "service_request": "2026-1283068",
    "request_type": "Trash/Recycling",
    "request_reason": "Request a Large Item Pick Up",
    "date_created": "2026-05-20T15:17:08.000",
    "date_modified": "2026-05-20T15:17:15.000",
    "request_status": "Pending",
    "responsible_agency": "Department of Sanitation",
    "final_address": "13223 Curran Rd",
    "address_councildis": "E",
    "status": "Assigned to Contractor",
    "contractor": "Waste Pro",
    "rowid": "1283068",
    "final_x": "3715853.61663",
    "final_y": "570065.975207",
    "longitude": "-89.95813446055728",
    "latitude": "30.060394293323455",
    "geocoded_column": {
      "latitude": "30.060394293323455",
      "longitude": "-89.95813446055728"
    }
  },
  {
    "service_request": "2026-1283067",
    "request_type": "Trash/Recycling",
    "request_reason": "Request a Large Item Pick Up",
    "date_created": "2026-05-20T15:16:25.000",
    "date_modified": "2026-05-20T15:16:26.000",
    "request_status": "Pending",
    "responsible_agency": "Department of Sanitation",
    "final_address": "7231 Westhaven Rd",
    "address_councildis": "E",
    "status": "Assigned to Contractor",
    "contractor": "Waste Pro",
    "rowid": "1283067",
    "final_x": "3703526.49482",
    "final_y": "560493.263774",
    "longitude": "-89.99745251090748",
    "latitude": "30.034474167325364",
    "geocoded_column": {
      "latitude": "30.034474167325364",
      "longitude": "-89.99745251090748"
    }
  },
  {
    "service_request": "2026-1283066",
    "request_type": "Abandoned Vehicles",
    "request_reason": "Abandoned/Junk Vehicles",
    "date_created": "2026-05-20T15:15:45.000",
    "date_modified": "2026-05-20T15:15:47.000",
    "request_status": "Pending",
    "responsible_agency": "Department of Public Works",
    "final_address": "1434 Terpsichore St",
    "address_councildis": "B",
    "status": "Pending",
    "rowid": "1283066",
    "final_x": "3679523.58216",
    "final_y": "524893.542844",
    "longitude": "-90.07454100248117",
    "latitude": "29.93733499970584",
    "geocoded_column": {
      "latitude": "29.93733499970584",
      "longitude": "-90.07454100248117"
    }
  },
  {
    "service_request": "2026-1283065",
    "request_type": "Safety & Permits",
    "request_reason": "Zoning Enforcement",
    "date_created": "2026-05-20T15:10:05.000",
    "date_modified": "2026-05-20T15:12:26.000",
    "request_status": "Pending",
    "responsible_agency": "Safety and Permits",
    "final_address": "600 Elmira Ave",
    "address_councildis": "C",
    "status": "Pending",
    "rowid": "1283065",
    "final_x": "3688234.74678",
    "final_y": "529431.576065",
    "longitude": "-90.04687851228041",
    "latitude": "29.949547033157177",
    "geocoded_column": {
      "latitude": "29.949547033157177",
      "longitude": "-90.04687851228041"
    }
  },
  {
    "service_request": "2026-1283064",
    "request_type": "Trash/Recycling",
    "request_reason": "Request a Large Item Pick Up",
    "date_created": "2026-05-20T15:09:13.000",
    "date_modified": "2026-05-20T15:09:15.000",
    "request_status": "Pending",
    "responsible_agency": "Department of Sanitation",
    "final_address": "3617 Dumaine St",
    "address_councildis": "A",
    "status": "Assigned to Contractor",
    "contractor": "IV Waste",
    "rowid": "1283064",
    "final_x": "3674204.03502",
    "final_y": "539848.249802",
    "longitude": "-90.09082322340224",
    "latitude": "29.978615064593846",
    "geocoded_column": {
      "latitude": "29.978615064593846",
      "longitude": "-90.09082322340224"
    }
  },
  {
    "service_request": "2026-1283063",
    "request_type": "Roads and Streets",
    "request_reason": "Push-up/Pavement Expansion",
    "date_created": "2026-05-20T15:06:24.000",
    "date_modified": "2026-05-20T15:06:25.000",
    "request_status": "Pending",
    "responsible_agency": "Department of Public Works",
    "final_address": "3030 Franklin Ave",
    "address_councildis": "D",
    "status": "Pending",
    "rowid": "1283063",
    "final_x": "3687224.17711",
    "final_y": "544190.832142",
    "longitude": "-90.04954721040382",
    "latitude": "29.990160986663646",
    "geocoded_column": {
      "latitude": "29.990160986663646",
      "longitude": "-90.04954721040382"
    }
  },
  {
    "service_request": "2026-1283062",
    "request_type": "Safety & Permits",
    "request_reason": "Zoning Enforcement",
    "date_created": "2026-05-20T15:05:09.000",
    "date_modified": "2026-05-20T15:06:05.000",
    "request_status": "Pending",
    "responsible_agency": "Safety and Permits",
    "final_address": "CLAYTON AVE & VIRGINIA CT & VIRGINIA ST",
    "address_councildis": "A",
    "status": "Pending",
    "rowid": "1283062",
    "final_x": "3668802.0",
    "final_y": "542027.68",
    "longitude": "-90.10781128901321",
    "latitude": "29.984767721819722",
    "geocoded_column": {
      "latitude": "29.984767721819722",
      "longitude": "-90.10781128901321"
    }
  },
  {
    "service_request": "2026-1283061",
    "request_type": "Abandoned Vehicles",
    "request_reason": "Abandoned/Junk Vehicles",
    "date_created": "2026-05-20T15:05:09.000",
    "date_modified": "2026-05-20T15:10:02.000",
    "request_status": "Pending",
    "responsible_agency": "Department of Public Works",
    "final_address": "7902 Dorsett Dr",
    "address_councildis": "E",
    "status": "Pending",
    "rowid": "1283061",
    "final_x": "3712266.0316",
    "final_y": "568143.982757",
    "longitude": "-89.96954687301232",
    "latitude": "30.055227502857853",
    "geocoded_column": {
      "latitude": "30.055227502857853",
      "longitude": "-89.96954687301232"
    }
  },
  {
    "service_request": "2026-1283059",
    "request_type": "Roads and Streets",
    "request_reason": "Debris in Driving Lanes",
    "date_created": "2026-05-20T14:58:22.000",
    "date_modified": "2026-05-20T15:00:16.000",
    "request_status": "Pending",
    "responsible_agency": "Department of Public Works",
    "final_address": "MURL ST & LAWRENCE ST",
    "address_councildis": "C",
    "status": "Pending",
    "rowid": "1283059",
    "final_x": "3695379.0",
    "final_y": "525516.28",
    "longitude": "-90.02446220258732",
    "latitude": "29.938558842401033",
    "geocoded_column": {
      "latitude": "29.938558842401033",
      "longitude": "-90.02446220258732"
    }
  },
  {
    "service_request": "2026-1283058",
    "request_type": "Trash/Recycling",
    "request_reason": "Replace Trash Cart",
    "date_created": "2026-05-20T14:57:15.000",
    "date_modified": "2026-05-20T14:57:17.000",
    "request_status": "Pending",
    "responsible_agency": "Department of Sanitation",
    "final_address": "7718 Benjamin St",
    "address_councildis": "A",
    "status": "Assigned to Contractor",
    "contractor": "IV Waste",
    "rowid": "1283058",
    "final_x": "3660766.14317",
    "final_y": "525151.110973",
    "longitude": "-90.13375127596495",
    "latitude": "29.938596513092808",
    "geocoded_column": {
      "latitude": "29.938596513092808",
      "longitude": "-90.13375127596495"
    }
  },
  {
    "service_request": "2026-1283057",
    "request_type": "Roads and Streets",
    "request_reason": "Debris in Driving Lanes",
    "date_created": "2026-05-20T14:54:16.000",
    "date_modified": "2026-05-20T14:54:18.000",
    "request_status": "Pending",
    "responsible_agency": "Department of Public Works",
    "final_address": "MURL ST & LAWRENCE ST",
    "address_councildis": "C",
    "status": "Pending",
    "rowid": "1283057",
    "final_x": "3695379.0",
    "final_y": "525516.28",
    "longitude": "-90.02446220258732",
    "latitude": "29.938558842401033",
    "geocoded_column": {
      "latitude": "29.938558842401033",
      "longitude": "-90.02446220258732"
    }
  },
  {
    "service_request": "2026-1283056",
    "request_type": "Abandoned Vehicles",
    "request_reason": "Abandoned/Junk Vehicles",
    "date_created": "2026-05-20T14:53:13.000",
    "date_modified": "2026-05-20T14:53:14.000",
    "request_status": "Pending",
    "responsible_agency": "Department of Public Works",
    "final_address": "1532 S Norman C Francis Prkwy",
    "address_councildis": "B",
    "status": "Pending",
    "rowid": "1283056",
    "final_x": "3669620.02759",
    "final_y": "531287.353218",
    "longitude": "-90.10559097586228",
    "latitude": "29.955211338239256",
    "geocoded_column": {
      "latitude": "29.955211338239256",
      "longitude": "-90.10559097586228"
    }
  },
  {
    "service_request": "2026-1283055",
    "request_type": "Trash/Recycling",
    "request_reason": "Request a Large Item Pick Up",
    "date_created": "2026-05-20T14:52:26.000",
    "date_modified": "2026-05-20T14:52:28.000",
    "request_status": "Pending",
    "responsible_agency": "Department of Sanitation",
    "final_address": "6900 Lake Willow Dr",
    "address_councildis": "E",
    "status": "Assigned to Contractor",
    "contractor": "Waste Pro",
    "rowid": "1283055",
    "final_x": "3703280.10097",
    "final_y": "558633.160988",
    "longitude": "-89.99829963168936",
    "latitude": "30.029367505557683",
    "geocoded_column": {
      "latitude": "30.029367505557683",
      "longitude": "-89.99829963168936"
    }
  },
  {
    "service_request": "2026-1283054",
    "request_type": "Abandoned Vehicles",
    "request_reason": "Abandoned/Junk Vehicles",
    "date_created": "2026-05-20T14:51:23.000",
    "date_modified": "2026-05-20T14:54:01.000",
    "request_status": "Pending",
    "responsible_agency": "Department of Public Works",
    "final_address": "7200 BLK Mayo Rd",
    "address_councildis": "E",
    "status": "Inspected",
    "rowid": "1283054",
    "final_x": "3701136.47827",
    "final_y": "559691.268856",
    "longitude": "-90.00503462810526",
    "latitude": "30.032345391877772",
    "geocoded_column": {
      "latitude": "30.032345391877772",
      "longitude": "-90.00503462810526"
    }
  },
  {
    "service_request": "2026-1283053",
    "request_type": "Trash/Recycling",
    "request_reason": "Replace Trash Cart",
    "date_created": "2026-05-20T14:48:08.000",
    "date_modified": "2026-05-20T14:48:09.000",
    "request_status": "Pending",
    "responsible_agency": "Department of Sanitation",
    "final_address": "7922 Freret St",
    "address_councildis": "A",
    "status": "Assigned to Contractor",
    "contractor": "IV Waste",
    "rowid": "1283053",
    "final_x": "3661919.43687",
    "final_y": "527413.329215",
    "longitude": "-90.1300351856367",
    "latitude": "29.94478364459867",
    "geocoded_column": {
      "latitude": "29.94478364459867",
      "longitude": "-90.1300351856367"
    }
  },
  {
    "service_request": "2026-1283052",
    "request_type": "Trash/Recycling",
    "request_reason": "Request a Large Item Pick Up",
    "date_created": "2026-05-20T14:47:51.000",
    "date_modified": "2026-05-20T14:47:52.000",
    "request_status": "Pending",
    "responsible_agency": "Department of Sanitation",
    "final_address": "4805 Annette St",
    "address_councildis": "D",
    "status": "Assigned to Contractor",
    "contractor": "IV Waste",
    "rowid": "1283052",
    "final_x": "3682060.10287",
    "final_y": "550204.21154",
    "longitude": "-90.06564900409558",
    "latitude": "30.006853711624547",
    "geocoded_column": {
      "latitude": "30.006853711624547",
      "longitude": "-90.06564900409558"
    }
  },
  {
    "service_request": "2026-1283051",
    "request_type": "Property Maintenance",
    "request_reason": "Property Maintenance",
    "date_created": "2026-05-20T14:47:39.000",
    "date_modified": "2026-05-20T14:47:40.000",
    "request_status": "Pending",
    "responsible_agency": "Department of Code Enforcement",
    "final_address": "1245 Casa Calvo St",
    "address_councildis": "C",
    "status": "Pending",
    "rowid": "1283051",
    "final_x": "3692025.1887",
    "final_y": "526311.84275",
    "longitude": "-90.03502203337548",
    "latitude": "29.940851281218045",
    "geocoded_column": {
      "latitude": "29.940851281218045",
      "longitude": "-90.03502203337548"
    }
  },
  {
    "service_request": "2026-1283050",
    "request_type": "Abandoned Vehicles",
    "request_reason": "Abandoned/Junk Vehicles",
    "date_created": "2026-05-20T14:47:03.000",
    "date_modified": "2026-05-20T14:47:06.000",
    "request_status": "Pending",
    "responsible_agency": "Department of Public Works",
    "final_address": "7900 Dorsett Dr",
    "address_councildis": "E",
    "status": "Pending",
    "rowid": "1283050",
    "final_x": "3712276.0316",
    "final_y": "568126.900645",
    "longitude": "-89.96951590799718",
    "latitude": "30.055180206759818",
    "geocoded_column": {
      "latitude": "30.055180206759818",
      "longitude": "-89.96951590799718"
    }
  },
  {
    "service_request": "2026-1283049",
    "request_type": "Utility Poles",
    "request_reason": "Wires Sagging/Hanging Low",
    "date_created": "2026-05-20T14:42:22.000",
    "date_modified": "2026-05-20T14:42:23.000",
    "request_status": "Pending",
    "responsible_agency": "Utility Company Collective",
    "final_address": "2742 Prentiss Ave",
    "address_councildis": "D",
    "status": "Pending",
    "rowid": "1283049",
    "final_x": "3687667.89468",
    "final_y": "554055.359704",
    "longitude": "-90.04779604421768",
    "latitude": "30.017271172109382",
    "geocoded_column": {
      "latitude": "30.017271172109382",
      "longitude": "-90.04779604421768"
    }
  },
  {
    "service_request": "2026-1283048",
    "request_type": "Trash/Recycling",
    "request_reason": "Request a Large Item Pick Up",
    "date_created": "2026-05-20T14:41:45.000",
    "date_modified": "2026-05-20T14:41:47.000",
    "request_status": "Pending",
    "responsible_agency": "Department of Sanitation",
    "final_address": "3958 Tchoupitoulas St",
    "address_councildis": "B",
    "status": "Assigned to Contractor",
    "contractor": "IV Waste",
    "rowid": "1283048",
    "final_x": "3672918.86408",
    "final_y": "517600.350198",
    "longitude": "-90.09564127735639",
    "latitude": "29.91747892307942",
    "geocoded_column": {
      "latitude": "29.91747892307942",
      "longitude": "-90.09564127735639"
    }
  },
  {
    "service_request": "2026-1283047",
    "request_type": "Trash/Recycling",
    "request_reason": "Request a Large Item Pick Up",
    "date_created": "2026-05-20T14:38:44.000",
    "date_modified": "2026-05-20T14:38:46.000",
    "request_status": "Pending",
    "responsible_agency": "Department of Sanitation",
    "final_address": "315 Audubon St",
    "address_councildis": "A",
    "status": "Assigned to Contractor",
    "contractor": "IV Waste",
    "rowid": "1283047",
    "final_x": "3661649.84838",
    "final_y": "522136.685498",
    "longitude": "-90.13106116679486",
    "latitude": "29.93028232433891",
    "geocoded_column": {
      "latitude": "29.93028232433891",
      "longitude": "-90.13106116679486"
    }
  },
  {
    "service_request": "2026-1283046",
    "request_type": "Trash/Recycling",
    "request_reason": "Request a Large Item Pick Up",
    "date_created": "2026-05-20T14:32:28.000",
    "date_modified": "2026-05-20T14:32:31.000",
    "request_status": "Pending",
    "responsible_agency": "Department of Sanitation",
    "final_address": "8316 Sycamore St",
    "address_councildis": "A",
    "status": "Assigned to Contractor",
    "contractor": "IV Waste",
    "rowid": "1283046",
    "final_x": "3663662.18234",
    "final_y": "531526.323395",
    "longitude": "-90.12439577763577",
    "latitude": "29.95604261421482",
    "geocoded_column": {
      "latitude": "29.95604261421482",
      "longitude": "-90.12439577763577"
    }
  },
  {
    "service_request": "2026-1283045",
    "request_type": "Trash/Recycling",
    "request_reason": "Request a Large Item Pick Up",
    "date_created": "2026-05-20T14:26:25.000",
    "date_modified": "2026-05-20T14:26:27.000",
    "request_status": "Pending",
    "responsible_agency": "Department of Sanitation",
    "final_address": "7856 Sand St",
    "address_councildis": "E",
    "status": "Assigned to Contractor",
    "contractor": "Waste Pro",
    "rowid": "1283045",
    "final_x": "3720029.30713",
    "final_y": "574338.335467",
    "longitude": "-89.94477177741439",
    "latitude": "30.072003029055022",
    "geocoded_column": {
      "latitude": "30.072003029055022",
      "longitude": "-89.94477177741439"
    }
  },
  {
    "service_request": "2026-1283044",
    "request_type": "Abandoned Vehicles",
    "request_reason": "Abandoned/Junk Vehicles",
    "date_created": "2026-05-20T14:25:11.000",
    "date_modified": "2026-05-20T14:25:13.000",
    "request_status": "Pending",
    "responsible_agency": "Department of Public Works",
    "final_address": "4100 Piedmont Dr",
    "address_councildis": "D",
    "status": "Pending",
    "rowid": "1283044",
    "final_x": "3685013.71932",
    "final_y": "547670.097682",
    "longitude": "-90.05640697945216",
    "latitude": "29.999795633649335",
    "geocoded_column": {
      "latitude": "29.999795633649335",
      "longitude": "-90.05640697945216"
    }
  },
  {
    "service_request": "2026-1283043",
    "request_type": "Trash/Recycling",
    "request_reason": "Request a Large Item Pick Up",
    "date_created": "2026-05-20T14:22:55.000",
    "date_modified": "2026-05-20T14:22:58.000",
    "request_status": "Pending",
    "responsible_agency": "Department of Sanitation",
    "final_address": "4619 Schindler Dr",
    "address_councildis": "E",
    "status": "Assigned to Contractor",
    "contractor": "Waste Pro",
    "rowid": "1283043",
    "final_x": "3714475.13227",
    "final_y": "556003.828121",
    "longitude": "-89.96302332397967",
    "latitude": "30.02177448493708",
    "geocoded_column": {
      "latitude": "30.02177448493708",
      "longitude": "-89.96302332397967"
    }
  },
  {
    "service_request": "2026-1283042",
    "request_type": "Trash/Recycling",
    "request_reason": "Replace Recycling Cart",
    "date_created": "2026-05-20T14:20:26.000",
    "date_modified": "2026-05-20T14:20:27.000",
    "request_status": "Pending",
    "responsible_agency": "Department of Sanitation",
    "final_address": "6000 Charlotte Dr",
    "address_councildis": "D",
    "status": "Pending",
    "rowid": "1283042",
    "final_x": "3679810.91727",
    "final_y": "554501.771224",
    "longitude": "-90.0726053933535",
    "latitude": "30.01873867827794",
    "geocoded_column": {
      "latitude": "30.01873867827794",
      "longitude": "-90.0726053933535"
    }
  },
  {
    "service_request": "2026-1283041",
    "request_type": "Trash/Recycling",
    "request_reason": "Repair Trash Cart",
    "date_created": "2026-05-20T14:20:25.000",
    "date_modified": "2026-05-20T14:20:26.000",
    "request_status": "Pending",
    "responsible_agency": "Department of Sanitation",
    "final_address": "4818 Good Dr",
    "address_councildis": "E",
    "status": "Assigned to Contractor",
    "contractor": "Waste Pro",
    "rowid": "1283041",
    "final_x": "3714690.20363",
    "final_y": "557077.002266",
    "longitude": "-89.96230318886074",
    "latitude": "30.024718215031623",
    "geocoded_column": {
      "latitude": "30.024718215031623",
      "longitude": "-89.96230318886074"
    }
  },
  {
    "service_request": "2026-1283040",
    "request_type": "Trash/Recycling",
    "request_reason": "Return Recycling Cart",
    "date_created": "2026-05-20T14:19:57.000",
    "date_modified": "2026-05-20T14:19:59.000",
    "request_status": "Pending",
    "responsible_agency": "Department of Sanitation",
    "final_address": "936 Topaz St",
    "address_councildis": "D",
    "status": "Pending",
    "rowid": "1283040",
    "final_x": "3671128.97966",
    "final_y": "556894.045338",
    "longitude": "-90.09995591489493",
    "latitude": "30.02557637541578",
    "geocoded_column": {
      "latitude": "30.02557637541578",
      "longitude": "-90.09995591489493"
    }
  },
  {
    "service_request": "2026-1283039",
    "request_type": "Trash/Recycling",
    "request_reason": "Repair Trash Cart",
    "date_created": "2026-05-20T14:19:22.000",
    "date_modified": "2026-05-20T14:19:25.000",
    "request_status": "Pending",
    "responsible_agency": "Department of Sanitation",
    "final_address": "306 Audubon Blvd",
    "address_councildis": "A",
    "status": "Assigned to Contractor",
    "contractor": "IV Waste",
    "rowid": "1283039",
    "final_x": "3666995.23917",
    "final_y": "529801.187777",
    "longitude": "-90.11392905955792",
    "latitude": "29.95120193885334",
    "geocoded_column": {
      "latitude": "29.95120193885334",
      "longitude": "-90.11392905955792"
    }
  },
  {
    "service_request": "2026-1283038",
    "request_type": "Trash/Recycling",
    "request_reason": "Damaged Caused By Contractor",
    "date_created": "2026-05-20T14:18:38.000",
    "date_modified": "2026-05-20T14:18:40.000",
    "request_status": "Pending",
    "responsible_agency": "Department of Sanitation",
    "final_address": "3915 S Pin Oak Ave",
    "address_councildis": "C",
    "status": "Assigned to Contractor",
    "contractor": "Richards Disposal",
    "rowid": "1283038",
    "final_x": "3704798.51863",
    "final_y": "513658.206642",
    "longitude": "-89.99516124732362",
    "latitude": "29.905654035507826",
    "geocoded_column": {
      "latitude": "29.905654035507826",
      "longitude": "-89.99516124732362"
    }
  },
  {
    "service_request": "2026-1283037",
    "request_type": "Trash/Recycling",
    "request_reason": "Request a Large Item Pick Up",
    "date_created": "2026-05-20T14:18:00.000",
    "date_modified": "2026-05-20T14:18:01.000",
    "request_status": "Pending",
    "responsible_agency": "Department of Sanitation",
    "final_address": "5515 Royal St",
    "address_councildis": "E",
    "status": "Assigned to Contractor",
    "contractor": "Waste Pro",
    "rowid": "1283037",
    "final_x": "3697515.97661",
    "final_y": "532335.206083",
    "longitude": "-90.01746835903565",
    "latitude": "29.95724121042574",
    "geocoded_column": {
      "latitude": "29.95724121042574",
      "longitude": "-90.01746835903565"
    }
  },
  {
    "service_request": "2026-1283036",
    "request_type": "Trash/Recycling",
    "request_reason": "Illegal Dumping",
    "date_created": "2026-05-20T14:17:51.000",
    "date_modified": "2026-05-20T14:17:53.000",
    "request_status": "Pending",
    "responsible_agency": "Department of Sanitation",
    "final_address": "3237 Gibson St",
    "address_councildis": "D",
    "status": "Pending",
    "rowid": "1283036",
    "final_x": "3679071.65736",
    "final_y": "544391.496975",
    "longitude": "-90.0752919193673",
    "latitude": "29.990961378039025",
    "geocoded_column": {
      "latitude": "29.990961378039025",
      "longitude": "-90.0752919193673"
    }
  },
  {
    "service_request": "2026-1283035",
    "request_type": "Trash/Recycling",
    "request_reason": "Request a Large Item Pick Up",
    "date_created": "2026-05-20T14:17:33.000",
    "date_modified": "2026-05-20T14:17:35.000",
    "request_status": "Pending",
    "responsible_agency": "Department of Sanitation",
    "final_address": "5107 Dryades St",
    "address_councildis": "B",
    "status": "Assigned to Contractor",
    "contractor": "IV Waste",
    "rowid": "1283035",
    "final_x": "3668327.39854",
    "final_y": "521870.612282",
    "longitude": "-90.10999009292964",
    "latitude": "29.929356365141565",
    "geocoded_column": {
      "latitude": "29.929356365141565",
      "longitude": "-90.10999009292964"
    }
  },
  {
    "service_request": "2026-1283034",
    "request_type": "Trash/Recycling",
    "request_reason": "Repair Trash Cart",
    "date_created": "2026-05-20T14:17:27.000",
    "date_modified": "2026-05-20T14:17:28.000",
    "request_status": "Pending",
    "responsible_agency": "Department of Sanitation",
    "final_address": "210 Walnut St",
    "address_councildis": "A",
    "status": "Assigned to Contractor",
    "contractor": "IV Waste",
    "rowid": "1283034",
    "final_x": "3661234.13946",
    "final_y": "521143.393209",
    "longitude": "-90.13240636549081",
    "latitude": "29.927563068180334",
    "geocoded_column": {
      "latitude": "29.927563068180334",
      "longitude": "-90.13240636549081"
    }
  },
  {
    "service_request": "2026-1283033",
    "request_type": "Trash/Recycling",
    "request_reason": "Request a Large Item Pick Up",
    "date_created": "2026-05-20T14:16:22.000",
    "date_modified": "2026-05-20T14:16:23.000",
    "request_status": "Pending",
    "responsible_agency": "Department of Sanitation",
    "final_address": "5008 Magazine St Apt 1A",
    "address_councildis": "B",
    "status": "Assigned to Contractor",
    "contractor": "IV Waste",
    "rowid": "1283033",
    "final_x": "3668544.85262",
    "final_y": "518540.209079",
    "longitude": "-90.10941592739654",
    "latitude": "29.92019242672892",
    "geocoded_column": {
      "latitude": "29.92019242672892",
      "longitude": "-90.10941592739654"
    }
  },
  {
    "service_request": "2026-1283032",
    "request_type": "Trash/Recycling",
    "request_reason": "Order Recycling Cart",
    "date_created": "2026-05-20T14:15:08.000",
    "date_modified": "2026-05-20T14:15:11.000",
    "request_status": "Pending",
    "responsible_agency": "Department of Sanitation",
    "final_address": "34 Egret St",
    "address_councildis": "D",
    "status": "Pending",
    "rowid": "1283032",
    "final_x": "3673915.42894",
    "final_y": "554992.54172",
    "longitude": "-90.09121624760954",
    "latitude": "30.0202651612189",
    "geocoded_column": {
      "latitude": "30.0202651612189",
      "longitude": "-90.09121624760954"
    }
  },
  {
    "service_request": "2026-1283031",
    "request_type": "Property Maintenance",
    "request_reason": "Property Maintenance",
    "date_created": "2026-05-20T14:14:13.000",
    "date_modified": "2026-05-20T14:14:14.000",
    "request_status": "Pending",
    "responsible_agency": "Department of Code Enforcement",
    "final_address": "5851 Read Blvd",
    "address_councildis": "E",
    "status": "Pending",
    "rowid": "1283031",
    "final_x": "3710972.66885",
    "final_y": "561102.245214",
    "longitude": "-89.97389895558436",
    "latitude": "30.03590782320124",
    "geocoded_column": {
      "latitude": "30.03590782320124",
      "longitude": "-89.97389895558436"
    }
  },
  {
    "service_request": "2026-1283030",
    "request_type": "Trash/Recycling",
    "request_reason": "Repair Trash Cart",
    "date_created": "2026-05-20T14:14:09.000",
    "date_modified": "2026-05-20T14:14:11.000",
    "request_status": "Pending",
    "responsible_agency": "Department of Sanitation",
    "final_address": "2672 Touro St",
    "address_councildis": "D",
    "status": "Assigned to Contractor",
    "contractor": "IV Waste",
    "rowid": "1283030",
    "final_x": "3683699.37577",
    "final_y": "542386.557453",
    "longitude": "-90.06074441267025",
    "latitude": "29.985307986227195",
    "geocoded_column": {
      "latitude": "29.985307986227195",
      "longitude": "-90.06074441267025"
    }
  },
  {
    "service_request": "2026-1283029",
    "request_type": "Property Maintenance",
    "request_reason": "Property Maintenance",
    "date_created": "2026-05-20T14:12:47.000",
    "date_modified": "2026-05-20T14:12:49.000",
    "request_status": "Pending",
    "responsible_agency": "Department of Code Enforcement",
    "final_address": "5024 Read Blvd",
    "address_councildis": "E",
    "status": "Pending",
    "rowid": "1283029",
    "final_x": "3712524.00306",
    "final_y": "557604.286747",
    "longitude": "-89.96912810970466",
    "latitude": "30.026239129239833",
    "geocoded_column": {
      "latitude": "30.026239129239833",
      "longitude": "-89.96912810970466"
    }
  },
  {
    "service_request": "2026-1283028",
    "request_type": "Property Maintenance",
    "request_reason": "Property Maintenance",
    "date_created": "2026-05-20T14:10:48.000",
    "date_modified": "2026-05-20T14:10:51.000",
    "request_status": "Pending",
    "responsible_agency": "Department of Code Enforcement",
    "final_address": "4918 Read Blvd",
    "address_councildis": "E",
    "status": "Pending",
    "rowid": "1283028",
    "final_x": "3712578.82334",
    "final_y": "557058.913818",
    "longitude": "-89.96897540553032",
    "latitude": "30.024737774393774",
    "geocoded_column": {
      "latitude": "30.024737774393774",
      "longitude": "-89.96897540553032"
    }
  },
  {
    "service_request": "2026-1283027",
    "request_type": "Parks & Grass Service",
    "request_reason": "Request Grass Cutting Service (City Owned Property)",
    "date_created": "2026-05-20T14:08:06.000",
    "date_modified": "2026-05-20T14:08:07.000",
    "request_status": "Pending",
    "responsible_agency": "Department of Parks & Parkways",
    "final_address": "3237 Gibson St",
    "address_councildis": "D",
    "status": "Pending",
    "rowid": "1283027",
    "final_x": "3679071.65736",
    "final_y": "544391.496975",
    "longitude": "-90.0752919193673",
    "latitude": "29.990961378039025",
    "geocoded_column": {
      "latitude": "29.990961378039025",
      "longitude": "-90.0752919193673"
    }
  },
  {
    "service_request": "2026-1283026",
    "request_type": "Trash/Recycling",
    "request_reason": "Request a Large Item Pick Up",
    "date_created": "2026-05-20T14:07:47.000",
    "date_modified": "2026-05-20T14:07:49.000",
    "request_status": "Pending",
    "responsible_agency": "Department of Sanitation",
    "final_address": "4818 Carondelet St",
    "address_councildis": "B",
    "status": "Assigned to Contractor",
    "contractor": "IV Waste",
    "rowid": "1283026",
    "final_x": "3669162.42068",
    "final_y": "520989.668793",
    "longitude": "-90.10738383026269",
    "latitude": "29.926909511532198",
    "geocoded_column": {
      "latitude": "29.926909511532198",
      "longitude": "-90.10738383026269"
    }
  },
  {
    "service_request": "2026-1283025",
    "request_type": "Trash/Recycling",
    "request_reason": "Request a Large Item Pick Up",
    "date_created": "2026-05-20T14:06:01.000",
    "date_modified": "2026-05-20T14:06:04.000",
    "request_status": "Pending",
    "responsible_agency": "Department of Sanitation",
    "final_address": "316 S Salcedo St",
    "address_councildis": "B",
    "status": "Assigned to Contractor",
    "contractor": "IV Waste",
    "rowid": "1283025",
    "final_x": "3673537.80072",
    "final_y": "535267.022918",
    "longitude": "-90.09308405633564",
    "latitude": "29.966038091815133",
    "geocoded_column": {
      "latitude": "29.966038091815133",
      "longitude": "-90.09308405633564"
    }
  },
  {
    "service_request": "2026-1283024",
    "request_type": "Trash/Recycling",
    "request_reason": "Request a Large Item Pick Up",
    "date_created": "2026-05-20T13:55:38.000",
    "date_modified": "2026-05-20T13:55:40.000",
    "request_status": "Pending",
    "responsible_agency": "Department of Sanitation",
    "final_address": "4664 Bonita Dr",
    "address_councildis": "E",
    "status": "Assigned to Contractor",
    "contractor": "Waste Pro",
    "rowid": "1283024",
    "final_x": "3704477.82212",
    "final_y": "554844.729496",
    "longitude": "-89.9946547481912",
    "latitude": "30.018912360856106",
    "geocoded_column": {
      "latitude": "30.018912360856106",
      "longitude": "-89.9946547481912"
    }
  },
  {
    "service_request": "2026-1283023",
    "request_type": "Trash/Recycling",
    "request_reason": "Request a Large Item Pick Up",
    "date_created": "2026-05-20T13:54:47.000",
    "date_modified": "2026-05-20T13:54:52.000",
    "request_status": "Pending",
    "responsible_agency": "Department of Sanitation",
    "final_address": "8637 Pritchard Pl",
    "address_councildis": "A",
    "status": "Assigned to Contractor",
    "contractor": "IV Waste",
    "rowid": "1283023",
    "final_x": "3664537.21421",
    "final_y": "534321.345669",
    "longitude": "-90.12153937757216",
    "latitude": "29.9637025974737",
    "geocoded_column": {
      "latitude": "29.9637025974737",
      "longitude": "-90.12153937757216"
    }
  },
  {
    "service_request": "2026-1283022",
    "request_type": "Trash/Recycling",
    "request_reason": "Replace Trash Cart",
    "date_created": "2026-05-20T13:52:48.000",
    "date_modified": "2026-05-20T13:52:49.000",
    "request_status": "Pending",
    "responsible_agency": "Department of Sanitation",
    "final_address": "7813 Jeannette St",
    "address_councildis": "A",
    "status": "Assigned to Contractor",
    "contractor": "IV Waste",
    "rowid": "1283022",
    "final_x": "3663445.84871",
    "final_y": "528498.508736",
    "longitude": "-90.12517969580665",
    "latitude": "29.947723375945074",
    "geocoded_column": {
      "latitude": "29.947723375945074",
      "longitude": "-90.12517969580665"
    }
  },
  {
    "service_request": "2026-1283021",
    "request_type": "Trash/Recycling",
    "request_reason": "Replace Recycling Cart",
    "date_created": "2026-05-20T13:52:45.000",
    "date_modified": "2026-05-20T13:52:46.000",
    "request_status": "Pending",
    "responsible_agency": "Department of Sanitation",
    "final_address": "334 28Th St",
    "address_councildis": "A",
    "status": "Pending",
    "rowid": "1283021",
    "final_x": "3664986.66714",
    "final_y": "550197.262484",
    "longitude": "-90.11958898782605",
    "latitude": "30.007342933294247",
    "geocoded_column": {
      "latitude": "30.007342933294247",
      "longitude": "-90.11958898782605"
    }
  },
  {
    "service_request": "2026-1283020",
    "request_type": "Roads and Streets",
    "request_reason": "Street Subsidence (Sinking)",
    "date_created": "2026-05-20T13:51:54.000",
    "date_modified": "2026-05-20T13:51:56.000",
    "request_status": "Pending",
    "responsible_agency": "Sewerage & Water Board",
    "final_address": "8335 Hickory St",
    "address_councildis": "A",
    "status": "Pending",
    "rowid": "1283020",
    "final_x": "3662661.89805",
    "final_y": "530643.60493",
    "longitude": "-90.1275836786205",
    "latitude": "29.953644405092493",
    "geocoded_column": {
      "latitude": "29.953644405092493",
      "longitude": "-90.1275836786205"
    }
  },
  {
    "service_request": "2026-1283019",
    "request_type": "Trash/Recycling",
    "request_reason": "Return Trash Cart",
    "date_created": "2026-05-20T13:51:52.000",
    "date_modified": "2026-05-20T13:51:56.000",
    "request_status": "Pending",
    "responsible_agency": "Department of Sanitation",
    "final_address": "1433 Melpomene St",
    "address_councildis": "B",
    "status": "Assigned to Contractor",
    "contractor": "IV Waste",
    "rowid": "1283019",
    "final_x": "3679779.92239",
    "final_y": "525219.648445",
    "longitude": "-90.07372040214577",
    "latitude": "29.9382239363631",
    "geocoded_column": {
      "latitude": "29.9382239363631",
      "longitude": "-90.07372040214577"
    }
  },
  {
    "service_request": "2026-1283018",
    "request_type": "Streetlights",
    "request_reason": "Streetlight Outage/Malfunction",
    "date_created": "2026-05-20T13:51:32.000",
    "date_modified": "2026-05-20T13:52:06.000",
    "request_status": "Pending",
    "responsible_agency": "Department of Public Works",
    "final_address": "4756 Lonely Oak Dr",
    "address_councildis": "E",
    "status": "Pending",
    "rowid": "1283018",
    "final_x": "3702247.15767",
    "final_y": "554467.702616",
    "longitude": "-90.0017166556246",
    "latitude": "30.017947149932315",
    "geocoded_column": {
      "latitude": "30.017947149932315",
      "longitude": "-90.0017166556246"
    }
  },
  {
    "service_request": "2026-1283017",
    "request_type": "Trash/Recycling",
    "request_reason": "Request a Large Item Pick Up",
    "date_created": "2026-05-20T13:50:39.000",
    "date_modified": "2026-05-20T13:50:41.000",
    "request_status": "Pending",
    "responsible_agency": "Department of Sanitation",
    "final_address": "1433 Melpomene St",
    "address_councildis": "B",
    "status": "Assigned to Contractor",
    "contractor": "IV Waste",
    "rowid": "1283017",
    "final_x": "3679779.92239",
    "final_y": "525219.648445",
    "longitude": "-90.07372040214577",
    "latitude": "29.9382239363631",
    "geocoded_column": {
      "latitude": "29.9382239363631",
      "longitude": "-90.07372040214577"
    }
  },
  {
    "service_request": "2026-1283016",
    "request_type": "Utility Poles",
    "request_reason": "Utility Pole Leaning",
    "date_created": "2026-05-20T13:48:23.000",
    "date_modified": "2026-05-20T13:48:26.000",
    "request_status": "Pending",
    "responsible_agency": "Utility Company Collective",
    "final_address": "4962 Eastern St",
    "address_councildis": "D",
    "status": "Pending",
    "rowid": "1283016",
    "final_x": "3687893.77289",
    "final_y": "551535.755477",
    "longitude": "-90.04717172056979",
    "latitude": "30.010336218384857",
    "geocoded_column": {
      "latitude": "30.010336218384857",
      "longitude": "-90.04717172056979"
    }
  },
  {
    "service_request": "2026-1283015",
    "request_type": "General Services",
    "request_reason": "General Service Request",
    "date_created": "2026-05-20T13:47:58.000",
    "date_modified": "2026-05-20T13:48:00.000",
    "request_status": "Pending",
    "responsible_agency": "Orleans Parish Communication District",
    "final_address": "4119 S Robertson St",
    "address_councildis": "B",
    "status": "Pending",
    "rowid": "1283015",
    "final_x": "3671409.10337",
    "final_y": "524514.431676",
    "longitude": "-90.10017188352101",
    "latitude": "29.93653518831129",
    "geocoded_column": {
      "latitude": "29.93653518831129",
      "longitude": "-90.10017188352101"
    }
  },
  {
    "service_request": "2026-1283014",
    "request_type": "Trash/Recycling",
    "request_reason": "Request a Large Item Pick Up",
    "date_created": "2026-05-20T13:46:22.000",
    "date_modified": "2026-05-20T13:46:24.000",
    "request_status": "Pending",
    "responsible_agency": "Department of Sanitation",
    "final_address": "12 Carriage Ln",
    "address_councildis": "C",
    "status": "Assigned to Contractor",
    "contractor": "Richards Disposal",
    "rowid": "1283014",
    "final_x": "3695940.59587",
    "final_y": "519889.315384",
    "longitude": "-90.0228923632517",
    "latitude": "29.923068964092447",
    "geocoded_column": {
      "latitude": "29.923068964092447",
      "longitude": "-90.0228923632517"
    }
  },
  {
    "service_request": "2026-1283013",
    "request_type": "Tree Service",
    "request_reason": "Tree Trim",
    "date_created": "2026-05-20T13:41:20.000",
    "date_modified": "2026-05-20T13:41:22.000",
    "request_status": "Pending",
    "responsible_agency": "Department of Parks & Parkways",
    "final_address": "1100 BLK Barracks St",
    "address_councildis": "C",
    "status": "Pending",
    "rowid": "1283013",
    "final_x": "3682533.27171",
    "final_y": "535233.580567",
    "longitude": "-90.06467779496055",
    "latitude": "29.96567534661165",
    "geocoded_column": {
      "latitude": "29.96567534661165",
      "longitude": "-90.06467779496055"
    }
  },
  {
    "service_request": "2026-1283012",
    "request_type": "Roads and Streets",
    "request_reason": "Sidewalk Damaged or Missing",
    "date_created": "2026-05-20T13:39:39.000",
    "date_modified": "2026-05-20T13:39:41.000",
    "request_status": "Pending",
    "responsible_agency": "Department of Public Works",
    "final_address": "789 Harrison Ave",
    "address_councildis": "A",
    "status": "Pending",
    "rowid": "1283012",
    "final_x": "3669333.1458",
    "final_y": "549321.749139",
    "longitude": "-90.10588682848493",
    "latitude": "30.004808266233592",
    "geocoded_column": {
      "latitude": "30.004808266233592",
      "longitude": "-90.10588682848493"
    }
  },
  {
    "service_request": "2026-1283011",
    "request_type": "Street and Traffic Signs",
    "request_reason": "Street Name Sign Damaged or Missing",
    "date_created": "2026-05-20T13:38:23.000",
    "date_modified": "2026-05-20T13:38:25.000",
    "request_status": "Pending",
    "responsible_agency": "Department of Public Works",
    "final_address": "400 Dauphine St",
    "address_councildis": "C",
    "status": "Pending",
    "rowid": "1283011",
    "final_x": "3681351.87874",
    "final_y": "532037.492419",
    "longitude": "-90.0685199976539",
    "latitude": "29.956923107885665",
    "geocoded_column": {
      "latitude": "29.956923107885665",
      "longitude": "-90.0685199976539"
    }
  },