[
  {
    "service_request": "2023-1049525",
    "request_type": "Roads/Drainage",
    "request_reason": "Pothole",
    "date_created": "2023-11-12T01:00:28.000",
    "date_modified": "2023-11-12T01:00:28.000",
    "request_status": "Pending",
    "responsible_agency": "Department of Public Works",
    "final_address": "4216 Chestnut St",
    "address_councildis": "B",
    "status": "Pending",
    "rowid": "1049525",
    "final_x": "3671574.31393",
    "final_y": "519539.203703",
    "longitude": "-90.09981939416457",
    "latitude": "29.922850019854593",
    "geocoded_column": {
      "latitude": "29.922850019854593",
      "longitude": "-90.09981939416457"
    }
  },
  {
    "service_request": "2023-1049524",
    "request_type": "Roads/Drainage",
    "request_reason": "Pothole",
    "date_created": "2023-11-12T00:34:59.000",
    "date_modified": "2023-11-12T00:34:59.000",
    "request_status": "Pending",
    "responsible_agency": "Department of Public Works",
    "final_address": "1317 Milan St",
    "address_councildis": "B",
    "status": "Pending",
    "rowid": "1049524",
    "final_x": "3671700.96097",
    "final_y": "520272.658936",
    "longitude": "-90.09939468590763",
    "latitude": "29.9248630381211",
    "geocoded_column": {
      "latitude": "29.9248630381211",
      "longitude": "-90.09939468590763"
    }
  },
  {
    "service_request": "2023-1049523",
    "request_type": "Roads/Drainage",
    "request_reason": "Pothole",
    "date_created": "2023-11-12T00:01:37.000",
    "date_modified": "2023-11-12T00:01:37.000",
    "request_status": "Pending",
    "responsible_agency": "Department of Public Works",
    "final_address": "1423 General Pershing St",
    "address_councildis": "B",
    "status": "Pending",
    "rowid": "1049523",
    "final_x": "3671330.69185",
    "final_y": "520571.244024",
    "longitude": "-90.1005533659415",
    "latitude": "29.925695010510914",
    "geocoded_column": {
      "latitude": "29.925695010510914",
      "longitude": "-90.1005533659415"
    }
  },
  {
    "service_request": "2023-1049522",
    "request_type": "Roads/Drainage",
    "request_reason": "Pothole",
    "date_created": "2023-11-11T23:42:52.000",
    "date_modified": "2023-11-11T23:42:52.000",
    "request_status": "Pending",
    "responsible_agency": "Department of Public Works",
    "final_address": "4216 Coliseum St",
    "address_councildis": "B",
    "status": "Pending",
    "rowid": "1049522",
    "final_x": "3671574.34702",
    "final_y": "519828.46828",
    "longitude": "-90.09980946002878",
    "latitude": "29.923645404197224",
    "geocoded_column": {
      "latitude": "29.923645404197224",
      "longitude": "-90.09980946002878"
    }
  },
  {
    "service_request": "2023-1049521",
    "request_type": "Trash/Recycling",
    "request_reason": "Request a Large Item Pick Up",
    "date_created": "2023-11-11T23:26:42.000",
    "date_modified": "2023-11-11T23:26:43.000",
    "request_status": "Pending",
    "responsible_agency": "Department of Sanitation",
    "final_address": "1913 Orleans Ave",
    "address_councildis": "D",
    "status": "Assigned to Contractor",
    "contractor": "Richards Disposal",
    "rowid": "1049521",
    "final_x": "3679211.93743",
    "final_y": "535271.116998",
    "longitude": "-90.07516514090682",
    "latitude": "29.96587925491779",
    "geocoded_column": {
      "latitude": "29.96587925491779",
      "longitude": "-90.07516514090682"
    }
  },
  {
    "service_request": "2023-1049519",
    "request_type": "Traffic Signals/Signs/Striping/Streetlights",
    "request_reason": "Traffic Signal Malfunctioning/Damaged",
    "date_created": "2023-11-11T21:29:50.000",
    "date_modified": "2023-11-11T21:29:50.000",
    "request_status": "Pending",
    "responsible_agency": "Department of Public Works",
    "final_address": "S CARROLLTON AVE & S CLAIBORNE AVE",
    "address_councildis": "A",
    "status": "Pending",
    "rowid": "1049519",
    "final_x": "3664907.5",
    "final_y": "531545.98",
    "longitude": "-90.120462817646",
    "latitude": "29.956060477053942",
    "geocoded_column": {
      "latitude": "29.956060477053942",
      "longitude": "-90.120462817646"
    }
  },
  {
    "service_request": "2023-1049518",
    "request_type": "Trash/Recycling",
    "request_reason": "Missed Trash Pick-Up",
    "date_created": "2023-11-11T20:46:23.000",
    "date_modified": "2023-11-11T20:46:24.000",
    "request_status": "Pending",
    "responsible_agency": "Department of Sanitation",
    "final_address": "8615 Stroelitz St",
    "address_councildis": "A",
    "status": "Assigned to Contractor",
    "contractor": "Richards Disposal",
    "rowid": "1049518",
    "final_x": "3666567.56404",
    "final_y": "536286.064903",
    "longitude": "-90.11506174668799",
    "latitude": "29.969045727621026",
    "geocoded_column": {
      "latitude": "29.969045727621026",
      "longitude": "-90.11506174668799"
    }
  },
  {
    "service_request": "2023-1049517",
    "request_type": "Abandoned Vehicles",
    "request_reason": "Abandoned/Junk Vehicles",
    "date_created": "2023-11-11T20:37:23.000",
    "date_modified": "2023-11-11T20:37:23.000",
    "request_status": "Pending",
    "responsible_agency": "Department of Public Works",
    "final_address": "904 Dauphine St",
    "address_councildis": "C",
    "status": "Pending",
    "rowid": "1049517",
    "final_x": "3682478.84456",
    "final_y": "533507.687556",
    "longitude": "-90.06491000746612",
    "latitude": "29.960931389530177",
    "geocoded_column": {
      "latitude": "29.960931389530177",
      "longitude": "-90.06491000746612"
    }
  },
  {
    "service_request": "2023-1049516",
    "request_type": "Abandoned Vehicles",
    "request_reason": "Vehicle Blocking Your Driveway",
    "date_created": "2023-11-11T19:45:00.000",
    "date_modified": "2023-11-11T19:45:00.000",
    "request_status": "Pending",
    "responsible_agency": "Department of Public Works",
    "final_address": "5309 Annunciation St",
    "address_councildis": "B",
    "status": "Pending",
    "rowid": "1049516",
    "final_x": "3667253.72045",
    "final_y": "517628.340534",
    "longitude": "-90.11352207216115",
    "latitude": "29.91772293244563",
    "geocoded_column": {
      "latitude": "29.91772293244563",
      "longitude": "-90.11352207216115"
    }
  },
  {
    "service_request": "2023-1049515",
    "request_type": "Abandoned Vehicles",
    "request_reason": "Vehicle Blocking Your Driveway",
    "date_created": "2023-11-11T19:39:31.000",
    "date_modified": "2023-11-11T19:39:31.000",
    "request_status": "Pending",
    "responsible_agency": "Department of Public Works",
    "final_address": "5309 Annunciation St",
    "address_councildis": "B",
    "status": "Pending",
    "rowid": "1049515",
    "final_x": "3667253.72045",
    "final_y": "517628.340534",
    "longitude": "-90.11352207216115",
    "latitude": "29.91772293244563",
    "geocoded_column": {
      "latitude": "29.91772293244563",
      "longitude": "-90.11352207216115"
    }
  },
  {
    "service_request": "2023-1049514",
    "request_type": "Trash/Recycling",
    "request_reason": "Request a Large Item Pick Up",
    "date_created": "2023-11-11T19:34:15.000",
    "date_modified": "2023-11-11T19:34:15.000",
    "request_status": "Pending",
    "responsible_agency": "Department of Sanitation",
    "final_address": "424 34Th St",
    "address_councildis": "A",
    "status": "Assigned to Contractor",
    "contractor": "IV Waste",
    "rowid": "1049514",
    "final_x": "3664715.08256",
    "final_y": "551422.326101",
    "longitude": "-90.12040603432902",
    "latitude": "30.01071934045185",
    "geocoded_column": {
      "latitude": "30.01071934045185",
      "longitude": "-90.12040603432902"
    }
  },
  {
    "service_request": "2023-1049513",
    "request_type": "Trash/Recycling",
    "request_reason": "Request a Large Item Pick Up",
    "date_created": "2023-11-11T18:19:46.000",
    "date_modified": "2023-11-11T18:19:46.000",
    "request_status": "Pending",
    "responsible_agency": "Department of Sanitation",
    "final_address": "7929 Freret St",
    "address_councildis": "A",
    "status": "Assigned to Contractor",
    "contractor": "Richards Disposal",
    "rowid": "1049513",
    "final_x": "3661926.85114",
    "final_y": "527522.518655",
    "longitude": "-90.13000815603785",
    "latitude": "29.9450836666227",
    "geocoded_column": {
      "latitude": "29.9450836666227",
      "longitude": "-90.13000815603785"
    }
  },
  {
    "service_request": "2023-1049511",
    "request_type": "Trash/Recycling",
    "request_reason": "Replace Trash Cart",
    "date_created": "2023-11-11T17:53:10.000",
    "date_modified": "2023-11-11T17:53:10.000",
    "request_status": "Pending",
    "responsible_agency": "Department of Sanitation",
    "final_address": "834 Sixth St",
    "address_councildis": "B",
    "status": "Assigned to Contractor",
    "contractor": "Richards Disposal",
    "rowid": "1049511",
    "final_x": "3677028.01314",
    "final_y": "519833.212728",
    "longitude": "-90.08259406575554",
    "latitude": "29.923495889976003",
    "geocoded_column": {
      "latitude": "29.923495889976003",
      "longitude": "-90.08259406575554"
    }
  },
  {
    "service_request": "2023-1049510",
    "request_type": "Trash/Recycling",
    "request_reason": "Replace Trash Cart",
    "date_created": "2023-11-11T17:51:51.000",
    "date_modified": "2023-11-11T17:51:52.000",
    "request_status": "Pending",
    "responsible_agency": "Department of Sanitation",
    "final_address": "834 Sixth St",
    "address_councildis": "B",
    "status": "Assigned to Contractor",
    "contractor": "Richards Disposal",
    "rowid": "1049510",
    "final_x": "3677028.01314",
    "final_y": "519833.212728",
    "longitude": "-90.08259406575554",
    "latitude": "29.923495889976003",
    "geocoded_column": {
      "latitude": "29.923495889976003",
      "longitude": "-90.08259406575554"
    }
  },
  {
    "service_request": "2023-1049509",
    "request_type": "Traffic Signals/Signs/Striping/Streetlights",
    "request_reason": "Street Light Outage/Malfunction",
    "date_created": "2023-11-11T17:32:45.000",
    "date_modified": "2023-11-11T17:32:46.000",
    "request_status": "Pending",
    "responsible_agency": "Department of Public Works",
    "final_address": "5029 Piety Dr",
    "address_councildis": "D",
    "status": "Assigned to Contractor",
    "contractor": "Legacy Professional Services",
    "rowid": "1049509",
    "final_x": "3691305.97219",
    "final_y": "552643.304214",
    "longitude": "-90.03635173274385",
    "latitude": "30.013275813117215",
    "geocoded_column": {
      "latitude": "30.013275813117215",
      "longitude": "-90.03635173274385"
    }
  },
  {
    "service_request": "2023-1049508",
    "request_type": "Trash/Recycling",
    "request_reason": "Order Recycling Cart",
    "date_created": "2023-11-11T16:54:42.000",
    "date_modified": "2023-11-11T16:54:42.000",
    "request_status": "Pending",
    "responsible_agency": "Department of Sanitation",
    "final_address": "2023 Lamanche St",
    "address_councildis": "E",
    "status": "Pending",
    "rowid": "1049508",
    "final_x": "3699351.38212",
    "final_y": "537223.328072",
    "longitude": "-90.01149468462356",
    "latitude": "29.97062371430752",
    "geocoded_column": {
      "latitude": "29.97062371430752",
      "longitude": "-90.01149468462356"
    }
  },
  {
    "service_request": "2023-1049507",
    "request_type": "Trash/Recycling",
    "request_reason": "Order Trash Cart",
    "date_created": "2023-11-11T16:53:05.000",
    "date_modified": "2023-11-11T16:53:06.000",
    "request_status": "Pending",
    "responsible_agency": "Department of Sanitation",
    "final_address": "2023 Lamanche St",
    "address_councildis": "E",
    "status": "Assigned to Contractor",
    "contractor": "Waste Pro",
    "rowid": "1049507",
    "final_x": "3699351.38212",
    "final_y": "537223.328072",
    "longitude": "-90.01149468462356",
    "latitude": "29.97062371430752",
    "geocoded_column": {
      "latitude": "29.97062371430752",
      "longitude": "-90.01149468462356"
    }
  },
  {
    "service_request": "2023-1049506",
    "request_type": "Trash/Recycling",
    "request_reason": "Order Recycling Cart",
    "date_created": "2023-11-11T16:51:06.000",
    "date_modified": "2023-11-11T16:51:06.000",
    "request_status": "Pending",
    "responsible_agency": "Department of Sanitation",
    "final_address": "2025 Lamanche St",
    "address_councildis": "E",
    "status": "Pending",
    "rowid": "1049506",
    "final_x": "3699353.79549",
    "final_y": "537232.755208",
    "longitude": "-90.01148671951186",
    "latitude": "29.970649558983236",
    "geocoded_column": {
      "latitude": "29.970649558983236",
      "longitude": "-90.01148671951186"
    }
  },
  {
    "service_request": "2023-1049505",
    "request_type": "Trash/Recycling",
    "request_reason": "Order Trash Cart",
    "date_created": "2023-11-11T16:47:58.000",
    "date_modified": "2023-11-11T16:47:59.000",
    "request_status": "Pending",
    "responsible_agency": "Department of Sanitation",
    "final_address": "2025 Lamanche St",
    "address_councildis": "E",
    "status": "Assigned to Contractor",
    "contractor": "Waste Pro",
    "rowid": "1049505",
    "final_x": "3699353.79549",
    "final_y": "537232.755208",
    "longitude": "-90.01148671951186",
    "latitude": "29.970649558983236",
    "geocoded_column": {
      "latitude": "29.970649558983236",
      "longitude": "-90.01148671951186"
    }
  },
  {
    "service_request": "2023-1049504",
    "request_type": "Abandoned Vehicles",
    "request_reason": "Abandoned/Junk Vehicles",
    "date_created": "2023-11-11T16:25:21.000",
    "date_modified": "2023-11-11T16:25:21.000",
    "request_status": "Pending",
    "responsible_agency": "Department of Public Works",
    "final_address": "907 Dauphine St",
    "address_councildis": "C",
    "status": "Pending",
    "rowid": "1049504",
    "final_x": "3682454.96373",
    "final_y": "533560.886853",
    "longitude": "-90.06498355901505",
    "latitude": "29.961078396270416",
    "geocoded_column": {
      "latitude": "29.961078396270416",
      "longitude": "-90.06498355901505"
    }
  },
  {
    "service_request": "2023-1049503",
    "request_type": "Trash/Recycling",
    "request_reason": "Request a Large Item Pick Up",
    "date_created": "2023-11-11T15:51:48.000",
    "date_modified": "2023-11-11T15:51:49.000",
    "request_status": "Pending",
    "responsible_agency": "Department of Sanitation",
    "final_address": "2534 General Pershing St",
    "address_councildis": "B",
    "status": "Assigned to Contractor",
    "contractor": "Richards Disposal",
    "rowid": "1049503",
    "final_x": "3670857.75316",
    "final_y": "524349.096892",
    "longitude": "-90.10191813209579",
    "latitude": "29.936096875205436",
    "geocoded_column": {
      "latitude": "29.936096875205436",
      "longitude": "-90.10191813209579"
    }
  },
  {
    "service_request": "2023-1049502",
    "request_type": "Trash/Recycling",
    "request_reason": "Request a Large Item Pick Up",
    "date_created": "2023-11-11T14:55:00.000",
    "date_modified": "2023-11-11T14:55:01.000",
    "request_status": "Pending",
    "responsible_agency": "Department of Sanitation",
    "final_address": "6209 Warrington Dr",
    "address_councildis": "D",
    "status": "Assigned to Contractor",
    "contractor": "IV Waste",
    "rowid": "1049502",
    "final_x": "3680885.9188",
    "final_y": "555714.165849",
    "longitude": "-90.0691665116654",
    "latitude": "30.022039754588647",
    "geocoded_column": {
      "latitude": "30.022039754588647",
      "longitude": "-90.0691665116654"
    }
  },
  {
    "service_request": "2023-1049501",
    "request_type": "Trash/Recycling",
    "request_reason": "Request a Large Item Pick Up",
    "date_created": "2023-11-11T14:16:59.000",
    "date_modified": "2023-11-11T14:16:59.000",
    "request_status": "Pending",
    "responsible_agency": "Department of Sanitation",
    "final_address": "1920 Octavia St",
    "address_councildis": "A",
    "status": "Assigned to Contractor",
    "contractor": "Richards Disposal",
    "rowid": "1049501",
    "final_x": "3667269.15066",
    "final_y": "522875.514555",
    "longitude": "-90.11329701845087",
    "latitude": "29.932150550793434",
    "geocoded_column": {
      "latitude": "29.932150550793434",
      "longitude": "-90.11329701845087"
    }
  },
  {
    "service_request": "2023-1049500",
    "request_type": "Trash/Recycling",
    "request_reason": "Request a Large Item Pick Up",
    "date_created": "2023-11-11T13:57:52.000",
    "date_modified": "2023-11-11T13:57:52.000",
    "request_status": "Pending",
    "responsible_agency": "Department of Sanitation",
    "final_address": "6735 General Diaz St",
    "address_councildis": "A",
    "status": "Assigned to Contractor",
    "contractor": "IV Waste",
    "rowid": "1049500",
    "final_x": "3670051.55194",
    "final_y": "552223.296022",
    "longitude": "-90.10351884930239",
    "latitude": "30.012765320982375",
    "geocoded_column": {
      "latitude": "30.012765320982375",
      "longitude": "-90.10351884930239"
    }
  },
  {
    "service_request": "2023-1049499",
    "request_type": "Trash/Recycling",
    "request_reason": "Return Trash Cart",
    "date_created": "2023-11-11T13:52:16.000",
    "date_modified": "2023-11-11T13:52:17.000",
    "request_status": "Pending",
    "responsible_agency": "Department of Sanitation",
    "final_address": "4703 Palmyra St",
    "address_councildis": "A",
    "status": "Assigned to Contractor",
    "contractor": "Richards Disposal",
    "rowid": "1049499",
    "final_x": "3668621.70241",
    "final_y": "539276.990282",
    "longitude": "-90.10847364674828",
    "latitude": "29.977209557333264",
    "geocoded_column": {
      "latitude": "29.977209557333264",
      "longitude": "-90.10847364674828"
    }
  },
  {
    "service_request": "2023-1049498",
    "request_type": "Trash/Recycling",
    "request_reason": "Request a Large Item Pick Up",
    "date_created": "2023-11-11T13:50:07.000",
    "date_modified": "2023-11-11T13:50:08.000",
    "request_status": "Pending",
    "responsible_agency": "Department of Sanitation",
    "final_address": "2317 Iberville St",
    "address_councildis": "B",
    "status": "Assigned to Contractor",
    "contractor": "Richards Disposal",
    "rowid": "1049498",
    "final_x": "3676856.33345",
    "final_y": "534549.824261",
    "longitude": "-90.08262893212674",
    "latitude": "29.963966854717967",
    "geocoded_column": {
      "latitude": "29.963966854717967",
      "longitude": "-90.08262893212674"
    }
  },
  {
    "service_request": "2023-1049497",
    "request_type": "Trash/Recycling",
    "request_reason": "Request a Large Item Pick Up",
    "date_created": "2023-11-11T13:48:04.000",
    "date_modified": "2023-11-11T13:48:05.000",
    "request_status": "Pending",
    "responsible_agency": "Department of Sanitation",
    "final_address": "2317 Iberville St",
    "address_councildis": "B",
    "status": "Assigned to Contractor",
    "contractor": "Richards Disposal",
    "rowid": "1049497",
    "final_x": "3676856.33345",
    "final_y": "534549.824261",
    "longitude": "-90.08262893212674",
    "latitude": "29.963966854717967",
    "geocoded_column": {
      "latitude": "29.963966854717967",
      "longitude": "-90.08262893212674"
    }
  },
  {
    "service_request": "2023-1049496",
    "request_type": "Roads/Drainage",
    "request_reason": "Pothole",
    "date_created": "2023-11-11T13:22:11.000",
    "date_modified": "2023-11-11T13:22:11.000",
    "request_status": "Pending",
    "responsible_agency": "Department of Public Works",
    "final_address": "6016 Pitt St",
    "address_councildis": "A",
    "status": "Pending",
    "rowid": "1049496",
    "final_x": "3665130.06368",
    "final_y": "521118.807673",
    "longitude": "-90.12010865234235",
    "latitude": "29.927382615383642",
    "geocoded_column": {
      "latitude": "29.927382615383642",
      "longitude": "-90.12010865234235"
    }
  },
  {
    "service_request": "2023-1049495",
    "request_type": "Roads/Drainage",
    "request_reason": "Pothole",
    "date_created": "2023-11-11T13:15:42.000",
    "date_modified": "2023-11-11T13:15:42.000",
    "request_status": "Pending",
    "responsible_agency": "Department of Public Works",
    "final_address": "1334 Webster St",
    "address_councildis": "A",
    "status": "Pending",
    "rowid": "1049495",
    "final_x": "3664767.56442",
    "final_y": "521309.891897",
    "longitude": "-90.12124659621084",
    "latitude": "29.927918585551943",
    "geocoded_column": {
      "latitude": "29.927918585551943",
      "longitude": "-90.12124659621084"
    }
  },
  {
    "service_request": "2023-1049494",
    "request_type": "Roads/Drainage",
    "request_reason": "Pothole",
    "date_created": "2023-11-11T13:04:45.000",
    "date_modified": "2023-11-11T13:04:45.000",
    "request_status": "Pending",
    "responsible_agency": "Department of Public Works",
    "final_address": "6216 Camp St",
    "address_councildis": "A",
    "status": "Pending",
    "rowid": "1049494",
    "final_x": "3663748.11187",
    "final_y": "519930.497272",
    "longitude": "-90.12451072353035",
    "latitude": "29.92415529590064",
    "geocoded_column": {
      "latitude": "29.92415529590064",
      "longitude": "-90.12451072353035"
    }
  },
  {
    "service_request": "2023-1049493",
    "request_type": "Abandoned Vehicles",
    "request_reason": "Abandoned/Junk Vehicles",
    "date_created": "2023-11-11T12:58:42.000",
    "date_modified": "2023-11-11T12:58:42.000",
    "request_status": "Pending",
    "responsible_agency": "Department of Public Works",
    "final_address": "DOWNMAN RD & CHEF MENTEUR HWY & CHEF MENTEUR BRIDGE",
    "address_councildis": "E",
    "status": "Inspected",
    "rowid": "1049493",
    "final_x": "3696226.0",
    "final_y": "551412.88",
    "longitude": "-90.02085166660345",
    "latitude": "30.009738562374903",
    "geocoded_column": {
      "latitude": "30.009738562374903",
      "longitude": "-90.02085166660345"
    }
  },
  {
    "service_request": "2023-1049492",
    "request_type": "Trash/Recycling",
    "request_reason": "Replace Trash Cart",
    "date_created": "2023-11-11T12:49:22.000",
    "date_modified": "2023-11-11T12:49:22.000",
    "request_status": "Pending",
    "responsible_agency": "Department of Sanitation",
    "final_address": "1000 Thalia St",
    "address_councildis": "B",
    "status": "Assigned to Contractor",
    "contractor": "Richards Disposal",
    "rowid": "1049492",
    "final_x": "3680869.75253",
    "final_y": "525129.683069",
    "longitude": "-90.07028283905862",
    "latitude": "29.937943574287953",
    "geocoded_column": {
      "latitude": "29.937943574287953",
      "longitude": "-90.07028283905862"
    }
  },
  {
    "service_request": "2023-1049491",
    "request_type": "Trash/Recycling",
    "request_reason": "Illegal Dumping",
    "date_created": "2023-11-11T12:28:58.000",
    "date_modified": "2023-11-11T12:28:58.000",
    "request_status": "Pending",
    "responsible_agency": "Department of Sanitation",
    "final_address": "501 S St Patrick St",
    "address_councildis": "A",
    "status": "Pending",
    "rowid": "1049491",
    "final_x": "3667995.56673",
    "final_y": "538515.585097",
    "longitude": "-90.11047685868172",
    "latitude": "29.975134337979277",
    "geocoded_column": {
      "latitude": "29.975134337979277",
      "longitude": "-90.11047685868172"
    }
  },
  {
    "service_request": "2023-1049490",
    "request_type": "Traffic Signals/Signs/Striping/Streetlights",
    "request_reason": "Traffic Sign Missing/Damaged",
    "date_created": "2023-11-11T11:49:27.000",
    "date_modified": "2023-11-11T11:49:27.000",
    "request_status": "Pending",
    "responsible_agency": "Department of Public Works",
    "final_address": "1101 Napoleon Ave",
    "address_councildis": "B",
    "status": "Pending",
    "rowid": "1049490",
    "final_x": "3671068.86452",
    "final_y": "519595.220472",
    "longitude": "-90.10141300227802",
    "latitude": "29.923019000097657",
    "geocoded_column": {
      "latitude": "29.923019000097657",
      "longitude": "-90.10141300227802"
    }
  },
  {
    "service_request": "2023-1049489",
    "request_type": "Traffic Signals/Signs/Striping/Streetlights",
    "request_reason": "Street Name Sign Damaged or Missing",
    "date_created": "2023-11-11T11:47:51.000",
    "date_modified": "2023-11-11T11:47:51.000",
    "request_status": "Pending",
    "responsible_agency": "Department of Public Works",
    "final_address": "1527 Bienville St",
    "address_councildis": "C",
    "status": "Pending",
    "rowid": "1049489",
    "final_x": "3679480.59439",
    "final_y": "533048.93626",
    "longitude": "-90.07439383315315",
    "latitude": "29.95976089987623",
    "geocoded_column": {
      "latitude": "29.95976089987623",
      "longitude": "-90.07439383315315"
    }
  },
  {
    "service_request": "2023-1049488",
    "request_type": "Traffic Signals/Signs/Striping/Streetlights",
    "request_reason": "Street Name Sign Damaged or Missing",
    "date_created": "2023-11-11T11:46:37.000",
    "date_modified": "2023-11-11T11:46:37.000",
    "request_status": "Pending",
    "responsible_agency": "Department of Public Works",
    "final_address": "CONTI ST & N GAYOSO ST",
    "address_councildis": "B",
    "status": "Pending",
    "rowid": "1049488",
    "final_x": "3675057.7",
    "final_y": "536800.48",
    "longitude": "-90.08823162747377",
    "latitude": "29.97020925656082",
    "geocoded_column": {
      "latitude": "29.97020925656082",
      "longitude": "-90.08823162747377"
    }
  },
  {
    "service_request": "2023-1049487",
    "request_type": "Roads/Drainage",
    "request_reason": "Pothole",
    "date_created": "2023-11-11T11:45:59.000",
    "date_modified": "2023-11-11T11:45:59.000",
    "request_status": "Pending",
    "responsible_agency": "Department of Public Works",
    "final_address": "3738 Octavia St",
    "address_councildis": "A",
    "status": "Pending",
    "rowid": "1049487",
    "final_x": "3668694.60903",
    "final_y": "529308.571265",
    "longitude": "-90.1085799011165",
    "latitude": "29.949797568007277",
    "geocoded_column": {
      "latitude": "29.949797568007277",
      "longitude": "-90.1085799011165"
    }
  },
  {
    "service_request": "2023-1049486",
    "request_type": "Traffic Signals/Signs/Striping/Streetlights",
    "request_reason": "Street Name Sign Damaged or Missing",
    "date_created": "2023-11-11T11:45:28.000",
    "date_modified": "2023-11-11T11:45:28.000",
    "request_status": "Pending",
    "responsible_agency": "Department of Public Works",
    "final_address": "CONTI ST & N DORGENOIS ST",
    "address_councildis": "B",
    "status": "Pending",
    "rowid": "1049486",
    "final_x": "3676495.4",
    "final_y": "535702.18",
    "longitude": "-90.08372904192696",
    "latitude": "29.967146270322754",
    "geocoded_column": {
      "latitude": "29.967146270322754",
      "longitude": "-90.08372904192696"
    }
  },
  {
    "service_request": "2023-1049485",
    "request_type": "Roads/Drainage",
    "request_reason": "Pothole",
    "date_created": "2023-11-11T11:45:20.000",
    "date_modified": "2023-11-11T11:45:20.000",
    "request_status": "Pending",
    "responsible_agency": "Department of Public Works",
    "final_address": "3738 Octavia St",
    "address_councildis": "A",
    "status": "Pending",
    "rowid": "1049485",
    "final_x": "3668694.60903",
    "final_y": "529308.571265",
    "longitude": "-90.1085799011165",
    "latitude": "29.949797568007277",
    "geocoded_column": {
      "latitude": "29.949797568007277",
      "longitude": "-90.1085799011165"
    }
  },
  {
    "service_request": "2023-1049484",
    "request_type": "Traffic Signals/Signs/Striping/Streetlights",
    "request_reason": "Street Name Sign Damaged or Missing",
    "date_created": "2023-11-11T11:44:10.000",
    "date_modified": "2023-11-11T11:44:10.000",
    "request_status": "Pending",
    "responsible_agency": "Department of Public Works",
    "final_address": "CONTI ST & N DERBIGNY ST",
    "address_councildis": "B",
    "status": "Pending",
    "rowid": "1049484",
    "final_x": "3678801.0",
    "final_y": "533942.98",
    "longitude": "-90.07650887311289",
    "latitude": "29.96223973060017",
    "geocoded_column": {
      "latitude": "29.96223973060017",
      "longitude": "-90.07650887311289"
    }
  },
  {
    "service_request": "2023-1049483",
    "request_type": "Trash/Recycling",
    "request_reason": "Order Recycling Cart",
    "date_created": "2023-11-11T11:43:28.000",
    "date_modified": "2023-11-11T11:43:28.000",
    "request_status": "Pending",
    "responsible_agency": "Department of Sanitation",
    "final_address": "3550 Rue Denise",
    "address_councildis": "C",
    "status": "Pending",
    "rowid": "1049483",
    "final_x": "3704326.07697",
    "final_y": "517483.896182",
    "longitude": "-89.996511426371",
    "latitude": "29.916188534216356",
    "geocoded_column": {
      "latitude": "29.916188534216356",
      "longitude": "-89.996511426371"
    }
  },
  {
    "service_request": "2023-1049482",
    "request_type": "Trash/Recycling",
    "request_reason": "Replace Trash Cart",
    "date_created": "2023-11-11T11:41:31.000",
    "date_modified": "2023-11-11T11:41:31.000",
    "request_status": "Pending",
    "responsible_agency": "Department of Sanitation",
    "final_address": "3550 Rue Denise",
    "address_councildis": "C",
    "status": "Assigned to Contractor",
    "contractor": "Richards Disposal",
    "rowid": "1049482",
    "final_x": "3704326.07697",
    "final_y": "517483.896182",
    "longitude": "-89.996511426371",
    "latitude": "29.916188534216356",
    "geocoded_column": {
      "latitude": "29.916188534216356",
      "longitude": "-89.996511426371"
    }
  },
  {
    "service_request": "2023-1049481",
    "request_type": "Traffic Signals/Signs/Striping/Streetlights",
    "request_reason": "Street Name Sign Damaged or Missing",
    "date_created": "2023-11-11T11:39:04.000",
    "date_modified": "2023-11-11T11:39:04.000",
    "request_status": "Pending",
    "responsible_agency": "Department of Public Works",
    "final_address": "N CLAIBORNE AVE & CONTI ST",
    "address_councildis": "B",
    "status": "Pending",
    "rowid": "1049481",
    "final_x": "3679045.8",
    "final_y": "533763.38",
    "longitude": "-90.07574205521765",
    "latitude": "29.961738506173695",
    "geocoded_column": {
      "latitude": "29.961738506173695",
      "longitude": "-90.07574205521765"
    }
  },
  {
    "service_request": "2023-1049480",
    "request_type": "Traffic Signals/Signs/Striping/Streetlights",
    "request_reason": "Traffic Sign Missing/Damaged",
    "date_created": "2023-11-11T11:37:43.000",
    "date_modified": "2023-11-11T11:37:43.000",
    "request_status": "Pending",
    "responsible_agency": "Department of Public Works",
    "final_address": "BASIN ST & BIENVILLE ST",
    "address_councildis": "C",
    "status": "Pending",
    "rowid": "1049480",
    "final_x": "3680243.4",
    "final_y": "532383.38",
    "longitude": "-90.07200820048608",
    "latitude": "29.957907779103575",
    "geocoded_column": {
      "latitude": "29.957907779103575",
      "longitude": "-90.07200820048608"
    }
  },
  {
    "service_request": "2023-1049479",
    "request_type": "Traffic Signals/Signs/Striping/Streetlights",
    "request_reason": "Street Name Sign Damaged or Missing",
    "date_created": "2023-11-11T11:36:37.000",
    "date_modified": "2023-11-11T11:36:37.000",
    "request_status": "Pending",
    "responsible_agency": "Department of Public Works",
    "final_address": "MARAIS ST & BIENVILLE ST",
    "address_councildis": "C",
    "status": "Pending",
    "rowid": "1049479",
    "final_x": "3679657.1",
    "final_y": "532870.58",
    "longitude": "-90.07384265895831",
    "latitude": "29.95926514711254",
    "geocoded_column": {
      "latitude": "29.95926514711254",
      "longitude": "-90.07384265895831"
    }
  },
  {
    "service_request": "2023-1049478",
    "request_type": "Traffic Signals/Signs/Striping/Streetlights",
    "request_reason": "Street Name Sign Damaged or Missing",
    "date_created": "2023-11-11T11:35:55.000",
    "date_modified": "2023-11-11T11:35:55.000",
    "request_status": "Pending",
    "responsible_agency": "Department of Public Works",
    "final_address": "BIENVILLE ST & DAUPHINE ST",
    "address_councildis": "C",
    "status": "Pending",
    "rowid": "1049478",
    "final_x": "3681094.2",
    "final_y": "531733.68",
    "longitude": "-90.06934424812331",
    "latitude": "29.956095545211625",
    "geocoded_column": {
      "latitude": "29.956095545211625",
      "longitude": "-90.06934424812331"
    }
  },
  {
    "service_request": "2023-1049477",
    "request_type": "Traffic Signals/Signs/Striping/Streetlights",
    "request_reason": "Street Name Sign Damaged or Missing",
    "date_created": "2023-11-11T11:35:22.000",
    "date_modified": "2023-11-11T11:35:22.000",
    "request_status": "Pending",
    "responsible_agency": "Department of Public Works",
    "final_address": "BIENVILLE ST & BURGUNDY ST",
    "address_councildis": "C",
    "status": "Pending",
    "rowid": "1049477",
    "final_x": "3680809.8",
    "final_y": "531953.38",
    "longitude": "-90.07023463856821",
    "latitude": "29.956708269071243",
    "geocoded_column": {
      "latitude": "29.956708269071243",
      "longitude": "-90.07023463856821"
    }
  },
  {
    "service_request": "2023-1049476",
    "request_type": "Traffic Signals/Signs/Striping/Streetlights",
    "request_reason": "Traffic Sign Missing/Damaged",
    "date_created": "2023-11-11T11:15:59.000",
    "date_modified": "2023-11-11T11:15:59.000",
    "request_status": "Pending",
    "responsible_agency": "Department of Public Works",
    "final_address": "PERDIDO ST & CARROLL ST",
    "address_councildis": "B",
    "status": "Pending",
    "rowid": "1049476",
    "final_x": "3680124.7",
    "final_y": "529855.28",
    "longitude": "-90.07247086505103",
    "latitude": "29.95095994967388",
    "geocoded_column": {
      "latitude": "29.95095994967388",
      "longitude": "-90.07247086505103"
    }
  },
  {
    "service_request": "2023-1049475",
    "request_type": "Traffic Signals/Signs/Striping/Streetlights",
    "request_reason": "Traffic Sign Missing/Damaged",
    "date_created": "2023-11-11T11:14:22.000",
    "date_modified": "2023-11-11T11:14:22.000",
    "request_status": "Pending",
    "responsible_agency": "Department of Public Works",
    "final_address": "CLINTON ST & IBERVILLE ST",
    "address_councildis": "C",
    "status": "Pending",
    "rowid": "1049475",
    "final_x": "3682171.7",
    "final_y": "530463.68",
    "longitude": "-90.0659862284873",
    "latitude": "29.952570749463888",
    "geocoded_column": {
      "latitude": "29.952570749463888",
      "longitude": "-90.0659862284873"
    }
  },
  {
    "service_request": "2023-1049474",
    "request_type": "Traffic Signals/Signs/Striping/Streetlights",
    "request_reason": "Traffic Sign Missing/Damaged",
    "date_created": "2023-11-11T11:11:41.000",
    "date_modified": "2023-11-11T11:11:41.000",
    "request_status": "Pending",
    "responsible_agency": "Department of Public Works",
    "final_address": "IBERVILLE ST & DECATUR ST",
    "address_councildis": "C",
    "status": "Pending",
    "rowid": "1049474",
    "final_x": "3682051.2",
    "final_y": "530552.28",
    "longitude": "-90.06636361928985",
    "latitude": "29.95281803362109",
    "geocoded_column": {
      "latitude": "29.95281803362109",
      "longitude": "-90.06636361928985"
    }
  },
  {
    "service_request": "2023-1049473",
    "request_type": "Traffic Signals/Signs/Striping/Streetlights",
    "request_reason": "Street Light Outage/Malfunction",
    "date_created": "2023-11-11T11:09:23.000",
    "date_modified": "2023-11-11T11:09:24.000",
    "request_status": "Pending",
    "responsible_agency": "Department of Public Works",
    "final_address": "414 Warrington Dr",
    "address_councildis": "D",
    "status": "Assigned to Contractor",
    "contractor": "Legacy Professional Services",
    "rowid": "1049473",
    "final_x": "3681488.56239",
    "final_y": "548201.365906",
    "longitude": "-90.06752455118277",
    "latitude": "30.00136397858688",
    "geocoded_column": {
      "latitude": "30.00136397858688",
      "longitude": "-90.06752455118277"
    }
  },
  {
    "service_request": "2023-1049472",
    "request_type": "Traffic Signals/Signs/Striping/Streetlights",
    "request_reason": "Street Light Outage/Malfunction",
    "date_created": "2023-11-11T11:00:26.000",
    "date_modified": "2023-11-11T11:00:27.000",
    "request_status": "Pending",
    "responsible_agency": "Department of Public Works",
    "final_address": "418 Warrington Dr",
    "address_councildis": "D",
    "status": "Assigned to Contractor",
    "contractor": "Legacy Professional Services",
    "rowid": "1049472",
    "final_x": "3681431.55253",
    "final_y": "548261.684434",
    "longitude": "-90.06770254572069",
    "latitude": "30.001531564541246",
    "geocoded_column": {
      "latitude": "30.001531564541246",
      "longitude": "-90.06770254572069"
    }
  },
  {
    "service_request": "2023-1049471",
    "request_type": "Trash/Recycling",
    "request_reason": "Replace Trash Cart",
    "date_created": "2023-11-11T10:58:10.000",
    "date_modified": "2023-11-11T10:58:11.000",
    "request_status": "Pending",
    "responsible_agency": "Department of Sanitation",
    "final_address": "2568 Eton St",
    "address_councildis": "C",
    "status": "Assigned to Contractor",
    "contractor": "Richards Disposal",
    "rowid": "1049471",
    "final_x": "3704041.63402",
    "final_y": "521578.494265",
    "longitude": "-89.99725853589304",
    "latitude": "29.927456383825714",
    "geocoded_column": {
      "latitude": "29.927456383825714",
      "longitude": "-89.99725853589304"
    }
  },
  {
    "service_request": "2023-1049470",
    "request_type": "Trash/Recycling",
    "request_reason": "MIssed Recycling Pick-Up",
    "date_created": "2023-11-11T10:57:07.000",
    "date_modified": "2023-11-11T10:57:08.000",
    "request_status": "Pending",
    "responsible_agency": "Department of Sanitation",
    "final_address": "308 Audubon St",
    "address_councildis": "A",
    "status": "Assigned to Contractor",
    "contractor": "Richards Disposal",
    "rowid": "1049470",
    "final_x": "3661567.43206",
    "final_y": "522149.437626",
    "longitude": "-90.13132092117918",
    "latitude": "29.930319766226802",
    "geocoded_column": {
      "latitude": "29.930319766226802",
      "longitude": "-90.13132092117918"
    }
  },
  {
    "service_request": "2023-1049469",
    "request_type": "Property Maintenance",
    "request_reason": "Property Maintenance",
    "date_created": "2023-11-11T10:45:07.000",
    "date_modified": "2023-11-11T10:45:07.000",
    "request_status": "Pending",
    "responsible_agency": "Department of Code Enforcement",
    "final_address": "3025 Delachaise St",
    "address_councildis": "B",
    "status": "Pending",
    "rowid": "1049469",
    "final_x": "3671833.78823",
    "final_y": "526346.800766",
    "longitude": "-90.09876880546783",
    "latitude": "29.941561033793914",
    "geocoded_column": {
      "latitude": "29.941561033793914",
      "longitude": "-90.09876880546783"
    }
  },
  {
    "service_request": "2023-1049468",
    "request_type": "Roads/Drainage",
    "request_reason": "Catch Basin - Broken/Damage",
    "date_created": "2023-11-11T10:44:13.000",
    "date_modified": "2023-11-11T10:44:13.000",
    "request_status": "Pending",
    "responsible_agency": "Department of Public Works",
    "final_address": "5201 S Liberty St",
    "address_councildis": "B",
    "status": "Pending",
    "rowid": "1049468",
    "final_x": "3668145.45095",
    "final_y": "523260.734587",
    "longitude": "-90.11051763772585",
    "latitude": "29.93318409805167",
    "geocoded_column": {
      "latitude": "29.93318409805167",
      "longitude": "-90.11051763772585"
    }
  },
  {
    "service_request": "2023-1049467",
    "request_type": "Trash/Recycling",
    "request_reason": "Order Trash Cart",
    "date_created": "2023-11-11T10:17:02.000",
    "date_modified": "2023-11-11T10:17:03.000",
    "request_status": "Pending",
    "responsible_agency": "Department of Sanitation",
    "final_address": "2004 Rev. John Raphael, Jr. Way",
    "address_councildis": "B",
    "status": "Assigned to Contractor",
    "contractor": "Richards Disposal",
    "rowid": "1049467",
    "final_x": "3676330.29237",
    "final_y": "526405.083134",
    "longitude": "-90.08457042913452",
    "latitude": "29.94158731264309",
    "geocoded_column": {
      "latitude": "29.94158731264309",
      "longitude": "-90.08457042913452"
    }
  },
  {
    "service_request": "2023-1049466",
    "request_type": "Roads/Drainage",
    "request_reason": "Damaged Sidewalk",
    "date_created": "2023-11-11T09:57:18.000",
    "date_modified": "2023-11-11T09:57:18.000",
    "request_status": "Pending",
    "responsible_agency": "Department of Public Works",
    "final_address": "1500 BLK Abundance St",
    "address_councildis": "D",
    "status": "Pending",
    "rowid": "1049466",
    "final_x": "3679626.30869",
    "final_y": "543284.814137",
    "longitude": "-90.07357834057908",
    "latitude": "29.9879016326832",
    "geocoded_column": {
      "latitude": "29.9879016326832",
      "longitude": "-90.07357834057908"
    }
  },
  {
    "service_request": "2023-1049465",
    "request_type": "Trash/Recycling",
    "request_reason": "Request a Large Item Pick Up",
    "date_created": "2023-11-11T09:40:57.000",
    "date_modified": "2023-11-11T09:40:58.000",
    "request_status": "Pending",
    "responsible_agency": "Department of Sanitation",
    "final_address": "439 Homer St",
    "address_councildis": "C",
    "status": "Assigned to Contractor",
    "contractor": "Richards Disposal",
    "rowid": "1049465",
    "final_x": "3686894.94671",
    "final_y": "528274.589824",
    "longitude": "-90.05114973445052",
    "latitude": "29.946407008145744",
    "geocoded_column": {
      "latitude": "29.946407008145744",
      "longitude": "-90.05114973445052"
    }
  },
  {
    "service_request": "2023-1049464",
    "request_type": "Trash/Recycling",
    "request_reason": "Illegal Dumping",
    "date_created": "2023-11-11T09:34:29.000",
    "date_modified": "2023-11-11T09:34:29.000",
    "request_status": "Pending",
    "responsible_agency": "Department of Sanitation",
    "final_address": "811 Pleasant St",
    "address_councildis": "B",
    "status": "Pending",
    "rowid": "1049464",
    "final_x": "3676029.4907",
    "final_y": "518994.338551",
    "longitude": "-90.08577486321626",
    "latitude": "29.92121918826405",
    "geocoded_column": {
      "latitude": "29.92121918826405",
      "longitude": "-90.08577486321626"
    }
  },
  {
    "service_request": "2023-1049463",
    "request_type": "Trash/Recycling",
    "request_reason": "Order Recycling Cart",
    "date_created": "2023-11-11T09:34:15.000",
    "date_modified": "2023-11-11T09:34:15.000",
    "request_status": "Pending",
    "responsible_agency": "Department of Sanitation",
    "final_address": "6571 Center St",
    "address_councildis": "A",
    "status": "Pending",
    "rowid": "1049463",
    "final_x": "3664984.60032",
    "final_y": "551845.174614",
    "longitude": "-90.11954036778418",
    "latitude": "30.01187417919494",
    "geocoded_column": {
      "latitude": "30.01187417919494",
      "longitude": "-90.11954036778418"
    }
  },
  {
    "service_request": "2023-1049462",
    "request_type": "Trash/Recycling",
    "request_reason": "Replace Trash Cart",
    "date_created": "2023-11-11T09:34:00.000",
    "date_modified": "2023-11-11T09:34:01.000",
    "request_status": "Pending",
    "responsible_agency": "Department of Sanitation",
    "final_address": "571 Joseph St",
    "address_councildis": "A",
    "status": "Assigned to Contractor",
    "contractor": "Richards Disposal",
    "rowid": "1049462",
    "final_x": "3666047.08",
    "final_y": "518419.84287",
    "longitude": "-90.11730426776371",
    "latitude": "29.919934581680007",
    "geocoded_column": {
      "latitude": "29.919934581680007",
      "longitude": "-90.11730426776371"
    }
  },
  {
    "service_request": "2023-1049461",
    "request_type": "Abandoned Vehicles",
    "request_reason": "Abandoned/Junk Vehicles",
    "date_created": "2023-11-11T09:33:40.000",
    "date_modified": "2023-11-11T09:33:40.000",
    "request_status": "Pending",
    "responsible_agency": "Department of Public Works",
    "final_address": "N CLAIBORNE AVE & CONTI ST",
    "address_councildis": "B",
    "status": "Inspected",
    "rowid": "1049461",
    "final_x": "3679045.8",
    "final_y": "533763.38",
    "longitude": "-90.07574205521765",
    "latitude": "29.961738506173695",
    "geocoded_column": {
      "latitude": "29.961738506173695",
      "longitude": "-90.07574205521765"
    }
  },
  {
    "service_request": "2023-1049460",
    "request_type": "Trash/Recycling",
    "request_reason": "Order Recycling Cart",
    "date_created": "2023-11-11T09:14:00.000",
    "date_modified": "2023-11-11T09:14:00.000",
    "request_status": "Pending",
    "responsible_agency": "Department of Sanitation",
    "final_address": "11431 Prentiss Ave",
    "address_councildis": "E",
    "status": "Pending",
    "rowid": "1049460",
    "final_x": "3717851.25951",
    "final_y": "556489.992666",
    "longitude": "-89.95233726190078",
    "latitude": "30.022999795270437",
    "geocoded_column": {
      "latitude": "30.022999795270437",
      "longitude": "-89.95233726190078"
    }
  },
  {
    "service_request": "2023-1049459",
    "request_type": "Trash/Recycling",
    "request_reason": "Order Recycling Cart",
    "date_created": "2023-11-11T09:13:33.000",
    "date_modified": "2023-11-11T09:13:33.000",
    "request_status": "Pending",
    "responsible_agency": "Department of Sanitation",
    "final_address": "11431 Prentiss Ave",
    "address_councildis": "E",
    "status": "Pending",
    "rowid": "1049459",
    "final_x": "3717851.25951",
    "final_y": "556489.992666",
    "longitude": "-89.95233726190078",
    "latitude": "30.022999795270437",
    "geocoded_column": {
      "latitude": "30.022999795270437",
      "longitude": "-89.95233726190078"
    }
  },
  {
    "service_request": "2023-1049458",
    "request_type": "Trash/Recycling",
    "request_reason": "MIssed Recycling Pick-Up",
    "date_created": "2023-11-11T08:59:14.000",
    "date_modified": "2023-11-11T08:59:14.000",
    "request_status": "Pending",
    "responsible_agency": "Department of Sanitation",
    "final_address": "7616 Dogwood Dr",
    "address_councildis": "E",
    "status": "Assigned to Contractor",
    "contractor": "Waste Pro",
    "rowid": "1049458",
    "final_x": "3701212.00305",
    "final_y": "561011.716318",
    "longitude": "-90.00474758401121",
    "latitude": "30.03597370152162",
    "geocoded_column": {
      "latitude": "30.03597370152162",
      "longitude": "-90.00474758401121"
    }
  },
  {
    "service_request": "2023-1049457",
    "request_type": "Trash/Recycling",
    "request_reason": "Replace Recycling Cart",
    "date_created": "2023-11-11T08:08:42.000",
    "date_modified": "2023-11-11T08:08:42.000",
    "request_status": "Pending",
    "responsible_agency": "Department of Sanitation",
    "final_address": "8615 Stroelitz St",
    "address_councildis": "A",
    "status": "Pending",
    "rowid": "1049457",
    "final_x": "3666567.56404",
    "final_y": "536286.064903",
    "longitude": "-90.11506174668799",
    "latitude": "29.969045727621026",
    "geocoded_column": {
      "latitude": "29.969045727621026",
      "longitude": "-90.11506174668799"
    }
  },
  {
    "service_request": "2023-1049456",
    "request_type": "Trash/Recycling",
    "request_reason": "Replace Trash Cart",
    "date_created": "2023-11-11T07:59:30.000",
    "date_modified": "2023-11-11T07:59:31.000",
    "request_status": "Pending",
    "responsible_agency": "Department of Sanitation",
    "final_address": "700 BLK N Salcedo St",
    "address_councildis": "A",
    "status": "Assigned to Contractor",
    "contractor": "Richards Disposal",
    "rowid": "1049456",
    "final_x": "3675446.55589",
    "final_y": "537875.80002",
    "longitude": "-90.08696663906126",
    "latitude": "29.973154396439256",
    "geocoded_column": {
      "latitude": "29.973154396439256",
      "longitude": "-90.08696663906126"
    }
  },
  {
    "service_request": "2023-1049455",
    "request_type": "Safety & Permits",
    "request_reason": "Safety & Permits Request (Cyber Incident Back Up)",
    "date_created": "2023-11-11T07:34:02.000",
    "date_modified": "2023-11-11T07:34:02.000",
    "request_status": "Pending",
    "responsible_agency": "Safety and Permits",
    "final_address": "2127 Baronne St",
    "address_councildis": "B",
    "status": "Pending",
    "rowid": "1049455",
    "final_x": "3677107.19726",
    "final_y": "524607.819772",
    "longitude": "-90.08217954196968",
    "latitude": "29.93662212616007",
    "geocoded_column": {
      "latitude": "29.93662212616007",
      "longitude": "-90.08217954196968"
    }
  },
  {
    "service_request": "2023-1049454",
    "request_type": "Trash/Recycling",
    "request_reason": "Missed Trash Pick-Up",
    "date_created": "2023-11-11T07:00:09.000",
    "date_modified": "2023-11-11T07:00:09.000",
    "request_status": "Pending",
    "responsible_agency": "Department of Sanitation",
    "final_address": "5616 N Dorgenois St",
    "address_councildis": "E",
    "status": "Assigned to Contractor",
    "contractor": "Waste Pro",
    "rowid": "1049454",
    "final_x": "3699599.06621",
    "final_y": "538901.431242",
    "longitude": "-90.01065129834431",
    "latitude": "29.97523003274961",
    "geocoded_column": {
      "latitude": "29.97523003274961",
      "longitude": "-90.01065129834431"
    }
  },
  {
    "service_request": "2023-1049453",
    "request_type": "Trash/Recycling",
    "request_reason": "Repair Recycling Cart",
    "date_created": "2023-11-11T03:19:59.000",
    "date_modified": "2023-11-11T03:19:59.000",
    "request_status": "Pending",
    "responsible_agency": "Department of Sanitation",
    "final_address": "3219 De Soto St",
    "address_councildis": "A",
    "status": "Pending",
    "rowid": "1049453",
    "final_x": "3675880.23701",
    "final_y": "540064.189323",
    "longitude": "-90.0855217222257",
    "latitude": "29.97915873944059",
    "geocoded_column": {
      "latitude": "29.97915873944059",
      "longitude": "-90.0855217222257"
    }
  },
  {
    "service_request": "2023-1049452",
    "request_type": "Trash/Recycling",
    "request_reason": "Request a Large Item Pick Up",
    "date_created": "2023-11-11T03:17:07.000",
    "date_modified": "2023-11-11T03:17:08.000",
    "request_status": "Pending",
    "responsible_agency": "Department of Sanitation",
    "final_address": "3219 De Soto St",
    "address_councildis": "A",
    "status": "Assigned to Contractor",
    "contractor": "Richards Disposal",
    "rowid": "1049452",
    "final_x": "3675880.23701",
    "final_y": "540064.189323",
    "longitude": "-90.0855217222257",
    "latitude": "29.97915873944059",
    "geocoded_column": {
      "latitude": "29.97915873944059",
      "longitude": "-90.0855217222257"
    }
  },
  {
    "service_request": "2023-1049451",
    "request_type": "Trash/Recycling",
    "request_reason": "Order Trash Cart",
    "date_created": "2023-11-11T03:04:58.000",
    "date_modified": "2023-11-11T03:04:59.000",
    "request_status": "Pending",
    "responsible_agency": "Department of Sanitation",
    "final_address": "2509 Eagle St",
    "address_councildis": "A",
    "status": "Assigned to Contractor",
    "contractor": "Richards Disposal",
    "rowid": "1049451",
    "final_x": "3663378.18887",
    "final_y": "533554.836805",
    "longitude": "-90.12522500143247",
    "latitude": "29.96162860154016",
    "geocoded_column": {
      "latitude": "29.96162860154016",
      "longitude": "-90.12522500143247"
    }
  },
  {
    "service_request": "2023-1049450",
    "request_type": "Trash/Recycling",
    "request_reason": "Order Trash Cart",
    "date_created": "2023-11-11T03:04:21.000",
    "date_modified": "2023-11-11T03:04:22.000",
    "request_status": "Pending",
    "responsible_agency": "Department of Sanitation",
    "final_address": "2509 Eagle St",
    "address_councildis": "A",
    "status": "Assigned to Contractor",
    "contractor": "Richards Disposal",
    "rowid": "1049450",
    "final_x": "3663378.18887",
    "final_y": "533554.836805",
    "longitude": "-90.12522500143247",
    "latitude": "29.96162860154016",
    "geocoded_column": {
      "latitude": "29.96162860154016",
      "longitude": "-90.12522500143247"
    }
  },
  {
    "service_request": "2023-1049449",
    "request_type": "Roads/Drainage",
    "request_reason": "Pothole",
    "date_created": "2023-11-11T00:17:15.000",
    "date_modified": "2023-11-11T00:17:15.000",
    "request_status": "Pending",
    "responsible_agency": "Department of Public Works",
    "final_address": "4216 Chestnut St",
    "address_councildis": "B",
    "status": "Pending",
    "rowid": "1049449",
    "final_x": "3671574.31393",
    "final_y": "519539.203703",
    "longitude": "-90.09981939416457",
    "latitude": "29.922850019854593",
    "geocoded_column": {
      "latitude": "29.922850019854593",
      "longitude": "-90.09981939416457"
    }
  },
  {
    "service_request": "2023-1049448",
    "request_type": "Roads/Drainage",
    "request_reason": "Pothole",
    "date_created": "2023-11-10T23:49:51.000",
    "date_modified": "2023-11-10T23:49:51.000",
    "request_status": "Pending",
    "responsible_agency": "Department of Public Works",
    "final_address": "1301 Constantinople St",
    "address_councildis": "B",
    "status": "Pending",
    "rowid": "1049448",
    "final_x": "3672430.66305",
    "final_y": "520250.7726",
    "longitude": "-90.09709199725775",
    "latitude": "29.924781230435865",
    "geocoded_column": {
      "latitude": "29.924781230435865",
      "longitude": "-90.09709199725775"
    }
  },
  {
    "service_request": "2023-1049447",
    "request_type": "Roads/Drainage",
    "request_reason": "Pothole",
    "date_created": "2023-11-10T23:37:02.000",
    "date_modified": "2023-11-10T23:37:02.000",
    "request_status": "Pending",
    "responsible_agency": "Department of Public Works",
    "final_address": "1312 Milan St",
    "address_councildis": "B",
    "status": "Pending",
    "rowid": "1049447",
    "final_x": "3671625.82823",
    "final_y": "520286.919608",
    "longitude": "-90.09963137110304",
    "latitude": "29.92490447494246",
    "geocoded_column": {
      "latitude": "29.92490447494246",
      "longitude": "-90.09963137110304"
    }
  },
  {
    "service_request": "2023-1049446",
    "request_type": "Roads/Drainage",
    "request_reason": "Pothole",
    "date_created": "2023-11-10T23:23:27.000",
    "date_modified": "2023-11-10T23:23:27.000",
    "request_status": "Pending",
    "responsible_agency": "Department of Public Works",
    "final_address": "1315 Peniston St",
    "address_councildis": "B",
    "status": "Pending",
    "rowid": "1049446",
    "final_x": "3673101.31451",
    "final_y": "520423.11276",
    "longitude": "-90.09496908964098",
    "latitude": "29.925235197927364",
    "geocoded_column": {
      "latitude": "29.925235197927364",
      "longitude": "-90.09496908964098"
    }
  },
  {
    "service_request": "2023-1049445",
    "request_type": "Traffic Signals/Signs/Striping/Streetlights",
    "request_reason": "Traffic Signal Malfunctioning/Damaged",
    "date_created": "2023-11-10T21:34:30.000",
    "date_modified": "2023-11-10T21:34:30.000",
    "request_status": "Pending",
    "responsible_agency": "Department of Public Works",
    "final_address": "ST CLAUDE AVE & ALVAR ST",
    "address_councildis": "C",
    "status": "Pending",
    "rowid": "1049445",
    "final_x": "3691491.4",
    "final_y": "535382.68",
    "longitude": "-90.03638314304642",
    "latitude": "29.96580955805605",
    "geocoded_column": {
      "latitude": "29.96580955805605",
      "longitude": "-90.03638314304642"
    }
  },
  {
    "service_request": "2023-1049443",
    "request_type": "Roads/Drainage",
    "request_reason": "Pothole",
    "date_created": "2023-11-10T18:25:01.000",
    "date_modified": "2023-11-10T18:25:01.000",
    "request_status": "Pending",
    "responsible_agency": "Department of Public Works",
    "final_address": "1317 Milan St",
    "address_councildis": "B",
    "status": "Pending",
    "rowid": "1049443",
    "final_x": "3671700.96097",
    "final_y": "520272.658936",
    "longitude": "-90.09939468590763",
    "latitude": "29.9248630381211",
    "geocoded_column": {
      "latitude": "29.9248630381211",
      "longitude": "-90.09939468590763"
    }
  },
  {
    "service_request": "2023-1049442",
    "request_type": "Traffic Signals/Signs/Striping/Streetlights",
    "request_reason": "Street Light Knocked Down/Leaning",
    "date_created": "2023-11-10T18:06:35.000",
    "date_modified": "2023-11-10T18:06:36.000",
    "request_status": "Pending",
    "responsible_agency": "Department of Public Works",
    "final_address": "2204 Dauphine St",
    "address_councildis": "C",
    "status": "Pending",
    "contractor": "Legacy Professional Services",
    "rowid": "1049442",
    "final_x": "3685206.46537",
    "final_y": "535208.937478",
    "longitude": "-90.05623683368493",
    "latitude": "29.965525933835124",
    "geocoded_column": {
      "latitude": "29.965525933835124",
      "longitude": "-90.05623683368493"
    }
  },
  {
    "service_request": "2023-1049441",
    "request_type": "Trash/Recycling",
    "request_reason": "Replace Recycling Cart",
    "date_created": "2023-11-10T17:41:18.000",
    "date_modified": "2023-11-10T17:41:18.000",
    "request_status": "Pending",
    "responsible_agency": "Department of Sanitation",
    "final_address": "939 Jourdan Ave",
    "address_councildis": "E",
    "status": "Pending",
    "rowid": "1049441",
    "final_x": "3694946.17322",
    "final_y": "534011.921285",
    "longitude": "-90.02552254565832",
    "latitude": "29.961932482358126",
    "geocoded_column": {
      "latitude": "29.961932482358126",
      "longitude": "-90.02552254565832"
    }
  },
  {
    "service_request": "2023-1049440",
    "request_type": "Traffic Signals/Signs/Striping/Streetlights",
    "request_reason": "Traffic Sign Missing/Damaged",
    "date_created": "2023-11-10T17:37:14.000",
    "date_modified": "2023-11-10T17:37:14.000",
    "request_status": "Pending",
    "responsible_agency": "Department of Public Works",
    "final_address": "3340 Canal St",
    "address_councildis": "B",
    "status": "Pending",
    "rowid": "1049440",
    "final_x": "3673245.03265",
    "final_y": "536543.261319",
    "longitude": "-90.0939650187941",
    "latitude": "29.96955602744663",
    "geocoded_column": {
      "latitude": "29.96955602744663",
      "longitude": "-90.0939650187941"
    }
  },
  {
    "service_request": "2023-1049439",
    "request_type": "Roads/Drainage",
    "request_reason": "Pothole",
    "date_created": "2023-11-10T17:19:58.000",
    "date_modified": "2023-11-10T17:19:58.000",
    "request_status": "Pending",
    "responsible_agency": "Department of Public Works",
    "final_address": "6045 Chestnut St",
    "address_councildis": "A",
    "status": "Pending",
    "rowid": "1049439",
    "final_x": "3664553.41741",
    "final_y": "520093.265144",
    "longitude": "-90.12196321403881",
    "latitude": "29.924579471488517",
    "geocoded_column": {
      "latitude": "29.924579471488517",
      "longitude": "-90.12196321403881"
    }
  },
  {
    "service_request": "2023-1049438",
    "request_type": "Roads/Drainage",
    "request_reason": "Pothole",
    "date_created": "2023-11-10T17:17:51.000",
    "date_modified": "2023-11-10T17:17:51.000",
    "request_status": "Pending",
    "responsible_agency": "Department of Public Works",
    "final_address": "6019 Chestnut St",
    "address_councildis": "A",
    "status": "Pending",
    "rowid": "1049438",
    "final_x": "3664762.62535",
    "final_y": "519948.884408",
    "longitude": "-90.12130763332809",
    "latitude": "29.92417638659354",
    "geocoded_column": {
      "latitude": "29.92417638659354",
      "longitude": "-90.12130763332809"
    }
  },
  {
    "service_request": "2023-1049437",
    "request_type": "Roads/Drainage",
    "request_reason": "Pothole",
    "date_created": "2023-11-10T17:14:51.000",
    "date_modified": "2023-11-10T17:14:51.000",
    "request_status": "Pending",
    "responsible_agency": "Department of Public Works",
    "final_address": "6050 Chestnut St",
    "address_councildis": "A",
    "status": "Pending",
    "rowid": "1049437",
    "final_x": "3664529.75725",
    "final_y": "519895.110968",
    "longitude": "-90.1220445138364",
    "latitude": "29.924035297418104",
    "geocoded_column": {
      "latitude": "29.924035297418104",
      "longitude": "-90.1220445138364"
    }
  },
  {
    "service_request": "2023-1049436",
    "request_type": "Trash/Recycling",
    "request_reason": "MIssed Recycling Pick-Up",
    "date_created": "2023-11-10T17:10:50.000",
    "date_modified": "2023-11-10T17:10:51.000",
    "request_status": "Pending",
    "responsible_agency": "Department of Sanitation",
    "final_address": "1930 Josephine St",
    "address_councildis": "B",
    "status": "Assigned to Contractor",
    "contractor": "Richards Disposal",
    "rowid": "1049436",
    "final_x": "3676934.0829",
    "final_y": "525159.730941",
    "longitude": "-90.08270705430522",
    "latitude": "29.938144897016212",
    "geocoded_column": {
      "latitude": "29.938144897016212",
      "longitude": "-90.08270705430522"
    }
  },
  {
    "service_request": "2023-1049435",
    "request_type": "Roads/Drainage",
    "request_reason": "Pothole",
    "date_created": "2023-11-10T17:07:07.000",
    "date_modified": "2023-11-10T17:07:07.000",
    "request_status": "Pending",
    "responsible_agency": "Department of Public Works",
    "final_address": "1422 General Pershing St",
    "address_councildis": "B",
    "status": "Pending",
    "rowid": "1049435",
    "final_x": "3671239.44116",
    "final_y": "520532.324984",
    "longitude": "-90.10084273889387",
    "latitude": "29.925590694745555",
    "geocoded_column": {
      "latitude": "29.925590694745555",
      "longitude": "-90.10084273889387"
    }
  },
  {
    "service_request": "2023-1049434",
    "request_type": "Trash/Recycling",
    "request_reason": "Missed Trash Pick-Up",
    "date_created": "2023-11-10T17:04:10.000",
    "date_modified": "2023-11-10T17:04:10.000",
    "request_status": "Pending",
    "responsible_agency": "Department of Sanitation",
    "final_address": "7915 Drum St",
    "address_councildis": "E",
    "status": "Assigned to Contractor",
    "contractor": "Waste Pro",
    "rowid": "1049434",
    "final_x": "3700045.26736",
    "final_y": "561485.215647",
    "longitude": "-90.00841736271329",
    "latitude": "30.037312786209515",
    "geocoded_column": {
      "latitude": "30.037312786209515",
      "longitude": "-90.00841736271329"
    }
  },
  {
    "service_request": "2023-1049433",
    "request_type": "Trash/Recycling",
    "request_reason": "Request a Large Item Pick Up",
    "date_created": "2023-11-10T16:51:16.000",
    "date_modified": "2023-11-10T16:51:16.000",
    "request_status": "Pending",
    "responsible_agency": "Department of Sanitation",
    "final_address": "13027 Deauville Ct",
    "address_councildis": "E",
    "status": "Assigned to Contractor",
    "contractor": "Waste Pro",
    "rowid": "1049433",
    "final_x": "3723992.14777",
    "final_y": "560765.24131",
    "longitude": "-89.93276858299791",
    "latitude": "30.034550056012435",
    "geocoded_column": {
      "latitude": "30.034550056012435",
      "longitude": "-89.93276858299791"
    }
  },
  {
    "service_request": "2023-1049432",
    "request_type": "Trash/Recycling",
    "request_reason": "Repair Trash Cart",
    "date_created": "2023-11-10T16:48:18.000",
    "date_modified": "2023-11-10T16:48:19.000",
    "request_status": "Pending",
    "responsible_agency": "Department of Sanitation",
    "final_address": "0 BLK Allard Blvd",
    "address_councildis": "A",
    "status": "Assigned to Contractor",
    "contractor": "Richards Disposal",
    "rowid": "1049432",
    "final_x": "3672889.12367",
    "final_y": "541158.059532",
    "longitude": "-90.09493149945968",
    "latitude": "29.982255733983415",
    "geocoded_column": {
      "latitude": "29.982255733983415",
      "longitude": "-90.09493149945968"
    }
  },
  {
    "service_request": "2023-1049431",
    "request_type": "Roads/Drainage",
    "request_reason": "Pothole",
    "date_created": "2023-11-10T16:40:05.000",
    "date_modified": "2023-11-10T16:40:05.000",
    "request_status": "Pending",
    "responsible_agency": "Department of Public Works",
    "final_address": "1302 Constantinople St",
    "address_councildis": "B",
    "status": "Pending",
    "rowid": "1049431",
    "final_x": "3672316.43828",
    "final_y": "520252.107512",
    "longitude": "-90.09745252227002",
    "latitude": "29.924788289127164",
    "geocoded_column": {
      "latitude": "29.924788289127164",
      "longitude": "-90.09745252227002"
    }
  },
  {
    "service_request": "2023-1049430",
    "request_type": "Roads/Drainage",
    "request_reason": "Street Flooding / Drainage",
    "date_created": "2023-11-10T16:37:15.000",
    "date_modified": "2023-11-10T16:37:15.000",
    "request_status": "Pending",
    "responsible_agency": "Department of Public Works",
    "final_address": "333 Poydras St",
    "address_councildis": "B",
    "status": "Pending",
    "rowid": "1049430",
    "final_x": "3682119.68354",
    "final_y": "529146.713216",
    "longitude": "-90.0661964585987",
    "latitude": "29.94895111751747",
    "geocoded_column": {
      "latitude": "29.94895111751747",
      "longitude": "-90.0661964585987"
    }
  },
  {
    "service_request": "2023-1049429",
    "request_type": "Trash/Recycling",
    "request_reason": "Request a Large Item Pick Up",
    "date_created": "2023-11-10T16:27:02.000",
    "date_modified": "2023-11-10T16:27:03.000",
    "request_status": "Pending",
    "responsible_agency": "Department of Sanitation",
    "final_address": "8210 Neron Pl",
    "address_councildis": "A",
    "status": "Assigned to Contractor",
    "contractor": "Richards Disposal",
    "rowid": "1049429",
    "final_x": "3664104.56864",
    "final_y": "531574.996611",
    "longitude": "-90.1229972436411",
    "latitude": "29.95616360833907",
    "geocoded_column": {
      "latitude": "29.95616360833907",
      "longitude": "-90.1229972436411"
    }
  },
  {
    "service_request": "2023-1049428",
    "request_type": "Trash/Recycling",
    "request_reason": "Repair Trash Cart",
    "date_created": "2023-11-10T16:25:56.000",
    "date_modified": "2023-11-10T16:25:57.000",
    "request_status": "Pending",
    "responsible_agency": "Department of Sanitation",
    "final_address": "926 Toulouse St",
    "address_councildis": "C",
    "status": "Assigned to Contractor",
    "contractor": "Empire Services",
    "rowid": "1049428",
    "final_x": "3681505.43279",
    "final_y": "532644.076228",
    "longitude": "-90.06801397143775",
    "latitude": "29.958586345646566",
    "geocoded_column": {
      "latitude": "29.958586345646566",
      "longitude": "-90.06801397143775"
    }
  },
  {
    "service_request": "2023-1049427",
    "request_type": "Traffic Signals/Signs/Striping/Streetlights",
    "request_reason": "Street Light Outage/Malfunction",
    "date_created": "2023-11-10T16:25:14.000",
    "date_modified": "2023-11-10T16:25:14.000",
    "request_status": "Pending",
    "responsible_agency": "Department of Public Works",
    "final_address": "5414 St Charles Ave",
    "address_councildis": "A",
    "status": "Assigned to Contractor",
    "contractor": "Legacy Professional Services",
    "rowid": "1049427",
    "final_x": "3667208.90221",
    "final_y": "521482.298617",
    "longitude": "-90.11353403892521",
    "latitude": "29.92832141368019",
    "geocoded_column": {
      "latitude": "29.92832141368019",
      "longitude": "-90.11353403892521"
    }
  },
  {
    "service_request": "2023-1049426",
    "request_type": "Trash/Recycling",
    "request_reason": "Request a Large Item Pick Up",
    "date_created": "2023-11-10T16:23:17.000",
    "date_modified": "2023-11-10T16:23:18.000",
    "request_status": "Pending",
    "responsible_agency": "Department of Sanitation",
    "final_address": "125 S Murat St",
    "address_councildis": "A",
    "status": "Assigned to Contractor",
    "contractor": "Richards Disposal",
    "rowid": "1049426",
    "final_x": "3669510.47278",
    "final_y": "539212.832778",
    "longitude": "-90.10566878206552",
    "latitude": "29.977006992491603",
    "geocoded_column": {
      "latitude": "29.977006992491603",
      "longitude": "-90.10566878206552"
    }
  },
  {
    "service_request": "2023-1049425",
    "request_type": "Traffic Signals/Signs/Striping/Streetlights",
    "request_reason": "Street Light Outage/Malfunction",
    "date_created": "2023-11-10T16:11:47.000",
    "date_modified": "2023-11-10T16:11:48.000",
    "request_status": "Pending",
    "responsible_agency": "Department of Public Works",
    "final_address": "200 BLK Homer St",
    "address_councildis": "C",
    "status": "Assigned to Contractor",
    "contractor": "Legacy Professional Services",
    "rowid": "1049425",
    "final_x": "3685987.22248",
    "final_y": "528261.810062",
    "longitude": "-90.05401618425797",
    "latitude": "29.94639976619779",
    "geocoded_column": {
      "latitude": "29.94639976619779",
      "longitude": "-90.05401618425797"
    }
  },
  {
    "service_request": "2023-1049424",
    "request_type": "Trash/Recycling",
    "request_reason": "Repair Trash Cart",
    "date_created": "2023-11-10T16:10:27.000",
    "date_modified": "2023-11-10T16:10:28.000",
    "request_status": "Pending",
    "responsible_agency": "Department of Sanitation",
    "final_address": "307 S Norman C Francis Prkwy",
    "address_councildis": "B",
    "status": "Assigned to Contractor",
    "contractor": "Richards Disposal",
    "rowid": "1049424",
    "final_x": "3672553.40737",
    "final_y": "536125.052679",
    "longitude": "-90.09616349456564",
    "latitude": "29.968426646072704",
    "geocoded_column": {
      "latitude": "29.968426646072704",
      "longitude": "-90.09616349456564"
    }
  },
  {
    "service_request": "2023-1049423",
    "request_type": "Trash/Recycling",
    "request_reason": "Repair Trash Cart",
    "date_created": "2023-11-10T16:08:31.000",
    "date_modified": "2023-11-10T16:08:31.000",
    "request_status": "Pending",
    "responsible_agency": "Department of Sanitation",
    "final_address": "4318 General Ogden St",
    "address_councildis": "A",
    "status": "Assigned to Contractor",
    "contractor": "Richards Disposal",
    "rowid": "1049423",
    "final_x": "3667347.71258",
    "final_y": "538568.792713",
    "longitude": "-90.11252116829178",
    "latitude": "29.97529963628765",
    "geocoded_column": {
      "latitude": "29.97529963628765",
      "longitude": "-90.11252116829178"
    }
  },
  {
    "service_request": "2023-1049422",
    "request_type": "Traffic Signals/Signs/Striping/Streetlights",
    "request_reason": "Street Light Outage/Malfunction",
    "date_created": "2023-11-10T16:06:59.000",
    "date_modified": "2023-11-10T16:07:00.000",
    "request_status": "Pending",
    "responsible_agency": "Department of Public Works",
    "final_address": "540 Whitney Ave",
    "address_councildis": "C",
    "status": "Assigned to Contractor",
    "contractor": "Legacy Professional Services",
    "rowid": "1049422",
    "final_x": "3690312.12291",
    "final_y": "529502.704129",
    "longitude": "-90.04031678555744",
    "latitude": "29.94967831681867",
    "geocoded_column": {
      "latitude": "29.94967831681867",
      "longitude": "-90.04031678555744"
    }
  },
  {
    "service_request": "2023-1049421",
    "request_type": "Trash/Recycling",
    "request_reason": "Request a Large Item Pick Up",
    "date_created": "2023-11-10T16:06:23.000",
    "date_modified": "2023-11-10T16:06:24.000",
    "request_status": "Pending",
    "responsible_agency": "Department of Sanitation",
    "final_address": "7427 Pitt St",
    "address_councildis": "A",
    "status": "Assigned to Contractor",
    "contractor": "Richards Disposal",
    "rowid": "1049421",
    "final_x": "3661193.14042",
    "final_y": "523574.383099",
    "longitude": "-90.13245536356102",
    "latitude": "29.93424871007761",
    "geocoded_column": {
      "latitude": "29.93424871007761",
      "longitude": "-90.13245536356102"
    }
  },
  {
    "service_request": "2023-1049420",
    "request_type": "Traffic Signals/Signs/Striping/Streetlights",
    "request_reason": "Street Light Outage/Malfunction",
    "date_created": "2023-11-10T16:03:10.000",
    "date_modified": "2023-11-10T16:03:11.000",
    "request_status": "Pending",
    "responsible_agency": "Department of Public Works",
    "final_address": "PTOLEMY ST & PACE BLVD",
    "address_councildis": "C",
    "status": "Assigned to Contractor",
    "contractor": "Legacy Professional Services",
    "rowid": "1049420",
    "final_x": "3694417.3",
    "final_y": "525760.78",
    "longitude": "-90.02748957836259",
    "latitude": "29.939261304222967",
    "geocoded_column": {
      "latitude": "29.939261304222967",
      "longitude": "-90.02748957836259"
    }
  },
  {
    "service_request": "2023-1049419",
    "request_type": "Trash/Recycling",
    "request_reason": "Repair Trash Cart",
    "date_created": "2023-11-10T15:56:06.000",
    "date_modified": "2023-11-10T15:56:07.000",
    "request_status": "Pending",
    "responsible_agency": "Department of Sanitation",
    "final_address": "1000 Thalia St",
    "address_councildis": "B",
    "status": "Assigned to Contractor",
    "contractor": "Richards Disposal",
    "rowid": "1049419",
    "final_x": "3680869.75253",
    "final_y": "525129.683069",
    "longitude": "-90.07028283905862",
    "latitude": "29.937943574287953",
    "geocoded_column": {
      "latitude": "29.937943574287953",
      "longitude": "-90.07028283905862"
    }
  },
  {
    "service_request": "2023-1049418",
    "request_type": "Property Maintenance",
    "request_reason": "Property Maintenance",
    "date_created": "2023-11-10T15:55:06.000",
    "date_modified": "2023-11-10T15:55:06.000",
    "request_status": "Pending",
    "responsible_agency": "Department of Code Enforcement",
    "final_address": "5801 Sylvia Dr",
    "address_councildis": "A",
    "status": "Pending",
    "rowid": "1049418",
    "final_x": "3664575.3826",
    "final_y": "546408.45896",
    "longitude": "-90.12101500072089",
    "latitude": "29.996936999597867",
    "geocoded_column": {
      "latitude": "29.996936999597867",
      "longitude": "-90.12101500072089"
    }
  },
  {
    "service_request": "2023-1049417",
    "request_type": "Abandoned Vehicles",
    "request_reason": "Abandoned/Junk Vehicles",
    "date_created": "2023-11-10T15:54:44.000",
    "date_modified": "2023-11-10T15:56:07.000",
    "request_status": "Pending",
    "responsible_agency": "Department of Public Works",
    "final_address": "1649 N Villere St",
    "address_councildis": "C",
    "status": "Pending",
    "rowid": "1049417",
    "final_x": "3682918.69935",
    "final_y": "537311.926152",
    "longitude": "-90.0633878884613",
    "latitude": "29.97137833975065",
    "geocoded_column": {
      "latitude": "29.97137833975065",
      "longitude": "-90.0633878884613"
    }
  },
  {
    "service_request": "2023-1049416",
    "request_type": "Roads/Drainage",
    "request_reason": "Damaged Sidewalk",
    "date_created": "2023-11-10T15:51:59.000",
    "date_modified": "2023-11-10T15:52:00.000",
    "request_status": "Pending",
    "responsible_agency": "Department of Public Works",
    "final_address": "332 Harrison Ave",
    "address_councildis": "A",
    "status": "Pending",
    "rowid": "1049416",
    "final_x": "3667490.46125",
    "final_y": "549257.080211",
    "longitude": "-90.11171043782524",
    "latitude": "30.00468459623865",
    "geocoded_column": {
      "latitude": "30.00468459623865",
      "longitude": "-90.11171043782524"
    }
  },
  {
    "service_request": "2023-1049415",
    "request_type": "Trash/Recycling",
    "request_reason": "Request a Large Item Pick Up",
    "date_created": "2023-11-10T15:50:01.000",
    "date_modified": "2023-11-10T15:50:02.000",
    "request_status": "Pending",
    "responsible_agency": "Department of Sanitation",
    "final_address": "6861 Tara Ln",
    "address_councildis": "E",
    "status": "Assigned to Contractor",
    "contractor": "Waste Pro",
    "rowid": "1049415",
    "final_x": "3707224.90852",
    "final_y": "559696.984733",
    "longitude": "-89.98579469822805",
    "latitude": "30.03216563646959",
    "geocoded_column": {
      "latitude": "30.03216563646959",
      "longitude": "-89.98579469822805"
    }
  },
  {
    "service_request": "2023-1049414",
    "request_type": "Traffic Signals/Signs/Striping/Streetlights",
    "request_reason": "Street Light Outage/Malfunction",
    "date_created": "2023-11-10T15:42:40.000",
    "date_modified": "2023-11-10T15:42:41.000",
    "request_status": "Pending",
    "responsible_agency": "Department of Public Works",
    "final_address": "0 BLK Bamboo Rd",
    "status": "Assigned to Contractor",
    "contractor": "Legacy Professional Services",
    "rowid": "1049414",
    "final_x": "3663403.66299",
    "final_y": "539407.85962",
    "longitude": "-90.12494964049188",
    "latitude": "29.97772174538776",
    "geocoded_column": {
      "latitude": "29.97772174538776",
      "longitude": "-90.12494964049188"
    }
  },
  {
    "service_request": "2023-1049413",
    "request_type": "Trash/Recycling",
    "request_reason": "Missed Trash Pick-Up",
    "date_created": "2023-11-10T15:38:41.000",
    "date_modified": "2023-11-10T15:38:42.000",
    "request_status": "Pending",
    "responsible_agency": "Department of Sanitation",
    "final_address": "7801 Edward St",
    "address_councildis": "E",
    "status": "Assigned to Contractor",
    "contractor": "Waste Pro",
    "rowid": "1049413",
    "final_x": "3700933.70269",
    "final_y": "561426.104862",
    "longitude": "-90.00561188553861",
    "latitude": "30.03712197826804",
    "geocoded_column": {
      "latitude": "30.03712197826804",
      "longitude": "-90.00561188553861"
    }
  },
  {
    "service_request": "2023-1049412",
    "request_type": "Property Maintenance",
    "request_reason": "Property Maintenance",
    "date_created": "2023-11-10T15:32:45.000",
    "date_modified": "2023-11-10T15:32:46.000",
    "request_status": "Pending",
    "responsible_agency": "Department of Code Enforcement",
    "final_address": "4719 Cartier Ave",
    "address_councildis": "D",
    "status": "Pending",
    "rowid": "1049412",
    "final_x": "3677923.36322",
    "final_y": "550023.455828",
    "longitude": "-90.07872432179556",
    "latitude": "30.006481889994422",
    "geocoded_column": {
      "latitude": "30.006481889994422",
      "longitude": "-90.07872432179556"
    }
  },
  {
    "service_request": "2023-1049411",
    "request_type": "Trash/Recycling",
    "request_reason": "Missed Trash Pick-Up",
    "date_created": "2023-11-10T15:30:09.000",
    "date_modified": "2023-11-10T15:59:46.000",
    "case_close_date": "2023-11-10T09:59:46.000",
    "request_status": "Closed",
    "responsible_agency": "Department of Sanitation",
    "final_address": "1243 Spain St",
    "address_councildis": "C",
    "status": "Invalid Request",
    "contractor": "IV Waste",
    "contractor_action": "Invalid Pick-Up",
    "rowid": "1049411",
    "final_x": "3686113.40834",
    "final_y": "537100.11924",
    "longitude": "-90.0533060359086",
    "latitude": "29.970698200192817",
    "geocoded_column": {
      "latitude": "29.970698200192817",
      "longitude": "-90.0533060359086"
    }
  },
  {
    "service_request": "2023-1049410",
    "request_type": "Trash/Recycling",
    "request_reason": "Missed Trash Pick-Up",
    "date_created": "2023-11-10T15:26:55.000",
    "date_modified": "2023-11-10T15:26:56.000",
    "request_status": "Pending",
    "responsible_agency": "Department of Sanitation",
    "final_address": "2340 Tupelo St",
    "address_councildis": "E",
    "status": "Assigned to Contractor",
    "contractor": "Waste Pro",
    "rowid": "1049410",
    "final_x": "3701227.65841",
    "final_y": "537957.931657",
    "longitude": "-90.00554233857996",
    "latitude": "29.97258395934112",
    "geocoded_column": {
      "latitude": "29.97258395934112",
      "longitude": "-90.00554233857996"
    }
  },
  {
    "service_request": "2023-1049409",
    "request_type": "Trash/Recycling",
    "request_reason": "Order Recycling Cart",
    "date_created": "2023-11-10T15:26:07.000",
    "date_modified": "2023-11-10T15:26:07.000",
    "request_status": "Pending",
    "responsible_agency": "Department of Sanitation",
    "final_address": "8228 Panola St",
    "address_councildis": "A",
    "status": "Pending",
    "rowid": "1049409",
    "final_x": "3663643.856",
    "final_y": "531070.017282",
    "longitude": "-90.12446884731598",
    "latitude": "29.95478845209816",
    "geocoded_column": {
      "latitude": "29.95478845209816",
      "longitude": "-90.12446884731598"
    }
  },
  {
    "service_request": "2023-1049408",
    "request_type": "Abandoned Vehicles",
    "request_reason": "Vehicle Blocking Your Driveway",
    "date_created": "2023-11-10T15:23:06.000",
    "date_modified": "2023-11-10T15:23:06.000",
    "request_status": "Pending",
    "responsible_agency": "Department of Public Works",
    "final_address": "8601 Zimple St",
    "address_councildis": "A",
    "status": "Pending",
    "rowid": "1049408",
    "final_x": "3660392.59981",
    "final_y": "529379.898881",
    "longitude": "-90.13479095012634",
    "latitude": "29.950235084027565",
    "geocoded_column": {
      "latitude": "29.950235084027565",
      "longitude": "-90.13479095012634"
    }
  },
  {
    "service_request": "2023-1049407",
    "request_type": "Trash/Recycling",
    "request_reason": "Order Recycling Cart",
    "date_created": "2023-11-10T15:19:52.000",
    "date_modified": "2023-11-10T15:19:52.000",
    "request_status": "Pending",
    "responsible_agency": "Department of Sanitation",
    "final_address": "5339 St Charles Ave",
    "address_councildis": "B",
    "status": "Pending",
    "rowid": "1049407",
    "final_x": "3667616.22298",
    "final_y": "521545.653945",
    "longitude": "-90.11224608096772",
    "latitude": "29.928483691515385",
    "geocoded_column": {
      "latitude": "29.928483691515385",
      "longitude": "-90.11224608096772"
    }
  },
  {
    "service_request": "2023-1049406",
    "request_type": "Traffic Signals/Signs/Striping/Streetlights",
    "request_reason": "Street Light Outage/Malfunction",
    "date_created": "2023-11-10T15:17:55.000",
    "date_modified": "2023-11-10T15:17:56.000",
    "request_status": "Pending",
    "responsible_agency": "Department of Public Works",
    "final_address": "611 Ursulines Ave",
    "address_councildis": "C",
    "status": "Assigned to Contractor",
    "contractor": "Legacy Professional Services",
    "rowid": "1049406",
    "final_x": "3683652.93097",
    "final_y": "533498.877252",
    "longitude": "-90.06120277731922",
    "latitude": "29.96087137490651",
    "geocoded_column": {
      "latitude": "29.96087137490651",
      "longitude": "-90.06120277731922"
    }
  },
  {
    "service_request": "2023-1049405",
    "request_type": "Trash/Recycling",
    "request_reason": "Illegal Dumping",
    "date_created": "2023-11-10T15:07:43.000",
    "date_modified": "2023-11-10T15:07:43.000",
    "request_status": "Pending",
    "responsible_agency": "Department of Sanitation",
    "final_address": "N CLAIBORNE AVE & URSULINES AVE",
    "address_councildis": "D",
    "status": "Pending",
    "rowid": "1049405",
    "final_x": "3680724.68",
    "final_y": "535739.58",
    "longitude": "-90.07037164369352",
    "latitude": "29.967121608050693",
    "geocoded_column": {
      "latitude": "29.967121608050693",
      "longitude": "-90.07037164369352"
    }
  },
  {
    "service_request": "2023-1049404",
    "request_type": "Traffic Signals/Signs/Striping/Streetlights",
    "request_reason": "Street Name Sign Damaged or Missing",
    "date_created": "2023-11-10T15:07:42.000",
    "date_modified": "2023-11-10T15:07:43.000",
    "request_status": "Pending",
    "responsible_agency": "Department of Public Works",
    "final_address": "WALL BLVD & SHALETT ST",
    "address_councildis": "C",
    "status": "Pending",
    "rowid": "1049404",
    "final_x": "3694207.4",
    "final_y": "523444.38",
    "longitude": "-90.02823555203803",
    "latitude": "29.932898573626478",
    "geocoded_column": {
      "latitude": "29.932898573626478",
      "longitude": "-90.02823555203803"
    }
  },
  {
    "service_request": "2023-1049402",
    "request_type": "Trash/Recycling",
    "request_reason": "Request a Large Item Pick Up",
    "date_created": "2023-11-10T15:05:30.000",
    "date_modified": "2023-11-10T15:05:30.000",
    "request_status": "Pending",
    "responsible_agency": "Department of Sanitation",
    "final_address": "7731 Shelly St",
    "address_councildis": "E",
    "status": "Assigned to Contractor",
    "contractor": "Waste Pro",
    "rowid": "1049402",
    "final_x": "3695932.63082",
    "final_y": "559352.779357",
    "longitude": "-90.02149132910432",
    "latitude": "30.03157951942622",
    "geocoded_column": {
      "latitude": "30.03157951942622",
      "longitude": "-90.02149132910432"
    }
  },
  {
    "service_request": "2023-1049401",
    "request_type": "Abandoned Vehicles",
    "request_reason": "Abandoned/Junk Vehicles",
    "date_created": "2023-11-10T15:05:26.000",
    "date_modified": "2023-11-10T15:05:26.000",
    "request_status": "Pending",
    "responsible_agency": "Department of Public Works",
    "final_address": "1602 Washington Ave",
    "address_councildis": "B",
    "status": "Pending",
    "rowid": "1049401",
    "final_x": "3675820.33672",
    "final_y": "522613.372026",
    "longitude": "-90.08631074567923",
    "latitude": "29.931176619483697",
    "geocoded_column": {
      "latitude": "29.931176619483697",
      "longitude": "-90.08631074567923"
    }
  },
  {
    "service_request": "2023-1049400",
    "request_type": "Trash/Recycling",
    "request_reason": "Request a Large Item Pick Up",
    "date_created": "2023-11-10T15:03:23.000",
    "date_modified": "2023-11-10T15:03:24.000",
    "request_status": "Pending",
    "responsible_agency": "Department of Sanitation",
    "final_address": "8720 Stroelitz St",
    "address_councildis": "A",
    "status": "Assigned to Contractor",
    "contractor": "Richards Disposal",
    "rowid": "1049400",
    "final_x": "3666233.59207",
    "final_y": "536454.044807",
    "longitude": "-90.11611082177843",
    "latitude": "29.96951737595733",
    "geocoded_column": {
      "latitude": "29.96951737595733",
      "longitude": "-90.11611082177843"
    }
  },
  {
    "service_request": "2023-1049399",
    "request_type": "Trash/Recycling",
    "request_reason": "Order Recycling Cart",
    "date_created": "2023-11-10T14:56:33.000",
    "date_modified": "2023-11-10T14:56:33.000",
    "request_status": "Pending",
    "responsible_agency": "Department of Sanitation",
    "final_address": "7616 Dogwood Dr",
    "address_councildis": "E",
    "status": "Pending",
    "rowid": "1049399",
    "final_x": "3701212.00305",
    "final_y": "561011.716318",
    "longitude": "-90.00474758401121",
    "latitude": "30.03597370152162",
    "geocoded_column": {
      "latitude": "30.03597370152162",
      "longitude": "-90.00474758401121"
    }
  },
  {
    "service_request": "2023-1049398",
    "request_type": "Trash/Recycling",
    "request_reason": "MIssed Recycling Pick-Up",
    "date_created": "2023-11-10T14:53:44.000",
    "date_modified": "2023-11-10T14:53:44.000",
    "request_status": "Pending",
    "responsible_agency": "Department of Sanitation",
    "final_address": "5806 W Louis Prima Dr",
    "address_councildis": "E",
    "status": "Assigned to Contractor",
    "contractor": "Waste Pro",
    "rowid": "1049398",
    "final_x": "3715515.39186",
    "final_y": "562453.671711",
    "longitude": "-89.95949206437257",
    "latitude": "30.03947472744739",
    "geocoded_column": {
      "latitude": "30.03947472744739",
      "longitude": "-89.95949206437257"
    }
  },
  {
    "service_request": "2023-1049397",
    "request_type": "Traffic Signals/Signs/Striping/Streetlights",
    "request_reason": "Street Light Outage/Malfunction",
    "date_created": "2023-11-10T14:51:54.000",
    "date_modified": "2023-11-10T14:51:55.000",
    "request_status": "Pending",
    "responsible_agency": "Department of Public Works",
    "final_address": "10800 Old Gentilly Rd",
    "address_councildis": "E",
    "status": "Assigned to Contractor",
    "contractor": "Legacy Professional Services",
    "rowid": "1049397",
    "final_x": "3716455.72626",
    "final_y": "554711.13596",
    "longitude": "-89.95681430739405",
    "latitude": "30.018154817416516",
    "geocoded_column": {
      "latitude": "30.018154817416516",
      "longitude": "-89.95681430739405"
    }
  },
  {
    "service_request": "2023-1049396",
    "request_type": "Property Maintenance",
    "request_reason": "Property Maintenance",
    "date_created": "2023-11-10T14:50:57.000",
    "date_modified": "2023-11-10T14:50:57.000",
    "request_status": "Pending",
    "responsible_agency": "Department of Code Enforcement",
    "final_address": "7301 Poitevent Ave",
    "address_councildis": "E",
    "status": "Pending",
    "rowid": "1049396",
    "final_x": "3707606.33432",
    "final_y": "563079.368736",
    "longitude": "-89.98446355351594",
    "latitude": "30.041453514924523",
    "geocoded_column": {
      "latitude": "30.041453514924523",
      "longitude": "-89.98446355351594"
    }
  },
  {
    "service_request": "2023-1049395",
    "request_type": "Trash/Recycling",
    "request_reason": "Request a Large Item Pick Up",
    "date_created": "2023-11-10T14:45:34.000",
    "date_modified": "2023-11-10T14:46:27.000",
    "request_status": "Pending",
    "responsible_agency": "Department of Sanitation",
    "final_address": "7230 Cove Dr",
    "address_councildis": "E",
    "status": "Assigned to Contractor",
    "contractor": "Waste Pro",
    "rowid": "1049395",
    "final_x": "3700004.08714",
    "final_y": "559020.610972",
    "longitude": "-90.00863754536789",
    "latitude": "30.030537387819003",
    "geocoded_column": {
      "latitude": "30.030537387819003",
      "longitude": "-90.00863754536789"
    }
  },
  {
    "service_request": "2023-1049394",
    "request_type": "Trash/Recycling",
    "request_reason": "Missed Trash Pick-Up",
    "date_created": "2023-11-10T14:40:44.000",
    "date_modified": "2023-11-10T14:40:45.000",
    "request_status": "Pending",
    "responsible_agency": "Department of Sanitation",
    "final_address": "2415 Lamanche St",
    "address_councildis": "E",
    "status": "Assigned to Contractor",
    "contractor": "Waste Pro",
    "rowid": "1049394",
    "final_x": "3699747.3512",
    "final_y": "538669.714633",
    "longitude": "-90.01019142870926",
    "latitude": "29.97458818860911",
    "geocoded_column": {
      "latitude": "29.97458818860911",
      "longitude": "-90.01019142870926"
    }
  },
  {
    "service_request": "2023-1049393",
    "request_type": "Roads/Drainage",
    "request_reason": "Catch Basin - Broken/Damage",
    "date_created": "2023-11-10T14:40:25.000",
    "date_modified": "2023-11-10T14:40:26.000",
    "request_status": "Pending",
    "responsible_agency": "Department of Public Works",
    "final_address": "4876 Annunciation St",
    "address_councildis": "B",
    "status": "Pending",
    "rowid": "1049393",
    "final_x": "3669051.01748",
    "final_y": "517500.92991",
    "longitude": "-90.10785328657387",
    "latitude": "29.917319860750034",
    "geocoded_column": {
      "latitude": "29.917319860750034",
      "longitude": "-90.10785328657387"
    }
  },
  {
    "service_request": "2023-1049392",
    "request_type": "Abandoned Vehicles",
    "request_reason": "Abandoned/Junk Vehicles",
    "date_created": "2023-11-10T14:32:50.000",
    "date_modified": "2023-11-11T10:18:16.000",
    "request_status": "Pending",
    "responsible_agency": "Department of Public Works",
    "final_address": "815 Pleasant St",
    "address_councildis": "B",
    "status": "Inspected",
    "rowid": "1049392",
    "final_x": "3676017.31675",
    "final_y": "519018.452215",
    "longitude": "-90.08581246229882",
    "latitude": "29.921285857532276",
    "geocoded_column": {
      "latitude": "29.921285857532276",
      "longitude": "-90.08581246229882"
    }
  },
  {
    "service_request": "2023-1049391",
    "request_type": "Traffic Signals/Signs/Striping/Streetlights",
    "request_reason": "Traffic Signal Malfunctioning/Damaged",
    "date_created": "2023-11-10T14:25:53.000",
    "date_modified": "2023-11-10T14:25:53.000",
    "request_status": "Pending",
    "responsible_agency": "Department of Public Works",
    "final_address": "3400 BLK Magazine St",
    "address_councildis": "B",
    "status": "Pending",
    "rowid": "1049391",
    "final_x": "3674563.58522",
    "final_y": "519438.183024",
    "longitude": "-90.09038688448878",
    "latitude": "29.92248342256901",
    "geocoded_column": {
      "latitude": "29.92248342256901",
      "longitude": "-90.09038688448878"
    }
  },
  {
    "service_request": "2023-1049390",
    "request_type": "Trash/Recycling",
    "request_reason": "Order Trash Cart",
    "date_created": "2023-11-10T14:25:50.000",
    "date_modified": "2023-11-10T14:25:51.000",
    "request_status": "Pending",
    "responsible_agency": "Department of Sanitation",
    "final_address": "4218 DHemecourt St",
    "address_councildis": "A",
    "status": "Assigned to Contractor",
    "contractor": "Richards Disposal",
    "rowid": "1049390",
    "final_x": "3669228.63662",
    "final_y": "537217.263496",
    "longitude": "-90.10662638827384",
    "latitude": "29.971528148008325",
    "geocoded_column": {
      "latitude": "29.971528148008325",
      "longitude": "-90.10662638827384"
    }
  },
  {
    "service_request": "2023-1049389",
    "request_type": "Roads/Drainage",
    "request_reason": "Street Subsidence (Sinking)",
    "date_created": "2023-11-10T14:19:23.000",
    "date_modified": "2023-11-10T14:19:23.000",
    "request_status": "Pending",
    "responsible_agency": "Department of Public Works",
    "final_address": "4336 Clio St",
    "address_councildis": "B",
    "status": "Pending",
    "rowid": "1049389",
    "final_x": "3671028.46145",
    "final_y": "531732.635715",
    "longitude": "-90.10112853054471",
    "latitude": "29.95639414741975",
    "geocoded_column": {
      "latitude": "29.95639414741975",
      "longitude": "-90.10112853054471"
    }
  },
  {
    "service_request": "2023-1049388",
    "request_type": "Trash/Recycling",
    "request_reason": "Order Recycling Cart",
    "date_created": "2023-11-10T14:16:24.000",
    "date_modified": "2023-11-10T14:16:25.000",
    "request_status": "Pending",
    "responsible_agency": "Department of Sanitation",
    "final_address": "5507 Warrington Dr",
    "address_councildis": "D",
    "status": "Pending",
    "rowid": "1049388",
    "final_x": "3680942.58779",
    "final_y": "553030.145175",
    "longitude": "-90.06908102447935",
    "latitude": "30.014657956482456",
    "geocoded_column": {
      "latitude": "30.014657956482456",
      "longitude": "-90.06908102447935"
    }
  },
  {
    "service_request": "2023-1049387",
    "request_type": "Trash/Recycling",
    "request_reason": "Request a Large Item Pick Up",
    "date_created": "2023-11-10T14:10:12.000",
    "date_modified": "2023-11-10T14:10:13.000",
    "request_status": "Pending",
    "responsible_agency": "Department of Sanitation",
    "final_address": "1216 N Villere St",
    "address_councildis": "C",
    "status": "Assigned to Contractor",
    "contractor": "Richards Disposal",
    "rowid": "1049387",
    "final_x": "3681600.3917",
    "final_y": "535811.038343",
    "longitude": "-90.06760364855023",
    "latitude": "29.967291524576066",
    "geocoded_column": {
      "latitude": "29.967291524576066",
      "longitude": "-90.06760364855023"
    }
  },
  {
    "service_request": "2023-1049386",
    "request_type": "Roads/Drainage",
    "request_reason": "Road Shoulder Repair",
    "date_created": "2023-11-10T14:05:41.000",
    "date_modified": "2023-11-10T14:05:41.000",
    "request_status": "Pending",
    "responsible_agency": "Department of Public Works",
    "final_address": "5040 Warren Dr",
    "address_councildis": "E",
    "status": "Pending",
    "rowid": "1049386",
    "final_x": "3713245.82949",
    "final_y": "557693.343707",
    "longitude": "-89.9668438934302",
    "latitude": "30.026460350972542",
    "geocoded_column": {
      "latitude": "30.026460350972542",
      "longitude": "-89.9668438934302"
    }
  },
  {
    "service_request": "2023-1049385",
    "request_type": "Abandoned Vehicles",
    "request_reason": "Abandoned/Junk Vehicles",
    "date_created": "2023-11-10T14:01:26.000",
    "date_modified": "2023-11-10T14:01:26.000",
    "request_status": "Pending",
    "responsible_agency": "Department of Public Works",
    "final_address": "335 Olivier St",
    "address_councildis": "C",
    "status": "Pending",
    "rowid": "1049385",
    "final_x": "3687198.20073",
    "final_y": "530489.491458",
    "longitude": "-90.0501139403907",
    "latitude": "29.952487896931974",
    "geocoded_column": {
      "latitude": "29.952487896931974",
      "longitude": "-90.0501139403907"
    }
  },
  {
    "service_request": "2023-1049384",
    "request_type": "Trash/Recycling",
    "request_reason": "Missed Trash Pick-Up",
    "date_created": "2023-11-10T14:01:17.000",
    "date_modified": "2023-11-10T14:01:18.000",
    "request_status": "Pending",
    "responsible_agency": "Department of Sanitation",
    "final_address": "4650 Redwood St",
    "address_councildis": "E",
    "status": "Assigned to Contractor",
    "contractor": "Waste Pro",
    "rowid": "1049384",
    "final_x": "3712465.6924",
    "final_y": "555624.536345",
    "longitude": "-89.96938682754148",
    "latitude": "30.02079750449508",
    "geocoded_column": {
      "latitude": "30.02079750449508",
      "longitude": "-89.96938682754148"
    }
  },