[
  {
    "service_request": "2025-1243255",
    "request_type": "Trash/Recycling",
    "request_reason": "Request a Large Item Pick Up",
    "date_created": "2025-12-01T23:48:50.000",
    "date_modified": "2025-12-01T23:48:52.000",
    "request_status": "Pending",
    "responsible_agency": "Department of Sanitation",
    "final_address": "1711 Milan St",
    "address_councildis": "B",
    "status": "Assigned to Contractor",
    "contractor": "IV Waste",
    "rowid": "1243255",
    "final_x": "3671586.28251",
    "final_y": "521441.770361",
    "longitude": "-90.09971695679681",
    "latitude": "29.92808111550677",
    "geocoded_column": {
      "latitude": "29.92808111550677",
      "longitude": "-90.09971695679681"
    }
  },
  {
    "service_request": "2025-1243254",
    "request_type": "Trash/Recycling",
    "request_reason": "Request a Large Item Pick Up",
    "date_created": "2025-12-01T23:08:07.000",
    "date_modified": "2025-12-01T23:08:08.000",
    "request_status": "Pending",
    "responsible_agency": "Department of Sanitation",
    "final_address": "7433 Woodbine Dr",
    "address_councildis": "E",
    "status": "Assigned to Contractor",
    "contractor": "Waste Pro",
    "rowid": "1243254",
    "final_x": "3702213.53636",
    "final_y": "560866.665822",
    "longitude": "-90.00158790034071",
    "latitude": "30.035542900873217",
    "geocoded_column": {
      "latitude": "30.035542900873217",
      "longitude": "-90.00158790034071"
    }
  },
  {
    "service_request": "2025-1243253",
    "request_type": "Streetlights",
    "request_reason": "Streetlight Outage/Malfunction",
    "date_created": "2025-12-01T22:49:29.000",
    "date_modified": "2025-12-01T22:49:31.000",
    "request_status": "Pending",
    "responsible_agency": "Department of Public Works",
    "final_address": "3 Shepard Ct",
    "address_councildis": "C",
    "status": "Pending",
    "rowid": "1243253",
    "final_x": "3692481.33437",
    "final_y": "524572.149692",
    "longitude": "-90.03364420654947",
    "latitude": "29.936053500933784",
    "geocoded_column": {
      "latitude": "29.936053500933784",
      "longitude": "-90.03364420654947"
    }
  },
  {
    "service_request": "2025-1243252",
    "request_type": "Drainage",
    "request_reason": "Catch Basin Not Draining",
    "date_created": "2025-12-01T22:35:27.000",
    "date_modified": "2025-12-01T22:35:30.000",
    "request_status": "Pending",
    "responsible_agency": "Sewerage & Water Board",
    "final_address": "2125 Annunciation St",
    "address_councildis": "B",
    "status": "Pending",
    "rowid": "1243252",
    "final_x": "3679661.68565",
    "final_y": "521350.491129",
    "longitude": "-90.07422791411706",
    "latitude": "29.927588600518902",
    "geocoded_column": {
      "latitude": "29.927588600518902",
      "longitude": "-90.07422791411706"
    }
  },
  {
    "service_request": "2025-1243251",
    "request_type": "General Services",
    "request_reason": "General Service Request",
    "date_created": "2025-12-01T21:57:08.000",
    "date_modified": "2025-12-01T21:57:11.000",
    "request_status": "Pending",
    "responsible_agency": "Orleans Parish Communication District",
    "final_address": "the Magazine St / Henry Clay intersection",
    "status": "Pending",
    "rowid": "1243251",
    "longitude": "0.0",
    "latitude": "0.0",
    "geocoded_column": {
      "latitude": "0.0",
      "longitude": "0.0"
    }
  },
  {
    "service_request": "2025-1243250",
    "request_type": "Streetlights",
    "request_reason": "Streetlight Outage/Malfunction",
    "date_created": "2025-12-01T21:33:19.000",
    "date_modified": "2025-12-01T21:33:21.000",
    "request_status": "Pending",
    "responsible_agency": "Department of Public Works",
    "final_address": "900 Poydras St",
    "address_councildis": "B",
    "status": "Pending",
    "rowid": "1243250",
    "final_x": "3679877.72443",
    "final_y": "529493.088449",
    "longitude": "-90.07326326562955",
    "latitude": "29.949971514920346",
    "geocoded_column": {
      "latitude": "29.949971514920346",
      "longitude": "-90.07326326562955"
    }
  },
  {
    "service_request": "2025-1243249",
    "request_type": "Streetlights",
    "request_reason": "Streetlight Outage/Malfunction",
    "date_created": "2025-12-01T21:23:26.000",
    "date_modified": "2025-12-01T21:23:29.000",
    "request_status": "Pending",
    "responsible_agency": "Department of Public Works",
    "final_address": "1134 Royal St",
    "address_councildis": "C",
    "status": "Pending",
    "rowid": "1243249",
    "final_x": "3683632.05538",
    "final_y": "533828.968901",
    "longitude": "-90.06125712635365",
    "latitude": "29.961779650936577",
    "geocoded_column": {
      "latitude": "29.961779650936577",
      "longitude": "-90.06125712635365"
    }
  },
  {
    "service_request": "2025-1243248",
    "request_type": "Mosquito, Termite & Rodent Control",
    "request_reason": "Rodent Complaint (Mice & Rats)",
    "date_created": "2025-12-01T21:10:06.000",
    "date_modified": "2025-12-01T21:10:07.000",
    "request_status": "Pending",
    "responsible_agency": "Mosquito, Termite & Rodent Control Board",
    "final_address": "1725 Delachaise St",
    "address_councildis": "B",
    "status": "Pending",
    "rowid": "1243248",
    "final_x": "3673621.01499",
    "final_y": "521958.910842",
    "longitude": "-90.0932760907818",
    "latitude": "29.929442693780985",
    "geocoded_column": {
      "latitude": "29.929442693780985",
      "longitude": "-90.0932760907818"
    }
  },
  {
    "service_request": "2025-1243247",
    "request_type": "Streetlights",
    "request_reason": "Streetlight Outage/Malfunction",
    "date_created": "2025-12-01T21:00:17.000",
    "date_modified": "2025-12-01T21:00:19.000",
    "request_status": "Pending",
    "responsible_agency": "Department of Public Works",
    "final_address": "6777 Memphis St",
    "address_councildis": "A",
    "status": "Pending",
    "rowid": "1243247",
    "final_x": "3669730.65729",
    "final_y": "552543.11983",
    "longitude": "-90.1045218673692",
    "latitude": "30.01365418977857",
    "geocoded_column": {
      "latitude": "30.01365418977857",
      "longitude": "-90.1045218673692"
    }
  },
  {
    "service_request": "2025-1243246",
    "request_type": "Healthy Homes",
    "request_reason": "Healthy Homes",
    "date_created": "2025-12-01T20:41:18.000",
    "date_modified": "2025-12-01T20:41:21.000",
    "request_status": "Pending",
    "responsible_agency": "Department of Code Enforcement",
    "final_address": "7030 Argonne Blvd",
    "address_councildis": "A",
    "status": "Pending",
    "rowid": "1243246",
    "final_x": "3670712.14964",
    "final_y": "554103.148376",
    "longitude": "-90.10136785932185",
    "latitude": "30.017914736566464",
    "geocoded_column": {
      "latitude": "30.017914736566464",
      "longitude": "-90.10136785932185"
    }
  },
  {
    "service_request": "2025-1243245",
    "request_type": "Roads and Streets",
    "request_reason": "Sidewalk Damaged or Missing",
    "date_created": "2025-12-01T19:18:22.000",
    "date_modified": "2025-12-01T19:18:24.000",
    "request_status": "Pending",
    "responsible_agency": "Department of Public Works",
    "final_address": "819 Pleasant St",
    "address_councildis": "B",
    "status": "Pending",
    "rowid": "1243245",
    "final_x": "3675996.84968",
    "final_y": "519058.060535",
    "longitude": "-90.08587570671412",
    "latitude": "29.921395380364345",
    "geocoded_column": {
      "latitude": "29.921395380364345",
      "longitude": "-90.08587570671412"
    }
  },
  {
    "service_request": "2025-1243244",
    "request_type": "Traffic Signals",
    "request_reason": "Traffic Signal Malfunctioning or Damaged",
    "date_created": "2025-12-01T19:06:42.000",
    "date_modified": "2025-12-01T19:06:44.000",
    "request_status": "Pending",
    "responsible_agency": "Department of Public Works",
    "final_address": "4068 Tulane Ave",
    "address_councildis": "A",
    "status": "Pending",
    "rowid": "1243244",
    "final_x": "3669355.07086",
    "final_y": "536128.353543",
    "longitude": "-90.10626391643623",
    "latitude": "29.968530287658712",
    "geocoded_column": {
      "latitude": "29.968530287658712",
      "longitude": "-90.10626391643623"
    }
  },
  {
    "service_request": "2025-1243243",
    "request_type": "Traffic Signals",
    "request_reason": "Traffic Signal Malfunctioning or Damaged",
    "date_created": "2025-12-01T18:54:58.000",
    "date_modified": "2025-12-01T18:55:00.000",
    "request_status": "Pending",
    "responsible_agency": "Department of Public Works",
    "final_address": "S CARROLLTON AVE & TULANE AVE",
    "address_councildis": "A",
    "status": "Pending",
    "rowid": "1243243",
    "final_x": "3669337.8",
    "final_y": "536308.78",
    "longitude": "-90.10631235722039",
    "latitude": "29.96902690865695",
    "geocoded_column": {
      "latitude": "29.96902690865695",
      "longitude": "-90.10631235722039"
    }
  },
  {
    "service_request": "2025-1243242",
    "request_type": "Trash/Recycling",
    "request_reason": "Replace Recycling Cart",
    "date_created": "2025-12-01T18:47:19.000",
    "date_modified": "2025-12-01T18:47:21.000",
    "request_status": "Pending",
    "responsible_agency": "Department of Sanitation",
    "final_address": "429 39Th St",
    "address_councildis": "A",
    "status": "Pending",
    "rowid": "1243242",
    "final_x": "3664776.31642",
    "final_y": "553105.258839",
    "longitude": "-90.12015627688646",
    "latitude": "30.015345036027778",
    "geocoded_column": {
      "latitude": "30.015345036027778",
      "longitude": "-90.12015627688646"
    }
  },
  {
    "service_request": "2025-1243241",
    "request_type": "Trash/Recycling",
    "request_reason": "Order Trash Cart",
    "date_created": "2025-12-01T18:45:27.000",
    "date_modified": "2025-12-01T18:45:30.000",
    "request_status": "Pending",
    "responsible_agency": "Department of Sanitation",
    "final_address": "339 Evelina St",
    "address_councildis": "C",
    "status": "Assigned to Contractor",
    "contractor": "Richards Disposal",
    "rowid": "1243241",
    "final_x": "3686807.8685",
    "final_y": "529271.872513",
    "longitude": "-90.05138944257564",
    "latitude": "29.949151874820735",
    "geocoded_column": {
      "latitude": "29.949151874820735",
      "longitude": "-90.05138944257564"
    }
  },
  {
    "service_request": "2025-1243240",
    "request_type": "Roads and Streets",
    "request_reason": "Pothole",
    "date_created": "2025-12-01T18:45:00.000",
    "date_modified": "2025-12-01T18:45:02.000",
    "request_status": "Pending",
    "responsible_agency": "Department of Public Works",
    "final_address": "429 39Th St",
    "address_councildis": "A",
    "status": "Pending",
    "rowid": "1243240",
    "final_x": "3664776.31642",
    "final_y": "553105.258839",
    "longitude": "-90.12015627688646",
    "latitude": "30.015345036027778",
    "geocoded_column": {
      "latitude": "30.015345036027778",
      "longitude": "-90.12015627688646"
    }
  },
  {
    "service_request": "2025-1243239",
    "request_type": "Trash/Recycling",
    "request_reason": "Request a Large Item Pick Up",
    "date_created": "2025-12-01T18:36:55.000",
    "date_modified": "2025-12-01T18:36:58.000",
    "request_status": "Pending",
    "responsible_agency": "Department of Sanitation",
    "final_address": "10920 Guildford Rd",
    "address_councildis": "E",
    "status": "Assigned to Contractor",
    "contractor": "Waste Pro",
    "rowid": "1243239",
    "final_x": "3711517.40606",
    "final_y": "563941.332385",
    "longitude": "-89.97207091423772",
    "latitude": "30.043696394401042",
    "geocoded_column": {
      "latitude": "30.043696394401042",
      "longitude": "-89.97207091423772"
    }
  },
  {
    "service_request": "2025-1243238",
    "request_type": "General Services",
    "request_reason": "General Service Request",
    "date_created": "2025-12-01T18:18:43.000",
    "date_modified": "2025-12-01T18:18:45.000",
    "request_status": "Pending",
    "responsible_agency": "Orleans Parish Communication District",
    "final_address": "1581 Magazine St",
    "address_councildis": "B",
    "status": "Pending",
    "rowid": "1243238",
    "final_x": "3680017.78408",
    "final_y": "523287.187323",
    "longitude": "-90.07303655448769",
    "latitude": "29.932903114747276",
    "geocoded_column": {
      "latitude": "29.932903114747276",
      "longitude": "-90.07303655448769"
    }
  },
  {
    "service_request": "2025-1243237",
    "request_type": "Trash/Recycling",
    "request_reason": "Order Trash Cart",
    "date_created": "2025-12-01T17:56:37.000",
    "date_modified": "2025-12-01T17:56:39.000",
    "request_status": "Pending",
    "responsible_agency": "Department of Sanitation",
    "final_address": "1623 Oretha Castle Haley Blvd",
    "address_councildis": "B",
    "status": "Assigned to Contractor",
    "contractor": "IV Waste",
    "rowid": "1243237",
    "final_x": "3677715.20693",
    "final_y": "525869.186813",
    "longitude": "-90.0802164784151",
    "latitude": "29.940072201101117",
    "geocoded_column": {
      "latitude": "29.940072201101117",
      "longitude": "-90.0802164784151"
    }
  },
  {
    "service_request": "2025-1243236",
    "request_type": "Trash/Recycling",
    "request_reason": "Request a Large Item Pick Up",
    "date_created": "2025-12-01T17:23:22.000",
    "date_modified": "2025-12-01T17:23:23.000",
    "request_status": "Pending",
    "responsible_agency": "Department of Sanitation",
    "final_address": "222 S Bernadotte St",
    "address_councildis": "A",
    "status": "Assigned to Contractor",
    "contractor": "IV Waste",
    "rowid": "1243236",
    "final_x": "3668481.10273",
    "final_y": "539542.897354",
    "longitude": "-90.10890873375813",
    "latitude": "29.977944844030226",
    "geocoded_column": {
      "latitude": "29.977944844030226",
      "longitude": "-90.10890873375813"
    }
  },
  {
    "service_request": "2025-1243235",
    "request_type": "Streetlights",
    "request_reason": "Streetlight Outage/Malfunction",
    "date_created": "2025-12-01T17:20:42.000",
    "date_modified": "2025-12-01T17:20:43.000",
    "request_status": "Pending",
    "responsible_agency": "Department of Public Works",
    "final_address": "765 Jewel St",
    "address_councildis": "D",
    "status": "Pending",
    "rowid": "1243235",
    "final_x": "3669929.43028",
    "final_y": "555968.246681",
    "longitude": "-90.10377772347803",
    "latitude": "30.023066208917992",
    "geocoded_column": {
      "latitude": "30.023066208917992",
      "longitude": "-90.10377772347803"
    }
  },
  {
    "service_request": "2025-1243234",
    "request_type": "Trash/Recycling",
    "request_reason": "Order Trash Cart",
    "date_created": "2025-12-01T17:13:35.000",
    "date_modified": "2025-12-01T17:13:36.000",
    "request_status": "Pending",
    "responsible_agency": "Department of Sanitation",
    "final_address": "2716 Magnolia St",
    "address_councildis": "B",
    "status": "Assigned to Contractor",
    "contractor": "IV Waste",
    "rowid": "1243234",
    "final_x": "3673898.65115",
    "final_y": "525880.103165",
    "longitude": "-90.09226557092431",
    "latitude": "29.940216433380165",
    "geocoded_column": {
      "latitude": "29.940216433380165",
      "longitude": "-90.09226557092431"
    }
  },
  {
    "service_request": "2025-1243233",
    "request_type": "Trash/Recycling",
    "request_reason": "Missed Trash Pick-Up",
    "date_created": "2025-12-01T17:00:47.000",
    "date_modified": "2025-12-01T17:54:22.000",
    "case_close_date": "2025-12-01T11:54:20.000",
    "request_status": "Closed",
    "responsible_agency": "Department of Sanitation",
    "final_address": "14121 Knightway Dr",
    "address_councildis": "E",
    "status": "Duplicate Request",
    "contractor": "Waste Pro",
    "contractor_action": "Duplicate",
    "rowid": "1243233",
    "final_x": "3718609.47071",
    "final_y": "570525.455911",
    "longitude": "-89.94940587651615",
    "latitude": "30.06156644296811",
    "geocoded_column": {
      "latitude": "30.06156644296811",
      "longitude": "-89.94940587651615"
    }
  },
  {
    "service_request": "2025-1243232",
    "request_type": "Trash/Recycling",
    "request_reason": "Replace Trash Cart",
    "date_created": "2025-12-01T16:59:28.000",
    "date_modified": "2025-12-01T16:59:36.000",
    "request_status": "Pending",
    "responsible_agency": "Department of Sanitation",
    "final_address": "5026 E St Andrews Cir",
    "address_councildis": "E",
    "status": "Assigned to Contractor",
    "contractor": "Waste Pro",
    "rowid": "1243232",
    "final_x": "3719778.82495",
    "final_y": "559949.447325",
    "longitude": "-89.94611432565542",
    "latitude": "30.032447884191743",
    "geocoded_column": {
      "latitude": "30.032447884191743",
      "longitude": "-89.94611432565542"
    }
  },
  {
    "service_request": "2025-1243231",
    "request_type": "Trash/Recycling",
    "request_reason": "Request a Large Item Pick Up",
    "date_created": "2025-12-01T16:58:30.000",
    "date_modified": "2025-12-01T16:58:31.000",
    "request_status": "Pending",
    "responsible_agency": "Department of Sanitation",
    "final_address": "2521 Acacia St",
    "address_councildis": "D",
    "status": "Assigned to Contractor",
    "contractor": "IV Waste",
    "rowid": "1243231",
    "final_x": "3686550.62959",
    "final_y": "546350.333776",
    "longitude": "-90.05159846232687",
    "latitude": "29.99611957486053",
    "geocoded_column": {
      "latitude": "29.99611957486053",
      "longitude": "-90.05159846232687"
    }
  },
  {
    "service_request": "2025-1243230",
    "request_type": "Trash/Recycling",
    "request_reason": "Replace Trash Cart",
    "date_created": "2025-12-01T16:58:21.000",
    "date_modified": "2025-12-01T16:58:23.000",
    "request_status": "Pending",
    "responsible_agency": "Department of Sanitation",
    "final_address": "1519 S Norman C Francis Prkwy",
    "address_councildis": "B",
    "status": "Assigned to Contractor",
    "contractor": "IV Waste",
    "rowid": "1243230",
    "final_x": "3669418.77594",
    "final_y": "531310.76237",
    "longitude": "-90.10622566455008",
    "latitude": "29.955281633456583",
    "geocoded_column": {
      "latitude": "29.955281633456583",
      "longitude": "-90.10622566455008"
    }
  },
  {
    "service_request": "2025-1243229",
    "request_type": "Trash/Recycling",
    "request_reason": "Replace Trash Cart",
    "date_created": "2025-12-01T16:57:13.000",
    "date_modified": "2025-12-01T16:57:44.000",
    "request_status": "Pending",
    "responsible_agency": "Department of Sanitation",
    "final_address": "1511 S Norman C Francis Prkwy",
    "address_councildis": "B",
    "status": "Assigned to Contractor",
    "contractor": "IV Waste",
    "rowid": "1243229",
    "final_x": "3669487.42574",
    "final_y": "531391.740739",
    "longitude": "-90.1060061541937",
    "latitude": "29.955502275621303",
    "geocoded_column": {
      "latitude": "29.955502275621303",
      "longitude": "-90.1060061541937"
    }
  },
  {
    "service_request": "2025-1243228",
    "request_type": "Trash/Recycling",
    "request_reason": "Request a Large Item Pick Up",
    "date_created": "2025-12-01T16:48:38.000",
    "date_modified": "2025-12-01T16:48:40.000",
    "request_status": "Pending",
    "responsible_agency": "Department of Sanitation",
    "final_address": "2524 Jena St",
    "address_councildis": "B",
    "status": "Assigned to Contractor",
    "contractor": "IV Waste",
    "rowid": "1243228",
    "final_x": "3670071.65114",
    "final_y": "524218.056316",
    "longitude": "-90.10440432053943",
    "latitude": "29.935759761970683",
    "geocoded_column": {
      "latitude": "29.935759761970683",
      "longitude": "-90.10440432053943"
    }
  },
  {
    "service_request": "2025-1243227",
    "request_type": "Trash/Recycling",
    "request_reason": "Request a Large Item Pick Up",
    "date_created": "2025-12-01T16:43:31.000",
    "date_modified": "2025-12-01T16:43:33.000",
    "request_status": "Pending",
    "responsible_agency": "Department of Sanitation",
    "final_address": "10139 Seawood St",
    "address_councildis": "E",
    "status": "Assigned to Contractor",
    "contractor": "Waste Pro",
    "rowid": "1243227",
    "final_x": "3712996.3955",
    "final_y": "557491.502747",
    "longitude": "-89.96763966987905",
    "latitude": "30.02591354504789",
    "geocoded_column": {
      "latitude": "30.02591354504789",
      "longitude": "-89.96763966987905"
    }
  },
  {
    "service_request": "2025-1243226",
    "request_type": "Trash/Recycling",
    "request_reason": "Request a Large Item Pick Up",
    "date_created": "2025-12-01T16:40:00.000",
    "date_modified": "2025-12-01T16:40:02.000",
    "request_status": "Pending",
    "responsible_agency": "Department of Sanitation",
    "final_address": "4611 Lurline St",
    "address_councildis": "E",
    "status": "Assigned to Contractor",
    "contractor": "Waste Pro",
    "rowid": "1243226",
    "final_x": "3712135.56472",
    "final_y": "555288.797593",
    "longitude": "-89.97044254141136",
    "latitude": "30.01988515562522",
    "geocoded_column": {
      "latitude": "30.01988515562522",
      "longitude": "-89.97044254141136"
    }
  },
  {
    "service_request": "2025-1243225",
    "request_type": "Trash/Recycling",
    "request_reason": "Request a Large Item Pick Up",
    "date_created": "2025-12-01T16:36:08.000",
    "date_modified": "2025-12-01T16:36:11.000",
    "request_status": "Pending",
    "responsible_agency": "Department of Sanitation",
    "final_address": "2317 General Pershing St",
    "address_councildis": "B",
    "status": "Assigned to Contractor",
    "contractor": "IV Waste",
    "rowid": "1243225",
    "final_x": "3671025.65268",
    "final_y": "523515.219003",
    "longitude": "-90.10141637098738",
    "latitude": "29.933799017591653",
    "geocoded_column": {
      "latitude": "29.933799017591653",
      "longitude": "-90.10141637098738"
    }
  },
  {
    "service_request": "2025-1243224",
    "request_type": "Trash/Recycling",
    "request_reason": "Replace Trash Cart",
    "date_created": "2025-12-01T16:32:18.000",
    "date_modified": "2025-12-01T16:32:19.000",
    "request_status": "Pending",
    "responsible_agency": "Department of Sanitation",
    "final_address": "927 Kerlerec St",
    "address_councildis": "C",
    "status": "Assigned to Contractor",
    "contractor": "IV Waste",
    "rowid": "1243224",
    "final_x": "3683563.48021",
    "final_y": "535269.882118",
    "longitude": "-90.06142316742995",
    "latitude": "29.965743759731875",
    "geocoded_column": {
      "latitude": "29.965743759731875",
      "longitude": "-90.06142316742995"
    }
  },
  {
    "service_request": "2025-1243223",
    "request_type": "Trash/Recycling",
    "request_reason": "Request a Large Item Pick Up",
    "date_created": "2025-12-01T16:31:46.000",
    "date_modified": "2025-12-01T16:31:48.000",
    "request_status": "Pending",
    "responsible_agency": "Department of Sanitation",
    "final_address": "9241 Dwyer Rd",
    "address_councildis": "E",
    "status": "Assigned to Contractor",
    "contractor": "Waste Pro",
    "rowid": "1243223",
    "final_x": "3708928.86635",
    "final_y": "557159.797787",
    "longitude": "-89.98050478629922",
    "latitude": "30.025134160053984",
    "geocoded_column": {
      "latitude": "30.025134160053984",
      "longitude": "-89.98050478629922"
    }
  },
  {
    "service_request": "2025-1243222",
    "request_type": "Trash/Recycling",
    "request_reason": "Request a Large Item Pick Up",
    "date_created": "2025-12-01T16:30:13.000",
    "date_modified": "2025-12-01T16:30:15.000",
    "request_status": "Pending",
    "responsible_agency": "Department of Sanitation",
    "final_address": "1700 Alabo St",
    "address_councildis": "E",
    "status": "Assigned to Contractor",
    "contractor": "Waste Pro",
    "rowid": "1243222",
    "final_x": "3699461.13412",
    "final_y": "535826.624135",
    "longitude": "-90.0111989729258",
    "latitude": "29.96677979893641",
    "geocoded_column": {
      "latitude": "29.96677979893641",
      "longitude": "-90.0111989729258"
    }
  },
  {
    "service_request": "2025-1243221",
    "request_type": "Trash/Recycling",
    "request_reason": "Request a Large Item Pick Up",
    "date_created": "2025-12-01T16:29:08.000",
    "date_modified": "2025-12-01T16:29:10.000",
    "request_status": "Pending",
    "responsible_agency": "Department of Sanitation",
    "final_address": "3042 St Philip St",
    "address_councildis": "A",
    "status": "Assigned to Contractor",
    "contractor": "IV Waste",
    "rowid": "1243221",
    "final_x": "3676060.86843",
    "final_y": "538834.388553",
    "longitude": "-90.08499353387093",
    "latitude": "29.975771799388617",
    "geocoded_column": {
      "latitude": "29.975771799388617",
      "longitude": "-90.08499353387093"
    }
  },
  {
    "service_request": "2025-1243220",
    "request_type": "Trash/Recycling",
    "request_reason": "Repair Trash Cart",
    "date_created": "2025-12-01T16:25:16.000",
    "date_modified": "2025-12-01T16:25:17.000",
    "request_status": "Pending",
    "responsible_agency": "Department of Sanitation",
    "final_address": "1239 N Johnson St",
    "address_councildis": "D",
    "status": "Assigned to Contractor",
    "contractor": "IV Waste",
    "rowid": "1243220",
    "final_x": "3679913.42984",
    "final_y": "537205.315016",
    "longitude": "-90.0728826595838",
    "latitude": "29.971176438212357",
    "geocoded_column": {
      "latitude": "29.971176438212357",
      "longitude": "-90.0728826595838"
    }
  },
  {
    "service_request": "2025-1243219",
    "request_type": "Trash/Recycling",
    "request_reason": "Repair Trash Cart",
    "date_created": "2025-12-01T16:22:39.000",
    "date_modified": "2025-12-01T16:22:41.000",
    "request_status": "Pending",
    "responsible_agency": "Department of Sanitation",
    "final_address": "7910 Brevard Ave",
    "address_councildis": "E",
    "status": "Assigned to Contractor",
    "contractor": "Waste Pro",
    "rowid": "1243219",
    "final_x": "3705905.20567",
    "final_y": "564198.104865",
    "longitude": "-89.98979823490632",
    "latitude": "30.044584547929418",
    "geocoded_column": {
      "latitude": "30.044584547929418",
      "longitude": "-89.98979823490632"
    }
  },
  {
    "service_request": "2025-1243218",
    "request_type": "Trash/Recycling",
    "request_reason": "Dead Animal Pick Up",
    "date_created": "2025-12-01T16:21:17.000",
    "date_modified": "2025-12-01T16:21:19.000",
    "request_status": "Pending",
    "responsible_agency": "Department of Sanitation",
    "final_address": "3416 General Taylor St",
    "address_councildis": "B",
    "status": "Assigned to Contractor",
    "contractor": "IV Waste",
    "rowid": "1243218",
    "final_x": "3671085.12231",
    "final_y": "527444.438911",
    "longitude": "-90.10109523089433",
    "latitude": "29.944601339691477",
    "geocoded_column": {
      "latitude": "29.944601339691477",
      "longitude": "-90.10109523089433"
    }
  },
  {
    "service_request": "2025-1243217",
    "request_type": "Trash/Recycling",
    "request_reason": "Request a Large Item Pick Up",
    "date_created": "2025-12-01T16:15:35.000",
    "date_modified": "2025-12-01T16:15:37.000",
    "request_status": "Pending",
    "responsible_agency": "Department of Sanitation",
    "final_address": "7042 Neptune Ct",
    "address_councildis": "E",
    "status": "Assigned to Contractor",
    "contractor": "Waste Pro",
    "rowid": "1243217",
    "final_x": "3701718.39844",
    "final_y": "559106.575388",
    "longitude": "-90.00321717870162",
    "latitude": "30.03071915039129",
    "geocoded_column": {
      "latitude": "30.03071915039129",
      "longitude": "-90.00321717870162"
    }
  },
  {
    "service_request": "2025-1243216",
    "request_type": "Trash/Recycling",
    "request_reason": "Order Trash Cart",
    "date_created": "2025-12-01T16:14:27.000",
    "date_modified": "2025-12-01T16:14:28.000",
    "request_status": "Pending",
    "responsible_agency": "Department of Sanitation",
    "final_address": "1746 Prytania St",
    "address_councildis": "B",
    "status": "Assigned to Contractor",
    "contractor": "IV Waste",
    "rowid": "1243216",
    "final_x": "3679143.58632",
    "final_y": "524372.401468",
    "longitude": "-90.07575873134762",
    "latitude": "29.93591350605689",
    "geocoded_column": {
      "latitude": "29.93591350605689",
      "longitude": "-90.07575873134762"
    }
  },
  {
    "service_request": "2025-1243215",
    "request_type": "Trash/Recycling",
    "request_reason": "Request a Large Item Pick Up",
    "date_created": "2025-12-01T16:11:32.000",
    "date_modified": "2025-12-01T16:11:33.000",
    "request_status": "Pending",
    "responsible_agency": "Department of Sanitation",
    "final_address": "7616 Lady Gray St",
    "address_councildis": "E",
    "status": "Assigned to Contractor",
    "contractor": "Waste Pro",
    "rowid": "1243215",
    "final_x": "3709957.06725",
    "final_y": "565242.885986",
    "longitude": "-89.97695352021731",
    "latitude": "30.047326020958366",
    "geocoded_column": {
      "latitude": "30.047326020958366",
      "longitude": "-89.97695352021731"
    }
  },
  {
    "service_request": "2025-1243214",
    "request_type": "Trash/Recycling",
    "request_reason": "Missed Trash Pick-Up",
    "date_created": "2025-12-01T16:10:39.000",
    "date_modified": "2025-12-01T16:10:41.000",
    "request_status": "Pending",
    "responsible_agency": "Department of Sanitation",
    "final_address": "14121 Knightway Dr",
    "address_councildis": "E",
    "status": "Assigned to Contractor",
    "contractor": "Waste Pro",
    "rowid": "1243214",
    "final_x": "3718609.47071",
    "final_y": "570525.455911",
    "longitude": "-89.94940587651615",
    "latitude": "30.06156644296811",
    "geocoded_column": {
      "latitude": "30.06156644296811",
      "longitude": "-89.94940587651615"
    }
  },
  {
    "service_request": "2025-1243213",
    "request_type": "Trash/Recycling",
    "request_reason": "Request a Large Item Pick Up",
    "date_created": "2025-12-01T16:09:28.000",
    "date_modified": "2025-12-01T16:09:29.000",
    "request_status": "Pending",
    "responsible_agency": "Department of Sanitation",
    "final_address": "10210 Lakewood St",
    "address_councildis": "E",
    "status": "Assigned to Contractor",
    "contractor": "Waste Pro",
    "rowid": "1243213",
    "final_x": "3713185.62987",
    "final_y": "556862.156506",
    "longitude": "-89.96706543240987",
    "latitude": "30.024176888770562",
    "geocoded_column": {
      "latitude": "30.024176888770562",
      "longitude": "-89.96706543240987"
    }
  },
  {
    "service_request": "2025-1243212",
    "request_type": "Trash/Recycling",
    "request_reason": "Request a Large Item Pick Up",
    "date_created": "2025-12-01T16:08:43.000",
    "date_modified": "2025-12-01T16:08:44.000",
    "request_status": "Pending",
    "responsible_agency": "Department of Sanitation",
    "final_address": "2100 Audubon St",
    "address_councildis": "A",
    "status": "Assigned to Contractor",
    "contractor": "IV Waste",
    "rowid": "1243212",
    "final_x": "3666177.77159",
    "final_y": "529020.547072",
    "longitude": "-90.11653640194116",
    "latitude": "29.949079325617763",
    "geocoded_column": {
      "latitude": "29.949079325617763",
      "longitude": "-90.11653640194116"
    }
  },
  {
    "service_request": "2025-1243211",
    "request_type": "Traffic Signals",
    "request_reason": "Traffic Signal Malfunctioning or Damaged",
    "date_created": "2025-12-01T16:07:40.000",
    "date_modified": "2025-12-01T16:07:41.000",
    "request_status": "Pending",
    "responsible_agency": "Department of Public Works",
    "final_address": "MORRISON RD & READ BLVD",
    "address_councildis": "E",
    "status": "Pending",
    "rowid": "1243211",
    "final_x": "3708986.9",
    "final_y": "563787.08",
    "longitude": "-89.9800740921111",
    "latitude": "30.043354679575092",
    "geocoded_column": {
      "latitude": "30.043354679575092",
      "longitude": "-89.9800740921111"
    }
  },
  {
    "service_request": "2025-1243210",
    "request_type": "Trash/Recycling",
    "request_reason": "Request a Large Item Pick Up",
    "date_created": "2025-12-01T16:05:58.000",
    "date_modified": "2025-12-01T16:06:05.000",
    "request_status": "Pending",
    "responsible_agency": "Department of Sanitation",
    "final_address": "4931 S Prieur St",
    "address_councildis": "B",
    "status": "Assigned to Contractor",
    "contractor": "IV Waste",
    "rowid": "1243210",
    "final_x": "3669040.90887",
    "final_y": "526762.95731",
    "longitude": "-90.10757245298687",
    "latitude": "29.942787775374956",
    "geocoded_column": {
      "latitude": "29.942787775374956",
      "longitude": "-90.10757245298687"
    }
  },
  {
    "service_request": "2025-1243209",
    "request_type": "Trash/Recycling",
    "request_reason": "Request a Large Item Pick Up",
    "date_created": "2025-12-01T16:01:20.000",
    "date_modified": "2025-12-01T16:01:23.000",
    "request_status": "Pending",
    "responsible_agency": "Department of Sanitation",
    "final_address": "22 S Roadway St",
    "address_councildis": "A",
    "status": "Assigned to Contractor",
    "contractor": "IV Waste",
    "rowid": "1243209",
    "final_x": "3666056.87776",
    "final_y": "556344.028762",
    "longitude": "-90.1160015682416",
    "latitude": "30.024213168576303",
    "geocoded_column": {
      "latitude": "30.024213168576303",
      "longitude": "-90.1160015682416"
    }
  },
  {
    "service_request": "2025-1243208",
    "request_type": "Trash/Recycling",
    "request_reason": "Request a Large Item Pick Up",
    "date_created": "2025-12-01T15:58:27.000",
    "date_modified": "2025-12-01T15:58:28.000",
    "request_status": "Pending",
    "responsible_agency": "Department of Sanitation",
    "final_address": "7734 Lehigh St",
    "address_councildis": "E",
    "status": "Assigned to Contractor",
    "contractor": "Waste Pro",
    "rowid": "1243208",
    "final_x": "3710161.46059",
    "final_y": "566250.695907",
    "longitude": "-89.9762698076899",
    "latitude": "30.050090437491672",
    "geocoded_column": {
      "latitude": "30.050090437491672",
      "longitude": "-89.9762698076899"
    }
  },
  {
    "service_request": "2025-1243207",
    "request_type": "Trash/Recycling",
    "request_reason": "Request a Large Item Pick Up",
    "date_created": "2025-12-01T15:56:46.000",
    "date_modified": "2025-12-01T15:56:48.000",
    "request_status": "Pending",
    "responsible_agency": "Department of Sanitation",
    "final_address": "9142 Morrison Rd",
    "address_councildis": "E",
    "status": "Assigned to Contractor",
    "contractor": "Waste Pro",
    "rowid": "1243207",
    "final_x": "3706391.369",
    "final_y": "562103.993695",
    "longitude": "-89.98833943402373",
    "latitude": "30.038810890114743",
    "geocoded_column": {
      "latitude": "30.038810890114743",
      "longitude": "-89.98833943402373"
    }
  },
  {
    "service_request": "2025-1243206",
    "request_type": "Trash/Recycling",
    "request_reason": "Request a Large Item Pick Up",
    "date_created": "2025-12-01T15:53:32.000",
    "date_modified": "2025-12-01T15:53:33.000",
    "request_status": "Pending",
    "responsible_agency": "Department of Sanitation",
    "final_address": "7901 Means Ave",
    "address_councildis": "E",
    "status": "Assigned to Contractor",
    "contractor": "Waste Pro",
    "rowid": "1243206",
    "final_x": "3707697.22276",
    "final_y": "565496.02141",
    "longitude": "-89.9840863831204",
    "latitude": "30.04809540252796",
    "geocoded_column": {
      "latitude": "30.04809540252796",
      "longitude": "-89.9840863831204"
    }
  },
  {
    "service_request": "2025-1243205",
    "request_type": "Trash/Recycling",
    "request_reason": "Missed Trash Pick-Up",
    "date_created": "2025-12-01T15:52:49.000",
    "date_modified": "2025-12-01T16:33:11.000",
    "case_close_date": "2025-12-01T10:33:10.000",
    "request_status": "Closed",
    "responsible_agency": "Department of Sanitation",
    "final_address": "4824 Pauger St",
    "address_councildis": "D",
    "status": "Invalid Request",
    "contractor": "IV Waste",
    "contractor_action": "Invalid Request",
    "rowid": "1243205",
    "final_x": "3682684.65916",
    "final_y": "550390.195284",
    "longitude": "-90.06366935620764",
    "latitude": "30.00734608583197",
    "geocoded_column": {
      "latitude": "30.00734608583197",
      "longitude": "-90.06366935620764"
    }
  },
  {
    "service_request": "2025-1243204",
    "request_type": "Trash/Recycling",
    "request_reason": "Order Recycling Cart",
    "date_created": "2025-12-01T15:51:57.000",
    "date_modified": "2025-12-01T15:51:59.000",
    "request_status": "Pending",
    "responsible_agency": "Department of Sanitation",
    "final_address": "639 Seguin St",
    "address_councildis": "C",
    "status": "Pending",
    "rowid": "1243204",
    "final_x": "3686767.51996",
    "final_y": "529337.794689",
    "longitude": "-90.05151451188334",
    "latitude": "29.949334379484238",
    "geocoded_column": {
      "latitude": "29.949334379484238",
      "longitude": "-90.05151451188334"
    }
  },
  {
    "service_request": "2025-1243203",
    "request_type": "Trash/Recycling",
    "request_reason": "Request a Large Item Pick Up",
    "date_created": "2025-12-01T15:50:54.000",
    "date_modified": "2025-12-01T15:50:55.000",
    "request_status": "Pending",
    "responsible_agency": "Department of Sanitation",
    "final_address": "6621 Curran Rd",
    "address_councildis": "E",
    "status": "Assigned to Contractor",
    "contractor": "Waste Pro",
    "rowid": "1243203",
    "final_x": "3697503.76983",
    "final_y": "559924.031901",
    "longitude": "-90.0165057352187",
    "latitude": "30.033100691537186",
    "geocoded_column": {
      "latitude": "30.033100691537186",
      "longitude": "-90.0165057352187"
    }
  },
  {
    "service_request": "2025-1243202",
    "request_type": "Trash/Recycling",
    "request_reason": "Repair Trash Cart",
    "date_created": "2025-12-01T15:49:44.000",
    "date_modified": "2025-12-01T15:49:46.000",
    "request_status": "Pending",
    "responsible_agency": "Department of Sanitation",
    "final_address": "6621 Curran Rd",
    "address_councildis": "E",
    "status": "Assigned to Contractor",
    "contractor": "Waste Pro",
    "rowid": "1243202",
    "final_x": "3697503.76983",
    "final_y": "559924.031901",
    "longitude": "-90.0165057352187",
    "latitude": "30.033100691537186",
    "geocoded_column": {
      "latitude": "30.033100691537186",
      "longitude": "-90.0165057352187"
    }
  },
  {
    "service_request": "2025-1243201",
    "request_type": "Trash/Recycling",
    "request_reason": "Repair Trash Cart",
    "date_created": "2025-12-01T15:49:34.000",
    "date_modified": "2025-12-01T15:49:36.000",
    "request_status": "Pending",
    "responsible_agency": "Department of Sanitation",
    "final_address": "2913 Paris Ave",
    "address_councildis": "D",
    "status": "Assigned to Contractor",
    "contractor": "IV Waste",
    "rowid": "1243201",
    "final_x": "3679943.20495",
    "final_y": "543070.127821",
    "longitude": "-90.07258483274997",
    "latitude": "29.98730173695935",
    "geocoded_column": {
      "latitude": "29.98730173695935",
      "longitude": "-90.07258483274997"
    }
  },
  {
    "service_request": "2025-1243200",
    "request_type": "Trash/Recycling",
    "request_reason": "Request a Large Item Pick Up",
    "date_created": "2025-12-01T15:48:11.000",
    "date_modified": "2025-12-01T15:48:12.000",
    "request_status": "Pending",
    "responsible_agency": "Department of Sanitation",
    "final_address": "9619 Palm St",
    "address_councildis": "A",
    "status": "Assigned to Contractor",
    "contractor": "IV Waste",
    "rowid": "1243200",
    "final_x": "3663490.25479",
    "final_y": "538616.576585",
    "longitude": "-90.12470251355275",
    "latitude": "29.975543469024036",
    "geocoded_column": {
      "latitude": "29.975543469024036",
      "longitude": "-90.12470251355275"
    }
  },
  {
    "service_request": "2025-1243199",
    "request_type": "Trash/Recycling",
    "request_reason": "Request a Large Item Pick Up",
    "date_created": "2025-12-01T15:47:55.000",
    "date_modified": "2025-12-01T15:47:56.000",
    "request_status": "Pending",
    "responsible_agency": "Department of Sanitation",
    "final_address": "5634 Abbey Dr",
    "address_councildis": "C",
    "status": "Assigned to Contractor",
    "contractor": "Richards Disposal",
    "rowid": "1243199",
    "final_x": "3704503.25796",
    "final_y": "521285.939513",
    "longitude": "-89.99581209476429",
    "latitude": "29.926637151636374",
    "geocoded_column": {
      "latitude": "29.926637151636374",
      "longitude": "-89.99581209476429"
    }
  },
  {
    "service_request": "2025-1243198",
    "request_type": "Property Maintenance",
    "request_reason": "Property Maintenance",
    "date_created": "2025-12-01T15:45:41.000",
    "date_modified": "2025-12-01T15:45:43.000",
    "request_status": "Pending",
    "responsible_agency": "Department of Code Enforcement",
    "final_address": "2234 Louisiana Ave",
    "address_councildis": "B",
    "status": "Pending",
    "rowid": "1243198",
    "final_x": "3673173.85972",
    "final_y": "523741.448891",
    "longitude": "-90.09462684807384",
    "latitude": "29.93435739569208",
    "geocoded_column": {
      "latitude": "29.93435739569208",
      "longitude": "-90.09462684807384"
    }
  },
  {
    "service_request": "2025-1243197",
    "request_type": "Property Maintenance",
    "request_reason": "Property Maintenance",
    "date_created": "2025-12-01T15:39:58.000",
    "date_modified": "2025-12-01T15:39:59.000",
    "request_status": "Pending",
    "responsible_agency": "Department of Code Enforcement",
    "final_address": "2136 Louisiana Ave",
    "address_councildis": "B",
    "status": "Pending",
    "rowid": "1243197",
    "final_x": "3673306.30184",
    "final_y": "523450.196155",
    "longitude": "-90.09421867462069",
    "latitude": "29.93355260756638",
    "geocoded_column": {
      "latitude": "29.93355260756638",
      "longitude": "-90.09421867462069"
    }
  },
  {
    "service_request": "2025-1243196",
    "request_type": "Trash/Recycling",
    "request_reason": "Missed Trash Pick-Up",
    "date_created": "2025-12-01T15:39:12.000",
    "date_modified": "2025-12-01T15:54:53.000",
    "case_close_date": "2025-12-01T09:54:53.000",
    "request_status": "Closed",
    "responsible_agency": "Department of Sanitation",
    "final_address": "1132 Peniston St",
    "address_councildis": "B",
    "status": "Invalid Request",
    "contractor": "IV Waste",
    "contractor_action": "Invalid",
    "rowid": "1243196",
    "final_x": "3673063.21588",
    "final_y": "520016.96076",
    "longitude": "-90.09510320984542",
    "latitude": "29.924119542299888",
    "geocoded_column": {
      "latitude": "29.924119542299888",
      "longitude": "-90.09510320984542"
    }
  },
  {
    "service_request": "2025-1243195",
    "request_type": "Trash/Recycling",
    "request_reason": "Repair Trash Cart",
    "date_created": "2025-12-01T15:34:54.000",
    "date_modified": "2025-12-01T15:34:56.000",
    "request_status": "Pending",
    "responsible_agency": "Department of Sanitation",
    "final_address": "2316 Somerset Dr",
    "address_councildis": "C",
    "status": "Assigned to Contractor",
    "contractor": "Richards Disposal",
    "rowid": "1243195",
    "final_x": "3702845.7457",
    "final_y": "522588.358586",
    "longitude": "-90.00099656465689",
    "latitude": "29.930271447821234",
    "geocoded_column": {
      "latitude": "29.930271447821234",
      "longitude": "-90.00099656465689"
    }
  },
  {
    "service_request": "2025-1243194",
    "request_type": "Health Related Request",
    "request_reason": "Homeless Encampment Complaint",
    "date_created": "2025-12-01T15:20:03.000",
    "date_modified": "2025-12-01T15:20:04.000",
    "request_status": "Pending",
    "responsible_agency": "Office Of Homeless Services And Strategy",
    "final_address": "3395 Midlothian St",
    "address_councildis": "E",
    "status": "Pending",
    "rowid": "1243194",
    "final_x": "3705030.99646",
    "final_y": "551998.764822",
    "longitude": "-89.99301211073106",
    "latitude": "30.011069268253216",
    "geocoded_column": {
      "latitude": "30.011069268253216",
      "longitude": "-89.99301211073106"
    }
  },
  {
    "service_request": "2025-1243193",
    "request_type": "Property Maintenance",
    "request_reason": "Property Maintenance",
    "date_created": "2025-12-01T15:19:39.000",
    "date_modified": "2025-12-01T15:19:40.000",
    "request_status": "Pending",
    "responsible_agency": "Department of Code Enforcement",
    "final_address": "3395 Midlothian St",
    "address_councildis": "E",
    "status": "Pending",
    "rowid": "1243193",
    "final_x": "3705030.99646",
    "final_y": "551998.764822",
    "longitude": "-89.99301211073106",
    "latitude": "30.011069268253216",
    "geocoded_column": {
      "latitude": "30.011069268253216",
      "longitude": "-89.99301211073106"
    }
  },
  {
    "service_request": "2025-1243192",
    "request_type": "Trash/Recycling",
    "request_reason": "Replace Trash Cart",
    "date_created": "2025-12-01T15:15:45.000",
    "date_modified": "2025-12-01T15:15:47.000",
    "request_status": "Pending",
    "responsible_agency": "Department of Sanitation",
    "final_address": "3015 Copernicus St",
    "address_councildis": "C",
    "status": "Assigned to Contractor",
    "contractor": "Richards Disposal",
    "rowid": "1243192",
    "final_x": "3695236.79478",
    "final_y": "524136.893436",
    "longitude": "-90.02496088280786",
    "latitude": "29.934770469189132",
    "geocoded_column": {
      "latitude": "29.934770469189132",
      "longitude": "-90.02496088280786"
    }
  },
  {
    "service_request": "2025-1243191",
    "request_type": "Street and Traffic Signs",
    "request_reason": "Additional Signage Request",
    "date_created": "2025-12-01T15:15:25.000",
    "date_modified": "2025-12-01T15:15:27.000",
    "request_status": "Pending",
    "responsible_agency": "Department of Public Works",
    "final_address": "7401 Read Blvd",
    "address_councildis": "E",
    "status": "Pending",
    "rowid": "1243191",
    "final_x": "3709079.45572",
    "final_y": "563995.224545",
    "longitude": "-89.97977380896188",
    "latitude": "30.043923987873445",
    "geocoded_column": {
      "latitude": "30.043923987873445",
      "longitude": "-89.97977380896188"
    }
  },
  {
    "service_request": "2025-1243190",
    "request_type": "Trash/Recycling",
    "request_reason": "Request a Large Item Pick Up",
    "date_created": "2025-12-01T15:09:50.000",
    "date_modified": "2025-12-01T15:09:52.000",
    "request_status": "Pending",
    "responsible_agency": "Department of Sanitation",
    "final_address": "4660 Camelot Dr",
    "address_councildis": "E",
    "status": "Assigned to Contractor",
    "contractor": "Waste Pro",
    "rowid": "1243190",
    "final_x": "3708345.59032",
    "final_y": "555153.651033",
    "longitude": "-89.98242256719682",
    "latitude": "30.01963696072644",
    "geocoded_column": {
      "latitude": "30.01963696072644",
      "longitude": "-89.98242256719682"
    }
  },
  {
    "service_request": "2025-1243189",
    "request_type": "Streetlights",
    "request_reason": "Streetlight Outage/Malfunction",
    "date_created": "2025-12-01T15:06:22.000",
    "date_modified": "2025-12-01T15:07:39.000",
    "request_status": "Pending",
    "responsible_agency": "Department of Public Works",
    "final_address": "1645 Soniat St",
    "address_councildis": "B",
    "status": "Pending",
    "rowid": "1243189",
    "final_x": "3668510.78727",
    "final_y": "521227.117433",
    "longitude": "-90.10943286497817",
    "latitude": "29.92758157421725",
    "geocoded_column": {
      "latitude": "29.92758157421725",
      "longitude": "-90.10943286497817"
    }
  },
  {
    "service_request": "2025-1243188",
    "request_type": "Safety & Permits",
    "request_reason": "Construction permit",
    "date_created": "2025-12-01T15:00:56.000",
    "date_modified": "2025-12-01T15:00:59.000",
    "request_status": "Pending",
    "responsible_agency": "Safety and Permits",
    "final_address": "4233 Mithra St",
    "address_councildis": "D",
    "status": "Pending",
    "rowid": "1243188",
    "final_x": "3689577.37577",
    "final_y": "553198.449495",
    "longitude": "-90.04179339261312",
    "latitude": "30.014855943599013",
    "geocoded_column": {
      "latitude": "30.014855943599013",
      "longitude": "-90.04179339261312"
    }
  },
  {
    "service_request": "2025-1243187",
    "request_type": "Trash/Recycling",
    "request_reason": "Request a Large Item Pick Up",
    "date_created": "2025-12-01T14:56:22.000",
    "date_modified": "2025-12-01T14:56:23.000",
    "request_status": "Pending",
    "responsible_agency": "Department of Sanitation",
    "final_address": "229 S Cortez St",
    "address_councildis": "A",
    "status": "Assigned to Contractor",
    "contractor": "IV Waste",
    "rowid": "1243187",
    "final_x": "3671641.40219",
    "final_y": "537095.695816",
    "longitude": "-90.09901063775189",
    "latitude": "29.97112263237506",
    "geocoded_column": {
      "latitude": "29.97112263237506",
      "longitude": "-90.09901063775189"
    }
  },
  {
    "service_request": "2025-1243186",
    "request_type": "Trash/Recycling",
    "request_reason": "Order Trash Cart",
    "date_created": "2025-12-01T14:53:27.000",
    "date_modified": "2025-12-01T14:53:28.000",
    "request_status": "Pending",
    "responsible_agency": "Department of Sanitation",
    "final_address": "7500 Dune Dr",
    "address_councildis": "E",
    "status": "Assigned to Contractor",
    "contractor": "Waste Pro",
    "rowid": "1243186",
    "final_x": "3715723.32696",
    "final_y": "568443.737253",
    "longitude": "-89.95860781765694",
    "latitude": "30.055938107488632",
    "geocoded_column": {
      "latitude": "30.055938107488632",
      "longitude": "-89.95860781765694"
    }
  },
  {
    "service_request": "2025-1243185",
    "request_type": "Trash/Recycling",
    "request_reason": "Request a Large Item Pick Up",
    "date_created": "2025-12-01T14:52:03.000",
    "date_modified": "2025-12-01T14:52:44.000",
    "request_status": "Pending",
    "responsible_agency": "Department of Sanitation",
    "final_address": "7508 Woodbine Dr",
    "address_councildis": "E",
    "status": "Assigned to Contractor",
    "contractor": "Waste Pro",
    "rowid": "1243185",
    "final_x": "3702084.77405",
    "final_y": "560978.70339",
    "longitude": "-90.00199069507187",
    "latitude": "30.035855074734155",
    "geocoded_column": {
      "latitude": "30.035855074734155",
      "longitude": "-90.00199069507187"
    }
  },
  {
    "service_request": "2025-1243184",
    "request_type": "Healthy Homes",
    "request_reason": "Healthy Homes",
    "date_created": "2025-12-01T14:51:32.000",
    "date_modified": "2025-12-01T14:51:34.000",
    "request_status": "Pending",
    "responsible_agency": "Department of Code Enforcement",
    "final_address": "9640 Lincoln Beach Blvd",
    "address_councildis": "E",
    "status": "Pending",
    "rowid": "1243184",
    "final_x": "3706841.59614",
    "final_y": "564798.527906",
    "longitude": "-89.98681653525932",
    "latitude": "30.04620524918979",
    "geocoded_column": {
      "latitude": "30.04620524918979",
      "longitude": "-89.98681653525932"
    }
  },
  {
    "service_request": "2025-1243183",
    "request_type": "Streetlights",
    "request_reason": "Streetlight Outage/Malfunction",
    "date_created": "2025-12-01T14:48:19.000",
    "date_modified": "2025-12-01T14:48:21.000",
    "request_status": "Pending",
    "responsible_agency": "Department of Public Works",
    "final_address": "2339 Octavia St",
    "address_councildis": "A",
    "status": "Pending",
    "rowid": "1243183",
    "final_x": "3667709.37562",
    "final_y": "524352.485692",
    "longitude": "-90.11185756256974",
    "latitude": "29.936198853232607",
    "geocoded_column": {
      "latitude": "29.936198853232607",
      "longitude": "-90.11185756256974"
    }
  },
  {
    "service_request": "2025-1243182",
    "request_type": "Trash/Recycling",
    "request_reason": "Request a Large Item Pick Up",
    "date_created": "2025-12-01T14:40:31.000",
    "date_modified": "2025-12-01T14:40:33.000",
    "request_status": "Pending",
    "responsible_agency": "Department of Sanitation",
    "final_address": "6630 Avenue B",
    "address_councildis": "A",
    "status": "Assigned to Contractor",
    "contractor": "IV Waste",
    "rowid": "1243182",
    "final_x": "3665686.1913",
    "final_y": "552247.103766",
    "longitude": "-90.11731025846603",
    "latitude": "30.01295889002801",
    "geocoded_column": {
      "latitude": "30.01295889002801",
      "longitude": "-90.11731025846603"
    }
  },
  {
    "service_request": "2025-1243181",
    "request_type": "Trash/Recycling",
    "request_reason": "Order Trash Cart",
    "date_created": "2025-12-01T14:40:19.000",
    "date_modified": "2025-12-01T14:40:21.000",
    "request_status": "Pending",
    "responsible_agency": "Department of Sanitation",
    "final_address": "180 E Greenbrier Dr",
    "address_councildis": "E",
    "status": "Assigned to Contractor",
    "contractor": "Waste Pro",
    "rowid": "1243181",
    "final_x": "3717311.25567",
    "final_y": "565264.763554",
    "longitude": "-89.95370970180285",
    "latitude": "30.047144757736675",
    "geocoded_column": {
      "latitude": "30.047144757736675",
      "longitude": "-89.95370970180285"
    }
  },
  {
    "service_request": "2025-1243180",
    "request_type": "Trash/Recycling",
    "request_reason": "Order Trash Cart",
    "date_created": "2025-12-01T14:38:56.000",
    "date_modified": "2025-12-01T14:38:58.000",
    "request_status": "Pending",
    "responsible_agency": "Department of Sanitation",
    "final_address": "5600 Clements Dr",
    "address_councildis": "E",
    "status": "Assigned to Contractor",
    "contractor": "Waste Pro",
    "rowid": "1243180",
    "final_x": "3702391.56484",
    "final_y": "556259.00329",
    "longitude": "-90.00119458734751",
    "latitude": "30.022867924256165",
    "geocoded_column": {
      "latitude": "30.022867924256165",
      "longitude": "-90.00119458734751"
    }
  },
  {
    "service_request": "2025-1243179",
    "request_type": "Trash/Recycling",
    "request_reason": "Request a Large Item Pick Up",
    "date_created": "2025-12-01T14:34:46.000",
    "date_modified": "2025-12-01T14:34:47.000",
    "request_status": "Pending",
    "responsible_agency": "Department of Sanitation",
    "final_address": "6244 Marshal Foch St",
    "address_councildis": "A",
    "status": "Assigned to Contractor",
    "contractor": "IV Waste",
    "rowid": "1243179",
    "final_x": "3669904.75188",
    "final_y": "548821.890003",
    "longitude": "-90.10409794585394",
    "latitude": "30.003416979235322",
    "geocoded_column": {
      "latitude": "30.003416979235322",
      "longitude": "-90.10409794585394"
    }
  },
  {
    "service_request": "2025-1243178",
    "request_type": "Trash/Recycling",
    "request_reason": "Request a Large Item Pick Up",
    "date_created": "2025-12-01T14:34:41.000",
    "date_modified": "2025-12-01T14:34:42.000",
    "request_status": "Pending",
    "responsible_agency": "Department of Sanitation",
    "final_address": "2101 Adams St",
    "address_councildis": "A",
    "status": "Assigned to Contractor",
    "contractor": "IV Waste",
    "rowid": "1243178",
    "final_x": "3665232.16711",
    "final_y": "529714.857217",
    "longitude": "-90.11949887749869",
    "latitude": "29.95101603102012",
    "geocoded_column": {
      "latitude": "29.95101603102012",
      "longitude": "-90.11949887749869"
    }
  },
  {
    "service_request": "2025-1243177",
    "request_type": "Trash/Recycling",
    "request_reason": "Request a Large Item Pick Up",
    "date_created": "2025-12-01T14:34:06.000",
    "date_modified": "2025-12-01T14:34:07.000",
    "request_status": "Pending",
    "responsible_agency": "Department of Sanitation",
    "final_address": "8021 Branch Dr",
    "address_councildis": "E",
    "status": "Assigned to Contractor",
    "contractor": "Waste Pro",
    "rowid": "1243177",
    "final_x": "3713922.89579",
    "final_y": "569855.012262",
    "longitude": "-89.96424529741597",
    "latitude": "30.059877804306744",
    "geocoded_column": {
      "latitude": "30.059877804306744",
      "longitude": "-89.96424529741597"
    }
  },
  {
    "service_request": "2025-1243176",
    "request_type": "Trash/Recycling",
    "request_reason": "Illegal Dumping",
    "date_created": "2025-12-01T14:32:52.000",
    "date_modified": "2025-12-01T14:34:49.000",
    "request_status": "Pending",
    "responsible_agency": "Department of Sanitation",
    "final_address": "4230 America St",
    "address_councildis": "E",
    "status": "Pending",
    "rowid": "1243176",
    "final_x": "3699939.25271",
    "final_y": "552320.260438",
    "longitude": "-90.00908711993958",
    "latitude": "30.012116043871732",
    "geocoded_column": {
      "latitude": "30.012116043871732",
      "longitude": "-90.00908711993958"
    }
  },
  {
    "service_request": "2025-1243175",
    "request_type": "Trash/Recycling",
    "request_reason": "Request a Large Item Pick Up",
    "date_created": "2025-12-01T14:32:30.000",
    "date_modified": "2025-12-01T14:32:33.000",
    "request_status": "Pending",
    "responsible_agency": "Department of Sanitation",
    "final_address": "6246 Marshal Foch St",
    "address_councildis": "A",
    "status": "Assigned to Contractor",
    "contractor": "IV Waste",
    "rowid": "1243175",
    "final_x": "3669907.20142",
    "final_y": "548834.748819",
    "longitude": "-90.10408977155201",
    "latitude": "30.003452264237534",
    "geocoded_column": {
      "latitude": "30.003452264237534",
      "longitude": "-90.10408977155201"
    }
  },
  {
    "service_request": "2025-1243174",
    "request_type": "Trash/Recycling",
    "request_reason": "Repair Recycling Cart",
    "date_created": "2025-12-01T14:25:53.000",
    "date_modified": "2025-12-01T14:25:55.000",
    "request_status": "Pending",
    "responsible_agency": "Department of Sanitation",
    "final_address": "5809 Brighton Pl",
    "address_councildis": "C",
    "status": "Pending",
    "rowid": "1243174",
    "final_x": "3705000.62942",
    "final_y": "520090.935736",
    "longitude": "-89.99428612503999",
    "latitude": "29.92333533391019",
    "geocoded_column": {
      "latitude": "29.92333533391019",
      "longitude": "-89.99428612503999"
    }
  },
  {
    "service_request": "2025-1243173",
    "request_type": "Trash/Recycling",
    "request_reason": "Order Recycling Cart",
    "date_created": "2025-12-01T14:20:21.000",
    "date_modified": "2025-12-01T14:20:23.000",
    "request_status": "Pending",
    "responsible_agency": "Department of Sanitation",
    "final_address": "2946 Wall Blvd",
    "address_councildis": "C",
    "status": "Pending",
    "rowid": "1243173",
    "final_x": "3695030.14685",
    "final_y": "523983.0407",
    "longitude": "-90.02561880715402",
    "latitude": "29.93435391339156",
    "geocoded_column": {
      "latitude": "29.93435391339156",
      "longitude": "-90.02561880715402"
    }
  },
  {
    "service_request": "2025-1243172",
    "request_type": "Trash/Recycling",
    "request_reason": "Request a Large Item Pick Up",
    "date_created": "2025-12-01T14:16:19.000",
    "date_modified": "2025-12-01T14:16:21.000",
    "request_status": "Pending",
    "responsible_agency": "Department of Sanitation",
    "final_address": "2621 Acacia St",
    "address_councildis": "D",
    "status": "Assigned to Contractor",
    "contractor": "IV Waste",
    "rowid": "1243172",
    "final_x": "3687350.18575",
    "final_y": "546406.086097",
    "longitude": "-90.04907075609731",
    "latitude": "29.996248257101833",
    "geocoded_column": {
      "latitude": "29.996248257101833",
      "longitude": "-90.04907075609731"
    }
  },
  {
    "service_request": "2025-1243171",
    "request_type": "Abandoned Vehicles",
    "request_reason": "Abandoned/Junk Vehicles",
    "date_created": "2025-12-01T14:16:10.000",
    "date_modified": "2025-12-01T14:16:12.000",
    "request_status": "Pending",
    "responsible_agency": "Department of Public Works",
    "final_address": "2763 Banks St",
    "address_councildis": "B",
    "status": "Pending",
    "rowid": "1243171",
    "final_x": "3674242.81416",
    "final_y": "534518.297157",
    "longitude": "-90.09088327736426",
    "latitude": "29.96395834656929",
    "geocoded_column": {
      "latitude": "29.96395834656929",
      "longitude": "-90.09088327736426"
    }
  },
  {
    "service_request": "2025-1243170",
    "request_type": "Trash/Recycling",
    "request_reason": "Replace Trash Cart",
    "date_created": "2025-12-01T14:15:06.000",
    "date_modified": "2025-12-01T14:15:08.000",
    "request_status": "Pending",
    "responsible_agency": "Department of Sanitation",
    "final_address": "1934 Foucher St",
    "address_councildis": "B",
    "status": "Assigned to Contractor",
    "contractor": "IV Waste",
    "rowid": "1243170",
    "final_x": "3672965.40232",
    "final_y": "522567.842298",
    "longitude": "-90.09532497398654",
    "latitude": "29.931136552044457",
    "geocoded_column": {
      "latitude": "29.931136552044457",
      "longitude": "-90.09532497398654"
    }
  },
  {
    "service_request": "2025-1243169",
    "request_type": "Trash/Recycling",
    "request_reason": "Repair Trash Cart",
    "date_created": "2025-12-01T14:13:20.000",
    "date_modified": "2025-12-01T14:13:22.000",
    "request_status": "Pending",
    "responsible_agency": "Department of Sanitation",
    "final_address": "216 Walnut St",
    "address_councildis": "A",
    "status": "Assigned to Contractor",
    "contractor": "IV Waste",
    "rowid": "1243169",
    "final_x": "3661266.35482",
    "final_y": "521193.410361",
    "longitude": "-90.13230301393814",
    "latitude": "29.927699671287357",
    "geocoded_column": {
      "latitude": "29.927699671287357",
      "longitude": "-90.13230301393814"
    }
  },
  {
    "service_request": "2025-1243168",
    "request_type": "Trash/Recycling",
    "request_reason": "Illegal Dumping",
    "date_created": "2025-12-01T14:11:18.000",
    "date_modified": "2025-12-01T14:11:19.000",
    "request_status": "Pending",
    "responsible_agency": "Department of Sanitation",
    "final_address": "3337 Montegut St",
    "address_councildis": "D",
    "status": "Pending",
    "rowid": "1243168",
    "final_x": "3690767.75478",
    "final_y": "545113.800719",
    "longitude": "-90.038321070243",
    "latitude": "29.992589174988456",
    "geocoded_column": {
      "latitude": "29.992589174988456",
      "longitude": "-90.038321070243"
    }
  },
  {
    "service_request": "2025-1243167",
    "request_type": "Trash/Recycling",
    "request_reason": "Request a Large Item Pick Up",
    "date_created": "2025-12-01T14:10:56.000",
    "date_modified": "2025-12-01T14:11:10.000",
    "request_status": "Pending",
    "responsible_agency": "Department of Sanitation",
    "final_address": "216 Walnut St",
    "address_councildis": "A",
    "status": "Assigned to Contractor",
    "contractor": "IV Waste",
    "rowid": "1243167",
    "final_x": "3661266.35482",
    "final_y": "521193.410361",
    "longitude": "-90.13230301393814",
    "latitude": "29.927699671287357",
    "geocoded_column": {
      "latitude": "29.927699671287357",
      "longitude": "-90.13230301393814"
    }
  },
  {
    "service_request": "2025-1243166",
    "request_type": "Streetlights",
    "request_reason": "Streetlight Outage/Malfunction",
    "date_created": "2025-12-01T14:09:39.000",
    "date_modified": "2025-12-01T14:09:40.000",
    "request_status": "Pending",
    "responsible_agency": "Department of Public Works",
    "final_address": "8322 Pritchard Pl",
    "address_councildis": "A",
    "status": "Pending",
    "rowid": "1243166",
    "final_x": "3665366.15943",
    "final_y": "533465.432836",
    "longitude": "-90.1189502867511",
    "latitude": "29.961324987202875",
    "geocoded_column": {
      "latitude": "29.961324987202875",
      "longitude": "-90.1189502867511"
    }
  },
  {
    "service_request": "2025-1243165",
    "request_type": "Healthy Homes",
    "request_reason": "Healthy Homes",
    "date_created": "2025-12-01T14:07:57.000",
    "date_modified": "2025-12-01T14:07:58.000",
    "request_status": "Pending",
    "responsible_agency": "Department of Code Enforcement",
    "final_address": "3500 Garden Oaks Dr",
    "address_councildis": "C",
    "status": "Pending",
    "rowid": "1243165",
    "final_x": "3696387.36522",
    "final_y": "518384.165366",
    "longitude": "-90.02153648523758",
    "latitude": "29.918916254902577",
    "geocoded_column": {
      "latitude": "29.918916254902577",
      "longitude": "-90.02153648523758"
    }
  },
  {
    "service_request": "2025-1243164",
    "request_type": "Trash/Recycling",
    "request_reason": "Order Trash Cart",
    "date_created": "2025-12-01T14:07:24.000",
    "date_modified": "2025-12-01T14:07:26.000",
    "request_status": "Pending",
    "responsible_agency": "Department of Sanitation",
    "final_address": "112 N Bernadotte St",
    "address_councildis": "A",
    "status": "Assigned to Contractor",
    "contractor": "IV Waste",
    "rowid": "1243164",
    "final_x": "3669017.63342",
    "final_y": "540252.724875",
    "longitude": "-90.10719018667497",
    "latitude": "29.979880854357166",
    "geocoded_column": {
      "latitude": "29.979880854357166",
      "longitude": "-90.10719018667497"
    }
  },
  {
    "service_request": "2025-1243163",
    "request_type": "Trash/Recycling",
    "request_reason": "Replace Trash Cart",
    "date_created": "2025-12-01T14:02:22.000",
    "date_modified": "2025-12-01T14:02:24.000",
    "request_status": "Pending",
    "responsible_agency": "Department of Sanitation",
    "final_address": "1325 Eagle St",
    "address_councildis": "A",
    "status": "Assigned to Contractor",
    "contractor": "IV Waste",
    "rowid": "1243163",
    "final_x": "3660546.91213",
    "final_y": "530449.567426",
    "longitude": "-90.13426836699034",
    "latitude": "29.953171890494932",
    "geocoded_column": {
      "latitude": "29.953171890494932",
      "longitude": "-90.13426836699034"
    }
  },
  {
    "service_request": "2025-1243162",
    "request_type": "Property Maintenance",
    "request_reason": "Property Maintenance",
    "date_created": "2025-12-01T14:01:47.000",
    "date_modified": "2025-12-01T14:01:49.000",
    "request_status": "Pending",
    "responsible_agency": "Department of Code Enforcement",
    "final_address": "3500 Garden Oaks Dr Apt 1507",
    "address_councildis": "C",
    "status": "Pending",
    "rowid": "1243162",
    "final_x": "3696334.89002",
    "final_y": "518545.592055",
    "longitude": "-90.02169628876185",
    "latitude": "29.919361775451687",
    "geocoded_column": {
      "latitude": "29.919361775451687",
      "longitude": "-90.02169628876185"
    }
  },
  {
    "service_request": "2025-1243161",
    "request_type": "Trash/Recycling",
    "request_reason": "Request a Large Item Pick Up",
    "date_created": "2025-12-01T14:00:40.000",
    "date_modified": "2025-12-01T14:00:42.000",
    "request_status": "Pending",
    "responsible_agency": "Department of Sanitation",
    "final_address": "14400 Chef Menteur Hwy",
    "address_councildis": "E",
    "status": "Assigned to Contractor",
    "contractor": "Waste Pro",
    "rowid": "1243161",
    "final_x": "3730758.65408",
    "final_y": "561362.343134",
    "longitude": "-89.91136239290427",
    "latitude": "30.03596268844386",
    "geocoded_column": {
      "latitude": "30.03596268844386",
      "longitude": "-89.91136239290427"
    }
  },
  {
    "service_request": "2025-1243160",
    "request_type": "Trash/Recycling",
    "request_reason": "Request a Large Item Pick Up",
    "date_created": "2025-12-01T13:57:42.000",
    "date_modified": "2025-12-01T13:57:43.000",
    "request_status": "Pending",
    "responsible_agency": "Department of Sanitation",
    "final_address": "2530 Calhoun St",
    "address_councildis": "A",
    "status": "Assigned to Contractor",
    "contractor": "IV Waste",
    "rowid": "1243160",
    "final_x": "3666242.07418",
    "final_y": "526278.572478",
    "longitude": "-90.11642531566282",
    "latitude": "29.941537902565965",
    "geocoded_column": {
      "latitude": "29.941537902565965",
      "longitude": "-90.11642531566282"
    }
  },
  {
    "service_request": "2025-1243159",
    "request_type": "Trash/Recycling",
    "request_reason": "Request a Large Item Pick Up",
    "date_created": "2025-12-01T13:57:36.000",
    "date_modified": "2025-12-01T13:57:37.000",
    "request_status": "Pending",
    "responsible_agency": "Department of Sanitation",
    "final_address": "4759 Lancelot Dr",
    "address_councildis": "E",
    "status": "Assigned to Contractor",
    "contractor": "Waste Pro",
    "rowid": "1243159",
    "final_x": "3707509.38014",
    "final_y": "555619.371097",
    "longitude": "-89.98504737751519",
    "latitude": "30.02094459126342",
    "geocoded_column": {
      "latitude": "30.02094459126342",
      "longitude": "-89.98504737751519"
    }
  },
  {
    "service_request": "2025-1243158",
    "request_type": "Trash/Recycling",
    "request_reason": "Illegal Dumping",
    "date_created": "2025-12-01T13:56:35.000",
    "date_modified": "2025-12-01T14:01:17.000",
    "request_status": "Pending",
    "responsible_agency": "Department of Sanitation",
    "final_address": "GANNON RD & WALES ST",
    "address_councildis": "E",
    "status": "Pending",
    "rowid": "1243158",
    "final_x": "3715846.0",
    "final_y": "570610.68",
    "longitude": "-89.9581378719321",
    "latitude": "30.061892257176982",
    "geocoded_column": {
      "latitude": "30.061892257176982",
      "longitude": "-89.9581378719321"
    }
  },
  {
    "service_request": "2025-1243157",
    "request_type": "Mosquito, Termite & Rodent Control",
    "request_reason": "Rodent Complaint (Mice & Rats)",
    "date_created": "2025-12-01T13:55:56.000",
    "date_modified": "2025-12-01T13:59:48.000",
    "request_status": "Pending",
    "responsible_agency": "Mosquito, Termite & Rodent Control Board",
    "final_address": "20 N Oak Ridge Ct",
    "address_councildis": "E",
    "status": "Pending",
    "rowid": "1243157",
    "final_x": "3713435.48312",
    "final_y": "567965.337765",
    "longitude": "-89.96585725095282",
    "latitude": "30.054697978848857",
    "geocoded_column": {
      "latitude": "30.054697978848857",
      "longitude": "-89.96585725095282"
    }
  },
  {
    "service_request": "2025-1243156",
    "request_type": "Trash/Recycling",
    "request_reason": "Order Trash Cart",
    "date_created": "2025-12-01T13:54:31.000",
    "date_modified": "2025-12-01T13:54:33.000",
    "request_status": "Pending",
    "responsible_agency": "Department of Sanitation",
    "final_address": "1842 Pauline St",
    "address_councildis": "D",
    "status": "Assigned to Contractor",
    "contractor": "IV Waste",
    "rowid": "1243156",
    "final_x": "3691898.6856",
    "final_y": "538394.072777",
    "longitude": "-90.03498919825401",
    "latitude": "29.97407714147996",
    "geocoded_column": {
      "latitude": "29.97407714147996",
      "longitude": "-90.03498919825401"
    }
  },
  {
    "service_request": "2025-1243155",
    "request_type": "Trash/Recycling",
    "request_reason": "Order Trash Cart",
    "date_created": "2025-12-01T13:53:43.000",
    "date_modified": "2025-12-01T13:53:45.000",
    "request_status": "Pending",
    "responsible_agency": "Department of Sanitation",
    "final_address": "1844 Pauline St",
    "address_councildis": "D",
    "status": "Assigned to Contractor",
    "contractor": "IV Waste",
    "rowid": "1243155",
    "final_x": "3691901.63676",
    "final_y": "538407.673865",
    "longitude": "-90.03497939112732",
    "latitude": "29.974114447694166",
    "geocoded_column": {
      "latitude": "29.974114447694166",
      "longitude": "-90.03497939112732"
    }
  },
  {
    "service_request": "2025-1243154",
    "request_type": "Trash/Recycling",
    "request_reason": "Illegal Dumping",
    "date_created": "2025-12-01T13:53:29.000",
    "date_modified": "2025-12-01T13:53:31.000",
    "request_status": "Pending",
    "responsible_agency": "Department of Sanitation",
    "final_address": "TOULON ST & DWYER BLVD",
    "address_councildis": "E",
    "status": "Pending",
    "rowid": "1243154",
    "final_x": "3723714.8",
    "final_y": "561138.08",
    "longitude": "-89.93363063666466",
    "latitude": "30.035584528108238",
    "geocoded_column": {
      "latitude": "30.035584528108238",
      "longitude": "-89.93363063666466"
    }
  },
  {
    "service_request": "2025-1243153",
    "request_type": "Parks & Parkways",
    "request_reason": "Request Tree Service (Right of Way/Public Property)",
    "date_created": "2025-12-01T13:52:39.000",
    "date_modified": "2025-12-01T13:52:41.000",
    "request_status": "Pending",
    "responsible_agency": "Department of Parks & Parkway",
    "final_address": "1725 St Andrew St A",
    "address_councildis": "B",
    "status": "Pending",
    "rowid": "1243153",
    "final_x": "3677760.28341",
    "final_y": "524761.8327",
    "longitude": "-90.08011240220834",
    "latitude": "29.937025986695883",
    "geocoded_column": {
      "latitude": "29.937025986695883",
      "longitude": "-90.08011240220834"
    }
  },
  {
    "service_request": "2025-1243152",
    "request_type": "Trash/Recycling",
    "request_reason": "Request a Large Item Pick Up",
    "date_created": "2025-12-01T13:51:31.000",
    "date_modified": "2025-12-01T13:51:33.000",
    "request_status": "Pending",
    "responsible_agency": "Department of Sanitation",
    "final_address": "2227 Arts St",
    "address_councildis": "D",
    "status": "Assigned to Contractor",
    "contractor": "IV Waste",
    "rowid": "1243152",
    "final_x": "3686902.4383",
    "final_y": "540766.208075",
    "longitude": "-90.05068458673244",
    "latitude": "29.980754395729672",
    "geocoded_column": {
      "latitude": "29.980754395729672",
      "longitude": "-90.05068458673244"
    }
  },
  {
    "service_request": "2025-1243151",
    "request_type": "Trash/Recycling",
    "request_reason": "Request a Large Item Pick Up",
    "date_created": "2025-12-01T13:49:08.000",
    "date_modified": "2025-12-01T13:49:10.000",
    "request_status": "Pending",
    "responsible_agency": "Department of Sanitation",
    "final_address": "7721 Poitevent Ave",
    "address_councildis": "E",
    "status": "Assigned to Contractor",
    "contractor": "Waste Pro",
    "rowid": "1243151",
    "final_x": "3706847.29367",
    "final_y": "564445.961185",
    "longitude": "-89.9868116227367",
    "latitude": "30.045235647285054",
    "geocoded_column": {
      "latitude": "30.045235647285054",
      "longitude": "-89.9868116227367"
    }
  },
  {
    "service_request": "2025-1243150",
    "request_type": "Trash/Recycling",
    "request_reason": "Order Trash Cart",
    "date_created": "2025-12-01T13:48:22.000",
    "date_modified": "2025-12-01T14:21:51.000",
    "request_status": "Pending",
    "responsible_agency": "Department of Sanitation",
    "final_address": "2946 Wall Blvd",
    "address_councildis": "C",
    "status": "Assigned to Contractor",
    "contractor": "Richards Disposal",
    "rowid": "1243150",
    "final_x": "3695030.14685",
    "final_y": "523983.0407",
    "longitude": "-90.02561880715402",
    "latitude": "29.93435391339156",
    "geocoded_column": {
      "latitude": "29.93435391339156",
      "longitude": "-90.02561880715402"
    }
  },
  {
    "service_request": "2025-1243149",
    "request_type": "Trash/Recycling",
    "request_reason": "Request a Large Item Pick Up",
    "date_created": "2025-12-01T13:46:34.000",
    "date_modified": "2025-12-01T13:46:36.000",
    "request_status": "Pending",
    "responsible_agency": "Department of Sanitation",
    "final_address": "11417 Maxine Dr",
    "address_councildis": "E",
    "status": "Assigned to Contractor",
    "contractor": "Waste Pro",
    "rowid": "1243149",
    "final_x": "3718528.07161",
    "final_y": "560695.49731",
    "longitude": "-89.95003829136114",
    "latitude": "30.034540796553486",
    "geocoded_column": {
      "latitude": "30.034540796553486",
      "longitude": "-89.95003829136114"
    }
  },
  {
    "service_request": "2025-1243148",
    "request_type": "Trash/Recycling",
    "request_reason": "Order Trash Cart",
    "date_created": "2025-12-01T13:45:33.000",
    "date_modified": "2025-12-01T13:45:35.000",
    "request_status": "Pending",
    "responsible_agency": "Department of Sanitation",
    "final_address": "2944 Wall Blvd",
    "address_councildis": "C",
    "status": "Assigned to Contractor",
    "contractor": "Richards Disposal",
    "rowid": "1243148",
    "final_x": "3695007.58346",
    "final_y": "523988.568828",
    "longitude": "-90.02568983961177",
    "latitude": "29.93436982189503",
    "geocoded_column": {
      "latitude": "29.93436982189503",
      "longitude": "-90.02568983961177"
    }
  },
  {
    "service_request": "2025-1243147",
    "request_type": "Trash/Recycling",
    "request_reason": "Repair Trash Cart",
    "date_created": "2025-12-01T13:45:11.000",
    "date_modified": "2025-12-01T13:45:13.000",
    "request_status": "Pending",
    "responsible_agency": "Department of Sanitation",
    "final_address": "7809 Duke Ct",
    "address_councildis": "E",
    "status": "Assigned to Contractor",
    "contractor": "Waste Pro",
    "rowid": "1243147",
    "final_x": "3700152.04413",
    "final_y": "561189.964446",
    "longitude": "-90.00809071714623",
    "latitude": "30.036497565047505",
    "geocoded_column": {
      "latitude": "30.036497565047505",
      "longitude": "-90.00809071714623"
    }
  },
  {
    "service_request": "2025-1243146",
    "request_type": "Trash/Recycling",
    "request_reason": "Order Recycling Cart",
    "date_created": "2025-12-01T13:43:54.000",
    "date_modified": "2025-12-01T13:43:56.000",
    "request_status": "Pending",
    "responsible_agency": "Department of Sanitation",
    "final_address": "2938 Ursulines Ave",
    "address_councildis": "A",
    "status": "Pending",
    "rowid": "1243146",
    "final_x": "3676527.46056",
    "final_y": "538901.495882",
    "longitude": "-90.08351759158572",
    "latitude": "29.97594233594543",
    "geocoded_column": {
      "latitude": "29.97594233594543",
      "longitude": "-90.08351759158572"
    }
  },
  {
    "service_request": "2025-1243145",
    "request_type": "Trash/Recycling",
    "request_reason": "Return Recycling Cart",
    "date_created": "2025-12-01T13:41:44.000",
    "date_modified": "2025-12-01T13:41:46.000",
    "request_status": "Pending",
    "responsible_agency": "Department of Sanitation",
    "final_address": "3043 Ponce De Leon St",
    "address_councildis": "A",
    "status": "Pending",
    "rowid": "1243145",
    "final_x": "3676819.26683",
    "final_y": "540551.844875",
    "longitude": "-90.08253908600143",
    "latitude": "29.980471472808254",
    "geocoded_column": {
      "latitude": "29.980471472808254",
      "longitude": "-90.08253908600143"
    }
  },
  {
    "service_request": "2025-1243144",
    "request_type": "Streetlights",
    "request_reason": "Streetlight Knocked Down/Leaning",
    "date_created": "2025-12-01T13:36:33.000",
    "date_modified": "2025-12-01T13:39:41.000",
    "request_status": "Pending",
    "responsible_agency": "Department of Public Works",
    "final_address": "MORRISON RD & READ BLVD",
    "address_councildis": "E",
    "status": "Pending",
    "rowid": "1243144",
    "final_x": "3708986.9",
    "final_y": "563787.08",
    "longitude": "-89.9800740921111",
    "latitude": "30.043354679575092",
    "geocoded_column": {
      "latitude": "30.043354679575092",
      "longitude": "-89.9800740921111"
    }
  },
  {
    "service_request": "2025-1243143",
    "request_type": "Property Maintenance",
    "request_reason": "Property Maintenance",
    "date_created": "2025-12-01T13:36:09.000",
    "date_modified": "2025-12-01T13:36:10.000",
    "request_status": "Pending",
    "responsible_agency": "Department of Code Enforcement",
    "final_address": "3717 S Prieur St",
    "address_councildis": "B",
    "status": "Pending",
    "rowid": "1243143",
    "final_x": "3671400.56091",
    "final_y": "527081.08787",
    "longitude": "-90.10011164270621",
    "latitude": "29.943592911654996",
    "geocoded_column": {
      "latitude": "29.943592911654996",
      "longitude": "-90.10011164270621"
    }
  },
  {
    "service_request": "2025-1243142",
    "request_type": "Mosquito, Termite & Rodent Control",
    "request_reason": "Rodent Complaint (Mice & Rats)",
    "date_created": "2025-12-01T13:34:41.000",
    "date_modified": "2025-12-01T13:34:43.000",
    "request_status": "Pending",
    "responsible_agency": "Mosquito, Termite & Rodent Control Board",
    "final_address": "3717 S Prieur St",
    "address_councildis": "B",
    "status": "Pending",
    "rowid": "1243142",
    "final_x": "3671400.56091",
    "final_y": "527081.08787",
    "longitude": "-90.10011164270621",
    "latitude": "29.943592911654996",
    "geocoded_column": {
      "latitude": "29.943592911654996",
      "longitude": "-90.10011164270621"
    }
  },
  {
    "service_request": "2025-1243141",
    "request_type": "Streetlights",
    "request_reason": "Streetlight Outage/Malfunction",
    "date_created": "2025-12-01T13:33:11.000",
    "date_modified": "2025-12-01T13:33:12.000",
    "request_status": "Pending",
    "responsible_agency": "Department of Public Works",
    "final_address": "2301 Louisa St",
    "address_councildis": "D",
    "status": "Pending",
    "rowid": "1243141",
    "final_x": "3690739.33552",
    "final_y": "540404.760139",
    "longitude": "-90.03857892231983",
    "latitude": "29.979641887265",
    "geocoded_column": {
      "latitude": "29.979641887265",
      "longitude": "-90.03857892231983"
    }
  },
  {
    "service_request": "2025-1243140",
    "request_type": "Trash/Recycling",
    "request_reason": "Request a Large Item Pick Up",
    "date_created": "2025-12-01T13:31:34.000",
    "date_modified": "2025-12-01T13:32:38.000",
    "request_status": "Pending",
    "responsible_agency": "Department of Sanitation",
    "final_address": "2008 Carondelet St Apt B",
    "address_councildis": "B",
    "status": "Assigned to Contractor",
    "contractor": "IV Waste",
    "rowid": "1243140",
    "final_x": "3677847.84456",
    "final_y": "524416.87238",
    "longitude": "-90.07984788037253",
    "latitude": "29.93607482572252",
    "geocoded_column": {
      "latitude": "29.93607482572252",
      "longitude": "-90.07984788037253"
    }
  },
  {
    "service_request": "2025-1243139",
    "request_type": "Trash/Recycling",
    "request_reason": "Request a Large Item Pick Up",
    "date_created": "2025-12-01T13:26:37.000",
    "date_modified": "2025-12-01T13:26:39.000",
    "request_status": "Pending",
    "responsible_agency": "Department of Sanitation",
    "final_address": "7826 Sun St",
    "address_councildis": "E",
    "status": "Assigned to Contractor",
    "contractor": "Waste Pro",
    "rowid": "1243139",
    "final_x": "3720384.94169",
    "final_y": "574326.86481",
    "longitude": "-89.94364795353486",
    "latitude": "30.071959634913352",
    "geocoded_column": {
      "latitude": "30.071959634913352",
      "longitude": "-89.94364795353486"
    }
  },
  {
    "service_request": "2025-1243138",
    "request_type": "Abandoned Vehicles",
    "request_reason": "Abandoned/Junk Vehicles",
    "date_created": "2025-12-01T13:25:26.000",
    "date_modified": "2025-12-01T13:25:28.000",
    "request_status": "Pending",
    "responsible_agency": "Department of Public Works",
    "final_address": "225 Eliza St",
    "address_councildis": "C",
    "status": "Pending",
    "rowid": "1243138",
    "final_x": "3686254.26761",
    "final_y": "529321.486529",
    "longitude": "-90.05313564974263",
    "latitude": "29.94930531510513",
    "geocoded_column": {
      "latitude": "29.94930531510513",
      "longitude": "-90.05313564974263"
    }
  },
  {
    "service_request": "2025-1243137",
    "request_type": "Abandoned Vehicles",
    "request_reason": "Abandoned/Junk Vehicles",
    "date_created": "2025-12-01T13:19:08.000",
    "date_modified": "2025-12-01T13:19:10.000",
    "request_status": "Pending",
    "responsible_agency": "Department of Public Works",
    "final_address": "4210 Hollygrove St",
    "address_councildis": "A",
    "status": "Pending",
    "rowid": "1243137",
    "final_x": "3666824.15393",
    "final_y": "538490.593609",
    "longitude": "-90.1141773399775",
    "latitude": "29.97509994254214",
    "geocoded_column": {
      "latitude": "29.97509994254214",
      "longitude": "-90.1141773399775"
    }
  },
  {
    "service_request": "2025-1243136",
    "request_type": "Trash/Recycling",
    "request_reason": "Request a Large Item Pick Up",
    "date_created": "2025-12-01T13:16:55.000",
    "date_modified": "2025-12-01T13:16:58.000",
    "request_status": "Pending",
    "responsible_agency": "Department of Sanitation",
    "final_address": "4630 Murano Rd",
    "address_councildis": "E",
    "status": "Assigned to Contractor",
    "contractor": "Waste Pro",
    "rowid": "1243136",
    "final_x": "3761417.73558",
    "final_y": "574209.955562",
    "longitude": "-89.81393822121119",
    "latitude": "30.070205993566983",
    "geocoded_column": {
      "latitude": "30.070205993566983",
      "longitude": "-89.81393822121119"
    }
  },
  {
    "service_request": "2025-1243135",
    "request_type": "Trash/Recycling",
    "request_reason": "Request a Large Item Pick Up",
    "date_created": "2025-12-01T13:16:07.000",
    "date_modified": "2025-12-01T13:16:09.000",
    "request_status": "Pending",
    "responsible_agency": "Department of Sanitation",
    "final_address": "3005 Danneel St",
    "address_councildis": "B",
    "status": "Assigned to Contractor",
    "contractor": "IV Waste",
    "rowid": "1243135",
    "final_x": "3674384.4132",
    "final_y": "523278.785723",
    "longitude": "-90.09082099848675",
    "latitude": "29.93304918287073",
    "geocoded_column": {
      "latitude": "29.93304918287073",
      "longitude": "-90.09082099848675"
    }
  },
  {
    "service_request": "2025-1243134",
    "request_type": "Trash/Recycling",
    "request_reason": "Request a Large Item Pick Up",
    "date_created": "2025-12-01T13:14:18.000",
    "date_modified": "2025-12-01T13:14:20.000",
    "request_status": "Pending",
    "responsible_agency": "Department of Sanitation",
    "final_address": "7856 Venice Blvd",
    "address_councildis": "E",
    "status": "Assigned to Contractor",
    "contractor": "Waste Pro",
    "rowid": "1243134",
    "final_x": "3720586.24665",
    "final_y": "574864.988331",
    "longitude": "-89.94299092887749",
    "latitude": "30.07343253181211",
    "geocoded_column": {
      "latitude": "30.07343253181211",
      "longitude": "-89.94299092887749"
    }
  },
  {
    "service_request": "2025-1243133",
    "request_type": "Trash/Recycling",
    "request_reason": "Request a Large Item Pick Up",
    "date_created": "2025-12-01T13:06:26.000",
    "date_modified": "2025-12-01T13:06:27.000",
    "request_status": "Pending",
    "responsible_agency": "Department of Sanitation",
    "final_address": "4115 Piedmont Dr",
    "address_councildis": "D",
    "status": "Assigned to Contractor",
    "contractor": "IV Waste",
    "rowid": "1243133",
    "final_x": "3685098.78108",
    "final_y": "547823.297042",
    "longitude": "-90.05613287179519",
    "latitude": "30.000214269995034",
    "geocoded_column": {
      "latitude": "30.000214269995034",
      "longitude": "-90.05613287179519"
    }
  },
  {
    "service_request": "2025-1243132",
    "request_type": "Trash/Recycling",
    "request_reason": "Replace Trash Cart",
    "date_created": "2025-12-01T13:05:06.000",
    "date_modified": "2025-12-01T13:05:12.000",
    "request_status": "Pending",
    "responsible_agency": "Department of Sanitation",
    "final_address": "103 Sherwood Forest Dr",
    "address_councildis": "A",
    "status": "Assigned to Contractor",
    "contractor": "IV Waste",
    "rowid": "1243132",
    "final_x": "3673256.92436",
    "final_y": "541280.025036",
    "longitude": "-90.09376563636803",
    "latitude": "29.982580161976518",
    "geocoded_column": {
      "latitude": "29.982580161976518",
      "longitude": "-90.09376563636803"
    }
  },
  {
    "service_request": "2025-1243131",
    "request_type": "Streetlights",
    "request_reason": "Streetlight Outage/Malfunction",
    "date_created": "2025-12-01T12:57:46.000",
    "date_modified": "2025-12-01T12:57:47.000",
    "request_status": "Pending",
    "responsible_agency": "Department of Public Works",
    "final_address": "7701 Hansbrough Ave",
    "address_councildis": "E",
    "status": "Pending",
    "rowid": "1243131",
    "final_x": "3707565.07672",
    "final_y": "564699.04509",
    "longitude": "-89.98453368713834",
    "latitude": "30.045908314483913",
    "geocoded_column": {
      "latitude": "30.045908314483913",
      "longitude": "-89.98453368713834"
    }
  },
  {
    "service_request": "2025-1243130",
    "request_type": "Trash/Recycling",
    "request_reason": "Repair Recycling Cart",
    "date_created": "2025-12-01T12:56:52.000",
    "date_modified": "2025-12-01T12:56:54.000",
    "request_status": "Pending",
    "responsible_agency": "Department of Sanitation",
    "final_address": "1069 Moss St",
    "address_councildis": "A",
    "status": "Pending",
    "rowid": "1243130",
    "final_x": "3674980.13198",
    "final_y": "540318.907211",
    "longitude": "-90.088355866462",
    "latitude": "29.979886047852947",
    "geocoded_column": {
      "latitude": "29.979886047852947",
      "longitude": "-90.088355866462"
    }
  },
  {
    "service_request": "2025-1243129",
    "request_type": "Street and Traffic Signs",
    "request_reason": "Traffic or Parking Sign Damaged or Missing",
    "date_created": "2025-12-01T12:53:52.000",
    "date_modified": "2025-12-01T12:53:55.000",
    "request_status": "Pending",
    "responsible_agency": "Department of Public Works",
    "final_address": "4800 Cleveland Ave",
    "address_councildis": "A",
    "status": "Pending",
    "rowid": "1243129",
    "final_x": "3668492.1874",
    "final_y": "539707.030474",
    "longitude": "-90.10886818476337",
    "latitude": "29.97839582905405",
    "geocoded_column": {
      "latitude": "29.97839582905405",
      "longitude": "-90.10886818476337"
    }
  },
  {
    "service_request": "2025-1243128",
    "request_type": "Trash/Recycling",
    "request_reason": "Missed Trash Pick-Up",
    "date_created": "2025-12-01T12:52:29.000",
    "date_modified": "2025-12-01T14:12:23.000",
    "case_close_date": "2025-12-01T08:12:22.000",
    "request_status": "Closed",
    "responsible_agency": "Department of Sanitation",
    "final_address": "1900 BLK Charbonnet St",
    "address_councildis": "E",
    "status": "Invalid Request",
    "contractor": "Waste Pro",
    "contractor_action": "Invalid",
    "rowid": "1243128",
    "final_x": "3699478.3428",
    "final_y": "536789.27201",
    "longitude": "-90.01110954835012",
    "latitude": "29.969426188659117",
    "geocoded_column": {
      "latitude": "29.969426188659117",
      "longitude": "-90.01110954835012"
    }
  },
  {
    "service_request": "2025-1243127",
    "request_type": "Trash/Recycling",
    "request_reason": "Request a Large Item Pick Up",
    "date_created": "2025-12-01T12:49:58.000",
    "date_modified": "2025-12-01T12:50:00.000",
    "request_status": "Pending",
    "responsible_agency": "Department of Sanitation",
    "final_address": "14059 Explorers Ave",
    "address_councildis": "E",
    "status": "Assigned to Contractor",
    "contractor": "Waste Pro",
    "rowid": "1243127",
    "final_x": "3726555.43129",
    "final_y": "570849.080615",
    "longitude": "-89.92427649977449",
    "latitude": "30.06218999932751",
    "geocoded_column": {
      "latitude": "30.06218999932751",
      "longitude": "-89.92427649977449"
    }
  },
  {
    "service_request": "2025-1243126",
    "request_type": "Trash/Recycling",
    "request_reason": "Replace Recycling Cart",
    "date_created": "2025-12-01T12:49:18.000",
    "date_modified": "2025-12-01T12:49:20.000",
    "request_status": "Pending",
    "responsible_agency": "Department of Sanitation",
    "final_address": "1636 Paul Morphy St",
    "address_councildis": "D",
    "status": "Pending",
    "rowid": "1243126",
    "final_x": "3679007.97493",
    "final_y": "540602.932427",
    "longitude": "-90.07562443237055",
    "latitude": "29.98054607004331",
    "geocoded_column": {
      "latitude": "29.98054607004331",
      "longitude": "-90.07562443237055"
    }
  },
  {
    "service_request": "2025-1243125",
    "request_type": "Streetlights",
    "request_reason": "Streetlight Outage/Malfunction",
    "date_created": "2025-12-01T12:47:56.000",
    "date_modified": "2025-12-01T12:47:58.000",
    "request_status": "Pending",
    "responsible_agency": "Department of Public Works",
    "final_address": "7701 Hansbrough Ave",
    "address_councildis": "E",
    "status": "Pending",
    "rowid": "1243125",
    "final_x": "3707565.07672",
    "final_y": "564699.04509",
    "longitude": "-89.98453368713834",
    "latitude": "30.045908314483913",
    "geocoded_column": {
      "latitude": "30.045908314483913",
      "longitude": "-89.98453368713834"
    }
  },
  {
    "service_request": "2025-1243124",
    "request_type": "Street and Traffic Signs",
    "request_reason": "Stop Sign Missing or Damaged",
    "date_created": "2025-12-01T12:44:38.000",
    "date_modified": "2025-12-01T12:48:30.000",
    "request_status": "Pending",
    "responsible_agency": "Department of Public Works",
    "final_address": "FLEUR DE LIS DR & 12TH ST",
    "address_councildis": "A",
    "status": "Pending",
    "rowid": "1243124",
    "final_x": "3665207.5",
    "final_y": "547826.28",
    "longitude": "-90.11897069735505",
    "latitude": "30.00081711641254",
    "geocoded_column": {
      "latitude": "30.00081711641254",
      "longitude": "-90.11897069735505"
    }
  },
  {
    "service_request": "2025-1243123",
    "request_type": "Trash/Recycling",
    "request_reason": "Illegal Dumping",
    "date_created": "2025-12-01T12:43:41.000",
    "date_modified": "2025-12-01T12:43:42.000",
    "request_status": "Pending",
    "responsible_agency": "Department of Sanitation",
    "final_address": "1724 N Derbigny St",
    "address_councildis": "D",
    "status": "Pending",
    "rowid": "1243123",
    "final_x": "3682814.1732",
    "final_y": "538254.800713",
    "longitude": "-90.06368500183227",
    "latitude": "29.973974102704698",
    "geocoded_column": {
      "latitude": "29.973974102704698",
      "longitude": "-90.06368500183227"
    }
  },
  {
    "service_request": "2025-1243122",
    "request_type": "Trash/Recycling",
    "request_reason": "Request a Large Item Pick Up",
    "date_created": "2025-12-01T12:42:22.000",
    "date_modified": "2025-12-01T12:42:24.000",
    "request_status": "Pending",
    "responsible_agency": "Department of Sanitation",
    "final_address": "821 Jourdan Ave",
    "address_councildis": "E",
    "status": "Assigned to Contractor",
    "contractor": "Waste Pro",
    "rowid": "1243122",
    "final_x": "3694815.01494",
    "final_y": "533526.724997",
    "longitude": "-90.0259542027419",
    "latitude": "29.9606024791966",
    "geocoded_column": {
      "latitude": "29.9606024791966",
      "longitude": "-90.0259542027419"
    }
  },
  {
    "service_request": "2025-1243121",
    "request_type": "Street and Traffic Signs",
    "request_reason": "Additional Signage Request",
    "date_created": "2025-12-01T12:42:00.000",
    "date_modified": "2025-12-01T12:43:18.000",
    "request_status": "Pending",
    "responsible_agency": "Department of Public Works",
    "final_address": "4500 Cerise Ave",
    "address_councildis": "E",
    "status": "Pending",
    "rowid": "1243121",
    "final_x": "3708693.1516",
    "final_y": "554115.44732",
    "longitude": "-89.98136310307707",
    "latitude": "30.01677103210524",
    "geocoded_column": {
      "latitude": "30.01677103210524",
      "longitude": "-89.98136310307707"
    }
  },
  {
    "service_request": "2025-1243120",
    "request_type": "Trash/Recycling",
    "request_reason": "Request a Large Item Pick Up",
    "date_created": "2025-12-01T12:41:16.000",
    "date_modified": "2025-12-01T12:41:18.000",
    "request_status": "Pending",
    "responsible_agency": "Department of Sanitation",
    "final_address": "13045 Lemans St",
    "address_councildis": "E",
    "status": "Assigned to Contractor",
    "contractor": "Waste Pro",
    "rowid": "1243120",
    "final_x": "3723895.44934",
    "final_y": "562822.847072",
    "longitude": "-89.93299469453116",
    "latitude": "30.040210876348898",
    "geocoded_column": {
      "latitude": "30.040210876348898",
      "longitude": "-89.93299469453116"
    }
  },
  {
    "service_request": "2025-1243119",
    "request_type": "Property Maintenance",
    "request_reason": "Property Maintenance",
    "date_created": "2025-12-01T12:40:25.000",
    "date_modified": "2025-12-01T12:40:27.000",
    "request_status": "Pending",
    "responsible_agency": "Department of Code Enforcement",
    "final_address": "6330 Mandeville St",
    "address_councildis": "D",
    "status": "Pending",
    "rowid": "1243119",
    "final_x": "3684117.71618",
    "final_y": "556364.215514",
    "longitude": "-90.0589320209417",
    "latitude": "30.023728716222376",
    "geocoded_column": {
      "latitude": "30.023728716222376",
      "longitude": "-90.0589320209417"
    }
  },
  {
    "service_request": "2025-1243118",
    "request_type": "Trash/Recycling",
    "request_reason": "Request a Large Item Pick Up",
    "date_created": "2025-12-01T12:39:28.000",
    "date_modified": "2025-12-01T12:39:29.000",
    "request_status": "Pending",
    "responsible_agency": "Department of Sanitation",
    "final_address": "1521 N Rocheblave St",
    "address_councildis": "D",
    "status": "Assigned to Contractor",
    "contractor": "IV Waste",
    "rowid": "1243118",
    "final_x": "3679587.82447",
    "final_y": "539102.150666",
    "longitude": "-90.07384511937796",
    "latitude": "29.97640192704579",
    "geocoded_column": {
      "latitude": "29.97640192704579",
      "longitude": "-90.07384511937796"
    }
  },