[
  {
    "service_request": "2023-1037336",
    "request_type": "Abandoned Vehicles",
    "request_reason": "Abandoned/Junk Vehicles",
    "date_created": "2023-09-22T01:29:50.000",
    "date_modified": "2023-09-22T01:29:50.000",
    "request_status": "Pending",
    "responsible_agency": "Department of Public Works",
    "final_address": "2716 Allen Toussaint Blvd",
    "address_councildis": "D",
    "status": "Pending",
    "rowid": "1037336",
    "final_x": "3687234.33308",
    "final_y": "555962.217817",
    "longitude": "-90.04909839441487",
    "latitude": "30.022527693359084",
    "geocoded_column": {
      "latitude": "30.022527693359084",
      "longitude": "-90.04909839441487"
    }
  },
  {
    "service_request": "2023-1037335",
    "request_type": "Roads/Drainage",
    "request_reason": "Street Subsidence (Sinking)",
    "date_created": "2023-09-22T01:14:18.000",
    "date_modified": "2023-09-22T01:14:18.000",
    "request_status": "Pending",
    "responsible_agency": "Department of Public Works",
    "final_address": "5823 Perrier St",
    "address_councildis": "A",
    "status": "Pending",
    "rowid": "1037335",
    "final_x": "3665601.07367",
    "final_y": "520421.208184",
    "longitude": "-90.11864512991228",
    "latitude": "29.92545071542357",
    "geocoded_column": {
      "latitude": "29.92545071542357",
      "longitude": "-90.11864512991228"
    }
  },
  {
    "service_request": "2023-1037334",
    "request_type": "Traffic Signals/Signs/Striping/Streetlights",
    "request_reason": "Street Light Outage/Malfunction",
    "date_created": "2023-09-21T23:43:32.000",
    "date_modified": "2023-09-21T23:43:33.000",
    "request_status": "Pending",
    "responsible_agency": "Department of Public Works",
    "final_address": "1479 Mirabeau Ave",
    "address_councildis": "D",
    "status": "Assigned to Contractor",
    "contractor": "Legacy Professional Services",
    "rowid": "1037334",
    "final_x": "3678356.06741",
    "final_y": "550396.509972",
    "longitude": "-90.07734438032658",
    "latitude": "30.007494621283502",
    "geocoded_column": {
      "latitude": "30.007494621283502",
      "longitude": "-90.07734438032658"
    }
  },
  {
    "service_request": "2023-1037333",
    "request_type": "Roads/Drainage",
    "request_reason": "Pothole",
    "date_created": "2023-09-21T23:43:26.000",
    "date_modified": "2023-09-21T23:43:26.000",
    "request_status": "Pending",
    "responsible_agency": "Department of Public Works",
    "final_address": "5901 Coliseum St",
    "address_councildis": "A",
    "status": "Pending",
    "rowid": "1037333",
    "final_x": "3665347.95687",
    "final_y": "520140.000824",
    "longitude": "-90.11945354831364",
    "latitude": "29.92468485929881",
    "geocoded_column": {
      "latitude": "29.92468485929881",
      "longitude": "-90.11945354831364"
    }
  },
  {
    "service_request": "2023-1037332",
    "request_type": "Property Maintenance",
    "request_reason": "Property Maintenance",
    "date_created": "2023-09-21T23:41:51.000",
    "date_modified": "2023-09-21T23:41:51.000",
    "request_status": "Pending",
    "responsible_agency": "Department of Code Enforcement",
    "final_address": "1835 Andry St",
    "address_councildis": "E",
    "status": "Pending",
    "rowid": "1037332",
    "final_x": "3698008.60535",
    "final_y": "536847.305736",
    "longitude": "-90.01574896339582",
    "latitude": "29.969632312269646",
    "geocoded_column": {
      "latitude": "29.969632312269646",
      "longitude": "-90.01574896339582"
    }
  },
  {
    "service_request": "2023-1037331",
    "request_type": "Roads/Drainage",
    "request_reason": "Pothole",
    "date_created": "2023-09-21T23:33:24.000",
    "date_modified": "2023-09-21T23:33:24.000",
    "request_status": "Pending",
    "responsible_agency": "Department of Public Works",
    "final_address": "6004 Chestnut St",
    "address_councildis": "A",
    "status": "Pending",
    "rowid": "1037331",
    "final_x": "3664708.90432",
    "final_y": "519836.195832",
    "longitude": "-90.12148097462406",
    "latitude": "29.923868090727332",
    "geocoded_column": {
      "latitude": "29.923868090727332",
      "longitude": "-90.12148097462406"
    }
  },
  {
    "service_request": "2023-1037330",
    "request_type": "Health Related Request",
    "request_reason": "Noise Ordinance Complaint",
    "date_created": "2023-09-21T23:28:17.000",
    "date_modified": "2023-09-21T23:28:17.000",
    "request_status": "Pending",
    "responsible_agency": "Health Department",
    "final_address": "5518 Hawthorne Pl",
    "address_councildis": "A",
    "status": "Pending",
    "rowid": "1037330",
    "final_x": "3667717.11226",
    "final_y": "544426.952527",
    "longitude": "-90.11115715933569",
    "latitude": "29.991396764355752",
    "geocoded_column": {
      "latitude": "29.991396764355752",
      "longitude": "-90.11115715933569"
    }
  },
  {
    "service_request": "2023-1037329",
    "request_type": "Property Maintenance",
    "request_reason": "Property Maintenance",
    "date_created": "2023-09-21T23:27:46.000",
    "date_modified": "2023-09-21T23:27:46.000",
    "request_status": "Pending",
    "responsible_agency": "Department of Code Enforcement",
    "final_address": "1128 Leboeuf St",
    "address_councildis": "C",
    "status": "Pending",
    "rowid": "1037329",
    "final_x": "3689785.34774",
    "final_y": "527147.528447",
    "longitude": "-90.0420638512203",
    "latitude": "29.94321872518187",
    "geocoded_column": {
      "latitude": "29.94321872518187",
      "longitude": "-90.0420638512203"
    }
  },
  {
    "service_request": "2023-1037328",
    "request_type": "Property Maintenance",
    "request_reason": "Property Maintenance",
    "date_created": "2023-09-21T23:24:48.000",
    "date_modified": "2023-09-21T23:24:48.000",
    "request_status": "Pending",
    "responsible_agency": "Department of Code Enforcement",
    "final_address": "1128 Leboeuf St",
    "address_councildis": "C",
    "status": "Pending",
    "rowid": "1037328",
    "final_x": "3689785.34774",
    "final_y": "527147.528447",
    "longitude": "-90.0420638512203",
    "latitude": "29.94321872518187",
    "geocoded_column": {
      "latitude": "29.94321872518187",
      "longitude": "-90.0420638512203"
    }
  },
  {
    "service_request": "2023-1037327",
    "request_type": "Health Related Request",
    "request_reason": "Noise Ordinance Complaint",
    "date_created": "2023-09-21T23:24:30.000",
    "date_modified": "2023-09-21T23:24:30.000",
    "request_status": "Pending",
    "responsible_agency": "Health Department",
    "final_address": "5518 Hawthorne Pl",
    "address_councildis": "A",
    "status": "Pending",
    "rowid": "1037327",
    "final_x": "3667717.11226",
    "final_y": "544426.952527",
    "longitude": "-90.11115715933569",
    "latitude": "29.991396764355752",
    "geocoded_column": {
      "latitude": "29.991396764355752",
      "longitude": "-90.11115715933569"
    }
  },
  {
    "service_request": "2023-1037326",
    "request_type": "Abandoned Vehicles",
    "request_reason": "Abandoned/Junk Vehicles",
    "date_created": "2023-09-21T23:21:57.000",
    "date_modified": "2023-09-21T23:21:57.000",
    "request_status": "Pending",
    "responsible_agency": "Department of Public Works",
    "final_address": "7310 Hickory St",
    "address_councildis": "A",
    "status": "Pending",
    "rowid": "1037326",
    "final_x": "3664998.91482",
    "final_y": "528453.441088",
    "longitude": "-90.12027753993051",
    "latitude": "29.947554336540804",
    "geocoded_column": {
      "latitude": "29.947554336540804",
      "longitude": "-90.12027753993051"
    }
  },
  {
    "service_request": "2023-1037325",
    "request_type": "Traffic Signals/Signs/Striping/Streetlights",
    "request_reason": "Street Light Outage/Malfunction",
    "date_created": "2023-09-21T23:20:00.000",
    "date_modified": "2023-09-21T23:20:01.000",
    "request_status": "Pending",
    "responsible_agency": "Department of Public Works",
    "final_address": "7004 General Diaz St",
    "address_councildis": "A",
    "status": "Assigned to Contractor",
    "contractor": "Legacy Professional Services",
    "rowid": "1037325",
    "final_x": "3670060.12967",
    "final_y": "554027.443928",
    "longitude": "-90.10343056524961",
    "latitude": "30.017725835845905",
    "geocoded_column": {
      "latitude": "30.017725835845905",
      "longitude": "-90.10343056524961"
    }
  },
  {
    "service_request": "2023-1037324",
    "request_type": "Trash/Recycling",
    "request_reason": "Missed Trash Pick-Up",
    "date_created": "2023-09-21T23:17:00.000",
    "date_modified": "2023-09-21T23:17:01.000",
    "request_status": "Pending",
    "responsible_agency": "Department of Sanitation",
    "final_address": "5810 Chamberlain Dr",
    "address_councildis": "D",
    "status": "Assigned to Contractor",
    "contractor": "IV Waste",
    "rowid": "1037324",
    "final_x": "3679258.26786",
    "final_y": "553924.250648",
    "longitude": "-90.074371616807",
    "latitude": "30.01716741409558",
    "geocoded_column": {
      "latitude": "30.01716741409558",
      "longitude": "-90.074371616807"
    }
  },
  {
    "service_request": "2023-1037323",
    "request_type": "Trash/Recycling",
    "request_reason": "Request a Large Item Pick Up",
    "date_created": "2023-09-21T23:14:23.000",
    "date_modified": "2023-09-21T23:14:23.000",
    "request_status": "Pending",
    "responsible_agency": "Department of Sanitation",
    "final_address": "7631 Avalon Way",
    "address_councildis": "E",
    "status": "Assigned to Contractor",
    "contractor": "Waste Pro",
    "rowid": "1037323",
    "final_x": "3709005.48849",
    "final_y": "564739.645794",
    "longitude": "-89.97997978811973",
    "latitude": "30.04597325040798",
    "geocoded_column": {
      "latitude": "30.04597325040798",
      "longitude": "-89.97997978811973"
    }
  },
  {
    "service_request": "2023-1037322",
    "request_type": "Trash/Recycling",
    "request_reason": "Repair Recycling Cart",
    "date_created": "2023-09-21T23:03:28.000",
    "date_modified": "2023-09-21T23:03:28.000",
    "request_status": "Pending",
    "responsible_agency": "Department of Sanitation",
    "final_address": "8215 Spruce St",
    "address_councildis": "A",
    "status": "Pending",
    "rowid": "1037322",
    "final_x": "3663518.89274",
    "final_y": "530811.88909",
    "longitude": "-90.12487203148662",
    "latitude": "29.954082307670184",
    "geocoded_column": {
      "latitude": "29.954082307670184",
      "longitude": "-90.12487203148662"
    }
  },
  {
    "service_request": "2023-1037321",
    "request_type": "Traffic Signals/Signs/Striping/Streetlights",
    "request_reason": "Street Light Outage/Malfunction",
    "date_created": "2023-09-21T22:51:52.000",
    "date_modified": "2023-09-21T22:51:52.000",
    "request_status": "Pending",
    "responsible_agency": "Department of Public Works",
    "final_address": "CCC OUTBOUND & GEN DE GAULLE EXIT",
    "address_councildis": "C",
    "status": "Assigned to Contractor",
    "contractor": "Legacy Professional Services",
    "rowid": "1037321",
    "final_x": "3690760.02",
    "final_y": "524632.28",
    "longitude": "-90.03907627531285",
    "latitude": "29.936272411943914",
    "geocoded_column": {
      "latitude": "29.936272411943914",
      "longitude": "-90.03907627531285"
    }
  },
  {
    "service_request": "2023-1037320",
    "request_type": "Roads/Drainage",
    "request_reason": "Pothole",
    "date_created": "2023-09-21T22:12:32.000",
    "date_modified": "2023-09-21T22:12:32.000",
    "request_status": "Pending",
    "responsible_agency": "Department of Public Works",
    "final_address": "1038 Eleonore St",
    "address_councildis": "A",
    "status": "Pending",
    "rowid": "1037320",
    "final_x": "3665393.71744",
    "final_y": "520036.833336",
    "longitude": "-90.11931254735237",
    "latitude": "29.924399848082246",
    "geocoded_column": {
      "latitude": "29.924399848082246",
      "longitude": "-90.11931254735237"
    }
  },
  {
    "service_request": "2023-1037319",
    "request_type": "Roads/Drainage",
    "request_reason": "Accessibility Ramps, Curbs and Sidewalk Repair",
    "date_created": "2023-09-21T21:57:11.000",
    "date_modified": "2023-09-21T21:57:11.000",
    "request_status": "Pending",
    "responsible_agency": "Department of Public Works",
    "final_address": "3000 BLK Orleans Ave",
    "address_councildis": "A",
    "status": "Pending",
    "rowid": "1037319",
    "final_x": "3675665.08203",
    "final_y": "537884.196001",
    "longitude": "-90.08627620075985",
    "latitude": "29.973170944840493",
    "geocoded_column": {
      "latitude": "29.973170944840493",
      "longitude": "-90.08627620075985"
    }
  },
  {
    "service_request": "2023-1037318",
    "request_type": "Mosquito, Termite & Rodent Control",
    "request_reason": "Rodent Complaint (Rats)",
    "date_created": "2023-09-21T21:39:18.000",
    "date_modified": "2023-09-21T21:39:18.000",
    "request_status": "Pending",
    "responsible_agency": "Mosquito, Termite & Rodent Control Board",
    "final_address": "2815 DAbadie St",
    "address_councildis": "D",
    "status": "Pending",
    "rowid": "1037318",
    "final_x": "3678864.80853",
    "final_y": "541319.096972",
    "longitude": "-90.07605179436885",
    "latitude": "29.982519594058523",
    "geocoded_column": {
      "latitude": "29.982519594058523",
      "longitude": "-90.07605179436885"
    }
  },
  {
    "service_request": "2023-1037317",
    "request_type": "Trash/Recycling",
    "request_reason": "Missed Trash Pick-Up",
    "date_created": "2023-09-21T21:25:01.000",
    "date_modified": "2023-09-21T21:25:02.000",
    "request_status": "Pending",
    "responsible_agency": "Department of Sanitation",
    "final_address": "2447 N Tonti St",
    "address_councildis": "D",
    "status": "Assigned to Contractor",
    "contractor": "IV Waste",
    "rowid": "1037317",
    "final_x": "3686292.96738",
    "final_y": "540889.536331",
    "longitude": "-90.05260520569067",
    "latitude": "29.981112249996357",
    "geocoded_column": {
      "latitude": "29.981112249996357",
      "longitude": "-90.05260520569067"
    }
  },
  {
    "service_request": "2023-1037316",
    "request_type": "Graffiti Removal",
    "request_reason": "Graffiti Removal",
    "date_created": "2023-09-21T21:24:59.000",
    "date_modified": "2023-09-21T21:24:59.000",
    "request_status": "Pending",
    "responsible_agency": "Department of Code Enforcement",
    "final_address": "1422 General Pershing St",
    "address_councildis": "B",
    "status": "Pending",
    "rowid": "1037316",
    "final_x": "3671239.44116",
    "final_y": "520532.324984",
    "longitude": "-90.10084273889387",
    "latitude": "29.925590694745555",
    "geocoded_column": {
      "latitude": "29.925590694745555",
      "longitude": "-90.10084273889387"
    }
  },
  {
    "service_request": "2023-1037315",
    "request_type": "Roads/Drainage",
    "request_reason": "Pothole",
    "date_created": "2023-09-21T21:16:23.000",
    "date_modified": "2023-09-21T21:16:23.000",
    "request_status": "Pending",
    "responsible_agency": "Department of Public Works",
    "final_address": "1224 Constantinople St",
    "address_councildis": "B",
    "status": "Pending",
    "rowid": "1037315",
    "final_x": "3672326.33211",
    "final_y": "520156.27724",
    "longitude": "-90.09742455349182",
    "latitude": "29.924524493122814",
    "geocoded_column": {
      "latitude": "29.924524493122814",
      "longitude": "-90.09742455349182"
    }
  },
  {
    "service_request": "2023-1037314",
    "request_type": "Trash/Recycling",
    "request_reason": "Request a Large Item Pick Up",
    "date_created": "2023-09-21T21:11:59.000",
    "date_modified": "2023-09-21T21:12:00.000",
    "request_status": "Pending",
    "responsible_agency": "Department of Sanitation",
    "final_address": "4628 Frenchmen St",
    "address_councildis": "D",
    "status": "Assigned to Contractor",
    "contractor": "IV Waste",
    "rowid": "1037314",
    "final_x": "3683459.14325",
    "final_y": "549758.630676",
    "longitude": "-90.06124469751454",
    "latitude": "30.005585891837672",
    "geocoded_column": {
      "latitude": "30.005585891837672",
      "longitude": "-90.06124469751454"
    }
  },
  {
    "service_request": "2023-1037313",
    "request_type": "Trash/Recycling",
    "request_reason": "Order Trash Cart",
    "date_created": "2023-09-21T21:08:15.000",
    "date_modified": "2023-09-21T21:08:16.000",
    "request_status": "Pending",
    "responsible_agency": "Department of Sanitation",
    "final_address": "2011 Seventh St",
    "address_councildis": "B",
    "status": "Assigned to Contractor",
    "contractor": "Richards Disposal",
    "rowid": "1037313",
    "final_x": "3674424.90484",
    "final_y": "523390.120827",
    "longitude": "-90.09068935732729",
    "latitude": "29.933354110852612",
    "geocoded_column": {
      "latitude": "29.933354110852612",
      "longitude": "-90.09068935732729"
    }
  },
  {
    "service_request": "2023-1037312",
    "request_type": "Property Maintenance",
    "request_reason": "Property Maintenance",
    "date_created": "2023-09-21T20:15:34.000",
    "date_modified": "2023-09-21T20:15:34.000",
    "request_status": "Pending",
    "responsible_agency": "Department of Code Enforcement",
    "final_address": "1739 Port St",
    "address_councildis": "D",
    "status": "Pending",
    "rowid": "1037312",
    "final_x": "3688101.5622",
    "final_y": "538929.787018",
    "longitude": "-90.04696235276438",
    "latitude": "29.97566792423976",
    "geocoded_column": {
      "latitude": "29.97566792423976",
      "longitude": "-90.04696235276438"
    }
  },
  {
    "service_request": "2023-1037311",
    "request_type": "Safety & Permits",
    "request_reason": "Licenses & Permits",
    "date_created": "2023-09-21T19:55:50.000",
    "date_modified": "2023-09-21T19:55:50.000",
    "request_status": "Pending",
    "responsible_agency": "Safety and Permits",
    "final_address": "1609 S Liberty St",
    "address_councildis": "B",
    "status": "Pending",
    "rowid": "1037311",
    "final_x": "3676718.2331",
    "final_y": "526627.403966",
    "longitude": "-90.08333796464805",
    "latitude": "29.94218699064069",
    "geocoded_column": {
      "latitude": "29.94218699064069",
      "longitude": "-90.08333796464805"
    }
  },
  {
    "service_request": "2023-1037310",
    "request_type": "Property Maintenance",
    "request_reason": "Property Maintenance",
    "date_created": "2023-09-21T19:52:57.000",
    "date_modified": "2023-09-21T19:52:57.000",
    "request_status": "Pending",
    "responsible_agency": "Department of Code Enforcement",
    "final_address": "1609 S Liberty St",
    "address_councildis": "B",
    "status": "Pending",
    "rowid": "1037310",
    "final_x": "3676718.2331",
    "final_y": "526627.403966",
    "longitude": "-90.08333796464805",
    "latitude": "29.94218699064069",
    "geocoded_column": {
      "latitude": "29.94218699064069",
      "longitude": "-90.08333796464805"
    }
  },
  {
    "service_request": "2023-1037309",
    "request_type": "Property Maintenance",
    "request_reason": "Property Maintenance",
    "date_created": "2023-09-21T19:46:45.000",
    "date_modified": "2023-09-21T19:46:45.000",
    "request_status": "Pending",
    "responsible_agency": "Department of Code Enforcement",
    "final_address": "1613 S Liberty St",
    "address_councildis": "B",
    "status": "Pending",
    "rowid": "1037309",
    "final_x": "3676694.19822",
    "final_y": "526587.614398",
    "longitude": "-90.08341521843158",
    "latitude": "29.942078303391234",
    "geocoded_column": {
      "latitude": "29.942078303391234",
      "longitude": "-90.08341521843158"
    }
  },
  {
    "service_request": "2023-1037308",
    "request_type": "Roads/Drainage",
    "request_reason": "Pothole",
    "date_created": "2023-09-21T19:33:25.000",
    "date_modified": "2023-09-21T19:33:25.000",
    "request_status": "Pending",
    "responsible_agency": "Department of Public Works",
    "final_address": "1014 Eleonore St",
    "address_councildis": "A",
    "status": "Pending",
    "rowid": "1037308",
    "final_x": "3665367.52608",
    "final_y": "519881.803832",
    "longitude": "-90.11940040938434",
    "latitude": "29.923974328672756",
    "geocoded_column": {
      "latitude": "29.923974328672756",
      "longitude": "-90.11940040938434"
    }
  },
  {
    "service_request": "2023-1037307",
    "request_type": "Roads/Drainage",
    "request_reason": "Street Subsidence (Sinking)",
    "date_created": "2023-09-21T19:17:35.000",
    "date_modified": "2023-09-21T19:17:35.000",
    "request_status": "Pending",
    "responsible_agency": "Department of Public Works",
    "final_address": "2501 N Derbigny St",
    "address_councildis": "D",
    "status": "Pending",
    "rowid": "1037307",
    "final_x": "3687064.48297",
    "final_y": "538727.122505",
    "longitude": "-90.05024489710529",
    "latitude": "29.975142640727455",
    "geocoded_column": {
      "latitude": "29.975142640727455",
      "longitude": "-90.05024489710529"
    }
  },
  {
    "service_request": "2023-1037305",
    "request_type": "Trash/Recycling",
    "request_reason": "Request a Large Item Pick Up",
    "date_created": "2023-09-21T19:01:36.000",
    "date_modified": "2023-09-21T19:01:37.000",
    "request_status": "Pending",
    "responsible_agency": "Department of Sanitation",
    "final_address": "1717 N Rocheblave St, New Orleans, Louisiana, 70119",
    "address_councildis": "D",
    "status": "Assigned to Contractor",
    "contractor": "IV Waste",
    "rowid": "1037305",
    "final_x": "3680411.42664",
    "final_y": "540194.630795",
    "longitude": "-90.07120593086631",
    "latitude": "29.97938095031802",
    "geocoded_column": {
      "latitude": "29.97938095031802",
      "longitude": "-90.07120593086631"
    }
  },
  {
    "service_request": "2023-1037304",
    "request_type": "Traffic Signals/Signs/Striping/Streetlights",
    "request_reason": "Street Light Outage/Malfunction",
    "date_created": "2023-09-21T18:49:22.000",
    "date_modified": "2023-09-21T18:49:22.000",
    "request_status": "Pending",
    "responsible_agency": "Department of Public Works",
    "final_address": "2100 Almonaster Ave",
    "address_councildis": "D",
    "status": "Assigned to Contractor",
    "contractor": "Legacy Professional Services",
    "rowid": "1037304",
    "final_x": "3687843.45494",
    "final_y": "540346.737867",
    "longitude": "-90.04772731535871",
    "latitude": "29.979572003659232",
    "geocoded_column": {
      "latitude": "29.979572003659232",
      "longitude": "-90.04772731535871"
    }
  },
  {
    "service_request": "2023-1037303",
    "request_type": "Property Maintenance",
    "request_reason": "Property Maintenance",
    "date_created": "2023-09-21T18:42:53.000",
    "date_modified": "2023-09-21T18:42:53.000",
    "request_status": "Pending",
    "responsible_agency": "Department of Code Enforcement",
    "final_address": "3321 Fern St",
    "address_councildis": "B",
    "status": "Pending",
    "rowid": "1037303",
    "final_x": "3667717.63969",
    "final_y": "533493.096836",
    "longitude": "-90.11152376816294",
    "latitude": "29.961332319020162",
    "geocoded_column": {
      "latitude": "29.961332319020162",
      "longitude": "-90.11152376816294"
    }
  },
  {
    "service_request": "2023-1037302",
    "request_type": "Trash/Recycling",
    "request_reason": "Request a Large Item Pick Up",
    "date_created": "2023-09-21T18:42:34.000",
    "date_modified": "2023-09-21T18:42:35.000",
    "request_status": "Pending",
    "responsible_agency": "Department of Sanitation",
    "final_address": "8200 BLK Neron Pl",
    "address_councildis": "A",
    "status": "Assigned to Contractor",
    "contractor": "Richards Disposal",
    "rowid": "1037302",
    "final_x": "3664167.16868",
    "final_y": "531593.78929",
    "longitude": "-90.12279894613775",
    "latitude": "29.95621346376891",
    "geocoded_column": {
      "latitude": "29.95621346376891",
      "longitude": "-90.12279894613775"
    }
  },
  {
    "service_request": "2023-1037300",
    "request_type": "Trash/Recycling",
    "request_reason": "Missed Trash Pick-Up",
    "date_created": "2023-09-21T18:40:28.000",
    "date_modified": "2023-09-21T18:40:29.000",
    "request_status": "Pending",
    "responsible_agency": "Department of Sanitation",
    "final_address": "920 Picheloup Pl",
    "address_councildis": "A",
    "status": "Assigned to Contractor",
    "contractor": "Richards Disposal",
    "rowid": "1037300",
    "final_x": "3673643.58542",
    "final_y": "540391.204363",
    "longitude": "-90.09257476538848",
    "latitude": "29.980124702607736",
    "geocoded_column": {
      "latitude": "29.980124702607736",
      "longitude": "-90.09257476538848"
    }
  },
  {
    "service_request": "2023-1037299",
    "request_type": "Abandoned Vehicles",
    "request_reason": "Abandoned/Junk Vehicles",
    "date_created": "2023-09-21T18:33:55.000",
    "date_modified": "2023-09-21T18:33:55.000",
    "request_status": "Pending",
    "responsible_agency": "Department of Public Works",
    "final_address": "4318 N Villere St",
    "address_councildis": "D",
    "status": "Pending",
    "rowid": "1037299",
    "final_x": "3693104.8687",
    "final_y": "536118.635079",
    "longitude": "-90.03126147508571",
    "latitude": "29.96778286034901",
    "geocoded_column": {
      "latitude": "29.96778286034901",
      "longitude": "-90.03126147508571"
    }
  },
  {
    "service_request": "2023-1037298",
    "request_type": "Trash/Recycling",
    "request_reason": "Request a Large Item Pick Up",
    "date_created": "2023-09-21T18:24:52.000",
    "date_modified": "2023-09-21T18:24:53.000",
    "request_status": "Pending",
    "responsible_agency": "Department of Sanitation",
    "status": "Assigned to Contractor",
    "rowid": "1037298",
    "longitude": "0.0",
    "latitude": "0.0",
    "geocoded_column": {
      "latitude": "0.0",
      "longitude": "0.0"
    }
  },
  {
    "service_request": "2023-1037297",
    "request_type": "Trash/Recycling",
    "request_reason": "Order Recycling Cart",
    "date_created": "2023-09-21T18:22:15.000",
    "date_modified": "2023-09-21T18:22:15.000",
    "request_status": "Pending",
    "responsible_agency": "Department of Sanitation",
    "final_address": "2312 Royal St",
    "address_councildis": "C",
    "status": "Pending",
    "rowid": "1037297",
    "final_x": "3685667.51356",
    "final_y": "534879.449286",
    "longitude": "-90.05479247616431",
    "latitude": "29.964605817928373",
    "geocoded_column": {
      "latitude": "29.964605817928373",
      "longitude": "-90.05479247616431"
    }
  },
  {
    "service_request": "2023-1037296",
    "request_type": "Graffiti Removal",
    "request_reason": "Graffiti Removal",
    "date_created": "2023-09-21T18:06:07.000",
    "date_modified": "2023-09-21T18:06:07.000",
    "request_status": "Pending",
    "responsible_agency": "Department of Code Enforcement",
    "final_address": "3440 Magazine St",
    "address_councildis": "B",
    "status": "Pending",
    "rowid": "1037296",
    "final_x": "3674745.34504",
    "final_y": "519408.524023",
    "longitude": "-90.08981415747637",
    "latitude": "29.92239644724042",
    "geocoded_column": {
      "latitude": "29.92239644724042",
      "longitude": "-90.08981415747637"
    }
  },
  {
    "service_request": "2023-1037295",
    "request_type": "Graffiti Removal",
    "request_reason": "Graffiti Removal",
    "date_created": "2023-09-21T18:04:39.000",
    "date_modified": "2023-09-21T18:04:39.000",
    "request_status": "Pending",
    "responsible_agency": "Department of Code Enforcement",
    "final_address": "1226 Napoleon Ave",
    "address_councildis": "B",
    "status": "Pending",
    "rowid": "1037295",
    "final_x": "3670806.91867",
    "final_y": "520018.438328",
    "longitude": "-90.10222551244391",
    "latitude": "29.924190455578582",
    "geocoded_column": {
      "latitude": "29.924190455578582",
      "longitude": "-90.10222551244391"
    }
  },
  {
    "service_request": "2023-1037294",
    "request_type": "Traffic Signals/Signs/Striping/Streetlights",
    "request_reason": "Street Light Outage/Malfunction",
    "date_created": "2023-09-21T17:52:10.000",
    "date_modified": "2023-09-21T17:52:10.000",
    "request_status": "Pending",
    "responsible_agency": "Department of Public Works",
    "final_address": "5510 Annunciation St",
    "address_councildis": "A",
    "status": "Assigned to Contractor",
    "contractor": "Legacy Professional Services",
    "rowid": "1037294",
    "final_x": "3666024.56314",
    "final_y": "517450.001974",
    "longitude": "-90.11740782851419",
    "latitude": "29.917268479654307",
    "geocoded_column": {
      "latitude": "29.917268479654307",
      "longitude": "-90.11740782851419"
    }
  },
  {
    "service_request": "2023-1037293",
    "request_type": "Traffic Signals/Signs/Striping/Streetlights",
    "request_reason": "Street Light Outage/Malfunction",
    "date_created": "2023-09-21T17:50:53.000",
    "date_modified": "2023-09-21T17:50:54.000",
    "request_status": "Pending",
    "responsible_agency": "Department of Public Works",
    "final_address": "5510 Annunciation St",
    "address_councildis": "A",
    "status": "Assigned to Contractor",
    "contractor": "Legacy Professional Services",
    "rowid": "1037293",
    "final_x": "3666024.56314",
    "final_y": "517450.001974",
    "longitude": "-90.11740782851419",
    "latitude": "29.917268479654307",
    "geocoded_column": {
      "latitude": "29.917268479654307",
      "longitude": "-90.11740782851419"
    }
  },
  {
    "service_request": "2023-1037292",
    "request_type": "Traffic Signals/Signs/Striping/Streetlights",
    "request_reason": "Street Light Outage/Malfunction",
    "date_created": "2023-09-21T17:49:12.000",
    "date_modified": "2023-09-21T17:49:13.000",
    "request_status": "Pending",
    "responsible_agency": "Department of Public Works",
    "final_address": "5510 Annunciation St",
    "address_councildis": "A",
    "status": "Assigned to Contractor",
    "contractor": "Legacy Professional Services",
    "rowid": "1037292",
    "final_x": "3666024.56314",
    "final_y": "517450.001974",
    "longitude": "-90.11740782851419",
    "latitude": "29.917268479654307",
    "geocoded_column": {
      "latitude": "29.917268479654307",
      "longitude": "-90.11740782851419"
    }
  },
  {
    "service_request": "2023-1037291",
    "request_type": "Traffic Signals/Signs/Striping/Streetlights",
    "request_reason": "Street Light Outage/Malfunction",
    "date_created": "2023-09-21T17:47:35.000",
    "date_modified": "2023-09-21T17:47:36.000",
    "request_status": "Pending",
    "responsible_agency": "Department of Public Works",
    "final_address": "5510 Annunciation St",
    "address_councildis": "A",
    "status": "Assigned to Contractor",
    "contractor": "Legacy Professional Services",
    "rowid": "1037291",
    "final_x": "3666024.56314",
    "final_y": "517450.001974",
    "longitude": "-90.11740782851419",
    "latitude": "29.917268479654307",
    "geocoded_column": {
      "latitude": "29.917268479654307",
      "longitude": "-90.11740782851419"
    }
  },
  {
    "service_request": "2023-1037289",
    "request_type": "Traffic Signals/Signs/Striping/Streetlights",
    "request_reason": "Street Light Outage/Malfunction",
    "date_created": "2023-09-21T17:44:03.000",
    "date_modified": "2023-09-21T17:44:04.000",
    "request_status": "Pending",
    "responsible_agency": "Department of Public Works",
    "final_address": "5510 Annunciation St",
    "address_councildis": "A",
    "status": "Assigned to Contractor",
    "contractor": "Legacy Professional Services",
    "rowid": "1037289",
    "final_x": "3666024.56314",
    "final_y": "517450.001974",
    "longitude": "-90.11740782851419",
    "latitude": "29.917268479654307",
    "geocoded_column": {
      "latitude": "29.917268479654307",
      "longitude": "-90.11740782851419"
    }
  },
  {
    "service_request": "2023-1037288",
    "request_type": "Graffiti Removal",
    "request_reason": "Graffiti Removal",
    "date_created": "2023-09-21T17:42:27.000",
    "date_modified": "2023-09-21T17:42:27.000",
    "request_status": "Pending",
    "responsible_agency": "Department of Code Enforcement",
    "final_address": "1226 Napoleon Ave",
    "address_councildis": "B",
    "status": "Pending",
    "rowid": "1037288",
    "final_x": "3670806.91867",
    "final_y": "520018.438328",
    "longitude": "-90.10222551244391",
    "latitude": "29.924190455578582",
    "geocoded_column": {
      "latitude": "29.924190455578582",
      "longitude": "-90.10222551244391"
    }
  },
  {
    "service_request": "2023-1037287",
    "request_type": "Trash/Recycling",
    "request_reason": "Request a Large Item Pick Up",
    "date_created": "2023-09-21T17:36:30.000",
    "date_modified": "2023-09-21T17:36:31.000",
    "request_status": "Pending",
    "responsible_agency": "Department of Sanitation",
    "final_address": "4964 Pecan St",
    "address_councildis": "E",
    "status": "Assigned to Contractor",
    "contractor": "Waste Pro",
    "rowid": "1037287",
    "final_x": "3701612.04247",
    "final_y": "555512.931417",
    "longitude": "-90.00368503968893",
    "latitude": "30.020841408642813",
    "geocoded_column": {
      "latitude": "30.020841408642813",
      "longitude": "-90.00368503968893"
    }
  },
  {
    "service_request": "2023-1037286",
    "request_type": "Abandoned Vehicles",
    "request_reason": "Abandoned/Junk Vehicles",
    "date_created": "2023-09-21T17:35:56.000",
    "date_modified": "2023-09-21T17:35:56.000",
    "request_status": "Pending",
    "responsible_agency": "Department of Public Works",
    "final_address": "2039 Sixth St",
    "address_councildis": "B",
    "status": "Pending",
    "rowid": "1037286",
    "final_x": "3674559.11304",
    "final_y": "523729.005499",
    "longitude": "-90.09025406329164",
    "latitude": "29.934281930757383",
    "geocoded_column": {
      "latitude": "29.934281930757383",
      "longitude": "-90.09025406329164"
    }
  },
  {
    "service_request": "2023-1037285",
    "request_type": "Trash/Recycling",
    "request_reason": "MIssed Recycling Pick-Up",
    "date_created": "2023-09-21T17:32:53.000",
    "date_modified": "2023-09-21T17:32:53.000",
    "request_status": "Pending",
    "responsible_agency": "Department of Sanitation",
    "final_address": "4424 LaSalle St",
    "address_councildis": "B",
    "status": "Assigned to Contractor",
    "contractor": "Richards Disposal",
    "rowid": "1037285",
    "final_x": "3670278.55156",
    "final_y": "523631.766075",
    "longitude": "-90.10377099263765",
    "latitude": "29.934141549429913",
    "geocoded_column": {
      "latitude": "29.934141549429913",
      "longitude": "-90.10377099263765"
    }
  },
  {
    "service_request": "2023-1037284",
    "request_type": "Trash/Recycling",
    "request_reason": "Request a Large Item Pick Up",
    "date_created": "2023-09-21T17:29:06.000",
    "date_modified": "2023-09-21T17:29:07.000",
    "request_status": "Pending",
    "responsible_agency": "Department of Sanitation",
    "final_address": "4201 S Galvez St, New Orleans, Louisiana, 70125",
    "address_councildis": "B",
    "status": "Assigned to Contractor",
    "contractor": "Richards Disposal",
    "rowid": "1037284",
    "final_x": "3670887.42708",
    "final_y": "527663.896703",
    "longitude": "-90.10171196699869",
    "latitude": "29.945210621370105",
    "geocoded_column": {
      "latitude": "29.945210621370105",
      "longitude": "-90.10171196699869"
    }
  },
  {
    "service_request": "2023-1037283",
    "request_type": "Property Maintenance",
    "request_reason": "Property Maintenance",
    "date_created": "2023-09-21T17:27:08.000",
    "date_modified": "2023-09-21T17:27:08.000",
    "request_status": "Pending",
    "responsible_agency": "Department of Code Enforcement",
    "final_address": "3602 Franklin Ave",
    "address_councildis": "D",
    "status": "Pending",
    "rowid": "1037283",
    "final_x": "3687082.5341",
    "final_y": "546100.729744",
    "longitude": "-90.0499270509091",
    "latitude": "29.99541688284578",
    "geocoded_column": {
      "latitude": "29.99541688284578",
      "longitude": "-90.0499270509091"
    }
  },
  {
    "service_request": "2023-1037282",
    "request_type": "Trash/Recycling",
    "request_reason": "Request a Large Item Pick Up",
    "date_created": "2023-09-21T17:01:28.000",
    "date_modified": "2023-09-21T17:01:29.000",
    "request_status": "Pending",
    "responsible_agency": "Department of Sanitation",
    "final_address": "1126 S Genois St",
    "address_councildis": "B",
    "status": "Assigned to Contractor",
    "contractor": "Richards Disposal",
    "rowid": "1037282",
    "final_x": "3669574.75335",
    "final_y": "532871.584004",
    "longitude": "-90.10568033969645",
    "latitude": "29.9595687839319",
    "geocoded_column": {
      "latitude": "29.9595687839319",
      "longitude": "-90.10568033969645"
    }
  },
  {
    "service_request": "2023-1037281",
    "request_type": "Trash/Recycling",
    "request_reason": "Missed Trash Pick-Up",
    "date_created": "2023-09-21T17:01:19.000",
    "date_modified": "2023-09-21T17:01:20.000",
    "request_status": "Pending",
    "responsible_agency": "Department of Sanitation",
    "final_address": "6433 N Miro St",
    "address_councildis": "E",
    "status": "Assigned to Contractor",
    "contractor": "Waste Pro",
    "rowid": "1037281",
    "final_x": "3702263.31287",
    "final_y": "536707.466183",
    "longitude": "-90.00231745215099",
    "latitude": "29.969112593648134",
    "geocoded_column": {
      "latitude": "29.969112593648134",
      "longitude": "-90.00231745215099"
    }
  },
  {
    "service_request": "2023-1037280",
    "request_type": "Roads/Drainage",
    "request_reason": "Street Subsidence (Sinking)",
    "date_created": "2023-09-21T17:00:18.000",
    "date_modified": "2023-09-21T17:00:19.000",
    "request_status": "Pending",
    "responsible_agency": "Department of Public Works",
    "final_address": "N CARROLLTON AVE & ORLEANS AVE",
    "address_councildis": "A",
    "status": "Pending",
    "rowid": "1037280",
    "final_x": "3672801.3",
    "final_y": "540117.48",
    "longitude": "-90.09524440248875",
    "latitude": "29.979397105626184",
    "geocoded_column": {
      "latitude": "29.979397105626184",
      "longitude": "-90.09524440248875"
    }
  },
  {
    "service_request": "2023-1037279",
    "request_type": "Traffic Signals/Signs/Striping/Streetlights",
    "request_reason": "Street Name Sign Damaged or Missing",
    "date_created": "2023-09-21T16:56:25.000",
    "date_modified": "2023-09-21T16:56:58.000",
    "request_status": "Pending",
    "responsible_agency": "Department of Public Works",
    "final_address": "HICKORY ST & BROADWAY ST",
    "address_councildis": "A",
    "status": "Pending",
    "rowid": "1037279",
    "final_x": "3665366.2",
    "final_y": "528256.08",
    "longitude": "-90.11912447637624",
    "latitude": "29.947000960586152",
    "geocoded_column": {
      "latitude": "29.947000960586152",
      "longitude": "-90.11912447637624"
    }
  },
  {
    "service_request": "2023-1037278",
    "request_type": "Trash/Recycling",
    "request_reason": "Replace Trash Cart",
    "date_created": "2023-09-21T16:55:03.000",
    "date_modified": "2023-09-21T16:55:04.000",
    "request_status": "Pending",
    "responsible_agency": "Department of Sanitation",
    "final_address": "11121 Zenith St",
    "address_councildis": "E",
    "status": "Assigned to Contractor",
    "contractor": "Waste Pro",
    "rowid": "1037278",
    "final_x": "3711103.29195",
    "final_y": "565825.517411",
    "longitude": "-89.97330900189193",
    "latitude": "30.048890664492923",
    "geocoded_column": {
      "latitude": "30.048890664492923",
      "longitude": "-89.97330900189193"
    }
  },
  {
    "service_request": "2023-1037277",
    "request_type": "Trash/Recycling",
    "request_reason": "MIssed Recycling Pick-Up",
    "date_created": "2023-09-21T16:54:38.000",
    "date_modified": "2023-09-21T16:54:39.000",
    "request_status": "Pending",
    "responsible_agency": "Department of Sanitation",
    "final_address": "1826 Gordon St",
    "address_councildis": "E",
    "status": "Assigned to Contractor",
    "contractor": "Waste Pro",
    "rowid": "1037277",
    "final_x": "3700157.03632",
    "final_y": "536170.949127",
    "longitude": "-90.00898876247122",
    "latitude": "29.96770447158785",
    "geocoded_column": {
      "latitude": "29.96770447158785",
      "longitude": "-90.00898876247122"
    }
  },
  {
    "service_request": "2023-1037275",
    "request_type": "Trash/Recycling",
    "request_reason": "MIssed Recycling Pick-Up",
    "date_created": "2023-09-21T16:53:57.000",
    "date_modified": "2023-09-21T16:53:58.000",
    "request_status": "Pending",
    "responsible_agency": "Department of Sanitation",
    "final_address": "747 S Genois St",
    "address_councildis": "B",
    "status": "Assigned to Contractor",
    "contractor": "Richards Disposal",
    "rowid": "1037275",
    "final_x": "3670901.85537",
    "final_y": "535018.57031",
    "longitude": "-90.10141675811427",
    "latitude": "29.965433118263814",
    "geocoded_column": {
      "latitude": "29.965433118263814",
      "longitude": "-90.10141675811427"
    }
  },
  {
    "service_request": "2023-1037273",
    "request_type": "Property Maintenance",
    "request_reason": "Property Maintenance",
    "date_created": "2023-09-21T16:52:18.000",
    "date_modified": "2023-09-21T16:52:19.000",
    "request_status": "Pending",
    "responsible_agency": "Department of Code Enforcement",
    "final_address": "2513 St Roch Ave",
    "address_councildis": "D",
    "status": "Pending",
    "rowid": "1037273",
    "final_x": "3686150.50338",
    "final_y": "541717.071884",
    "longitude": "-90.05302596569635",
    "latitude": "29.9833920578199",
    "geocoded_column": {
      "latitude": "29.9833920578199",
      "longitude": "-90.05302596569635"
    }
  },
  {
    "service_request": "2023-1037272",
    "request_type": "Abandoned Vehicles",
    "request_reason": "Abandoned/Junk Vehicles",
    "date_created": "2023-09-21T16:48:52.000",
    "date_modified": "2023-09-21T16:50:50.000",
    "request_status": "Pending",
    "responsible_agency": "Department of Public Works",
    "final_address": "5931 Mandeville St",
    "address_councildis": "D",
    "status": "Pending",
    "rowid": "1037272",
    "final_x": "3684372.32834",
    "final_y": "554917.530712",
    "longitude": "-90.05817836983275",
    "latitude": "30.019743077605092",
    "geocoded_column": {
      "latitude": "30.019743077605092",
      "longitude": "-90.05817836983275"
    }
  },
  {
    "service_request": "2023-1037271",
    "request_type": "Trash/Recycling",
    "request_reason": "Request a Large Item Pick Up",
    "date_created": "2023-09-21T16:44:51.000",
    "date_modified": "2023-09-21T16:50:38.000",
    "request_status": "Pending",
    "responsible_agency": "Department of Sanitation",
    "final_address": "7816 Dogwood Dr",
    "address_councildis": "E",
    "status": "Assigned to Contractor",
    "contractor": "Waste Pro",
    "rowid": "1037271",
    "final_x": "3700991.10212",
    "final_y": "561568.729695",
    "longitude": "-90.00542526823533",
    "latitude": "30.037512312023086",
    "geocoded_column": {
      "latitude": "30.037512312023086",
      "longitude": "-90.00542526823533"
    }
  },
  {
    "service_request": "2023-1037270",
    "request_type": "Trash/Recycling",
    "request_reason": "Missed Trash Pick-Up",
    "date_created": "2023-09-21T16:44:13.000",
    "date_modified": "2023-09-21T16:50:37.000",
    "request_status": "Pending",
    "responsible_agency": "Department of Sanitation",
    "final_address": "1821 Duels St",
    "address_councildis": "D",
    "status": "Assigned to Contractor",
    "contractor": "IV Waste",
    "rowid": "1037270",
    "final_x": "3681721.63042",
    "final_y": "542371.318157",
    "longitude": "-90.06699181365447",
    "latitude": "29.985326331778744",
    "geocoded_column": {
      "latitude": "29.985326331778744",
      "longitude": "-90.06699181365447"
    }
  },
  {
    "service_request": "2023-1037269",
    "request_type": "Trash/Recycling",
    "request_reason": "Missed Trash Pick-Up",
    "date_created": "2023-09-21T16:38:49.000",
    "date_modified": "2023-09-21T16:50:04.000",
    "request_status": "Pending",
    "responsible_agency": "Department of Sanitation",
    "final_address": "1821 Duels St",
    "address_councildis": "D",
    "status": "Assigned to Contractor",
    "contractor": "IV Waste",
    "rowid": "1037269",
    "final_x": "3681721.63042",
    "final_y": "542371.318157",
    "longitude": "-90.06699181365447",
    "latitude": "29.985326331778744",
    "geocoded_column": {
      "latitude": "29.985326331778744",
      "longitude": "-90.06699181365447"
    }
  },
  {
    "service_request": "2023-1037268",
    "request_type": "Trash/Recycling",
    "request_reason": "Replace Trash Cart",
    "date_created": "2023-09-21T16:36:00.000",
    "date_modified": "2023-09-21T16:46:03.000",
    "request_status": "Pending",
    "responsible_agency": "Department of Sanitation",
    "final_address": "1824 Sixth St",
    "address_councildis": "B",
    "status": "Assigned to Contractor",
    "contractor": "Richards Disposal",
    "rowid": "1037268",
    "final_x": "3674947.77614",
    "final_y": "523024.245179",
    "longitude": "-90.08905122496854",
    "latitude": "29.932332469565765",
    "geocoded_column": {
      "latitude": "29.932332469565765",
      "longitude": "-90.08905122496854"
    }
  },
  {
    "service_request": "2023-1037267",
    "request_type": "Trash/Recycling",
    "request_reason": "Order Recycling Cart",
    "date_created": "2023-09-21T16:34:22.000",
    "date_modified": "2023-09-21T16:43:16.000",
    "request_status": "Pending",
    "responsible_agency": "Department of Sanitation",
    "final_address": "1309 S Salcedo St",
    "address_councildis": "B",
    "status": "Pending",
    "rowid": "1037267",
    "final_x": "3670771.03419",
    "final_y": "531466.265667",
    "longitude": "-90.10195044152151",
    "latitude": "29.955669327192954",
    "geocoded_column": {
      "latitude": "29.955669327192954",
      "longitude": "-90.10195044152151"
    }
  },
  {
    "service_request": "2023-1037266",
    "request_type": "Trash/Recycling",
    "request_reason": "Order Trash Cart",
    "date_created": "2023-09-21T16:34:11.000",
    "date_modified": "2023-09-21T16:43:08.000",
    "request_status": "Pending",
    "responsible_agency": "Department of Sanitation",
    "final_address": "1309 S Salcedo St",
    "address_councildis": "B",
    "status": "Assigned to Contractor",
    "contractor": "Richards Disposal",
    "rowid": "1037266",
    "final_x": "3670771.03419",
    "final_y": "531466.265667",
    "longitude": "-90.10195044152151",
    "latitude": "29.955669327192954",
    "geocoded_column": {
      "latitude": "29.955669327192954",
      "longitude": "-90.10195044152151"
    }
  },
  {
    "service_request": "2023-1037265",
    "request_type": "Property Maintenance",
    "request_reason": "Property Maintenance",
    "date_created": "2023-09-21T16:26:26.000",
    "date_modified": "2023-09-21T16:32:28.000",
    "request_status": "Pending",
    "responsible_agency": "Department of Code Enforcement",
    "final_address": "10219 Pressburg St",
    "address_councildis": "E",
    "status": "Pending",
    "rowid": "1037265",
    "final_x": "3713200.98373",
    "final_y": "557265.083035",
    "longitude": "-89.96700173596885",
    "latitude": "30.02528427407325",
    "geocoded_column": {
      "latitude": "30.02528427407325",
      "longitude": "-89.96700173596885"
    }
  },
  {
    "service_request": "2023-1037264",
    "request_type": "Property Maintenance",
    "request_reason": "Property Maintenance",
    "date_created": "2023-09-21T16:21:28.000",
    "date_modified": "2023-09-21T16:21:28.000",
    "request_status": "Pending",
    "responsible_agency": "Department of Code Enforcement",
    "final_address": "1208 Leboeuf St",
    "address_councildis": "C",
    "status": "Pending",
    "rowid": "1037264",
    "final_x": "3689771.00438",
    "final_y": "527014.714558",
    "longitude": "-90.04211386195452",
    "latitude": "29.94285397676744",
    "geocoded_column": {
      "latitude": "29.94285397676744",
      "longitude": "-90.04211386195452"
    }
  },
  {
    "service_request": "2023-1037263",
    "request_type": "Property Maintenance",
    "request_reason": "Property Maintenance",
    "date_created": "2023-09-21T16:20:52.000",
    "date_modified": "2023-09-21T16:20:52.000",
    "request_status": "Pending",
    "responsible_agency": "Department of Code Enforcement",
    "final_address": "1208 Leboeuf St",
    "address_councildis": "C",
    "status": "Pending",
    "rowid": "1037263",
    "final_x": "3689771.00438",
    "final_y": "527014.714558",
    "longitude": "-90.04211386195452",
    "latitude": "29.94285397676744",
    "geocoded_column": {
      "latitude": "29.94285397676744",
      "longitude": "-90.04211386195452"
    }
  },
  {
    "service_request": "2023-1037262",
    "request_type": "Abandoned Vehicles",
    "request_reason": "Abandoned/Junk Vehicles",
    "date_created": "2023-09-21T16:19:19.000",
    "date_modified": "2023-09-21T16:19:19.000",
    "request_status": "Pending",
    "responsible_agency": "Department of Public Works",
    "final_address": "1708 S Rampart St",
    "address_councildis": "B",
    "status": "Pending",
    "rowid": "1037262",
    "final_x": "3677410.83637",
    "final_y": "525823.498557",
    "longitude": "-90.08117899932776",
    "latitude": "29.93995572268441",
    "geocoded_column": {
      "latitude": "29.93995572268441",
      "longitude": "-90.08117899932776"
    }
  },
  {
    "service_request": "2023-1037261",
    "request_type": "Trash/Recycling",
    "request_reason": "Missed Trash Pick-Up",
    "date_created": "2023-09-21T16:18:34.000",
    "date_modified": "2023-09-21T16:20:24.000",
    "request_status": "Pending",
    "responsible_agency": "Department of Sanitation",
    "final_address": "1601 Mandeville St",
    "address_councildis": "D",
    "status": "Assigned to Contractor",
    "contractor": "IV Waste",
    "rowid": "1037261",
    "final_x": "3685659.35785",
    "final_y": "538242.584841",
    "longitude": "-90.05469971763027",
    "latitude": "29.973853520802738",
    "geocoded_column": {
      "latitude": "29.973853520802738",
      "longitude": "-90.05469971763027"
    }
  },
  {
    "service_request": "2023-1037260",
    "request_type": "Trash/Recycling",
    "request_reason": "Replace Recycling Cart",
    "date_created": "2023-09-21T16:15:04.000",
    "date_modified": "2023-09-21T16:15:04.000",
    "request_status": "Pending",
    "responsible_agency": "Department of Sanitation",
    "final_address": "506 Flood St",
    "address_councildis": "E",
    "status": "Pending",
    "rowid": "1037260",
    "final_x": "3697098.09687",
    "final_y": "531768.902019",
    "longitude": "-90.01880840318745",
    "latitude": "29.955697262636836",
    "geocoded_column": {
      "latitude": "29.955697262636836",
      "longitude": "-90.01880840318745"
    }
  },
  {
    "service_request": "2023-1037259",
    "request_type": "Trash/Recycling",
    "request_reason": "Missed Trash Pick-Up",
    "date_created": "2023-09-21T16:14:03.000",
    "date_modified": "2023-09-21T16:14:04.000",
    "request_status": "Pending",
    "responsible_agency": "Department of Sanitation",
    "final_address": "1472 N Derbigny St",
    "address_councildis": "D",
    "status": "Assigned to Contractor",
    "contractor": "IV Waste",
    "rowid": "1037259",
    "final_x": "3681394.85448",
    "final_y": "537299.292552",
    "longitude": "-90.06820084507773",
    "latitude": "29.971389952415688",
    "geocoded_column": {
      "latitude": "29.971389952415688",
      "longitude": "-90.06820084507773"
    }
  },
  {
    "service_request": "2023-1037258",
    "request_type": "Trash/Recycling",
    "request_reason": "Missed Trash Pick-Up",
    "date_created": "2023-09-21T16:12:01.000",
    "date_modified": "2023-09-21T16:12:02.000",
    "request_status": "Pending",
    "responsible_agency": "Department of Sanitation",
    "final_address": "1300 Valence St",
    "address_councildis": "B",
    "status": "Assigned to Contractor",
    "contractor": "Richards Disposal",
    "rowid": "1037258",
    "final_x": "3669721.03546",
    "final_y": "519995.171",
    "longitude": "-90.10565406197341",
    "latitude": "29.924158513333307",
    "geocoded_column": {
      "latitude": "29.924158513333307",
      "longitude": "-90.10565406197341"
    }
  },
  {
    "service_request": "2023-1037257",
    "request_type": "Roads/Drainage",
    "request_reason": "Pothole",
    "date_created": "2023-09-21T16:07:52.000",
    "date_modified": "2023-09-21T16:07:52.000",
    "request_status": "Pending",
    "responsible_agency": "Department of Public Works",
    "final_address": "1582 Henry Clay Ave",
    "address_councildis": "A",
    "status": "Pending",
    "rowid": "1037257",
    "final_x": "3664965.95636",
    "final_y": "522812.780283",
    "longitude": "-90.1205701026709",
    "latitude": "29.932045281635194",
    "geocoded_column": {
      "latitude": "29.932045281635194",
      "longitude": "-90.1205701026709"
    }
  },
  {
    "service_request": "2023-1037256",
    "request_type": "Trash/Recycling",
    "request_reason": "Request a Large Item Pick Up",
    "date_created": "2023-09-21T16:04:24.000",
    "date_modified": "2023-09-21T16:04:25.000",
    "request_status": "Pending",
    "responsible_agency": "Department of Sanitation",
    "final_address": "1803 St Roch Ave",
    "address_councildis": "D",
    "status": "Assigned to Contractor",
    "contractor": "IV Waste",
    "rowid": "1037256",
    "final_x": "3686488.36527",
    "final_y": "539059.334858",
    "longitude": "-90.05205269119415",
    "latitude": "29.97607383414975",
    "geocoded_column": {
      "latitude": "29.97607383414975",
      "longitude": "-90.05205269119415"
    }
  },
  {
    "service_request": "2023-1037255",
    "request_type": "Roads/Drainage",
    "request_reason": "Pothole",
    "date_created": "2023-09-21T16:04:16.000",
    "date_modified": "2023-09-21T16:04:16.000",
    "request_status": "Pending",
    "responsible_agency": "Department of Public Works",
    "final_address": "1234 Henry Clay Ave",
    "address_councildis": "A",
    "status": "Pending",
    "rowid": "1037255",
    "final_x": "3664327.06445",
    "final_y": "521120.367609",
    "longitude": "-90.12264347982506",
    "latitude": "29.92741025864685",
    "geocoded_column": {
      "latitude": "29.92741025864685",
      "longitude": "-90.12264347982506"
    }
  },
  {
    "service_request": "2023-1037254",
    "request_type": "Parks & Parkways",
    "request_reason": "Request Tree Service (Right of Way/Public Property)",
    "date_created": "2023-09-21T16:00:24.000",
    "date_modified": "2023-09-21T16:00:25.000",
    "request_status": "Pending",
    "responsible_agency": "Department of Parks & Parkway",
    "final_address": "6953 E Laverne St",
    "address_councildis": "D",
    "status": "Pending",
    "rowid": "1037254",
    "final_x": "3697230.82871",
    "final_y": "556916.693338",
    "longitude": "-90.01747738645376",
    "latitude": "30.02484028411258",
    "geocoded_column": {
      "latitude": "30.02484028411258",
      "longitude": "-90.01747738645376"
    }
  },
  {
    "service_request": "2023-1037253",
    "request_type": "Trash/Recycling",
    "request_reason": "MIssed Recycling Pick-Up",
    "date_created": "2023-09-21T15:57:05.000",
    "date_modified": "2023-09-21T15:57:06.000",
    "request_status": "Pending",
    "responsible_agency": "Department of Sanitation",
    "final_address": "3218 Milan St",
    "address_councildis": "B",
    "status": "Assigned to Contractor",
    "contractor": "Richards Disposal",
    "rowid": "1037253",
    "final_x": "3670952.24609",
    "final_y": "526820.910398",
    "longitude": "-90.10153592486303",
    "latitude": "29.942890767984302",
    "geocoded_column": {
      "latitude": "29.942890767984302",
      "longitude": "-90.10153592486303"
    }
  },
  {
    "service_request": "2023-1037252",
    "request_type": "Trash/Recycling",
    "request_reason": "Request a Large Item Pick Up",
    "date_created": "2023-09-21T15:54:26.000",
    "date_modified": "2023-09-21T15:54:28.000",
    "request_status": "Pending",
    "responsible_agency": "Department of Sanitation",
    "final_address": "5524 Elysian Fields Ave",
    "address_councildis": "D",
    "status": "Assigned to Contractor",
    "contractor": "IV Waste",
    "rowid": "1037252",
    "final_x": "3683480.33698",
    "final_y": "553226.099543",
    "longitude": "-90.06105610904731",
    "latitude": "30.01511952542559",
    "geocoded_column": {
      "latitude": "30.01511952542559",
      "longitude": "-90.06105610904731"
    }
  },
  {
    "service_request": "2023-1037251",
    "request_type": "Property Maintenance",
    "request_reason": "Property Maintenance",
    "date_created": "2023-09-21T15:52:49.000",
    "date_modified": "2023-09-21T15:52:49.000",
    "request_status": "Pending",
    "responsible_agency": "Department of Code Enforcement",
    "final_address": "1128 Leboeuf St",
    "address_councildis": "C",
    "status": "Pending",
    "rowid": "1037251",
    "final_x": "3689785.34774",
    "final_y": "527147.528447",
    "longitude": "-90.0420638512203",
    "latitude": "29.94321872518187",
    "geocoded_column": {
      "latitude": "29.94321872518187",
      "longitude": "-90.0420638512203"
    }
  },
  {
    "service_request": "2023-1037250",
    "request_type": "Trash/Recycling",
    "request_reason": "Request a Large Item Pick Up",
    "date_created": "2023-09-21T15:48:26.000",
    "date_modified": "2023-09-21T15:48:27.000",
    "request_status": "Pending",
    "responsible_agency": "Department of Sanitation",
    "final_address": "4949 Rosalia Dr",
    "address_councildis": "E",
    "status": "Assigned to Contractor",
    "contractor": "Waste Pro",
    "rowid": "1037250",
    "final_x": "3711120.29483",
    "final_y": "557220.660955",
    "longitude": "-89.97357799964672",
    "latitude": "30.02523018683168",
    "geocoded_column": {
      "latitude": "30.02523018683168",
      "longitude": "-89.97357799964672"
    }
  },
  {
    "service_request": "2023-1037249",
    "request_type": "Roads/Drainage",
    "request_reason": "Accessibility Ramps, Curbs and Sidewalk Repair",
    "date_created": "2023-09-21T15:47:55.000",
    "date_modified": "2023-09-21T15:47:55.000",
    "request_status": "Pending",
    "responsible_agency": "Department of Public Works",
    "final_address": "5620 Hempstead Rd",
    "address_councildis": "E",
    "status": "Pending",
    "rowid": "1037249",
    "final_x": "3707845.00491",
    "final_y": "557810.545307",
    "longitude": "-89.98390537352702",
    "latitude": "30.026958602420258",
    "geocoded_column": {
      "latitude": "30.026958602420258",
      "longitude": "-89.98390537352702"
    }
  },
  {
    "service_request": "2023-1037248",
    "request_type": "Abandoned Vehicles",
    "request_reason": "Abandoned/Junk Vehicles",
    "date_created": "2023-09-21T15:44:11.000",
    "date_modified": "2023-09-21T15:48:04.000",
    "request_status": "Pending",
    "responsible_agency": "Department of Public Works",
    "final_address": "3917 Ulloa St",
    "address_councildis": "B",
    "status": "Pending",
    "rowid": "1037248",
    "final_x": "3670250.07066",
    "final_y": "536092.327239",
    "longitude": "-90.10343867379792",
    "latitude": "29.96840484300736",
    "geocoded_column": {
      "latitude": "29.96840484300736",
      "longitude": "-90.10343867379792"
    }
  },
  {
    "service_request": "2023-1037247",
    "request_type": "Abandoned Vehicles",
    "request_reason": "Abandoned/Junk Vehicles",
    "date_created": "2023-09-21T15:43:29.000",
    "date_modified": "2023-09-21T15:43:30.000",
    "request_status": "Pending",
    "responsible_agency": "Department of Public Works",
    "final_address": "3501 Desaix Blvd",
    "address_councildis": "D",
    "status": "Pending",
    "rowid": "1037247",
    "final_x": "3676244.63829",
    "final_y": "543772.445134",
    "longitude": "-90.08424312552565",
    "latitude": "29.989344243075653",
    "geocoded_column": {
      "latitude": "29.989344243075653",
      "longitude": "-90.08424312552565"
    }
  },
  {
    "service_request": "2023-1037246",
    "request_type": "Trash/Recycling",
    "request_reason": "Illegal Dumping",
    "date_created": "2023-09-21T15:42:37.000",
    "date_modified": "2023-09-21T15:45:29.000",
    "request_status": "Pending",
    "responsible_agency": "Department of Sanitation",
    "final_address": "7328 Spruce St",
    "address_councildis": "A",
    "status": "Pending",
    "rowid": "1037246",
    "final_x": "3665244.26042",
    "final_y": "529082.727936",
    "longitude": "-90.11948183692415",
    "latitude": "29.949277527865757",
    "geocoded_column": {
      "latitude": "29.949277527865757",
      "longitude": "-90.11948183692415"
    }
  },
  {
    "service_request": "2023-1037245",
    "request_type": "Trash/Recycling",
    "request_reason": "Order Trash Cart",
    "date_created": "2023-09-21T15:39:45.000",
    "date_modified": "2023-09-21T15:39:46.000",
    "request_status": "Pending",
    "responsible_agency": "Department of Sanitation",
    "final_address": "1422 Delery St",
    "address_councildis": "E",
    "status": "Assigned to Contractor",
    "contractor": "Waste Pro",
    "rowid": "1037245",
    "final_x": "3700892.00337",
    "final_y": "534179.974661",
    "longitude": "-90.0067405265908",
    "latitude": "29.962206629532293",
    "geocoded_column": {
      "latitude": "29.962206629532293",
      "longitude": "-90.0067405265908"
    }
  },
  {
    "service_request": "2023-1037244",
    "request_type": "Roads/Drainage",
    "request_reason": "Pothole",
    "date_created": "2023-09-21T15:36:12.000",
    "date_modified": "2023-09-21T15:36:13.000",
    "request_status": "Pending",
    "responsible_agency": "Department of Public Works",
    "final_address": "BARONNE ST & CLIO ST",
    "address_councildis": "B",
    "status": "Pending",
    "rowid": "1037244",
    "final_x": "3678951.6",
    "final_y": "526843.58",
    "longitude": "-90.07627924842852",
    "latitude": "29.94271422175045",
    "geocoded_column": {
      "latitude": "29.94271422175045",
      "longitude": "-90.07627924842852"
    }
  },
  {
    "service_request": "2023-1037243",
    "request_type": "Abandoned Vehicles",
    "request_reason": "Abandoned/Junk Vehicles",
    "date_created": "2023-09-21T15:34:49.000",
    "date_modified": "2023-09-21T15:42:25.000",
    "request_status": "Pending",
    "responsible_agency": "Department of Public Works",
    "final_address": "3917 Ulloa St",
    "address_councildis": "B",
    "status": "Pending",
    "rowid": "1037243",
    "final_x": "3670250.07066",
    "final_y": "536092.327239",
    "longitude": "-90.10343867379792",
    "latitude": "29.96840484300736",
    "geocoded_column": {
      "latitude": "29.96840484300736",
      "longitude": "-90.10343867379792"
    }
  },
  {
    "service_request": "2023-1037242",
    "request_type": "Trash/Recycling",
    "request_reason": "Order Trash Cart",
    "date_created": "2023-09-21T15:34:33.000",
    "date_modified": "2023-09-21T15:34:34.000",
    "request_status": "Pending",
    "responsible_agency": "Department of Sanitation",
    "final_address": "1422 Delery St",
    "address_councildis": "E",
    "status": "Assigned to Contractor",
    "contractor": "Waste Pro",
    "rowid": "1037242",
    "final_x": "3700892.00337",
    "final_y": "534179.974661",
    "longitude": "-90.0067405265908",
    "latitude": "29.962206629532293",
    "geocoded_column": {
      "latitude": "29.962206629532293",
      "longitude": "-90.0067405265908"
    }
  },
  {
    "service_request": "2023-1037241",
    "request_type": "Safety & Permits",
    "request_reason": "Safety & Permits Request (Cyber Incident Back Up)",
    "date_created": "2023-09-21T15:25:14.000",
    "date_modified": "2023-09-21T15:25:15.000",
    "request_status": "Pending",
    "responsible_agency": "Safety and Permits",
    "final_address": "8428 Oleander St",
    "address_councildis": "A",
    "status": "Pending",
    "rowid": "1037241",
    "final_x": "3665789.92045",
    "final_y": "534501.636101",
    "longitude": "-90.11757740045978",
    "latitude": "29.964161849466013",
    "geocoded_column": {
      "latitude": "29.964161849466013",
      "longitude": "-90.11757740045978"
    }
  },
  {
    "service_request": "2023-1037240",
    "request_type": "Trash/Recycling",
    "request_reason": "Return Trash Cart",
    "date_created": "2023-09-21T15:23:41.000",
    "date_modified": "2023-09-21T15:23:42.000",
    "request_status": "Pending",
    "responsible_agency": "Department of Sanitation",
    "final_address": "2716 Aubry St",
    "address_councildis": "D",
    "status": "Assigned to Contractor",
    "contractor": "IV Waste",
    "rowid": "1037240",
    "final_x": "3679322.55035",
    "final_y": "541342.169356",
    "longitude": "-90.07460521854311",
    "latitude": "29.982569216730806",
    "geocoded_column": {
      "latitude": "29.982569216730806",
      "longitude": "-90.07460521854311"
    }
  },
  {
    "service_request": "2023-1037239",
    "request_type": "Trash/Recycling",
    "request_reason": "Request a Large Item Pick Up",
    "date_created": "2023-09-21T15:22:35.000",
    "date_modified": "2023-09-21T15:22:36.000",
    "request_status": "Pending",
    "responsible_agency": "Department of Sanitation",
    "final_address": "201 Ringold St",
    "address_councildis": "A",
    "status": "Assigned to Contractor",
    "contractor": "IV Waste",
    "rowid": "1037239",
    "final_x": "3666896.30317",
    "final_y": "548572.760723",
    "longitude": "-90.11361052017838",
    "latitude": "30.002820359158296",
    "geocoded_column": {
      "latitude": "30.002820359158296",
      "longitude": "-90.11361052017838"
    }
  },
  {
    "service_request": "2023-1037238",
    "request_type": "Trash/Recycling",
    "request_reason": "Order Recycling Cart",
    "date_created": "2023-09-21T15:21:41.000",
    "date_modified": "2023-09-21T15:21:41.000",
    "request_status": "Pending",
    "responsible_agency": "Department of Sanitation",
    "final_address": "2929 Grand-Route St John St",
    "address_councildis": "A",
    "status": "Pending",
    "rowid": "1037238",
    "final_x": "3677470.04661",
    "final_y": "540335.737227",
    "longitude": "-90.08049110531144",
    "latitude": "29.979857702160636",
    "geocoded_column": {
      "latitude": "29.979857702160636",
      "longitude": "-90.08049110531144"
    }
  },
  {
    "service_request": "2023-1037237",
    "request_type": "Trash/Recycling",
    "request_reason": "Order Recycling Cart",
    "date_created": "2023-09-21T15:19:13.000",
    "date_modified": "2023-09-21T15:19:13.000",
    "request_status": "Pending",
    "responsible_agency": "Department of Sanitation",
    "final_address": "2929 Grand-Route St John St",
    "address_councildis": "A",
    "status": "Pending",
    "rowid": "1037237",
    "final_x": "3677470.04661",
    "final_y": "540335.737227",
    "longitude": "-90.08049110531144",
    "latitude": "29.979857702160636",
    "geocoded_column": {
      "latitude": "29.979857702160636",
      "longitude": "-90.08049110531144"
    }
  },
  {
    "service_request": "2023-1037236",
    "request_type": "Trash/Recycling",
    "request_reason": "Replace Trash Cart",
    "date_created": "2023-09-21T15:17:38.000",
    "date_modified": "2023-09-21T15:17:39.000",
    "request_status": "Pending",
    "responsible_agency": "Department of Sanitation",
    "final_address": "5804 Camp St",
    "address_councildis": "A",
    "status": "Assigned to Contractor",
    "contractor": "Richards Disposal",
    "rowid": "1037236",
    "final_x": "3665477.24186",
    "final_y": "519325.768695",
    "longitude": "-90.11907267457083",
    "latitude": "29.92244221008488",
    "geocoded_column": {
      "latitude": "29.92244221008488",
      "longitude": "-90.11907267457083"
    }
  },
  {
    "service_request": "2023-1037235",
    "request_type": "Trash/Recycling",
    "request_reason": "Return Trash Cart",
    "date_created": "2023-09-21T15:13:01.000",
    "date_modified": "2023-09-21T15:13:01.000",
    "request_status": "Pending",
    "responsible_agency": "Department of Sanitation",
    "final_address": "2528 N Roman St",
    "address_councildis": "D",
    "status": "Assigned to Contractor",
    "contractor": "IV Waste",
    "rowid": "1037235",
    "final_x": "3687239.0118",
    "final_y": "539041.907594",
    "longitude": "-90.04968255332341",
    "latitude": "29.976002814081493",
    "geocoded_column": {
      "latitude": "29.976002814081493",
      "longitude": "-90.04968255332341"
    }
  },
  {
    "service_request": "2023-1037234",
    "request_type": "Trash/Recycling",
    "request_reason": "Request a Large Item Pick Up",
    "date_created": "2023-09-21T15:09:39.000",
    "date_modified": "2023-09-21T15:09:40.000",
    "request_status": "Pending",
    "responsible_agency": "Department of Sanitation",
    "final_address": "6696 Bellaire Dr",
    "address_councildis": "A",
    "status": "Assigned to Contractor",
    "contractor": "IV Waste",
    "rowid": "1037234",
    "final_x": "3664516.46573",
    "final_y": "552748.033558",
    "longitude": "-90.12098922950027",
    "latitude": "30.014370353602764",
    "geocoded_column": {
      "latitude": "30.014370353602764",
      "longitude": "-90.12098922950027"
    }
  },
  {
    "service_request": "2023-1037233",
    "request_type": "Trash/Recycling",
    "request_reason": "Request a Large Item Pick Up",
    "date_created": "2023-09-21T15:08:42.000",
    "date_modified": "2023-09-21T15:08:42.000",
    "request_status": "Pending",
    "responsible_agency": "Department of Sanitation",
    "final_address": "5910 Kensington Blvd",
    "address_councildis": "E",
    "status": "Assigned to Contractor",
    "contractor": "Waste Pro",
    "rowid": "1037233",
    "final_x": "3712999.69438",
    "final_y": "561356.262878",
    "longitude": "-89.9674836769525",
    "latitude": "30.036539989284595",
    "geocoded_column": {
      "latitude": "30.036539989284595",
      "longitude": "-89.9674836769525"
    }
  },
  {
    "service_request": "2023-1037232",
    "request_type": "Trash/Recycling",
    "request_reason": "Replace Trash Cart",
    "date_created": "2023-09-21T15:07:55.000",
    "date_modified": "2023-09-21T15:07:56.000",
    "request_status": "Pending",
    "responsible_agency": "Department of Sanitation",
    "final_address": "1621 Lafreniere St",
    "address_councildis": "D",
    "status": "Assigned to Contractor",
    "contractor": "IV Waste",
    "rowid": "1037232",
    "final_x": "3679930.99797",
    "final_y": "545194.411663",
    "longitude": "-90.07254956076208",
    "latitude": "29.993143139956533",
    "geocoded_column": {
      "latitude": "29.993143139956533",
      "longitude": "-90.07254956076208"
    }
  },
  {
    "service_request": "2023-1037230",
    "request_type": "Trash/Recycling",
    "request_reason": "Repair Trash Cart",
    "date_created": "2023-09-21T14:59:29.000",
    "date_modified": "2023-09-21T14:59:30.000",
    "request_status": "Pending",
    "responsible_agency": "Department of Sanitation",
    "final_address": "5757 Wildair Dr",
    "address_councildis": "D",
    "status": "Assigned to Contractor",
    "contractor": "IV Waste",
    "rowid": "1037230",
    "final_x": "3681587.93391",
    "final_y": "554384.420696",
    "longitude": "-90.06699475832366",
    "latitude": "30.018362126853983",
    "geocoded_column": {
      "latitude": "30.018362126853983",
      "longitude": "-90.06699475832366"
    }
  },
  {
    "service_request": "2023-1037229",
    "request_type": "Trash/Recycling",
    "request_reason": "Repair Trash Cart",
    "date_created": "2023-09-21T14:56:35.000",
    "date_modified": "2023-09-21T14:56:35.000",
    "request_status": "Pending",
    "responsible_agency": "Department of Sanitation",
    "final_address": "2334 Annunciation St",
    "address_councildis": "B",
    "status": "Assigned to Contractor",
    "contractor": "Richards Disposal",
    "rowid": "1037229",
    "final_x": "3678984.74971",
    "final_y": "520761.387129",
    "longitude": "-90.07638523644445",
    "latitude": "29.925989192856573",
    "geocoded_column": {
      "latitude": "29.925989192856573",
      "longitude": "-90.07638523644445"
    }
  },
  {
    "service_request": "2023-1037228",
    "request_type": "Trash/Recycling",
    "request_reason": "Order Trash Cart",
    "date_created": "2023-09-21T14:55:33.000",
    "date_modified": "2023-09-21T14:55:34.000",
    "request_status": "Pending",
    "responsible_agency": "Department of Sanitation",
    "final_address": "2332 Annunciation St",
    "address_councildis": "B",
    "status": "Assigned to Contractor",
    "contractor": "Richards Disposal",
    "rowid": "1037228",
    "final_x": "3678999.83413",
    "final_y": "520773.916665",
    "longitude": "-90.07633718546455",
    "latitude": "29.92602318999539",
    "geocoded_column": {
      "latitude": "29.92602318999539",
      "longitude": "-90.07633718546455"
    }
  },
  {
    "service_request": "2023-1037227",
    "request_type": "Trash/Recycling",
    "request_reason": "Request a Large Item Pick Up",
    "date_created": "2023-09-21T14:50:59.000",
    "date_modified": "2023-09-21T14:51:00.000",
    "request_status": "Pending",
    "responsible_agency": "Department of Sanitation",
    "final_address": "4603 Allen St",
    "address_councildis": "D",
    "status": "Assigned to Contractor",
    "contractor": "IV Waste",
    "rowid": "1037227",
    "final_x": "3681760.76949",
    "final_y": "549430.017043",
    "longitude": "-90.06662171600986",
    "latitude": "30.004734057596316",
    "geocoded_column": {
      "latitude": "30.004734057596316",
      "longitude": "-90.06662171600986"
    }
  },
  {
    "service_request": "2023-1037226",
    "request_type": "Abandoned Vehicles",
    "request_reason": "Abandoned/Junk Vehicles",
    "date_created": "2023-09-21T14:46:31.000",
    "date_modified": "2023-09-21T14:46:32.000",
    "request_status": "Pending",
    "responsible_agency": "Department of Public Works",
    "final_address": "817 Joseph St",
    "address_councildis": "A",
    "status": "Pending",
    "rowid": "1037226",
    "final_x": "3666204.29421",
    "final_y": "519088.019831",
    "longitude": "-90.11678562419647",
    "latitude": "29.92176727005227",
    "geocoded_column": {
      "latitude": "29.92176727005227",
      "longitude": "-90.11678562419647"
    }
  },
  {
    "service_request": "2023-1037225",
    "request_type": "Abandoned Vehicles",
    "request_reason": "Abandoned/Junk Vehicles",
    "date_created": "2023-09-21T14:41:41.000",
    "date_modified": "2023-09-21T14:41:41.000",
    "request_status": "Pending",
    "responsible_agency": "Department of Public Works",
    "final_address": "4725 Cartier Ave",
    "address_councildis": "D",
    "status": "Pending",
    "rowid": "1037225",
    "final_x": "3677855.22971",
    "final_y": "550107.094548",
    "longitude": "-90.0789366802513",
    "latitude": "30.006713917724966",
    "geocoded_column": {
      "latitude": "30.006713917724966",
      "longitude": "-90.0789366802513"
    }
  },
  {
    "service_request": "2023-1037224",
    "request_type": "Trash/Recycling",
    "request_reason": "Dead Animal Pick Up",
    "date_created": "2023-09-21T14:37:58.000",
    "date_modified": "2023-09-21T14:38:50.000",
    "request_status": "Pending",
    "responsible_agency": "Department of Sanitation",
    "final_address": "10001 N Interstate 10 Service Rd",
    "address_councildis": "E",
    "status": "Assigned to Contractor",
    "contractor": "Waste Pro",
    "rowid": "1037224",
    "final_x": "3710410.12318",
    "final_y": "561990.881439",
    "longitude": "-89.97564341271013",
    "latitude": "30.038369558096832",
    "geocoded_column": {
      "latitude": "30.038369558096832",
      "longitude": "-89.97564341271013"
    }
  },
  {
    "service_request": "2023-1037223",
    "request_type": "Property Maintenance",
    "request_reason": "Property Maintenance",
    "date_created": "2023-09-21T14:37:32.000",
    "date_modified": "2023-09-21T14:37:32.000",
    "request_status": "Pending",
    "responsible_agency": "Department of Code Enforcement",
    "final_address": "11314 Hayne Blvd",
    "address_councildis": "E",
    "status": "Pending",
    "rowid": "1037223",
    "final_x": "3710525.622",
    "final_y": "567636.124644",
    "longitude": "-89.97506693138888",
    "latitude": "30.053887941295947",
    "geocoded_column": {
      "latitude": "30.053887941295947",
      "longitude": "-89.97506693138888"
    }
  },
  {
    "service_request": "2023-1037222",
    "request_type": "Trash/Recycling",
    "request_reason": "Request a Large Item Pick Up",
    "date_created": "2023-09-21T14:36:48.000",
    "date_modified": "2023-09-21T14:36:48.000",
    "request_status": "Pending",
    "responsible_agency": "Department of Sanitation",
    "final_address": "2059 Stephen Girard St",
    "address_councildis": "D",
    "status": "Assigned to Contractor",
    "contractor": "IV Waste",
    "rowid": "1037222",
    "final_x": "3683068.51746",
    "final_y": "548798.093587",
    "longitude": "-90.06251242647349",
    "latitude": "30.002956679169362",
    "geocoded_column": {
      "latitude": "30.002956679169362",
      "longitude": "-90.06251242647349"
    }
  },
  {
    "service_request": "2023-1037221",
    "request_type": "Trash/Recycling",
    "request_reason": "Order Recycling Cart",
    "date_created": "2023-09-21T14:35:21.000",
    "date_modified": "2023-09-21T14:35:22.000",
    "request_status": "Pending",
    "responsible_agency": "Department of Sanitation",
    "final_address": "721 River Oaks Dr",
    "address_councildis": "C",
    "status": "Pending",
    "rowid": "1037221",
    "final_x": "3701410.63537",
    "final_y": "519575.217464",
    "longitude": "-90.00563716628086",
    "latitude": "29.922032155424308",
    "geocoded_column": {
      "latitude": "29.922032155424308",
      "longitude": "-90.00563716628086"
    }
  },
  {
    "service_request": "2023-1037220",
    "request_type": "Trash/Recycling",
    "request_reason": "Repair Trash Cart",
    "date_created": "2023-09-21T14:34:48.000",
    "date_modified": "2023-09-21T14:34:49.000",
    "request_status": "Pending",
    "responsible_agency": "Department of Sanitation",
    "final_address": "721 River Oaks Dr",
    "address_councildis": "C",
    "status": "Assigned to Contractor",
    "contractor": "Richards Disposal",
    "rowid": "1037220",
    "final_x": "3701410.63537",
    "final_y": "519575.217464",
    "longitude": "-90.00563716628086",
    "latitude": "29.922032155424308",
    "geocoded_column": {
      "latitude": "29.922032155424308",
      "longitude": "-90.00563716628086"
    }
  },
  {
    "service_request": "2023-1037219",
    "request_type": "Trash/Recycling",
    "request_reason": "Request a Large Item Pick Up",
    "date_created": "2023-09-21T14:32:20.000",
    "date_modified": "2023-09-21T14:32:21.000",
    "request_status": "Pending",
    "responsible_agency": "Department of Sanitation",
    "final_address": "1566 Annunciation St",
    "address_councildis": "B",
    "status": "Assigned to Contractor",
    "contractor": "Richards Disposal",
    "rowid": "1037219",
    "final_x": "3680901.9252",
    "final_y": "523083.904187",
    "longitude": "-90.07025246265205",
    "latitude": "29.932317384244527",
    "geocoded_column": {
      "latitude": "29.932317384244527",
      "longitude": "-90.07025246265205"
    }
  },
  {
    "service_request": "2023-1037218",
    "request_type": "Roads/Drainage",
    "request_reason": "Pothole",
    "date_created": "2023-09-21T14:30:11.000",
    "date_modified": "2023-09-21T14:30:11.000",
    "request_status": "Pending",
    "responsible_agency": "Department of Public Works",
    "final_address": "118 City Park Ave",
    "address_councildis": "A",
    "status": "Pending",
    "rowid": "1037218",
    "final_x": "3667651.43245",
    "final_y": "540854.232907",
    "longitude": "-90.1114849682831",
    "latitude": "29.98157492613766",
    "geocoded_column": {
      "latitude": "29.98157492613766",
      "longitude": "-90.1114849682831"
    }
  },
  {
    "service_request": "2023-1037217",
    "request_type": "Trash/Recycling",
    "request_reason": "Order Trash Cart",
    "date_created": "2023-09-21T14:24:00.000",
    "date_modified": "2023-09-21T14:24:00.000",
    "request_status": "Pending",
    "responsible_agency": "Department of Sanitation",
    "final_address": "25478 Chef Menteur Hwy",
    "address_councildis": "E",
    "status": "Assigned to Contractor",
    "contractor": "Waste Pro",
    "rowid": "1037217",
    "final_x": "3780329.67416",
    "final_y": "599575.220674",
    "longitude": "-89.75304859975697",
    "latitude": "30.139244729982753",
    "geocoded_column": {
      "latitude": "30.139244729982753",
      "longitude": "-89.75304859975697"
    }
  },
  {
    "service_request": "2023-1037216",
    "request_type": "Abandoned Vehicles",
    "request_reason": "Abandoned/Junk Vehicles",
    "date_created": "2023-09-21T14:21:21.000",
    "date_modified": "2023-09-21T14:21:21.000",
    "request_status": "Pending",
    "responsible_agency": "Department of Public Works",
    "final_address": "1623 Painters St",
    "address_councildis": "D",
    "status": "Pending",
    "rowid": "1037216",
    "final_x": "3687428.79401",
    "final_y": "538547.266057",
    "longitude": "-90.04910067679349",
    "latitude": "29.974636876563075",
    "geocoded_column": {
      "latitude": "29.974636876563075",
      "longitude": "-90.04910067679349"
    }
  },
  {
    "service_request": "2023-1037215",
    "request_type": "Abandoned Vehicles",
    "request_reason": "Abandoned/Junk Vehicles",
    "date_created": "2023-09-21T14:19:45.000",
    "date_modified": "2023-09-21T14:19:45.000",
    "request_status": "Pending",
    "responsible_agency": "Department of Public Works",
    "final_address": "2725 Philip St, New Orleans, Louisiana, 70113",
    "address_councildis": "B",
    "status": "Pending",
    "rowid": "1037215",
    "final_x": "3674876.68379",
    "final_y": "526838.951294",
    "longitude": "-90.08914489414575",
    "latitude": "29.942823787066498",
    "geocoded_column": {
      "latitude": "29.942823787066498",
      "longitude": "-90.08914489414575"
    }
  },
  {
    "service_request": "2023-1037214",
    "request_type": "Roads/Drainage",
    "request_reason": "Street Subsidence (Sinking)",
    "date_created": "2023-09-21T14:15:56.000",
    "date_modified": "2023-09-21T14:15:56.000",
    "request_status": "Pending",
    "responsible_agency": "Department of Public Works",
    "final_address": "4742 Nighthart St",
    "address_councildis": "E",
    "status": "Pending",
    "rowid": "1037214",
    "final_x": "3716034.7822",
    "final_y": "557032.080666",
    "longitude": "-89.95805630012157",
    "latitude": "30.024550393298313",
    "geocoded_column": {
      "latitude": "30.024550393298313",
      "longitude": "-89.95805630012157"
    }
  },
  {
    "service_request": "2023-1037213",
    "request_type": "Abandoned Vehicles",
    "request_reason": "Abandoned/Junk Vehicles",
    "date_created": "2023-09-21T14:11:57.000",
    "date_modified": "2023-09-21T14:14:03.000",
    "request_status": "Pending",
    "responsible_agency": "Department of Public Works",
    "final_address": "3418 Baronne St",
    "address_councildis": "B",
    "status": "Pending",
    "rowid": "1037213",
    "final_x": "3673746.16232",
    "final_y": "522116.098618",
    "longitude": "-90.09287565119241",
    "latitude": "29.929871184702566",
    "geocoded_column": {
      "latitude": "29.929871184702566",
      "longitude": "-90.09287565119241"
    }
  },
  {
    "service_request": "2023-1037212",
    "request_type": "Trash/Recycling",
    "request_reason": "Request a Large Item Pick Up",
    "date_created": "2023-09-21T14:07:20.000",
    "date_modified": "2023-09-21T14:07:21.000",
    "request_status": "Pending",
    "responsible_agency": "Department of Sanitation",
    "final_address": "13170 Maple Wood Dr",
    "address_councildis": "E",
    "status": "Assigned to Contractor",
    "contractor": "Waste Pro",
    "rowid": "1037212",
    "final_x": "3724269.363",
    "final_y": "563689.346337",
    "longitude": "-89.93177952852204",
    "latitude": "30.042580821579055",
    "geocoded_column": {
      "latitude": "30.042580821579055",
      "longitude": "-89.93177952852204"
    }
  },
  {
    "service_request": "2023-1037211",
    "request_type": "Traffic Signals/Signs/Striping/Streetlights",
    "request_reason": "Street Light Outage/Malfunction",
    "date_created": "2023-09-21T14:06:42.000",
    "date_modified": "2023-09-21T14:06:43.000",
    "request_status": "Pending",
    "responsible_agency": "Department of Public Works",
    "final_address": "13070 N Lake Carmel Dr",
    "address_councildis": "E",
    "status": "Assigned to Contractor",
    "contractor": "Legacy Professional Services",
    "rowid": "1037211",
    "final_x": "3716925.97304",
    "final_y": "568924.622117",
    "longitude": "-89.95478822719032",
    "latitude": "30.05722061382894",
    "geocoded_column": {
      "latitude": "30.05722061382894",
      "longitude": "-89.95478822719032"
    }
  },
  {
    "service_request": "2023-1037210",
    "request_type": "Roads/Drainage",
    "request_reason": "Pothole",
    "date_created": "2023-09-21T14:04:58.000",
    "date_modified": "2023-09-21T14:04:58.000",
    "request_status": "Pending",
    "responsible_agency": "Department of Public Works",
    "final_address": "1836 Valence St",
    "address_councildis": "B",
    "status": "Pending",
    "rowid": "1037210",
    "final_x": "3669548.88276",
    "final_y": "521749.076666",
    "longitude": "-90.10613819354518",
    "latitude": "29.928986265896693",
    "geocoded_column": {
      "latitude": "29.928986265896693",
      "longitude": "-90.10613819354518"
    }
  },
  {
    "service_request": "2023-1037209",
    "request_type": "Trash/Recycling",
    "request_reason": "Request a Large Item Pick Up",
    "date_created": "2023-09-21T13:59:51.000",
    "date_modified": "2023-09-21T13:59:52.000",
    "request_status": "Pending",
    "responsible_agency": "Department of Sanitation",
    "final_address": "1903 Gallier St",
    "address_councildis": "D",
    "status": "Assigned to Contractor",
    "contractor": "IV Waste",
    "rowid": "1037209",
    "final_x": "3691266.21718",
    "final_y": "538674.548233",
    "longitude": "-90.03697664866544",
    "latitude": "29.97486803958168",
    "geocoded_column": {
      "latitude": "29.97486803958168",
      "longitude": "-90.03697664866544"
    }
  },
  {
    "service_request": "2023-1037208",
    "request_type": "Roads/Drainage",
    "request_reason": "Pothole",
    "date_created": "2023-09-21T13:56:40.000",
    "date_modified": "2023-09-21T13:57:05.000",
    "case_close_date": "2023-09-21T08:57:05.000",
    "request_status": "Closed",
    "responsible_agency": "Department of Public Works",
    "final_address": "2089 Caton St",
    "address_councildis": "D",
    "status": "Resolved",
    "rowid": "1037208",
    "final_x": "3683248.57704",
    "final_y": "547551.765394",
    "longitude": "-90.06198727920693",
    "latitude": "29.999524231776096",
    "geocoded_column": {
      "latitude": "29.999524231776096",
      "longitude": "-90.06198727920693"
    }
  },
  {
    "service_request": "2023-1037207",
    "request_type": "Trash/Recycling",
    "request_reason": "Repair Trash Cart",
    "date_created": "2023-09-21T13:47:09.000",
    "date_modified": "2023-09-21T13:47:10.000",
    "request_status": "Pending",
    "responsible_agency": "Department of Sanitation",
    "final_address": "7410 W Laverne St",
    "address_councildis": "D",
    "status": "Assigned to Contractor",
    "contractor": "Waste Pro",
    "rowid": "1037207",
    "final_x": "3695310.68138",
    "final_y": "558006.046363",
    "longitude": "-90.02350535808644",
    "latitude": "30.027896081788107",
    "geocoded_column": {
      "latitude": "30.027896081788107",
      "longitude": "-90.02350535808644"
    }
  },
  {
    "service_request": "2023-1037205",
    "request_type": "Parks & Parkways",
    "request_reason": "Request Tree Service (Right of Way/Public Property)",
    "date_created": "2023-09-21T13:40:10.000",
    "date_modified": "2023-09-21T13:40:10.000",
    "request_status": "Pending",
    "responsible_agency": "Department of Parks & Parkway",
    "final_address": "4703 Music St",
    "address_councildis": "D",
    "status": "Pending",
    "rowid": "1037205",
    "final_x": "3685741.6239",
    "final_y": "550259.823508",
    "longitude": "-90.05401616233287",
    "latitude": "30.006894117732354",
    "geocoded_column": {
      "latitude": "30.006894117732354",
      "longitude": "-90.05401616233287"
    }
  },
  {
    "service_request": "2023-1037204",
    "request_type": "Parks & Parkways",
    "request_reason": "Request Tree Service (Right of Way/Public Property)",
    "date_created": "2023-09-21T13:36:12.000",
    "date_modified": "2023-09-21T13:37:31.000",
    "request_status": "Pending",
    "responsible_agency": "Department of Parks & Parkway",
    "final_address": "4653 Lynhuber Dr",
    "address_councildis": "D",
    "status": "Pending",
    "rowid": "1037204",
    "final_x": "3698137.13757",
    "final_y": "553890.101655",
    "longitude": "-90.01472367121137",
    "latitude": "30.016489658470668",
    "geocoded_column": {
      "latitude": "30.016489658470668",
      "longitude": "-90.01472367121137"
    }
  },
  {
    "service_request": "2023-1037201",
    "request_type": "Trash/Recycling",
    "request_reason": "Request a Large Item Pick Up",
    "date_created": "2023-09-21T13:30:47.000",
    "date_modified": "2023-09-21T13:42:46.000",
    "request_status": "Pending",
    "responsible_agency": "Department of Sanitation",
    "final_address": "New Orleans Neon",
    "address_councildis": "B",
    "status": "Assigned to Contractor",
    "contractor": "Richards Disposal",
    "rowid": "1037201",
    "final_x": "3666965.1986",
    "final_y": "518827.693111",
    "longitude": "-90.1143925067963",
    "latitude": "29.921029218032334",
    "geocoded_column": {
      "latitude": "29.921029218032334",
      "longitude": "-90.1143925067963"
    }
  },
  {
    "service_request": "2023-1037200",
    "request_type": "Trash/Recycling",
    "request_reason": "Dead Animal Pick Up",
    "date_created": "2023-09-21T13:28:30.000",
    "date_modified": "2023-09-21T13:44:05.000",
    "request_status": "Pending",
    "responsible_agency": "Department of Sanitation",
    "final_address": "12951 Ashland Dr",
    "address_councildis": "E",
    "status": "Assigned to Contractor",
    "contractor": "Waste Pro",
    "rowid": "1037200",
    "final_x": "3717302.7804",
    "final_y": "567320.0641",
    "longitude": "-89.95365827331581",
    "latitude": "30.052796271318517",
    "geocoded_column": {
      "latitude": "30.052796271318517",
      "longitude": "-89.95365827331581"
    }
  },
  {
    "service_request": "2023-1037199",
    "request_type": "Trash/Recycling",
    "request_reason": "Replace Recycling Cart",
    "date_created": "2023-09-21T13:28:18.000",
    "date_modified": "2023-09-21T13:28:18.000",
    "request_status": "Pending",
    "responsible_agency": "Department of Sanitation",
    "final_address": "4670 Painters St",
    "address_councildis": "D",
    "status": "Pending",
    "rowid": "1037199",
    "final_x": "3686158.20156",
    "final_y": "550145.834196",
    "longitude": "-90.05270410990099",
    "latitude": "30.006567893323123",
    "geocoded_column": {
      "latitude": "30.006567893323123",
      "longitude": "-90.05270410990099"
    }
  },
  {
    "service_request": "2023-1037198",
    "request_type": "Trash/Recycling",
    "request_reason": "Order Trash Cart",
    "date_created": "2023-09-21T13:28:07.000",
    "date_modified": "2023-09-21T13:28:08.000",
    "request_status": "Pending",
    "responsible_agency": "Department of Sanitation",
    "final_address": "2445 Charbonnet St",
    "address_councildis": "E",
    "status": "Assigned to Contractor",
    "contractor": "Waste Pro",
    "rowid": "1037198",
    "final_x": "3700065.72612",
    "final_y": "538809.251465",
    "longitude": "-90.00918083681147",
    "latitude": "29.974961751697144",
    "geocoded_column": {
      "latitude": "29.974961751697144",
      "longitude": "-90.00918083681147"
    }
  },
  {
    "service_request": "2023-1037197",
    "request_type": "Roads/Drainage",
    "request_reason": "Pothole",
    "date_created": "2023-09-21T13:27:16.000",
    "date_modified": "2023-09-21T13:27:48.000",
    "case_close_date": "2023-09-21T08:27:48.000",
    "request_status": "Closed",
    "responsible_agency": "Department of Public Works",
    "final_address": "600 BLK Piety St",
    "address_councildis": "C",
    "status": "Resolved",
    "rowid": "1037197",
    "final_x": "3689415.73924",
    "final_y": "534121.130692",
    "longitude": "-90.04298285291803",
    "latitude": "29.96240517483518",
    "geocoded_column": {
      "latitude": "29.96240517483518",
      "longitude": "-90.04298285291803"
    }
  },
  {
    "service_request": "2023-1037196",
    "request_type": "Roads/Drainage",
    "request_reason": "Debris in Roadway",
    "date_created": "2023-09-21T13:26:18.000",
    "date_modified": "2023-09-21T13:26:18.000",
    "request_status": "Pending",
    "responsible_agency": "Department of Public Works",
    "final_address": "3063 St Ann St",
    "address_councildis": "A",
    "status": "Pending",
    "rowid": "1037196",
    "final_x": "3675523.53326",
    "final_y": "538327.924745",
    "longitude": "-90.0867079940155",
    "latitude": "29.974395282608587",
    "geocoded_column": {
      "latitude": "29.974395282608587",
      "longitude": "-90.0867079940155"
    }
  },
  {
    "service_request": "2023-1037195",
    "request_type": "Property Maintenance",
    "request_reason": "Property Maintenance",
    "date_created": "2023-09-21T13:25:07.000",
    "date_modified": "2023-09-21T13:25:07.000",
    "request_status": "Pending",
    "responsible_agency": "Department of Code Enforcement",
    "final_address": "4647 Cartier Ave",
    "address_councildis": "D",
    "status": "Pending",
    "rowid": "1037195",
    "final_x": "3677953.77122",
    "final_y": "549825.208212",
    "longitude": "-90.07863511332535",
    "latitude": "30.00593586423977",
    "geocoded_column": {
      "latitude": "30.00593586423977",
      "longitude": "-90.07863511332535"
    }
  },
  {
    "service_request": "2023-1037194",
    "request_type": "Roads/Drainage",
    "request_reason": "Pothole",
    "date_created": "2023-09-21T13:22:37.000",
    "date_modified": "2023-09-21T13:23:07.000",
    "case_close_date": "2023-09-21T08:23:07.000",
    "request_status": "Closed",
    "responsible_agency": "Department of Public Works",
    "final_address": "800 BLK Piety St",
    "address_councildis": "C",
    "status": "Resolved",
    "rowid": "1037194",
    "final_x": "3689593.08895",
    "final_y": "534827.437679",
    "longitude": "-90.04239768093036",
    "latitude": "29.964341779859613",
    "geocoded_column": {
      "latitude": "29.964341779859613",
      "longitude": "-90.04239768093036"
    }
  },
  {
    "service_request": "2023-1037193",
    "request_type": "Trash/Recycling",
    "request_reason": "Missed Trash Pick-Up",
    "date_created": "2023-09-21T13:21:10.000",
    "date_modified": "2023-09-21T13:21:11.000",
    "request_status": "Pending",
    "responsible_agency": "Department of Sanitation",
    "final_address": "1821 Duels St",
    "address_councildis": "D",
    "status": "Assigned to Contractor",
    "contractor": "IV Waste",
    "rowid": "1037193",
    "final_x": "3681721.63042",
    "final_y": "542371.318157",
    "longitude": "-90.06699181365447",
    "latitude": "29.985326331778744",
    "geocoded_column": {
      "latitude": "29.985326331778744",
      "longitude": "-90.06699181365447"
    }
  },
  {
    "service_request": "2023-1037192",
    "request_type": "Trash/Recycling",
    "request_reason": "Request a Large Item Pick Up",
    "date_created": "2023-09-21T13:20:45.000",
    "date_modified": "2023-09-21T13:20:45.000",
    "request_status": "Pending",
    "responsible_agency": "Department of Sanitation",
    "final_address": "2445 Charbonnet St",
    "address_councildis": "E",
    "status": "Assigned to Contractor",
    "contractor": "Waste Pro",
    "rowid": "1037192",
    "final_x": "3700065.72612",
    "final_y": "538809.251465",
    "longitude": "-90.00918083681147",
    "latitude": "29.974961751697144",
    "geocoded_column": {
      "latitude": "29.974961751697144",
      "longitude": "-90.00918083681147"
    }
  },
  {
    "service_request": "2023-1037191",
    "request_type": "Trash/Recycling",
    "request_reason": "Missed Trash Pick-Up",
    "date_created": "2023-09-21T13:19:57.000",
    "date_modified": "2023-09-21T13:21:19.000",
    "request_status": "Pending",
    "responsible_agency": "Department of Sanitation",
    "final_address": "5820 Wright Rd",
    "address_councildis": "E",
    "status": "Assigned to Contractor",
    "contractor": "Waste Pro",
    "rowid": "1037191",
    "final_x": "3714037.02047",
    "final_y": "561271.026846",
    "longitude": "-89.96420876710835",
    "latitude": "30.036271584558637",
    "geocoded_column": {
      "latitude": "30.036271584558637",
      "longitude": "-89.96420876710835"
    }
  },
  {
    "service_request": "2023-1037190",
    "request_type": "Roads/Drainage",
    "request_reason": "Pothole",
    "date_created": "2023-09-21T13:18:44.000",
    "date_modified": "2023-09-21T13:19:12.000",
    "case_close_date": "2023-09-21T08:19:12.000",
    "request_status": "Closed",
    "responsible_agency": "Department of Public Works",
    "final_address": "600 BLK Mazant St",
    "address_councildis": "C",
    "status": "Resolved",
    "rowid": "1037190",
    "final_x": "3691687.75504",
    "final_y": "533556.004854",
    "longitude": "-90.03582838387165",
    "latitude": "29.960780729513026",
    "geocoded_column": {
      "latitude": "29.960780729513026",
      "longitude": "-90.03582838387165"
    }
  },