[
  {
    "service_request": "2024-1099987",
    "request_type": "Trash/Recycling",
    "request_reason": "Missed Trash Pick-Up",
    "date_created": "2024-06-04T23:49:42.000",
    "date_modified": "2024-06-04T23:49:43.000",
    "request_status": "Pending",
    "responsible_agency": "Department of Sanitation",
    "final_address": "136 N Alexander St",
    "address_councildis": "A",
    "status": "Assigned to Contractor",
    "contractor": "IV Waste",
    "rowid": "1099987",
    "final_x": "3670260.14977",
    "final_y": "539439.866442",
    "longitude": "-90.10329335801617",
    "latitude": "29.97760915139891",
    "geocoded_column": {
      "latitude": "29.97760915139891",
      "longitude": "-90.10329335801617"
    }
  },
  {
    "service_request": "2024-1099986",
    "request_type": "Trash/Recycling",
    "request_reason": "Request a Large Item Pick Up",
    "date_created": "2024-06-04T23:20:35.000",
    "date_modified": "2024-06-04T23:20:35.000",
    "request_status": "Pending",
    "responsible_agency": "Department of Sanitation",
    "final_address": "628 8th St, New Orleans, Louisiana, 70115",
    "status": "Assigned to Contractor",
    "rowid": "1099986",
    "longitude": "0.0",
    "latitude": "0.0",
    "geocoded_column": {
      "latitude": "0.0",
      "longitude": "0.0"
    }
  },
  {
    "service_request": "2024-1099985",
    "request_type": "Traffic Signals/Signs/Striping/Streetlights",
    "request_reason": "Traffic Signal Malfunctioning/Damaged",
    "date_created": "2024-06-04T22:21:02.000",
    "date_modified": "2024-06-04T22:21:02.000",
    "request_status": "Pending",
    "responsible_agency": "Department of Public Works",
    "final_address": "1615 L. B. Landry Ave",
    "address_councildis": "C",
    "status": "Pending",
    "rowid": "1099985",
    "final_x": "3689992.87267",
    "final_y": "525457.237181",
    "longitude": "-90.04146881263942",
    "latitude": "29.938564568071993",
    "geocoded_column": {
      "latitude": "29.938564568071993",
      "longitude": "-90.04146881263942"
    }
  },
  {
    "service_request": "2024-1099983",
    "request_type": "Roads/Drainage",
    "request_reason": "Catch Basin - Clogged",
    "date_created": "2024-06-04T22:01:03.000",
    "date_modified": "2024-06-04T22:01:03.000",
    "request_status": "Pending",
    "responsible_agency": "Department of Public Works",
    "final_address": "875 Harrison Ave",
    "address_councildis": "A",
    "status": "Pending",
    "rowid": "1099983",
    "final_x": "3669950.89473",
    "final_y": "549304.567827",
    "longitude": "-90.10393581242522",
    "latitude": "30.00474281353229",
    "geocoded_column": {
      "latitude": "30.00474281353229",
      "longitude": "-90.10393581242522"
    }
  },
  {
    "service_request": "2024-1099982",
    "request_type": "Abandoned Vehicles",
    "request_reason": "Abandoned/Junk Vehicles",
    "date_created": "2024-06-04T21:58:52.000",
    "date_modified": "2024-06-04T21:58:52.000",
    "request_status": "Pending",
    "responsible_agency": "Department of Public Works",
    "final_address": "1734 Amelia St",
    "address_councildis": "B",
    "status": "Pending",
    "rowid": "1099982",
    "final_x": "3672937.68731",
    "final_y": "521811.80473",
    "longitude": "-90.0954382513887",
    "latitude": "29.92905851592285",
    "geocoded_column": {
      "latitude": "29.92905851592285",
      "longitude": "-90.0954382513887"
    }
  },
  {
    "service_request": "2024-1099981",
    "request_type": "Trash/Recycling",
    "request_reason": "Request a Large Item Pick Up",
    "date_created": "2024-06-04T21:51:45.000",
    "date_modified": "2024-06-04T21:51:45.000",
    "request_status": "Pending",
    "responsible_agency": "Department of Sanitation",
    "final_address": "2008 Dumaine St",
    "address_councildis": "D",
    "status": "Assigned to Contractor",
    "contractor": "IV Waste",
    "rowid": "1099981",
    "final_x": "3679253.02939",
    "final_y": "535868.562119",
    "longitude": "-90.07501465462701",
    "latitude": "29.967520784224973",
    "geocoded_column": {
      "latitude": "29.967520784224973",
      "longitude": "-90.07501465462701"
    }
  },
  {
    "service_request": "2024-1099980",
    "request_type": "Trash/Recycling",
    "request_reason": "Request a Large Item Pick Up",
    "date_created": "2024-06-04T21:33:43.000",
    "date_modified": "2024-06-04T21:33:44.000",
    "request_status": "Pending",
    "responsible_agency": "Department of Sanitation",
    "final_address": "4819 Viola St",
    "address_councildis": "E",
    "status": "Assigned to Contractor",
    "contractor": "Waste Pro",
    "rowid": "1099980",
    "final_x": "3703980.07127",
    "final_y": "555714.803161",
    "longitude": "-89.99619537253862",
    "latitude": "30.0213207087184",
    "geocoded_column": {
      "latitude": "30.0213207087184",
      "longitude": "-89.99619537253862"
    }
  },
  {
    "service_request": "2024-1099979",
    "request_type": "Trash/Recycling",
    "request_reason": "Request a Large Item Pick Up",
    "date_created": "2024-06-04T21:33:17.000",
    "date_modified": "2024-06-04T21:33:18.000",
    "request_status": "Pending",
    "responsible_agency": "Department of Sanitation",
    "final_address": "1339 Tennessee St",
    "address_councildis": "E",
    "status": "Assigned to Contractor",
    "contractor": "Waste Pro",
    "rowid": "1099979",
    "final_x": "3696054.26774",
    "final_y": "535322.558022",
    "longitude": "-90.02197600846553",
    "latitude": "29.965501446335917",
    "geocoded_column": {
      "latitude": "29.965501446335917",
      "longitude": "-90.02197600846553"
    }
  },
  {
    "service_request": "2024-1099978",
    "request_type": "Trash/Recycling",
    "request_reason": "Repair Trash Cart",
    "date_created": "2024-06-04T21:27:11.000",
    "date_modified": "2024-06-04T21:27:12.000",
    "request_status": "Pending",
    "responsible_agency": "Department of Sanitation",
    "final_address": "4146 Toulouse St",
    "address_councildis": "A",
    "status": "Assigned to Contractor",
    "contractor": "IV Waste",
    "rowid": "1099978",
    "final_x": "3671879.83073",
    "final_y": "539955.569162",
    "longitude": "-90.09816028653898",
    "latitude": "29.97897925082577",
    "geocoded_column": {
      "latitude": "29.97897925082577",
      "longitude": "-90.09816028653898"
    }
  },
  {
    "service_request": "2024-1099977",
    "request_type": "Trash/Recycling",
    "request_reason": "Replace Recycling Cart",
    "date_created": "2024-06-04T21:25:55.000",
    "date_modified": "2024-06-04T21:25:55.000",
    "request_status": "Pending",
    "responsible_agency": "Department of Sanitation",
    "final_address": "4146 Toulouse St",
    "address_councildis": "A",
    "status": "Pending",
    "rowid": "1099977",
    "final_x": "3671879.83073",
    "final_y": "539955.569162",
    "longitude": "-90.09816028653898",
    "latitude": "29.97897925082577",
    "geocoded_column": {
      "latitude": "29.97897925082577",
      "longitude": "-90.09816028653898"
    }
  },
  {
    "service_request": "2024-1099976",
    "request_type": "Roads/Drainage",
    "request_reason": "Street Flooding / Drainage",
    "date_created": "2024-06-04T21:24:52.000",
    "date_modified": "2024-06-04T21:24:52.000",
    "request_status": "Pending",
    "responsible_agency": "Department of Public Works",
    "final_address": "CROWDER BLVD & I 10 E SERVICE RD",
    "address_councildis": "E",
    "status": "Pending",
    "rowid": "1099976",
    "final_x": "3705013.6",
    "final_y": "558418.88",
    "longitude": "-89.99282977687913",
    "latitude": "30.028722667641926",
    "geocoded_column": {
      "latitude": "30.028722667641926",
      "longitude": "-89.99282977687913"
    }
  },
  {
    "service_request": "2024-1099974",
    "request_type": "Property Maintenance",
    "request_reason": "Property Maintenance",
    "date_created": "2024-06-04T21:20:04.000",
    "date_modified": "2024-06-04T21:20:04.000",
    "request_status": "Pending",
    "responsible_agency": "Department of Code Enforcement",
    "final_address": "4600 Flake Ave",
    "address_councildis": "E",
    "status": "Pending",
    "rowid": "1099974",
    "final_x": "3706145.17745",
    "final_y": "554505.801688",
    "longitude": "-89.98939909735681",
    "latitude": "30.017926773144712",
    "geocoded_column": {
      "latitude": "30.017926773144712",
      "longitude": "-89.98939909735681"
    }
  },
  {
    "service_request": "2024-1099973",
    "request_type": "Property Maintenance",
    "request_reason": "Property Maintenance",
    "date_created": "2024-06-04T21:20:03.000",
    "date_modified": "2024-06-04T21:20:03.000",
    "request_status": "Pending",
    "responsible_agency": "Department of Code Enforcement",
    "final_address": "1345 Tennessee St",
    "address_councildis": "E",
    "status": "Pending",
    "rowid": "1099973",
    "final_x": "3696064.60643",
    "final_y": "535361.446918",
    "longitude": "-90.02194195397513",
    "latitude": "29.965608051632877",
    "geocoded_column": {
      "latitude": "29.965608051632877",
      "longitude": "-90.02194195397513"
    }
  },
  {
    "service_request": "2024-1099972",
    "request_type": "Traffic Signals/Signs/Striping/Streetlights",
    "request_reason": "Street Light Outage/Malfunction",
    "date_created": "2024-06-04T21:19:52.000",
    "date_modified": "2024-06-04T21:19:53.000",
    "request_status": "Pending",
    "responsible_agency": "Department of Public Works",
    "final_address": "ROBERT ST & DANNEEL ST",
    "address_councildis": "B",
    "status": "Assigned to Contractor",
    "contractor": "Legacy Professional Services",
    "rowid": "1099972",
    "final_x": "3668756.8",
    "final_y": "522139.78",
    "longitude": "-90.10862546659267",
    "latitude": "29.930083877757287",
    "geocoded_column": {
      "latitude": "29.930083877757287",
      "longitude": "-90.10862546659267"
    }
  },
  {
    "service_request": "2024-1099971",
    "request_type": "Property Maintenance",
    "request_reason": "Property Maintenance",
    "date_created": "2024-06-04T21:17:24.000",
    "date_modified": "2024-06-04T21:17:24.000",
    "request_status": "Pending",
    "responsible_agency": "Department of Code Enforcement",
    "final_address": "4600 Flake Ave",
    "address_councildis": "E",
    "status": "Pending",
    "rowid": "1099971",
    "final_x": "3706145.17745",
    "final_y": "554505.801688",
    "longitude": "-89.98939909735681",
    "latitude": "30.017926773144712",
    "geocoded_column": {
      "latitude": "30.017926773144712",
      "longitude": "-89.98939909735681"
    }
  },
  {
    "service_request": "2024-1099970",
    "request_type": "Roads/Drainage",
    "request_reason": "Pothole",
    "date_created": "2024-06-04T21:11:57.000",
    "date_modified": "2024-06-04T21:11:57.000",
    "request_status": "Pending",
    "responsible_agency": "Department of Public Works",
    "final_address": "0 BLK Across St",
    "address_councildis": "E",
    "status": "Pending",
    "rowid": "1099970",
    "final_x": "3711887.63918",
    "final_y": "553972.247814",
    "longitude": "-89.97127534652184",
    "latitude": "30.01627326470007",
    "geocoded_column": {
      "latitude": "30.01627326470007",
      "longitude": "-89.97127534652184"
    }
  },
  {
    "service_request": "2024-1099969",
    "request_type": "Trash/Recycling",
    "request_reason": "Request a Large Item Pick Up",
    "date_created": "2024-06-04T20:58:27.000",
    "date_modified": "2024-06-04T20:58:28.000",
    "request_status": "Pending",
    "responsible_agency": "Department of Sanitation",
    "final_address": "3424 Delachaise St",
    "address_councildis": "B",
    "status": "Assigned to Contractor",
    "contractor": "IV Waste",
    "rowid": "1099969",
    "final_x": "3671384.59348",
    "final_y": "527558.604543",
    "longitude": "-90.10014583046076",
    "latitude": "29.94490639913504",
    "geocoded_column": {
      "latitude": "29.94490639913504",
      "longitude": "-90.10014583046076"
    }
  },
  {
    "service_request": "2024-1099968",
    "request_type": "Trash/Recycling",
    "request_reason": "Order Trash Cart",
    "date_created": "2024-06-04T20:46:34.000",
    "date_modified": "2024-06-04T20:46:35.000",
    "request_status": "Pending",
    "responsible_agency": "Department of Sanitation",
    "final_address": "5727 N Villere St",
    "address_councildis": "E",
    "status": "Assigned to Contractor",
    "contractor": "Waste Pro",
    "rowid": "1099968",
    "final_x": "3698892.45226",
    "final_y": "534796.730246",
    "longitude": "-90.01303233346964",
    "latitude": "29.963965989548583",
    "geocoded_column": {
      "latitude": "29.963965989548583",
      "longitude": "-90.01303233346964"
    }
  },
  {
    "service_request": "2024-1099967",
    "request_type": "Traffic Signals/Signs/Striping/Streetlights",
    "request_reason": "Street Light Outage/Malfunction",
    "date_created": "2024-06-04T20:35:18.000",
    "date_modified": "2024-06-04T20:35:18.000",
    "request_status": "Pending",
    "responsible_agency": "Department of Public Works",
    "final_address": "DUFOSSAT ST & BARONNE ST",
    "address_councildis": "B",
    "status": "Assigned to Contractor",
    "contractor": "Legacy Professional Services",
    "rowid": "1099967",
    "final_x": "3668128.2",
    "final_y": "521456.48",
    "longitude": "-90.110632877882",
    "latitude": "29.928223479409695",
    "geocoded_column": {
      "latitude": "29.928223479409695",
      "longitude": "-90.110632877882"
    }
  },
  {
    "service_request": "2024-1099966",
    "request_type": "Traffic Signals/Signs/Striping/Streetlights",
    "request_reason": "Traffic Signal Malfunctioning/Damaged",
    "date_created": "2024-06-04T20:34:06.000",
    "date_modified": "2024-06-04T20:34:06.000",
    "request_status": "Pending",
    "responsible_agency": "Department of Public Works",
    "final_address": "1000 BLK Magazine St",
    "address_councildis": "B",
    "status": "Pending",
    "rowid": "1099966",
    "final_x": "3680852.6796",
    "final_y": "526497.958931",
    "longitude": "-90.07028912357428",
    "latitude": "29.941706395225964",
    "geocoded_column": {
      "latitude": "29.941706395225964",
      "longitude": "-90.07028912357428"
    }
  },
  {
    "service_request": "2024-1099965",
    "request_type": "Trash/Recycling",
    "request_reason": "Replace Trash Cart",
    "date_created": "2024-06-04T20:33:00.000",
    "date_modified": "2024-06-04T20:33:01.000",
    "request_status": "Pending",
    "responsible_agency": "Department of Sanitation",
    "final_address": "1124 St Charles Ave Apt 2A",
    "address_councildis": "B",
    "status": "Assigned to Contractor",
    "contractor": "IV Waste",
    "rowid": "1099965",
    "final_x": "3679894.45135",
    "final_y": "526439.825918",
    "longitude": "-90.0733164629379",
    "latitude": "29.941575557127855",
    "geocoded_column": {
      "latitude": "29.941575557127855",
      "longitude": "-90.0733164629379"
    }
  },
  {
    "service_request": "2024-1099964",
    "request_type": "Traffic Signals/Signs/Striping/Streetlights",
    "request_reason": "Street Light Knocked Down/Leaning",
    "date_created": "2024-06-04T20:27:25.000",
    "date_modified": "2024-06-04T20:27:25.000",
    "request_status": "Pending",
    "responsible_agency": "Department of Public Works",
    "final_address": "7307 St Charles Ave",
    "address_councildis": "A",
    "status": "Pending",
    "contractor": "Legacy Professional Services",
    "rowid": "1099964",
    "final_x": "3662745.12973",
    "final_y": "524994.963581",
    "longitude": "-90.12750856438514",
    "latitude": "29.938110041104068",
    "geocoded_column": {
      "latitude": "29.938110041104068",
      "longitude": "-90.12750856438514"
    }
  },
  {
    "service_request": "2024-1099963",
    "request_type": "Abandoned Vehicles",
    "request_reason": "Abandoned/Junk Vehicles",
    "date_created": "2024-06-04T20:22:59.000",
    "date_modified": "2024-06-04T20:22:59.000",
    "request_status": "Pending",
    "responsible_agency": "Department of Public Works",
    "final_address": "1241 Touro St",
    "address_councildis": "C",
    "status": "Pending",
    "rowid": "1099963",
    "final_x": "3684202.10639",
    "final_y": "536946.747656",
    "longitude": "-90.05934753490229",
    "latitude": "29.97033505188764",
    "geocoded_column": {
      "latitude": "29.97033505188764",
      "longitude": "-90.05934753490229"
    }
  },
  {
    "service_request": "2024-1099962",
    "request_type": "Abandoned Vehicles",
    "request_reason": "Abandoned/Junk Vehicles",
    "date_created": "2024-06-04T20:21:16.000",
    "date_modified": "2024-06-04T20:21:16.000",
    "request_status": "Pending",
    "responsible_agency": "Department of Public Works",
    "final_address": "1611 Urquhart St",
    "address_councildis": "C",
    "status": "Pending",
    "rowid": "1099962",
    "final_x": "3682823.823",
    "final_y": "536954.675336",
    "longitude": "-90.0637000225764",
    "latitude": "29.97039891466931",
    "geocoded_column": {
      "latitude": "29.97039891466931",
      "longitude": "-90.0637000225764"
    }
  },
  {
    "service_request": "2024-1099961",
    "request_type": "Trash/Recycling",
    "request_reason": "Replace Trash Cart",
    "date_created": "2024-06-04T20:03:36.000",
    "date_modified": "2024-06-04T20:03:36.000",
    "request_status": "Pending",
    "responsible_agency": "Department of Sanitation",
    "final_address": "4709 Banks St",
    "address_councildis": "A",
    "status": "Assigned to Contractor",
    "contractor": "IV Waste",
    "rowid": "1099961",
    "final_x": "3668355.41191",
    "final_y": "538997.639178",
    "longitude": "-90.10932410669825",
    "latitude": "29.97644926016694",
    "geocoded_column": {
      "latitude": "29.97644926016694",
      "longitude": "-90.10932410669825"
    }
  },
  {
    "service_request": "2024-1099960",
    "request_type": "Trash/Recycling",
    "request_reason": "Request a Large Item Pick Up",
    "date_created": "2024-06-04T19:25:49.000",
    "date_modified": "2024-06-04T19:25:49.000",
    "request_status": "Pending",
    "responsible_agency": "Department of Sanitation",
    "final_address": "10131 Brookfield Dr",
    "address_councildis": "E",
    "status": "Assigned to Contractor",
    "contractor": "Waste Pro",
    "rowid": "1099960",
    "final_x": "3710024.50206",
    "final_y": "562913.559072",
    "longitude": "-89.97682754564906",
    "latitude": "30.040919111209387",
    "geocoded_column": {
      "latitude": "30.040919111209387",
      "longitude": "-89.97682754564906"
    }
  },
  {
    "service_request": "2024-1099959",
    "request_type": "Trash/Recycling",
    "request_reason": "Order Recycling Cart",
    "date_created": "2024-06-04T19:22:06.000",
    "date_modified": "2024-06-04T19:22:06.000",
    "request_status": "Pending",
    "responsible_agency": "Department of Sanitation",
    "final_address": "1303 N Prieur St",
    "address_councildis": "D",
    "status": "Pending",
    "rowid": "1099959",
    "final_x": "3680259.40104",
    "final_y": "537132.810312",
    "longitude": "-90.07179255679114",
    "latitude": "29.97096660615189",
    "geocoded_column": {
      "latitude": "29.97096660615189",
      "longitude": "-90.07179255679114"
    }
  },
  {
    "service_request": "2024-1099958",
    "request_type": "Parks & Parkways",
    "request_reason": "Request Tree Service (Right of Way/Public Property)",
    "date_created": "2024-06-04T19:20:27.000",
    "date_modified": "2024-06-04T19:20:27.000",
    "request_status": "Pending",
    "responsible_agency": "Department of Parks & Parkway",
    "final_address": "1241 Seventh St",
    "address_councildis": "B",
    "status": "Pending",
    "rowid": "1099958",
    "final_x": "3676015.58241",
    "final_y": "520978.368761",
    "longitude": "-90.08575057768857",
    "latitude": "29.926675047161243",
    "geocoded_column": {
      "latitude": "29.926675047161243",
      "longitude": "-90.08575057768857"
    }
  },
  {
    "service_request": "2024-1099957",
    "request_type": "Trash/Recycling",
    "request_reason": "Request a Large Item Pick Up",
    "date_created": "2024-06-04T19:08:31.000",
    "date_modified": "2024-06-04T19:08:32.000",
    "request_status": "Pending",
    "responsible_agency": "Department of Sanitation",
    "final_address": "1522 Hillary St",
    "address_councildis": "A",
    "status": "Assigned to Contractor",
    "contractor": "IV Waste",
    "rowid": "1099957",
    "final_x": "3664042.71924",
    "final_y": "528124.974783",
    "longitude": "-90.12330758650158",
    "latitude": "29.94667895973529",
    "geocoded_column": {
      "latitude": "29.94667895973529",
      "longitude": "-90.12330758650158"
    }
  },
  {
    "service_request": "2024-1099956",
    "request_type": "Trash/Recycling",
    "request_reason": "Replace Recycling Cart",
    "date_created": "2024-06-04T19:03:21.000",
    "date_modified": "2024-06-04T19:03:21.000",
    "request_status": "Pending",
    "responsible_agency": "Department of Sanitation",
    "final_address": "857 Pontalba St",
    "address_councildis": "A",
    "status": "Pending",
    "rowid": "1099956",
    "final_x": "3669266.7931",
    "final_y": "544409.587535",
    "longitude": "-90.10626263714087",
    "latitude": "29.991303476021002",
    "geocoded_column": {
      "latitude": "29.991303476021002",
      "longitude": "-90.10626263714087"
    }
  },
  {
    "service_request": "2024-1099955",
    "request_type": "Parks & Parkways",
    "request_reason": "Request Tree Service (Right of Way/Public Property)",
    "date_created": "2024-06-04T19:01:25.000",
    "date_modified": "2024-06-04T19:01:25.000",
    "request_status": "Pending",
    "responsible_agency": "Department of Parks & Parkway",
    "final_address": "826 N Dupre St",
    "address_councildis": "A",
    "status": "Pending",
    "rowid": "1099955",
    "final_x": "3676363.84853",
    "final_y": "537916.804873",
    "longitude": "-90.08406823221225",
    "latitude": "29.973239678690767",
    "geocoded_column": {
      "latitude": "29.973239678690767",
      "longitude": "-90.08406823221225"
    }
  },
  {
    "service_request": "2024-1099954",
    "request_type": "Healthy Homes",
    "request_reason": "Healthy Homes",
    "date_created": "2024-06-04T18:54:46.000",
    "date_modified": "2024-06-04T18:54:46.000",
    "request_status": "Pending",
    "responsible_agency": "Department of Code Enforcement",
    "final_address": "6028 Painters St",
    "address_councildis": "D",
    "status": "Pending",
    "rowid": "1099954",
    "final_x": "3685990.64278",
    "final_y": "555391.764313",
    "longitude": "-90.05304829188519",
    "latitude": "30.02099742594037",
    "geocoded_column": {
      "latitude": "30.02099742594037",
      "longitude": "-90.05304829188519"
    }
  },
  {
    "service_request": "2024-1099953",
    "request_type": "Trash/Recycling",
    "request_reason": "Request a Large Item Pick Up",
    "date_created": "2024-06-04T18:47:17.000",
    "date_modified": "2024-06-04T18:47:18.000",
    "request_status": "Pending",
    "responsible_agency": "Department of Sanitation",
    "final_address": "822 Upperline St",
    "address_councildis": "B",
    "status": "Assigned to Contractor",
    "contractor": "IV Waste",
    "rowid": "1099953",
    "final_x": "3668919.53569",
    "final_y": "518414.57343",
    "longitude": "-90.10823746796123",
    "latitude": "29.919835958442476",
    "geocoded_column": {
      "latitude": "29.919835958442476",
      "longitude": "-90.10823746796123"
    }
  },
  {
    "service_request": "2024-1099952",
    "request_type": "Healthy Homes",
    "request_reason": "Healthy Homes",
    "date_created": "2024-06-04T18:45:50.000",
    "date_modified": "2024-06-04T18:45:50.000",
    "request_status": "Pending",
    "responsible_agency": "Department of Code Enforcement",
    "final_address": "6028 Painters St",
    "address_councildis": "D",
    "status": "Pending",
    "rowid": "1099952",
    "final_x": "3685990.64278",
    "final_y": "555391.764313",
    "longitude": "-90.05304829188519",
    "latitude": "30.02099742594037",
    "geocoded_column": {
      "latitude": "30.02099742594037",
      "longitude": "-90.05304829188519"
    }
  },
  {
    "service_request": "2024-1099951",
    "request_type": "Healthy Homes",
    "request_reason": "Healthy Homes",
    "date_created": "2024-06-04T18:36:19.000",
    "date_modified": "2024-06-04T18:36:19.000",
    "request_status": "Pending",
    "responsible_agency": "Department of Code Enforcement",
    "final_address": "6028 Painters St",
    "address_councildis": "D",
    "status": "Pending",
    "rowid": "1099951",
    "final_x": "3685990.64278",
    "final_y": "555391.764313",
    "longitude": "-90.05304829188519",
    "latitude": "30.02099742594037",
    "geocoded_column": {
      "latitude": "30.02099742594037",
      "longitude": "-90.05304829188519"
    }
  },
  {
    "service_request": "2024-1099950",
    "request_type": "Trash/Recycling",
    "request_reason": "Replace Trash Cart",
    "date_created": "2024-06-04T18:24:26.000",
    "date_modified": "2024-06-04T18:24:27.000",
    "request_status": "Pending",
    "responsible_agency": "Department of Sanitation",
    "final_address": "8518 Nelson St",
    "address_councildis": "A",
    "status": "Assigned to Contractor",
    "contractor": "IV Waste",
    "rowid": "1099950",
    "final_x": "3663913.28007",
    "final_y": "532885.253572",
    "longitude": "-90.12355758875924",
    "latitude": "29.959771942779767",
    "geocoded_column": {
      "latitude": "29.959771942779767",
      "longitude": "-90.12355758875924"
    }
  },
  {
    "service_request": "2024-1099949",
    "request_type": "Trash/Recycling",
    "request_reason": "Replace Trash Cart",
    "date_created": "2024-06-04T18:03:04.000",
    "date_modified": "2024-06-04T18:03:05.000",
    "request_status": "Pending",
    "responsible_agency": "Department of Sanitation",
    "final_address": "504 S Murat St",
    "address_councildis": "A",
    "status": "Assigned to Contractor",
    "contractor": "IV Waste",
    "rowid": "1099949",
    "final_x": "3668723.52391",
    "final_y": "538043.335881",
    "longitude": "-90.1081937194886",
    "latitude": "29.973814429516555",
    "geocoded_column": {
      "latitude": "29.973814429516555",
      "longitude": "-90.1081937194886"
    }
  },
  {
    "service_request": "2024-1099948",
    "request_type": "Property Maintenance",
    "request_reason": "Property Maintenance",
    "date_created": "2024-06-04T17:52:13.000",
    "date_modified": "2024-06-04T17:52:13.000",
    "request_status": "Pending",
    "responsible_agency": "Department of Code Enforcement",
    "final_address": "13519 N Nemours St",
    "address_councildis": "E",
    "status": "Pending",
    "rowid": "1099948",
    "final_x": "3725673.4359",
    "final_y": "562861.093984",
    "longitude": "-89.9273742839237",
    "latitude": "30.040256173627036",
    "geocoded_column": {
      "latitude": "30.040256173627036",
      "longitude": "-89.9273742839237"
    }
  },
  {
    "service_request": "2024-1099947",
    "request_type": "Trash/Recycling",
    "request_reason": "Order Recycling Cart",
    "date_created": "2024-06-04T17:16:34.000",
    "date_modified": "2024-06-04T17:16:34.000",
    "request_status": "Pending",
    "responsible_agency": "Department of Sanitation",
    "final_address": "2040 Mediamolle Dr",
    "address_councildis": "C",
    "status": "Pending",
    "rowid": "1099947",
    "final_x": "3699295.12413",
    "final_y": "523720.722171",
    "longitude": "-90.01216402944239",
    "latitude": "29.933498099402218",
    "geocoded_column": {
      "latitude": "29.933498099402218",
      "longitude": "-90.01216402944239"
    }
  },
  {
    "service_request": "2024-1099946",
    "request_type": "Property Maintenance",
    "request_reason": "Property Maintenance",
    "date_created": "2024-06-04T17:07:44.000",
    "date_modified": "2024-06-04T17:07:44.000",
    "request_status": "Pending",
    "responsible_agency": "Department of Code Enforcement",
    "final_address": "1800 St Ferdinand St",
    "address_councildis": "D",
    "status": "Pending",
    "rowid": "1099946",
    "final_x": "3688364.3254",
    "final_y": "538975.293194",
    "longitude": "-90.04613086125967",
    "latitude": "29.975784936365606",
    "geocoded_column": {
      "latitude": "29.975784936365606",
      "longitude": "-90.04613086125967"
    }
  },
  {
    "service_request": "2024-1099945",
    "request_type": "Abandoned Vehicles",
    "request_reason": "Abandoned/Junk Vehicles",
    "date_created": "2024-06-04T17:05:56.000",
    "date_modified": "2024-06-04T17:05:56.000",
    "request_status": "Pending",
    "responsible_agency": "Department of Public Works",
    "final_address": "900 BLK Pleasant St",
    "address_councildis": "B",
    "status": "Pending",
    "rowid": "1099945",
    "final_x": "3675802.9689",
    "final_y": "519374.75533",
    "longitude": "-90.08647682594369",
    "latitude": "29.922271991547763",
    "geocoded_column": {
      "latitude": "29.922271991547763",
      "longitude": "-90.08647682594369"
    }
  },
  {
    "service_request": "2024-1099944",
    "request_type": "Trash/Recycling",
    "request_reason": "Illegal Dumping",
    "date_created": "2024-06-04T17:01:03.000",
    "date_modified": "2024-06-04T17:01:04.000",
    "request_status": "Pending",
    "responsible_agency": "Department of Sanitation",
    "final_address": "DOWNMAN RD & CURRAN BLVD",
    "address_councildis": "D",
    "status": "Pending",
    "rowid": "1099944",
    "final_x": "3694594.4",
    "final_y": "558628.48",
    "longitude": "-90.02574630322133",
    "latitude": "30.02963003170184",
    "geocoded_column": {
      "latitude": "30.02963003170184",
      "longitude": "-90.02574630322133"
    }
  },
  {
    "service_request": "2024-1099943",
    "request_type": "Trash/Recycling",
    "request_reason": "Replace Trash Cart",
    "date_created": "2024-06-04T16:54:37.000",
    "date_modified": "2024-06-04T16:54:38.000",
    "request_status": "Pending",
    "responsible_agency": "Department of Sanitation",
    "final_address": "132 S Alexander St",
    "address_councildis": "A",
    "status": "Assigned to Contractor",
    "contractor": "IV Waste",
    "rowid": "1099943",
    "final_x": "3669822.96314",
    "final_y": "538885.273161",
    "longitude": "-90.10469292748947",
    "latitude": "29.97609710446769",
    "geocoded_column": {
      "latitude": "29.97609710446769",
      "longitude": "-90.10469292748947"
    }
  },
  {
    "service_request": "2024-1099941",
    "request_type": "Trash/Recycling",
    "request_reason": "Repair Trash Cart",
    "date_created": "2024-06-04T16:53:31.000",
    "date_modified": "2024-06-04T16:53:31.000",
    "request_status": "Pending",
    "responsible_agency": "Department of Sanitation",
    "final_address": "1207 Webster St",
    "address_councildis": "A",
    "status": "Assigned to Contractor",
    "contractor": "IV Waste",
    "rowid": "1099941",
    "final_x": "3664676.8978",
    "final_y": "520772.017017",
    "longitude": "-90.12155076752987",
    "latitude": "29.926442235813383",
    "geocoded_column": {
      "latitude": "29.926442235813383",
      "longitude": "-90.12155076752987"
    }
  },
  {
    "service_request": "2024-1099940",
    "request_type": "Trash/Recycling",
    "request_reason": "Request a Large Item Pick Up",
    "date_created": "2024-06-04T16:51:20.000",
    "date_modified": "2024-06-04T16:51:20.000",
    "request_status": "Pending",
    "responsible_agency": "Department of Sanitation",
    "final_address": "4909 S Claiborne Ave",
    "address_councildis": "B",
    "status": "Assigned to Contractor",
    "contractor": "IV Waste",
    "rowid": "1099940",
    "final_x": "3669121.30074",
    "final_y": "525989.050109",
    "longitude": "-90.10734477917427",
    "latitude": "29.940657416140287",
    "geocoded_column": {
      "latitude": "29.940657416140287",
      "longitude": "-90.10734477917427"
    }
  },
  {
    "service_request": "2024-1099939",
    "request_type": "Property Maintenance",
    "request_reason": "Property Maintenance",
    "date_created": "2024-06-04T16:51:09.000",
    "date_modified": "2024-06-04T16:57:51.000",
    "request_status": "Pending",
    "responsible_agency": "Department of Code Enforcement",
    "final_address": "7111 W Renaissance Ct",
    "address_councildis": "E",
    "status": "Pending",
    "rowid": "1099939",
    "final_x": "3716810.36997",
    "final_y": "567578.412964",
    "longitude": "-89.95520480600673",
    "latitude": "30.053522917589028",
    "geocoded_column": {
      "latitude": "30.053522917589028",
      "longitude": "-89.95520480600673"
    }
  },
  {
    "service_request": "2024-1099938",
    "request_type": "Property Maintenance",
    "request_reason": "Property Maintenance",
    "date_created": "2024-06-04T16:50:57.000",
    "date_modified": "2024-06-04T16:50:57.000",
    "request_status": "Pending",
    "responsible_agency": "Department of Code Enforcement",
    "final_address": "2319 N Claiborne Ave",
    "address_councildis": "D",
    "status": "Pending",
    "rowid": "1099938",
    "final_x": "3685782.58306",
    "final_y": "538253.249289",
    "longitude": "-90.05431017002725",
    "latitude": "29.973879062790193",
    "geocoded_column": {
      "latitude": "29.973879062790193",
      "longitude": "-90.05431017002725"
    }
  },
  {
    "service_request": "2024-1099936",
    "request_type": "Roads/Drainage",
    "request_reason": "Road Shoulder Repair",
    "date_created": "2024-06-04T16:43:53.000",
    "date_modified": "2024-06-04T16:43:53.000",
    "request_status": "Pending",
    "responsible_agency": "Department of Public Works",
    "final_address": "8120 Sycamore St",
    "address_councildis": "A",
    "status": "Pending",
    "rowid": "1099936",
    "final_x": "3664190.83738",
    "final_y": "531044.240578",
    "longitude": "-90.1227425415519",
    "latitude": "29.954701695780706",
    "geocoded_column": {
      "latitude": "29.954701695780706",
      "longitude": "-90.1227425415519"
    }
  },
  {
    "service_request": "2024-1099935",
    "request_type": "Trash/Recycling",
    "request_reason": "Request a Large Item Pick Up",
    "date_created": "2024-06-04T16:43:46.000",
    "date_modified": "2024-06-04T16:43:46.000",
    "request_status": "Pending",
    "responsible_agency": "Department of Sanitation",
    "final_address": "2817 Calhoun St",
    "address_councildis": "A",
    "status": "Assigned to Contractor",
    "contractor": "IV Waste",
    "rowid": "1099935",
    "final_x": "3666705.71175",
    "final_y": "527058.54035",
    "longitude": "-90.11493532996897",
    "latitude": "29.943669015673265",
    "geocoded_column": {
      "latitude": "29.943669015673265",
      "longitude": "-90.11493532996897"
    }
  },
  {
    "service_request": "2024-1099933",
    "request_type": "Roads/Drainage",
    "request_reason": "Catch Basin - Clogged",
    "date_created": "2024-06-04T16:41:29.000",
    "date_modified": "2024-06-04T16:44:05.000",
    "request_status": "Pending",
    "responsible_agency": "Department of Public Works",
    "final_address": "9 Duckhook Dr",
    "address_councildis": "A",
    "status": "Pending",
    "rowid": "1099933",
    "final_x": "3667293.85447",
    "final_y": "539123.188938",
    "longitude": "-90.11267261452448",
    "latitude": "29.976825617627888",
    "geocoded_column": {
      "latitude": "29.976825617627888",
      "longitude": "-90.11267261452448"
    }
  },
  {
    "service_request": "2024-1099932",
    "request_type": "Roads/Drainage",
    "request_reason": "Catch Basin - Broken/Damage",
    "date_created": "2024-06-04T16:41:07.000",
    "date_modified": "2024-06-04T16:42:45.000",
    "request_status": "Pending",
    "responsible_agency": "Department of Public Works",
    "final_address": "9 Duckhook Dr",
    "address_councildis": "A",
    "status": "Pending",
    "rowid": "1099932",
    "final_x": "3667293.85447",
    "final_y": "539123.188938",
    "longitude": "-90.11267261452448",
    "latitude": "29.976825617627888",
    "geocoded_column": {
      "latitude": "29.976825617627888",
      "longitude": "-90.11267261452448"
    }
  },
  {
    "service_request": "2024-1099931",
    "request_type": "Abandoned Vehicles",
    "request_reason": "Abandoned/Junk Vehicles",
    "date_created": "2024-06-04T16:37:52.000",
    "date_modified": "2024-06-04T16:37:53.000",
    "request_status": "Pending",
    "responsible_agency": "Department of Public Works",
    "final_address": "PARIS AVE & SENATE ST",
    "address_councildis": "D",
    "status": "Pending",
    "rowid": "1099931",
    "final_x": "3679565.6",
    "final_y": "547355.28",
    "longitude": "-90.07362875014523",
    "latitude": "29.99909581347748",
    "geocoded_column": {
      "latitude": "29.99909581347748",
      "longitude": "-90.07362875014523"
    }
  },
  {
    "service_request": "2024-1099929",
    "request_type": "Trash/Recycling",
    "request_reason": "Request a Large Item Pick Up",
    "date_created": "2024-06-04T16:29:44.000",
    "date_modified": "2024-06-04T16:29:45.000",
    "request_status": "Pending",
    "responsible_agency": "Department of Sanitation",
    "final_address": "7441 Bullard Ave",
    "address_councildis": "E",
    "status": "Assigned to Contractor",
    "contractor": "Waste Pro",
    "rowid": "1099929",
    "final_x": "3713830.02239",
    "final_y": "566588.994787",
    "longitude": "-89.96466217506233",
    "latitude": "30.050900645426474",
    "geocoded_column": {
      "latitude": "30.050900645426474",
      "longitude": "-89.96466217506233"
    }
  },
  {
    "service_request": "2024-1099928",
    "request_type": "Property Maintenance",
    "request_reason": "Property Maintenance",
    "date_created": "2024-06-04T16:28:51.000",
    "date_modified": "2024-06-04T16:28:51.000",
    "request_status": "Pending",
    "responsible_agency": "Department of Code Enforcement",
    "final_address": "4435 Allen St",
    "address_councildis": "D",
    "status": "Pending",
    "rowid": "1099928",
    "final_x": "3681779.27964",
    "final_y": "548980.954067",
    "longitude": "-90.06657892265319",
    "latitude": "30.003498732935743",
    "geocoded_column": {
      "latitude": "30.003498732935743",
      "longitude": "-90.06657892265319"
    }
  },
  {
    "service_request": "2024-1099927",
    "request_type": "Trash/Recycling",
    "request_reason": "Request a Large Item Pick Up",
    "date_created": "2024-06-04T16:28:00.000",
    "date_modified": "2024-06-04T16:28:00.000",
    "request_status": "Pending",
    "responsible_agency": "Department of Sanitation",
    "final_address": "3818 Jena St",
    "address_councildis": "B",
    "status": "Assigned to Contractor",
    "contractor": "IV Waste",
    "rowid": "1099927",
    "final_x": "3669630.29454",
    "final_y": "528598.760896",
    "longitude": "-90.10564951624902",
    "latitude": "29.94781828813069",
    "geocoded_column": {
      "latitude": "29.94781828813069",
      "longitude": "-90.10564951624902"
    }
  },
  {
    "service_request": "2024-1099925",
    "request_type": "Trash/Recycling",
    "request_reason": "Missed Trash Pick-Up",
    "date_created": "2024-06-04T16:26:10.000",
    "date_modified": "2024-06-04T16:26:11.000",
    "request_status": "Pending",
    "responsible_agency": "Department of Sanitation",
    "final_address": "9962 E Wheaton Cir",
    "address_councildis": "E",
    "status": "Assigned to Contractor",
    "contractor": "Waste Pro",
    "rowid": "1099925",
    "final_x": "3708750.00849",
    "final_y": "562207.309919",
    "longitude": "-89.98088169222179",
    "latitude": "30.03901863216912",
    "geocoded_column": {
      "latitude": "30.03901863216912",
      "longitude": "-89.98088169222179"
    }
  },
  {
    "service_request": "2024-1099924",
    "request_type": "Trash/Recycling",
    "request_reason": "Request a Large Item Pick Up",
    "date_created": "2024-06-04T16:24:29.000",
    "date_modified": "2024-06-04T16:24:29.000",
    "request_status": "Pending",
    "responsible_agency": "Department of Sanitation",
    "final_address": "318 Socrates St",
    "address_councildis": "C",
    "status": "Assigned to Contractor",
    "contractor": "Richards Disposal",
    "rowid": "1099924",
    "final_x": "3686432.35126",
    "final_y": "526420.178302",
    "longitude": "-90.05267574722942",
    "latitude": "29.941322230042974",
    "geocoded_column": {
      "latitude": "29.941322230042974",
      "longitude": "-90.05267574722942"
    }
  },
  {
    "service_request": "2024-1099923",
    "request_type": "Parks & Parkways",
    "request_reason": "Request Tree Service (Right of Way/Public Property)",
    "date_created": "2024-06-04T16:23:50.000",
    "date_modified": "2024-06-04T16:23:51.000",
    "request_status": "Pending",
    "responsible_agency": "Department of Parks & Parkway",
    "final_address": "4400 BLK S Claiborne Ave",
    "address_councildis": "B",
    "status": "Pending",
    "rowid": "1099923",
    "final_x": "3670138.85457",
    "final_y": "525770.751724",
    "longitude": "-90.10413957297122",
    "latitude": "29.940027190630147",
    "geocoded_column": {
      "latitude": "29.940027190630147",
      "longitude": "-90.10413957297122"
    }
  },
  {
    "service_request": "2024-1099922",
    "request_type": "Traffic Signals/Signs/Striping/Streetlights",
    "request_reason": "Traffic Signal Malfunctioning/Damaged",
    "date_created": "2024-06-04T16:23:09.000",
    "date_modified": "2024-06-04T16:23:09.000",
    "request_status": "Pending",
    "responsible_agency": "Department of Public Works",
    "final_address": "117 W Harrison Ave",
    "address_councildis": "A",
    "status": "Pending",
    "rowid": "1099922",
    "final_x": "3666070.82535",
    "final_y": "549629.694676",
    "longitude": "-90.11618286070382",
    "latitude": "30.005750697132058",
    "geocoded_column": {
      "latitude": "30.005750697132058",
      "longitude": "-90.11618286070382"
    }
  },
  {
    "service_request": "2024-1099921",
    "request_type": "Trash/Recycling",
    "request_reason": "Request a Large Item Pick Up",
    "date_created": "2024-06-04T16:18:13.000",
    "date_modified": "2024-06-04T16:18:42.000",
    "request_status": "Pending",
    "responsible_agency": "Department of Sanitation",
    "final_address": "10122 Hillwood St",
    "address_councildis": "E",
    "status": "Assigned to Contractor",
    "contractor": "Waste Pro",
    "rowid": "1099921",
    "final_x": "3712969.52466",
    "final_y": "556588.69001",
    "longitude": "-89.96775857557999",
    "latitude": "30.023432047225967",
    "geocoded_column": {
      "latitude": "30.023432047225967",
      "longitude": "-89.96775857557999"
    }
  },
  {
    "service_request": "2024-1099920",
    "request_type": "Trash/Recycling",
    "request_reason": "Request a Large Item Pick Up",
    "date_created": "2024-06-04T16:11:55.000",
    "date_modified": "2024-06-04T16:11:55.000",
    "request_status": "Pending",
    "responsible_agency": "Department of Sanitation",
    "final_address": "1710 Kabel Dr",
    "address_councildis": "C",
    "status": "Assigned to Contractor",
    "contractor": "Richards Disposal",
    "rowid": "1099920",
    "final_x": "3700797.55837",
    "final_y": "521505.751225",
    "longitude": "-90.00750186965169",
    "latitude": "29.927359977572575",
    "geocoded_column": {
      "latitude": "29.927359977572575",
      "longitude": "-90.00750186965169"
    }
  },
  {
    "service_request": "2024-1099919",
    "request_type": "Trash/Recycling",
    "request_reason": "Repair Trash Cart",
    "date_created": "2024-06-04T16:09:47.000",
    "date_modified": "2024-06-04T16:09:48.000",
    "request_status": "Pending",
    "responsible_agency": "Department of Sanitation",
    "final_address": "12441 Morrison Rd",
    "address_councildis": "E",
    "status": "Assigned to Contractor",
    "contractor": "Waste Pro",
    "rowid": "1099919",
    "final_x": "3715033.6757",
    "final_y": "567960.433189",
    "longitude": "-89.96080595577186",
    "latitude": "30.05463195240162",
    "geocoded_column": {
      "latitude": "30.05463195240162",
      "longitude": "-89.96080595577186"
    }
  },
  {
    "service_request": "2024-1099918",
    "request_type": "Trash/Recycling",
    "request_reason": "Request a Large Item Pick Up",
    "date_created": "2024-06-04T16:08:32.000",
    "date_modified": "2024-06-04T16:08:33.000",
    "request_status": "Pending",
    "responsible_agency": "Department of Sanitation",
    "final_address": "12441 Morrison Rd",
    "address_councildis": "E",
    "status": "Assigned to Contractor",
    "contractor": "Waste Pro",
    "rowid": "1099918",
    "final_x": "3715033.6757",
    "final_y": "567960.433189",
    "longitude": "-89.96080595577186",
    "latitude": "30.05463195240162",
    "geocoded_column": {
      "latitude": "30.05463195240162",
      "longitude": "-89.96080595577186"
    }
  },
  {
    "service_request": "2024-1099917",
    "request_type": "Abandoned Vehicles",
    "request_reason": "Abandoned/Junk Vehicles",
    "date_created": "2024-06-04T16:08:31.000",
    "date_modified": "2024-06-04T16:08:31.000",
    "request_status": "Pending",
    "responsible_agency": "Department of Public Works",
    "final_address": "10200 Almonaster Ave",
    "address_councildis": "E",
    "status": "Inspected",
    "rowid": "1099917",
    "final_x": "3713684.56383",
    "final_y": "551626.395989",
    "longitude": "-89.96568637555853",
    "latitude": "30.00976423388402",
    "geocoded_column": {
      "latitude": "30.00976423388402",
      "longitude": "-89.96568637555853"
    }
  },
  {
    "service_request": "2024-1099916",
    "request_type": "Trash/Recycling",
    "request_reason": "Request a Large Item Pick Up",
    "date_created": "2024-06-04T16:06:42.000",
    "date_modified": "2024-06-04T16:06:42.000",
    "request_status": "Pending",
    "responsible_agency": "Department of Sanitation",
    "final_address": "7810 Windward Ct",
    "address_councildis": "E",
    "status": "Assigned to Contractor",
    "contractor": "Waste Pro",
    "rowid": "1099916",
    "final_x": "3715320.50802",
    "final_y": "570026.593062",
    "longitude": "-89.95982106980223",
    "latitude": "30.06030359043755",
    "geocoded_column": {
      "latitude": "30.06030359043755",
      "longitude": "-89.95982106980223"
    }
  },
  {
    "service_request": "2024-1099915",
    "request_type": "Trash/Recycling",
    "request_reason": "Request a Large Item Pick Up",
    "date_created": "2024-06-04T16:04:22.000",
    "date_modified": "2024-06-04T16:04:22.000",
    "request_status": "Pending",
    "responsible_agency": "Department of Sanitation",
    "final_address": "1024 Adams St",
    "address_councildis": "A",
    "status": "Assigned to Contractor",
    "contractor": "IV Waste",
    "rowid": "1099915",
    "final_x": "3662686.54944",
    "final_y": "527037.937086",
    "longitude": "-90.12762564002934",
    "latitude": "29.943729263092973",
    "geocoded_column": {
      "latitude": "29.943729263092973",
      "longitude": "-90.12762564002934"
    }
  },
  {
    "service_request": "2024-1099914",
    "request_type": "Trash/Recycling",
    "request_reason": "Request a Large Item Pick Up",
    "date_created": "2024-06-04T15:58:59.000",
    "date_modified": "2024-06-04T15:58:59.000",
    "request_status": "Pending",
    "responsible_agency": "Department of Sanitation",
    "final_address": "2117 Marengo St",
    "address_councildis": "B",
    "status": "Assigned to Contractor",
    "contractor": "IV Waste",
    "rowid": "1099914",
    "final_x": "3671817.26894",
    "final_y": "522926.406395",
    "longitude": "-90.09893729485069",
    "latitude": "29.9321565471654",
    "geocoded_column": {
      "latitude": "29.9321565471654",
      "longitude": "-90.09893729485069"
    }
  },
  {
    "service_request": "2024-1099913",
    "request_type": "Trash/Recycling",
    "request_reason": "Missed Trash Pick-Up",
    "date_created": "2024-06-04T15:57:55.000",
    "date_modified": "2024-06-04T15:57:55.000",
    "request_status": "Pending",
    "responsible_agency": "Department of Sanitation",
    "final_address": "618 N Carrollton Ave",
    "address_councildis": "A",
    "status": "Assigned to Contractor",
    "contractor": "IV Waste",
    "rowid": "1099913",
    "final_x": "3672535.14657",
    "final_y": "539739.944906",
    "longitude": "-90.09609789734962",
    "latitude": "29.978366917595974",
    "geocoded_column": {
      "latitude": "29.978366917595974",
      "longitude": "-90.09609789734962"
    }
  },
  {
    "service_request": "2024-1099912",
    "request_type": "Trash/Recycling",
    "request_reason": "Missed Trash Pick-Up",
    "date_created": "2024-06-04T15:57:55.000",
    "date_modified": "2024-06-04T15:57:55.000",
    "request_status": "Pending",
    "responsible_agency": "Department of Sanitation",
    "final_address": "618 N Carrollton Ave",
    "address_councildis": "A",
    "status": "Assigned to Contractor",
    "contractor": "IV Waste",
    "rowid": "1099912",
    "final_x": "3672535.14657",
    "final_y": "539739.944906",
    "longitude": "-90.09609789734962",
    "latitude": "29.978366917595974",
    "geocoded_column": {
      "latitude": "29.978366917595974",
      "longitude": "-90.09609789734962"
    }
  },
  {
    "service_request": "2024-1099911",
    "request_type": "Trash/Recycling",
    "request_reason": "Request a Large Item Pick Up",
    "date_created": "2024-06-04T15:57:51.000",
    "date_modified": "2024-06-04T15:57:51.000",
    "request_status": "Pending",
    "responsible_agency": "Department of Sanitation",
    "final_address": "2015 S Rendon St",
    "address_councildis": "B",
    "status": "Assigned to Contractor",
    "contractor": "IV Waste",
    "rowid": "1099911",
    "final_x": "3669001.45434",
    "final_y": "529850.197697",
    "longitude": "-90.10759275232937",
    "latitude": "29.951277841782286",
    "geocoded_column": {
      "latitude": "29.951277841782286",
      "longitude": "-90.10759275232937"
    }
  },
  {
    "service_request": "2024-1099910",
    "request_type": "Abandoned Vehicles",
    "request_reason": "Abandoned/Junk Vehicles",
    "date_created": "2024-06-04T15:55:42.000",
    "date_modified": "2024-06-04T15:58:17.000",
    "request_status": "Pending",
    "responsible_agency": "Department of Public Works",
    "final_address": "1100 N Robertson St",
    "address_councildis": "C",
    "status": "Pending",
    "rowid": "1099910",
    "final_x": "3681061.82517",
    "final_y": "535601.404998",
    "longitude": "-90.069311750848",
    "latitude": "29.966731452003366",
    "geocoded_column": {
      "latitude": "29.966731452003366",
      "longitude": "-90.069311750848"
    }
  },
  {
    "service_request": "2024-1099909",
    "request_type": "Trash/Recycling",
    "request_reason": "Request a Large Item Pick Up",
    "date_created": "2024-06-04T15:53:38.000",
    "date_modified": "2024-06-04T15:53:38.000",
    "request_status": "Pending",
    "responsible_agency": "Department of Sanitation",
    "final_address": "5639 Charles Pl",
    "address_councildis": "A",
    "status": "Assigned to Contractor",
    "contractor": "IV Waste",
    "rowid": "1099909",
    "final_x": "3669002.79252",
    "final_y": "545040.721807",
    "longitude": "-90.10707522238489",
    "latitude": "29.99304664959626",
    "geocoded_column": {
      "latitude": "29.99304664959626",
      "longitude": "-90.10707522238489"
    }
  },
  {
    "service_request": "2024-1099908",
    "request_type": "Trash/Recycling",
    "request_reason": "Order Trash Cart",
    "date_created": "2024-06-04T15:51:25.000",
    "date_modified": "2024-06-04T15:51:26.000",
    "request_status": "Pending",
    "responsible_agency": "Department of Sanitation",
    "final_address": "4531 Magazine St",
    "address_councildis": "B",
    "status": "Assigned to Contractor",
    "contractor": "IV Waste",
    "rowid": "1099908",
    "final_x": "3670395.51655",
    "final_y": "518765.681591",
    "longitude": "-90.10356660987445",
    "latitude": "29.920757920204224",
    "geocoded_column": {
      "latitude": "29.920757920204224",
      "longitude": "-90.10356660987445"
    }
  },
  {
    "service_request": "2024-1099907",
    "request_type": "Abandoned Vehicles",
    "request_reason": "Abandoned/Junk Vehicles",
    "date_created": "2024-06-04T15:50:02.000",
    "date_modified": "2024-06-04T15:50:03.000",
    "request_status": "Pending",
    "responsible_agency": "Department of Public Works",
    "final_address": "2905 Coliseum St",
    "address_councildis": "B",
    "status": "Pending",
    "rowid": "1099907",
    "final_x": "3675977.69371",
    "final_y": "521402.860025",
    "longitude": "-90.08585559349683",
    "latitude": "29.927843394865334",
    "geocoded_column": {
      "latitude": "29.927843394865334",
      "longitude": "-90.08585559349683"
    }
  },
  {
    "service_request": "2024-1099906",
    "request_type": "Trash/Recycling",
    "request_reason": "Request a Large Item Pick Up",
    "date_created": "2024-06-04T15:46:23.000",
    "date_modified": "2024-06-04T15:46:23.000",
    "request_status": "Pending",
    "responsible_agency": "Department of Sanitation",
    "final_address": "5720 Kensington Blvd",
    "address_councildis": "E",
    "status": "Assigned to Contractor",
    "contractor": "Waste Pro",
    "rowid": "1099906",
    "final_x": "3713476.86245",
    "final_y": "560449.740766",
    "longitude": "-89.96600992902646",
    "latitude": "30.034031768145226",
    "geocoded_column": {
      "latitude": "30.034031768145226",
      "longitude": "-89.96600992902646"
    }
  },
  {
    "service_request": "2024-1099905",
    "request_type": "Roads/Drainage",
    "request_reason": "Road Shoulder Repair",
    "date_created": "2024-06-04T15:43:30.000",
    "date_modified": "2024-06-04T15:43:31.000",
    "request_status": "Pending",
    "responsible_agency": "Department of Public Works",
    "final_address": "8810 Oleander St",
    "address_councildis": "A",
    "status": "Pending",
    "rowid": "1099905",
    "final_x": "3664853.06061",
    "final_y": "535364.090438",
    "longitude": "-90.12050710820156",
    "latitude": "29.966560613972117",
    "geocoded_column": {
      "latitude": "29.966560613972117",
      "longitude": "-90.12050710820156"
    }
  },
  {
    "service_request": "2024-1099904",
    "request_type": "Property Maintenance",
    "request_reason": "Property Maintenance",
    "date_created": "2024-06-04T15:42:16.000",
    "date_modified": "2024-06-04T15:42:16.000",
    "request_status": "Pending",
    "responsible_agency": "Department of Code Enforcement",
    "final_address": "232 Bellaire Dr",
    "address_councildis": "A",
    "status": "Pending",
    "rowid": "1099904",
    "final_x": "3663838.35367",
    "final_y": "540961.003147",
    "longitude": "-90.12352493967039",
    "latitude": "29.98197975895096",
    "geocoded_column": {
      "latitude": "29.98197975895096",
      "longitude": "-90.12352493967039"
    }
  },
  {
    "service_request": "2024-1099903",
    "request_type": "Property Maintenance",
    "request_reason": "Property Maintenance",
    "date_created": "2024-06-04T15:42:07.000",
    "date_modified": "2024-06-04T15:42:07.000",
    "request_status": "Pending",
    "responsible_agency": "Department of Code Enforcement",
    "final_address": "8000 Brevard Ave",
    "address_councildis": "E",
    "status": "Pending",
    "rowid": "1099903",
    "final_x": "3705745.60004",
    "final_y": "564460.228577",
    "longitude": "-89.99029294810191",
    "latitude": "30.045310428643678",
    "geocoded_column": {
      "latitude": "30.045310428643678",
      "longitude": "-89.99029294810191"
    }
  },
  {
    "service_request": "2024-1099902",
    "request_type": "Traffic Signals/Signs/Striping/Streetlights",
    "request_reason": "Street Light Outage/Malfunction",
    "date_created": "2024-06-04T15:41:10.000",
    "date_modified": "2024-06-04T15:41:10.000",
    "request_status": "Pending",
    "responsible_agency": "Department of Public Works",
    "final_address": "8000 Brevard Ave",
    "address_councildis": "E",
    "status": "Assigned to Contractor",
    "contractor": "Legacy Professional Services",
    "rowid": "1099902",
    "final_x": "3705745.60004",
    "final_y": "564460.228577",
    "longitude": "-89.99029294810191",
    "latitude": "30.045310428643678",
    "geocoded_column": {
      "latitude": "30.045310428643678",
      "longitude": "-89.99029294810191"
    }
  },
  {
    "service_request": "2024-1099901",
    "request_type": "Parks & Parkways",
    "request_reason": "Request Tree Service (Right of Way/Public Property)",
    "date_created": "2024-06-04T15:39:43.000",
    "date_modified": "2024-06-04T15:39:43.000",
    "request_status": "Pending",
    "responsible_agency": "Department of Parks & Parkway",
    "final_address": "8000 Brevard Ave",
    "address_councildis": "E",
    "status": "Pending",
    "rowid": "1099901",
    "final_x": "3705745.60004",
    "final_y": "564460.228577",
    "longitude": "-89.99029294810191",
    "latitude": "30.045310428643678",
    "geocoded_column": {
      "latitude": "30.045310428643678",
      "longitude": "-89.99029294810191"
    }
  },
  {
    "service_request": "2024-1099900",
    "request_type": "Abandoned Vehicles",
    "request_reason": "Abandoned/Junk Vehicles",
    "date_created": "2024-06-04T15:37:50.000",
    "date_modified": "2024-06-04T15:37:50.000",
    "request_status": "Pending",
    "responsible_agency": "Department of Public Works",
    "final_address": "4336 Clio St",
    "address_councildis": "B",
    "status": "Inspected",
    "rowid": "1099900",
    "final_x": "3671028.46145",
    "final_y": "531732.635715",
    "longitude": "-90.10112853054471",
    "latitude": "29.95639414741975",
    "geocoded_column": {
      "latitude": "29.95639414741975",
      "longitude": "-90.10112853054471"
    }
  },
  {
    "service_request": "2024-1099899",
    "request_type": "Trash/Recycling",
    "request_reason": "Replace Trash Cart",
    "date_created": "2024-06-04T15:36:28.000",
    "date_modified": "2024-06-04T17:33:06.000",
    "case_close_date": "2024-06-04T12:33:06.000",
    "request_status": "Closed",
    "responsible_agency": "Department of Sanitation",
    "final_address": "4610 Perelli Dr, New Orleans, Louisiana, 70127",
    "address_councildis": "E",
    "status": "Duplicate Request",
    "contractor": "Waste Pro",
    "contractor_action": "Duplicate",
    "rowid": "1099899",
    "final_x": "3711711.67736",
    "final_y": "555213.886297",
    "longitude": "-89.97178468802908",
    "latitude": "30.019693035220378",
    "geocoded_column": {
      "latitude": "30.019693035220378",
      "longitude": "-89.97178468802908"
    }
  },
  {
    "service_request": "2024-1099898",
    "request_type": "Trash/Recycling",
    "request_reason": "Order Recycling Cart",
    "date_created": "2024-06-04T15:34:43.000",
    "date_modified": "2024-06-04T15:34:44.000",
    "request_status": "Pending",
    "responsible_agency": "Department of Sanitation",
    "final_address": "7239 Claridge Ct",
    "address_councildis": "E",
    "status": "Pending",
    "rowid": "1099898",
    "final_x": "3704869.30545",
    "final_y": "560992.135518",
    "longitude": "-89.99319063593006",
    "latitude": "30.03580275461734",
    "geocoded_column": {
      "latitude": "30.03580275461734",
      "longitude": "-89.99319063593006"
    }
  },
  {
    "service_request": "2024-1099896",
    "request_type": "Trash/Recycling",
    "request_reason": "Order Trash Cart",
    "date_created": "2024-06-04T15:33:40.000",
    "date_modified": "2024-06-04T15:33:40.000",
    "request_status": "Pending",
    "responsible_agency": "Department of Sanitation",
    "final_address": "4610 Perelli Dr",
    "address_councildis": "E",
    "status": "Assigned to Contractor",
    "contractor": "Waste Pro",
    "rowid": "1099896",
    "final_x": "3711711.67736",
    "final_y": "555213.886297",
    "longitude": "-89.97178468802908",
    "latitude": "30.019693035220378",
    "geocoded_column": {
      "latitude": "30.019693035220378",
      "longitude": "-89.97178468802908"
    }
  },
  {
    "service_request": "2024-1099895",
    "request_type": "Trash/Recycling",
    "request_reason": "Order Trash Cart",
    "date_created": "2024-06-04T15:32:52.000",
    "date_modified": "2024-06-04T15:32:53.000",
    "request_status": "Pending",
    "responsible_agency": "Department of Sanitation",
    "final_address": "2509 Myrtle St",
    "address_councildis": "D",
    "status": "Assigned to Contractor",
    "contractor": "IV Waste",
    "rowid": "1099895",
    "final_x": "3686491.82902",
    "final_y": "546132.172944",
    "longitude": "-90.0517919162445",
    "latitude": "29.995521519411056",
    "geocoded_column": {
      "latitude": "29.995521519411056",
      "longitude": "-90.0517919162445"
    }
  },
  {
    "service_request": "2024-1099894",
    "request_type": "Roads/Drainage",
    "request_reason": "Pothole",
    "date_created": "2024-06-04T15:32:17.000",
    "date_modified": "2024-06-04T15:32:17.000",
    "request_status": "Pending",
    "responsible_agency": "Department of Public Works",
    "final_address": "1120 Aline St Apt 2A",
    "address_councildis": "B",
    "status": "Pending",
    "rowid": "1099894",
    "final_x": "3674344.461",
    "final_y": "519521.432503",
    "longitude": "-90.09107572309848",
    "latitude": "29.922718865916426",
    "geocoded_column": {
      "latitude": "29.922718865916426",
      "longitude": "-90.09107572309848"
    }
  },
  {
    "service_request": "2024-1099893",
    "request_type": "Trash/Recycling",
    "request_reason": "Illegal Dumping",
    "date_created": "2024-06-04T15:30:13.000",
    "date_modified": "2024-06-04T15:30:13.000",
    "request_status": "Pending",
    "responsible_agency": "Department of Sanitation",
    "final_address": "5830 Willow St",
    "address_councildis": "A",
    "status": "Pending",
    "rowid": "1099893",
    "final_x": "3666985.4546",
    "final_y": "525575.185981",
    "longitude": "-90.11410193740929",
    "latitude": "29.939582086636246",
    "geocoded_column": {
      "latitude": "29.939582086636246",
      "longitude": "-90.11410193740929"
    }
  },
  {
    "service_request": "2024-1099892",
    "request_type": "Trash/Recycling",
    "request_reason": "Illegal Dumping",
    "date_created": "2024-06-04T15:27:37.000",
    "date_modified": "2024-06-04T15:27:37.000",
    "request_status": "Pending",
    "responsible_agency": "Department of Sanitation",
    "final_address": "5830 Willow St",
    "address_councildis": "A",
    "status": "Pending",
    "rowid": "1099892",
    "final_x": "3666985.4546",
    "final_y": "525575.185981",
    "longitude": "-90.11410193740929",
    "latitude": "29.939582086636246",
    "geocoded_column": {
      "latitude": "29.939582086636246",
      "longitude": "-90.11410193740929"
    }
  },
  {
    "service_request": "2024-1099891",
    "request_type": "Traffic Signals/Signs/Striping/Streetlights",
    "request_reason": "Traffic Sign Missing/Damaged",
    "date_created": "2024-06-04T15:27:13.000",
    "date_modified": "2024-06-04T15:27:13.000",
    "request_status": "Pending",
    "responsible_agency": "Department of Public Works",
    "final_address": "3700 BLK Chartres St",
    "address_councildis": "C",
    "status": "Pending",
    "rowid": "1099891",
    "final_x": "3690625.87495",
    "final_y": "533634.178254",
    "longitude": "-90.03917879655552",
    "latitude": "29.961028699112877",
    "geocoded_column": {
      "latitude": "29.961028699112877",
      "longitude": "-90.03917879655552"
    }
  },
  {
    "service_request": "2024-1099890",
    "request_type": "Traffic Signals/Signs/Striping/Streetlights",
    "request_reason": "Road Surface Marking Maintenance-Bike Lane",
    "date_created": "2024-06-04T15:25:15.000",
    "date_modified": "2024-06-04T15:25:15.000",
    "request_status": "Pending",
    "responsible_agency": "Department of Public Works",
    "final_address": "3700 BLK Chartres St",
    "address_councildis": "C",
    "status": "Pending",
    "rowid": "1099890",
    "final_x": "3690625.87495",
    "final_y": "533634.178254",
    "longitude": "-90.03917879655552",
    "latitude": "29.961028699112877",
    "geocoded_column": {
      "latitude": "29.961028699112877",
      "longitude": "-90.03917879655552"
    }
  },
  {
    "service_request": "2024-1099889",
    "request_type": "Roads/Drainage",
    "request_reason": "Catch Basin - Clogged",
    "date_created": "2024-06-04T15:23:27.000",
    "date_modified": "2024-06-04T15:23:27.000",
    "request_status": "Pending",
    "responsible_agency": "Department of Public Works",
    "final_address": "8021 Branch Dr",
    "address_councildis": "E",
    "status": "Pending",
    "rowid": "1099889",
    "final_x": "3713922.89579",
    "final_y": "569855.012262",
    "longitude": "-89.96424529741597",
    "latitude": "30.059877804306744",
    "geocoded_column": {
      "latitude": "30.059877804306744",
      "longitude": "-89.96424529741597"
    }
  },
  {
    "service_request": "2024-1099888",
    "request_type": "Traffic Signals/Signs/Striping/Streetlights",
    "request_reason": "Additional signage",
    "date_created": "2024-06-04T15:22:59.000",
    "date_modified": "2024-06-04T15:22:59.000",
    "request_status": "Pending",
    "responsible_agency": "Department of Public Works",
    "final_address": "3700 BLK Chartres St",
    "address_councildis": "C",
    "status": "Pending",
    "rowid": "1099888",
    "final_x": "3690625.87495",
    "final_y": "533634.178254",
    "longitude": "-90.03917879655552",
    "latitude": "29.961028699112877",
    "geocoded_column": {
      "latitude": "29.961028699112877",
      "longitude": "-90.03917879655552"
    }
  },
  {
    "service_request": "2024-1099887",
    "request_type": "Trash/Recycling",
    "request_reason": "Request a Large Item Pick Up",
    "date_created": "2024-06-04T15:22:56.000",
    "date_modified": "2024-06-04T15:22:57.000",
    "request_status": "Pending",
    "responsible_agency": "Department of Sanitation",
    "final_address": "4758 Camelot Dr",
    "address_councildis": "E",
    "status": "Assigned to Contractor",
    "contractor": "Waste Pro",
    "rowid": "1099887",
    "final_x": "3708291.78628",
    "final_y": "555690.003289",
    "longitude": "-89.98257259101992",
    "latitude": "30.021113464904975",
    "geocoded_column": {
      "latitude": "30.021113464904975",
      "longitude": "-89.98257259101992"
    }
  },
  {
    "service_request": "2024-1099886",
    "request_type": "Roads/Drainage",
    "request_reason": "Pothole",
    "date_created": "2024-06-04T15:22:18.000",
    "date_modified": "2024-06-04T15:22:18.000",
    "request_status": "Pending",
    "responsible_agency": "Department of Public Works",
    "final_address": "4216 Chestnut St",
    "address_councildis": "B",
    "status": "Pending",
    "rowid": "1099886",
    "final_x": "3671574.31393",
    "final_y": "519539.203703",
    "longitude": "-90.09981939416457",
    "latitude": "29.922850019854593",
    "geocoded_column": {
      "latitude": "29.922850019854593",
      "longitude": "-90.09981939416457"
    }
  },
  {
    "service_request": "2024-1099885",
    "request_type": "Trash/Recycling",
    "request_reason": "Order Trash Cart",
    "date_created": "2024-06-04T15:22:02.000",
    "date_modified": "2024-06-04T15:22:03.000",
    "request_status": "Pending",
    "responsible_agency": "Department of Sanitation",
    "final_address": "2306 St Louis St",
    "address_councildis": "B",
    "status": "Assigned to Contractor",
    "contractor": "IV Waste",
    "rowid": "1099885",
    "final_x": "3677500.64757",
    "final_y": "535286.843142",
    "longitude": "-90.08056880016471",
    "latitude": "29.965974052949495",
    "geocoded_column": {
      "latitude": "29.965974052949495",
      "longitude": "-90.08056880016471"
    }
  },
  {
    "service_request": "2024-1099884",
    "request_type": "Trash/Recycling",
    "request_reason": "Request a Large Item Pick Up",
    "date_created": "2024-06-04T15:21:20.000",
    "date_modified": "2024-06-04T15:21:20.000",
    "request_status": "Pending",
    "responsible_agency": "Department of Sanitation",
    "final_address": "3002 Robert St",
    "address_councildis": "B",
    "status": "Assigned to Contractor",
    "contractor": "IV Waste",
    "rowid": "1099884",
    "final_x": "3668823.26702",
    "final_y": "526318.678398",
    "longitude": "-90.10827459892369",
    "latitude": "29.941572552186354",
    "geocoded_column": {
      "latitude": "29.941572552186354",
      "longitude": "-90.10827459892369"
    }
  },
  {
    "service_request": "2024-1099883",
    "request_type": "Traffic Signals/Signs/Striping/Streetlights",
    "request_reason": "Striping/Road Surface Markings",
    "date_created": "2024-06-04T15:21:05.000",
    "date_modified": "2024-06-04T15:21:05.000",
    "request_status": "Pending",
    "responsible_agency": "Department of Public Works",
    "final_address": "3700 BLK Chartres St",
    "address_councildis": "C",
    "status": "Pending",
    "rowid": "1099883",
    "final_x": "3690625.87495",
    "final_y": "533634.178254",
    "longitude": "-90.03917879655552",
    "latitude": "29.961028699112877",
    "geocoded_column": {
      "latitude": "29.961028699112877",
      "longitude": "-90.03917879655552"
    }
  },
  {
    "service_request": "2024-1099882",
    "request_type": "Traffic Signals/Signs/Striping/Streetlights",
    "request_reason": "Street Light Outage/Malfunction",
    "date_created": "2024-06-04T15:18:49.000",
    "date_modified": "2024-06-04T15:18:49.000",
    "request_status": "Pending",
    "responsible_agency": "Department of Public Works",
    "final_address": "1113 Soniat St",
    "address_councildis": "B",
    "status": "Assigned to Contractor",
    "contractor": "Legacy Professional Services",
    "rowid": "1099882",
    "final_x": "3668414.34145",
    "final_y": "519471.253943",
    "longitude": "-90.10979650882018",
    "latitude": "29.92275633863203",
    "geocoded_column": {
      "latitude": "29.92275633863203",
      "longitude": "-90.10979650882018"
    }
  },
  {
    "service_request": "2024-1099880",
    "request_type": "Roads/Drainage",
    "request_reason": "Catch Basin - Clogged",
    "date_created": "2024-06-04T15:16:48.000",
    "date_modified": "2024-06-04T15:16:48.000",
    "request_status": "Pending",
    "responsible_agency": "Department of Public Works",
    "final_address": "1132 Soniat St",
    "address_councildis": "B",
    "status": "Pending",
    "rowid": "1099880",
    "final_x": "3668302.53025",
    "final_y": "519606.974712",
    "longitude": "-90.1101448803183",
    "latitude": "29.923132810276368",
    "geocoded_column": {
      "latitude": "29.923132810276368",
      "longitude": "-90.1101448803183"
    }
  },
  {
    "service_request": "2024-1099879",
    "request_type": "Parks & Parkways",
    "request_reason": "Request Grass Cutting Service (City Owned Property)",
    "date_created": "2024-06-04T15:15:12.000",
    "date_modified": "2024-06-04T15:15:12.000",
    "request_status": "Pending",
    "responsible_agency": "Department of Parks & Parkway",
    "final_address": "23 Curran Rd",
    "address_councildis": "E",
    "status": "Pending",
    "rowid": "1099879",
    "final_x": "3703005.80772",
    "final_y": "562112.043871",
    "longitude": "-89.99903837416963",
    "latitude": "30.038941860000588",
    "geocoded_column": {
      "latitude": "30.038941860000588",
      "longitude": "-89.99903837416963"
    }
  },
  {
    "service_request": "2024-1099878",
    "request_type": "Trash/Recycling",
    "request_reason": "Request a Large Item Pick Up",
    "date_created": "2024-06-04T15:12:01.000",
    "date_modified": "2024-06-04T15:12:02.000",
    "request_status": "Pending",
    "responsible_agency": "Department of Sanitation",
    "final_address": "1839 Andry St",
    "address_councildis": "E",
    "status": "Assigned to Contractor",
    "contractor": "Waste Pro",
    "rowid": "1099878",
    "final_x": "3698016.7217",
    "final_y": "536877.272456",
    "longitude": "-90.01572224316139",
    "latitude": "29.96971445337646",
    "geocoded_column": {
      "latitude": "29.96971445337646",
      "longitude": "-90.01572224316139"
    }
  },
  {
    "service_request": "2024-1099877",
    "request_type": "Trash/Recycling",
    "request_reason": "Repair Trash Cart",
    "date_created": "2024-06-04T15:11:05.000",
    "date_modified": "2024-06-04T15:11:06.000",
    "request_status": "Pending",
    "responsible_agency": "Department of Sanitation",
    "final_address": "8339 Spruce St",
    "address_councildis": "A",
    "status": "Assigned to Contractor",
    "contractor": "IV Waste",
    "rowid": "1099877",
    "final_x": "3663108.97683",
    "final_y": "531183.597698",
    "longitude": "-90.12615402078595",
    "latitude": "29.955116266961888",
    "geocoded_column": {
      "latitude": "29.955116266961888",
      "longitude": "-90.12615402078595"
    }
  },
  {
    "service_request": "2024-1099876",
    "request_type": "Trash/Recycling",
    "request_reason": "Request a Large Item Pick Up",
    "date_created": "2024-06-04T15:09:55.000",
    "date_modified": "2024-06-04T15:09:56.000",
    "request_status": "Pending",
    "responsible_agency": "Department of Sanitation",
    "final_address": "3023 Banks St",
    "address_councildis": "B",
    "status": "Assigned to Contractor",
    "contractor": "IV Waste",
    "rowid": "1099876",
    "final_x": "3673498.75355",
    "final_y": "535070.779142",
    "longitude": "-90.09321407371681",
    "latitude": "29.96549964952291",
    "geocoded_column": {
      "latitude": "29.96549964952291",
      "longitude": "-90.09321407371681"
    }
  },
  {
    "service_request": "2024-1099875",
    "request_type": "Property Maintenance",
    "request_reason": "Property Maintenance",
    "date_created": "2024-06-04T15:09:38.000",
    "date_modified": "2024-06-04T15:40:20.000",
    "case_close_date": "2024-06-04T10:40:20.000",
    "request_status": "Closed",
    "responsible_agency": "Department of Code Enforcement",
    "final_address": "WOODBINE DR & CURRAN BLVD",
    "address_councildis": "E",
    "status": "Referred to Code Enforcement",
    "rowid": "1099875",
    "final_x": "3701923.2",
    "final_y": "561505.98",
    "longitude": "-90.00248194196865",
    "latitude": "30.037310040441415",
    "geocoded_column": {
      "latitude": "30.037310040441415",
      "longitude": "-90.00248194196865"
    }
  },
  {
    "service_request": "2024-1099874",
    "request_type": "Traffic Signals/Signs/Striping/Streetlights",
    "request_reason": "Traffic Signal Malfunctioning/Damaged",
    "date_created": "2024-06-04T15:09:17.000",
    "date_modified": "2024-06-04T15:09:17.000",
    "request_status": "Pending",
    "responsible_agency": "Department of Public Works",
    "final_address": "1700 BLK Gravier St",
    "address_councildis": "B",
    "status": "Pending",
    "rowid": "1099874",
    "final_x": "3677341.08557",
    "final_y": "531642.557237",
    "longitude": "-90.08119845419431",
    "latitude": "29.95595829336222",
    "geocoded_column": {
      "latitude": "29.95595829336222",
      "longitude": "-90.08119845419431"
    }
  },
  {
    "service_request": "2024-1099873",
    "request_type": "Trash/Recycling",
    "request_reason": "Request a Large Item Pick Up",
    "date_created": "2024-06-04T15:07:04.000",
    "date_modified": "2024-06-04T15:07:05.000",
    "request_status": "Pending",
    "responsible_agency": "Department of Sanitation",
    "final_address": "4152 Toulouse St",
    "address_councildis": "A",
    "status": "Assigned to Contractor",
    "contractor": "IV Waste",
    "rowid": "1099873",
    "final_x": "3671849.43303",
    "final_y": "539974.566795",
    "longitude": "-90.09825564758597",
    "latitude": "29.979032388811458",
    "geocoded_column": {
      "latitude": "29.979032388811458",
      "longitude": "-90.09825564758597"
    }
  },
  {
    "service_request": "2024-1099872",
    "request_type": "Trash/Recycling",
    "request_reason": "Request a Large Item Pick Up",
    "date_created": "2024-06-04T15:03:26.000",
    "date_modified": "2024-06-04T15:03:27.000",
    "request_status": "Pending",
    "responsible_agency": "Department of Sanitation",
    "final_address": "618 Philip St",
    "address_councildis": "B",
    "status": "Assigned to Contractor",
    "contractor": "IV Waste",
    "rowid": "1099872",
    "final_x": "3679525.15707",
    "final_y": "520508.065784",
    "longitude": "-90.07468811300399",
    "latitude": "29.925276330470744",
    "geocoded_column": {
      "latitude": "29.925276330470744",
      "longitude": "-90.07468811300399"
    }
  },
  {
    "service_request": "2024-1099871",
    "request_type": "Parks & Parkways",
    "request_reason": "Request Tree Service (Right of Way/Public Property)",
    "date_created": "2024-06-04T15:03:05.000",
    "date_modified": "2024-06-04T15:03:06.000",
    "request_status": "Pending",
    "responsible_agency": "Department of Parks & Parkway",
    "final_address": "4145 Vendome Pl",
    "address_councildis": "B",
    "status": "Pending",
    "rowid": "1099871",
    "final_x": "3668985.6875",
    "final_y": "530754.70093",
    "longitude": "-90.10761198559317",
    "latitude": "29.953765393080296",
    "geocoded_column": {
      "latitude": "29.953765393080296",
      "longitude": "-90.10761198559317"
    }
  },
  {
    "service_request": "2024-1099870",
    "request_type": "Trash/Recycling",
    "request_reason": "Missed Trash Pick-Up",
    "date_created": "2024-06-04T15:01:41.000",
    "date_modified": "2024-06-04T17:06:13.000",
    "case_close_date": "2024-06-04T12:06:13.000",
    "request_status": "Closed",
    "responsible_agency": "Department of Sanitation",
    "final_address": "527 Jewel St",
    "address_councildis": "D",
    "status": "Invalid Request",
    "contractor": "IV Waste",
    "contractor_action": "Invalid Request",
    "rowid": "1099870",
    "final_x": "3668622.09652",
    "final_y": "556080.06281",
    "longitude": "-90.10790484423518",
    "latitude": "30.023412171857796",
    "geocoded_column": {
      "latitude": "30.023412171857796",
      "longitude": "-90.10790484423518"
    }
  },
  {
    "service_request": "2024-1099869",
    "request_type": "Trash/Recycling",
    "request_reason": "Repair Trash Cart",
    "date_created": "2024-06-04T15:00:17.000",
    "date_modified": "2024-06-04T15:00:18.000",
    "request_status": "Pending",
    "responsible_agency": "Department of Sanitation",
    "final_address": "8339 Spruce St",
    "address_councildis": "A",
    "status": "Assigned to Contractor",
    "contractor": "IV Waste",
    "rowid": "1099869",
    "final_x": "3663108.97683",
    "final_y": "531183.597698",
    "longitude": "-90.12615402078595",
    "latitude": "29.955116266961888",
    "geocoded_column": {
      "latitude": "29.955116266961888",
      "longitude": "-90.12615402078595"
    }
  },
  {
    "service_request": "2024-1099868",
    "request_type": "Roads/Drainage",
    "request_reason": "Street Flooding / Drainage",
    "date_created": "2024-06-04T14:58:06.000",
    "date_modified": "2024-06-04T14:58:06.000",
    "request_status": "Pending",
    "responsible_agency": "Department of Public Works",
    "final_address": "6625 Peony St",
    "address_councildis": "C",
    "status": "Pending",
    "rowid": "1099868",
    "final_x": "3708363.50084",
    "final_y": "516349.929461",
    "longitude": "-89.98380998625332",
    "latitude": "29.91294038299095",
    "geocoded_column": {
      "latitude": "29.91294038299095",
      "longitude": "-89.98380998625332"
    }
  },
  {
    "service_request": "2024-1099867",
    "request_type": "Trash/Recycling",
    "request_reason": "Illegal Dumping",
    "date_created": "2024-06-04T14:55:26.000",
    "date_modified": "2024-06-04T14:55:26.000",
    "request_status": "Pending",
    "responsible_agency": "Department of Sanitation",
    "final_address": "2032 Elysian Fields Ave",
    "address_councildis": "D",
    "status": "Pending",
    "rowid": "1099867",
    "final_x": "3684627.79157",
    "final_y": "539873.31297",
    "longitude": "-90.05790029963298",
    "latitude": "29.978369064118894",
    "geocoded_column": {
      "latitude": "29.978369064118894",
      "longitude": "-90.05790029963298"
    }
  },
  {
    "service_request": "2024-1099866",
    "request_type": "Trash/Recycling",
    "request_reason": "Request a Large Item Pick Up",
    "date_created": "2024-06-04T14:51:07.000",
    "date_modified": "2024-06-04T14:51:08.000",
    "request_status": "Pending",
    "responsible_agency": "Department of Sanitation",
    "final_address": "5634 Canal Blvd",
    "address_councildis": "A",
    "status": "Assigned to Contractor",
    "contractor": "IV Waste",
    "rowid": "1099866",
    "final_x": "3668144.3145",
    "final_y": "545096.487375",
    "longitude": "-90.10978513517911",
    "latitude": "29.99322521965208",
    "geocoded_column": {
      "latitude": "29.99322521965208",
      "longitude": "-90.10978513517911"
    }
  },
  {
    "service_request": "2024-1099865",
    "request_type": "Abandoned Vehicles",
    "request_reason": "Abandoned/Junk Vehicles",
    "date_created": "2024-06-04T14:50:40.000",
    "date_modified": "2024-06-04T14:50:41.000",
    "request_status": "Pending",
    "responsible_agency": "Department of Public Works",
    "final_address": "161 30Th St",
    "address_councildis": "A",
    "status": "Pending",
    "rowid": "1099865",
    "final_x": "3665639.30925",
    "final_y": "550561.471892",
    "longitude": "-90.11751489038201",
    "latitude": "30.008325357734297",
    "geocoded_column": {
      "latitude": "30.008325357734297",
      "longitude": "-90.11751489038201"
    }
  },
  {
    "service_request": "2024-1099864",
    "request_type": "Trash/Recycling",
    "request_reason": "Order Recycling Cart",
    "date_created": "2024-06-04T14:49:28.000",
    "date_modified": "2024-06-04T14:49:29.000",
    "request_status": "Pending",
    "responsible_agency": "Department of Sanitation",
    "final_address": "1003 Tricou St",
    "address_councildis": "E",
    "status": "Pending",
    "rowid": "1099864",
    "final_x": "3700026.1569",
    "final_y": "532660.573508",
    "longitude": "-90.00953015641858",
    "latitude": "29.95805635335894",
    "geocoded_column": {
      "latitude": "29.95805635335894",
      "longitude": "-90.00953015641858"
    }
  },
  {
    "service_request": "2024-1099863",
    "request_type": "Trash/Recycling",
    "request_reason": "Request a Large Item Pick Up",
    "date_created": "2024-06-04T14:47:39.000",
    "date_modified": "2024-06-04T14:47:39.000",
    "request_status": "Pending",
    "responsible_agency": "Department of Sanitation",
    "final_address": "7925 Pompano St",
    "address_councildis": "E",
    "status": "Assigned to Contractor",
    "contractor": "Waste Pro",
    "rowid": "1099863",
    "final_x": "3700240.42039",
    "final_y": "561644.345887",
    "longitude": "-90.00779482059595",
    "latitude": "30.037744126373003",
    "geocoded_column": {
      "latitude": "30.037744126373003",
      "longitude": "-90.00779482059595"
    }
  },
  {
    "service_request": "2024-1099862",
    "request_type": "Roads/Drainage",
    "request_reason": "Street Subsidence (Sinking)",
    "date_created": "2024-06-04T14:45:58.000",
    "date_modified": "2024-06-04T14:45:58.000",
    "request_status": "Pending",
    "responsible_agency": "Department of Public Works",
    "final_address": "5454 Pontchartrain Blvd",
    "address_councildis": "A",
    "status": "Pending",
    "rowid": "1099862",
    "final_x": "3665421.84992",
    "final_y": "543722.775758",
    "longitude": "-90.11843099333836",
    "latitude": "29.98952763408522",
    "geocoded_column": {
      "latitude": "29.98952763408522",
      "longitude": "-90.11843099333836"
    }
  },
  {
    "service_request": "2024-1099861",
    "request_type": "Roads/Drainage",
    "request_reason": "Debris in Roadway",
    "date_created": "2024-06-04T14:45:55.000",
    "date_modified": "2024-06-04T14:45:56.000",
    "request_status": "Pending",
    "responsible_agency": "Department of Public Works",
    "final_address": "4900 BLK Mandeville St",
    "address_councildis": "D",
    "status": "Pending",
    "rowid": "1099861",
    "final_x": "3684646.1661",
    "final_y": "551089.786059",
    "longitude": "-90.0574478037199",
    "latitude": "30.009209797855416",
    "geocoded_column": {
      "latitude": "30.009209797855416",
      "longitude": "-90.0574478037199"
    }
  },
  {
    "service_request": "2024-1099860",
    "request_type": "Abandoned Vehicles",
    "request_reason": "Abandoned/Junk Vehicles",
    "date_created": "2024-06-04T14:42:57.000",
    "date_modified": "2024-06-04T14:42:57.000",
    "request_status": "Pending",
    "responsible_agency": "Department of Public Works",
    "final_address": "S GENOIS ST & THALIA ST",
    "address_councildis": "B",
    "status": "Pending",
    "rowid": "1099860",
    "final_x": "3669248.0",
    "final_y": "532129.78",
    "longitude": "-90.10673722966801",
    "latitude": "29.957538689909082",
    "geocoded_column": {
      "latitude": "29.957538689909082",
      "longitude": "-90.10673722966801"
    }
  },
  {
    "service_request": "2024-1099859",
    "request_type": "Trash/Recycling",
    "request_reason": "Repair Trash Cart",
    "date_created": "2024-06-04T14:42:02.000",
    "date_modified": "2024-06-04T14:42:02.000",
    "request_status": "Pending",
    "responsible_agency": "Department of Sanitation",
    "final_address": "9126 Pritchard Pl",
    "address_councildis": "A",
    "status": "Assigned to Contractor",
    "contractor": "IV Waste",
    "rowid": "1099859",
    "final_x": "3663270.04359",
    "final_y": "535383.677446",
    "longitude": "-90.12550563180415",
    "latitude": "29.96666044910715",
    "geocoded_column": {
      "latitude": "29.96666044910715",
      "longitude": "-90.12550563180415"
    }
  },
  {
    "service_request": "2024-1099858",
    "request_type": "Roads/Drainage",
    "request_reason": "Debris in Roadway",
    "date_created": "2024-06-04T14:41:32.000",
    "date_modified": "2024-06-04T14:41:32.000",
    "request_status": "Pending",
    "responsible_agency": "Department of Public Works",
    "final_address": "4900 Mandeville St",
    "address_councildis": "D",
    "status": "Pending",
    "rowid": "1099858",
    "final_x": "3684612.01813",
    "final_y": "550821.280917",
    "longitude": "-90.05756513348277",
    "latitude": "30.008472551739526",
    "geocoded_column": {
      "latitude": "30.008472551739526",
      "longitude": "-90.05756513348277"
    }
  },
  {
    "service_request": "2024-1099857",
    "request_type": "Property Maintenance",
    "request_reason": "Property Maintenance",
    "date_created": "2024-06-04T14:39:44.000",
    "date_modified": "2024-06-04T15:10:00.000",
    "case_close_date": "2024-06-04T10:10:00.000",
    "request_status": "Closed",
    "responsible_agency": "Department of Code Enforcement",
    "final_address": "11414 S St Andrews Cir",
    "address_councildis": "E",
    "status": "Referred to Code Enforcement",
    "rowid": "1099857",
    "final_x": "3719621.64428",
    "final_y": "559403.849245",
    "longitude": "-89.9466318876631",
    "latitude": "30.03095294136438",
    "geocoded_column": {
      "latitude": "30.03095294136438",
      "longitude": "-89.9466318876631"
    }
  },
  {
    "service_request": "2024-1099856",
    "request_type": "Trash/Recycling",
    "request_reason": "Illegal Dumping",
    "date_created": "2024-06-04T14:39:34.000",
    "date_modified": "2024-06-04T14:39:34.000",
    "request_status": "Pending",
    "responsible_agency": "Department of Sanitation",
    "final_address": "2445 Forstall St",
    "address_councildis": "E",
    "status": "Pending",
    "rowid": "1099856",
    "final_x": "3697747.27658",
    "final_y": "539392.482506",
    "longitude": "-90.0164818828309",
    "latitude": "29.976638892560658",
    "geocoded_column": {
      "latitude": "29.976638892560658",
      "longitude": "-90.0164818828309"
    }
  },
  {
    "service_request": "2024-1099855",
    "request_type": "Property Maintenance",
    "request_reason": "Property Maintenance",
    "date_created": "2024-06-04T14:38:56.000",
    "date_modified": "2024-06-04T15:27:30.000",
    "case_close_date": "2024-06-04T10:27:30.000",
    "request_status": "Closed",
    "responsible_agency": "Department of Code Enforcement",
    "final_address": "5016 Madrid St",
    "address_councildis": "D",
    "status": "Referred to Code Enforcement",
    "rowid": "1099855",
    "final_x": "3691304.13616",
    "final_y": "556165.939482",
    "longitude": "-90.03623154502134",
    "latitude": "30.022961803130304",
    "geocoded_column": {
      "latitude": "30.022961803130304",
      "longitude": "-90.03623154502134"
    }
  },
  {
    "service_request": "2024-1099854",
    "request_type": "Trash/Recycling",
    "request_reason": "Order Recycling Cart",
    "date_created": "2024-06-04T14:38:39.000",
    "date_modified": "2024-06-04T14:38:40.000",
    "request_status": "Pending",
    "responsible_agency": "Department of Sanitation",
    "final_address": "4938 Lafaye St",
    "address_councildis": "D",
    "status": "Pending",
    "rowid": "1099854",
    "final_x": "3687332.19823",
    "final_y": "551292.876757",
    "longitude": "-90.04895454291322",
    "latitude": "30.00968571111071",
    "geocoded_column": {
      "latitude": "30.00968571111071",
      "longitude": "-90.04895454291322"
    }
  },
  {
    "service_request": "2024-1099853",
    "request_type": "Trash/Recycling",
    "request_reason": "Illegal Dumping",
    "date_created": "2024-06-04T14:38:05.000",
    "date_modified": "2024-06-04T14:38:05.000",
    "request_status": "Pending",
    "responsible_agency": "Department of Sanitation",
    "final_address": "1928 Louisiana Ave",
    "address_councildis": "B",
    "status": "Pending",
    "rowid": "1099853",
    "final_x": "3673620.15662",
    "final_y": "522732.557498",
    "longitude": "-90.09325236923375",
    "latitude": "29.931569997553193",
    "geocoded_column": {
      "latitude": "29.931569997553193",
      "longitude": "-90.09325236923375"
    }
  },
  {
    "service_request": "2024-1099852",
    "request_type": "Trash/Recycling",
    "request_reason": "Order Trash Cart",
    "date_created": "2024-06-04T14:37:12.000",
    "date_modified": "2024-06-04T14:37:12.000",
    "request_status": "Pending",
    "responsible_agency": "Department of Sanitation",
    "final_address": "512 Dauphine St",
    "address_councildis": "C",
    "status": "Assigned to Contractor",
    "contractor": "Empire Services",
    "rowid": "1099852",
    "final_x": "3681621.75612",
    "final_y": "532383.684483",
    "longitude": "-90.06765573557347",
    "latitude": "29.957866824418414",
    "geocoded_column": {
      "latitude": "29.957866824418414",
      "longitude": "-90.06765573557347"
    }
  },
  {
    "service_request": "2024-1099851",
    "request_type": "Health Related Request",
    "request_reason": "Noise Ordinance Complaint",
    "date_created": "2024-06-04T14:35:39.000",
    "date_modified": "2024-06-04T14:35:40.000",
    "request_status": "Pending",
    "responsible_agency": "Health Department",
    "final_address": "1937 Mirabeau Ave",
    "address_councildis": "D",
    "status": "Pending",
    "rowid": "1099851",
    "final_x": "3682126.72629",
    "final_y": "550806.625237",
    "longitude": "-90.06541746373568",
    "latitude": "30.00850810509893",
    "geocoded_column": {
      "latitude": "30.00850810509893",
      "longitude": "-90.06541746373568"
    }
  },
  {
    "service_request": "2024-1099850",
    "request_type": "Abandoned Vehicles",
    "request_reason": "Abandoned/Junk Vehicles",
    "date_created": "2024-06-04T14:35:36.000",
    "date_modified": "2024-06-04T14:35:37.000",
    "request_status": "Pending",
    "responsible_agency": "Department of Public Works",
    "final_address": "2529 Jena St",
    "address_councildis": "B",
    "status": "Pending",
    "rowid": "1099850",
    "final_x": "3670147.79847",
    "final_y": "524254.761084",
    "longitude": "-90.1041626785356",
    "latitude": "29.935858442401077",
    "geocoded_column": {
      "latitude": "29.935858442401077",
      "longitude": "-90.1041626785356"
    }
  },
  {
    "service_request": "2024-1099849",
    "request_type": "Property Maintenance",
    "request_reason": "Property Maintenance",
    "date_created": "2024-06-04T14:35:21.000",
    "date_modified": "2024-06-04T15:31:57.000",
    "case_close_date": "2024-06-04T10:31:57.000",
    "request_status": "Closed",
    "responsible_agency": "Department of Code Enforcement",
    "final_address": "4726 Wilson Ave",
    "address_councildis": "E",
    "status": "Referred to Code Enforcement",
    "rowid": "1099849",
    "final_x": "3702959.90314",
    "final_y": "554848.996952",
    "longitude": "-89.99945064498897",
    "latitude": "30.01897276864443",
    "geocoded_column": {
      "latitude": "30.01897276864443",
      "longitude": "-89.99945064498897"
    }
  },
  {
    "service_request": "2024-1099848",
    "request_type": "Trash/Recycling",
    "request_reason": "Repair Recycling Cart",
    "date_created": "2024-06-04T14:34:49.000",
    "date_modified": "2024-06-04T14:34:50.000",
    "request_status": "Pending",
    "responsible_agency": "Department of Sanitation",
    "final_address": "74 Egret St",
    "address_councildis": "D",
    "status": "Pending",
    "rowid": "1099848",
    "final_x": "3673840.31534",
    "final_y": "555463.203353",
    "longitude": "-90.09143746560028",
    "latitude": "30.021561550135562",
    "geocoded_column": {
      "latitude": "30.021561550135562",
      "longitude": "-90.09143746560028"
    }
  },
  {
    "service_request": "2024-1099847",
    "request_type": "Trash/Recycling",
    "request_reason": "Order Recycling Cart",
    "date_created": "2024-06-04T14:34:07.000",
    "date_modified": "2024-06-04T14:34:07.000",
    "request_status": "Pending",
    "responsible_agency": "Department of Sanitation",
    "final_address": "5812 Melrose St",
    "address_councildis": "E",
    "status": "Pending",
    "rowid": "1099847",
    "final_x": "3700365.29341",
    "final_y": "538500.670089",
    "longitude": "-90.00824600317983",
    "latitude": "29.974103742559276",
    "geocoded_column": {
      "latitude": "29.974103742559276",
      "longitude": "-90.00824600317983"
    }
  },
  {
    "service_request": "2024-1099846",
    "request_type": "Trash/Recycling",
    "request_reason": "Replace Trash Cart",
    "date_created": "2024-06-04T14:32:43.000",
    "date_modified": "2024-06-04T14:32:44.000",
    "request_status": "Pending",
    "responsible_agency": "Department of Sanitation",
    "final_address": "5812 Melrose St",
    "address_councildis": "E",
    "status": "Assigned to Contractor",
    "contractor": "Waste Pro",
    "rowid": "1099846",
    "final_x": "3700365.29341",
    "final_y": "538500.670089",
    "longitude": "-90.00824600317983",
    "latitude": "29.974103742559276",
    "geocoded_column": {
      "latitude": "29.974103742559276",
      "longitude": "-90.00824600317983"
    }
  },
  {
    "service_request": "2024-1099845",
    "request_type": "Trash/Recycling",
    "request_reason": "Request a Large Item Pick Up",
    "date_created": "2024-06-04T14:29:36.000",
    "date_modified": "2024-06-04T14:29:37.000",
    "request_status": "Pending",
    "responsible_agency": "Department of Sanitation",
    "final_address": "5721 Foxcroft Dr",
    "address_councildis": "E",
    "status": "Assigned to Contractor",
    "contractor": "Waste Pro",
    "rowid": "1099845",
    "final_x": "3715537.35333",
    "final_y": "561527.960415",
    "longitude": "-89.95945773759098",
    "latitude": "30.036928670781876",
    "geocoded_column": {
      "latitude": "30.036928670781876",
      "longitude": "-89.95945773759098"
    }
  },
  {
    "service_request": "2024-1099842",
    "request_type": "Roads/Drainage",
    "request_reason": "Pothole",
    "date_created": "2024-06-04T14:27:59.000",
    "date_modified": "2024-06-04T14:29:39.000",
    "request_status": "Pending",
    "responsible_agency": "Department of Public Works",
    "final_address": "2513 Bayou Rd",
    "address_councildis": "D",
    "status": "Pending",
    "rowid": "1099842",
    "final_x": "3678840.26427",
    "final_y": "539049.067082",
    "longitude": "-90.07620797953497",
    "latitude": "29.97627853838834",
    "geocoded_column": {
      "latitude": "29.97627853838834",
      "longitude": "-90.07620797953497"
    }
  },
  {
    "service_request": "2024-1099841",
    "request_type": "Property Maintenance",
    "request_reason": "Property Maintenance",
    "date_created": "2024-06-04T14:26:41.000",
    "date_modified": "2024-06-04T14:57:48.000",
    "case_close_date": "2024-06-04T09:57:48.000",
    "request_status": "Closed",
    "responsible_agency": "Department of Code Enforcement",
    "final_address": "2821 Thalia St",
    "address_councildis": "B",
    "status": "Referred to Code Enforcement",
    "rowid": "1099841",
    "final_x": "3675677.03893",
    "final_y": "528163.507264",
    "longitude": "-90.0865724763354",
    "latitude": "29.94644195845064",
    "geocoded_column": {
      "latitude": "29.94644195845064",
      "longitude": "-90.0865724763354"
    }
  },
  {
    "service_request": "2024-1099840",
    "request_type": "Trash/Recycling",
    "request_reason": "Missed Trash Pick-Up",
    "date_created": "2024-06-04T14:20:16.000",
    "date_modified": "2024-06-04T14:20:17.000",
    "request_status": "Pending",
    "responsible_agency": "Department of Sanitation",
    "final_address": "10121 Plainfield Dr",
    "address_councildis": "E",
    "status": "Assigned to Contractor",
    "contractor": "Waste Pro",
    "rowid": "1099840",
    "final_x": "3710113.82373",
    "final_y": "562700.160736",
    "longitude": "-89.97655324672668",
    "latitude": "30.040329443209004",
    "geocoded_column": {
      "latitude": "30.040329443209004",
      "longitude": "-89.97655324672668"
    }
  },
  {
    "service_request": "2024-1099839",
    "request_type": "Trash/Recycling",
    "request_reason": "Order Trash Cart",
    "date_created": "2024-06-04T14:17:53.000",
    "date_modified": "2024-06-04T14:17:53.000",
    "request_status": "Pending",
    "responsible_agency": "Department of Sanitation",
    "final_address": "3302 Nashville Ave",
    "address_councildis": "A",
    "status": "Assigned to Contractor",
    "contractor": "IV Waste",
    "rowid": "1099839",
    "final_x": "3667920.61825",
    "final_y": "527859.144063",
    "longitude": "-90.11107257135839",
    "latitude": "29.945834839429317",
    "geocoded_column": {
      "latitude": "29.945834839429317",
      "longitude": "-90.11107257135839"
    }
  },