[
  {
    "service_request": "2023-993044",
    "request_type": "Property Maintenance",
    "request_reason": "Property Maintenance",
    "date_created": "2023-04-21T01:22:59.000",
    "date_modified": "2023-04-21T01:22:59.000",
    "request_status": "Pending",
    "responsible_agency": "Department of Code Enforcement",
    "final_address": "3035 Carver St",
    "address_councildis": "C",
    "status": "Pending",
    "rowid": "993044",
    "final_x": "3708486.87448",
    "final_y": "519466.317943",
    "longitude": "-89.9833046962067",
    "latitude": "29.92150536973562",
    "geocoded_column": {
      "latitude": "29.92150536973562",
      "longitude": "-89.9833046962067"
    }
  },
  {
    "service_request": "2023-993043",
    "request_type": "Trash/Recycling",
    "request_reason": "Replace Trash Cart",
    "date_created": "2023-04-21T00:42:19.000",
    "date_modified": "2023-04-21T00:42:20.000",
    "request_status": "Pending",
    "responsible_agency": "Department of Sanitation",
    "final_address": "6319 S Rocheblave St",
    "address_councildis": "A",
    "status": "Assigned to Contractor",
    "contractor": "Richards Disposal",
    "rowid": "993043",
    "final_x": "3667311.21127",
    "final_y": "528970.796608",
    "longitude": "-90.11295929801189",
    "latitude": "29.94890938354993",
    "geocoded_column": {
      "latitude": "29.94890938354993",
      "longitude": "-90.11295929801189"
    }
  },
  {
    "service_request": "2023-993042",
    "request_type": "Property Maintenance",
    "request_reason": "Property Maintenance",
    "date_created": "2023-04-21T00:39:52.000",
    "date_modified": "2023-04-21T00:39:52.000",
    "request_status": "Pending",
    "responsible_agency": "Department of Code Enforcement",
    "final_address": "3240 Calhoun St",
    "address_councildis": "A",
    "status": "Pending",
    "rowid": "993042",
    "final_x": "3667332.30746",
    "final_y": "528772.547328",
    "longitude": "-90.11289935508918",
    "latitude": "29.948363644602544",
    "geocoded_column": {
      "latitude": "29.948363644602544",
      "longitude": "-90.11289935508918"
    }
  },
  {
    "service_request": "2023-993041",
    "request_type": "Trash/Recycling",
    "request_reason": "Repair Trash Cart",
    "date_created": "2023-04-20T23:18:47.000",
    "date_modified": "2023-04-20T23:18:48.000",
    "request_status": "Pending",
    "responsible_agency": "Department of Sanitation",
    "final_address": "4660 Camelot Dr",
    "address_councildis": "E",
    "status": "Assigned to Contractor",
    "contractor": "Waste Pro",
    "rowid": "993041",
    "final_x": "3708345.59032",
    "final_y": "555153.651033",
    "longitude": "-89.98242256719682",
    "latitude": "30.01963696072644",
    "geocoded_column": {
      "latitude": "30.01963696072644",
      "longitude": "-89.98242256719682"
    }
  },
  {
    "service_request": "2023-993040",
    "request_type": "Trash/Recycling",
    "request_reason": "Order Recycling Cart",
    "date_created": "2023-04-20T22:46:52.000",
    "date_modified": "2023-04-20T22:46:52.000",
    "request_status": "Pending",
    "responsible_agency": "Department of Sanitation",
    "final_address": "6479 Louisville St",
    "address_councildis": "A",
    "status": "Pending",
    "rowid": "993040",
    "final_x": "3668141.58772",
    "final_y": "550659.093524",
    "longitude": "-90.10960609107934",
    "latitude": "30.00852054004306",
    "geocoded_column": {
      "latitude": "30.00852054004306",
      "longitude": "-90.10960609107934"
    }
  },
  {
    "service_request": "2023-993039",
    "request_type": "Health Related Request",
    "request_reason": "Noise Ordinance Complaint",
    "date_created": "2023-04-20T22:38:31.000",
    "date_modified": "2023-04-20T22:38:31.000",
    "request_status": "Pending",
    "responsible_agency": "Health Department",
    "final_address": "1015 N Claiborne Ave, New Orleans, Louisiana, 70116",
    "address_councildis": "D",
    "status": "Pending",
    "rowid": "993039",
    "final_x": "3680383.01128",
    "final_y": "535722.163847",
    "longitude": "-90.07145124149515",
    "latitude": "29.967084070169896",
    "geocoded_column": {
      "latitude": "29.967084070169896",
      "longitude": "-90.07145124149515"
    }
  },
  {
    "service_request": "2023-993038",
    "request_type": "Traffic Signals/Signs/Striping/Streetlights",
    "request_reason": "Traffic Signal Malfunctioning/Damaged",
    "date_created": "2023-04-20T21:45:35.000",
    "date_modified": "2023-04-20T21:45:35.000",
    "request_status": "Pending",
    "responsible_agency": "Department of Public Works",
    "final_address": "4243 Earhart Blvd",
    "address_councildis": "B",
    "status": "Pending",
    "rowid": "993038",
    "final_x": "3671844.63495",
    "final_y": "532021.772803",
    "longitude": "-90.09854148089028",
    "latitude": "29.957165019763515",
    "geocoded_column": {
      "latitude": "29.957165019763515",
      "longitude": "-90.09854148089028"
    }
  },
  {
    "service_request": "2023-993035",
    "request_type": "Trash/Recycling",
    "request_reason": "Order Recycling Cart",
    "date_created": "2023-04-20T20:57:15.000",
    "date_modified": "2023-04-20T20:57:15.000",
    "request_status": "Pending",
    "responsible_agency": "Department of Sanitation",
    "final_address": "3040 St Philip St",
    "address_councildis": "A",
    "status": "Pending",
    "rowid": "993035",
    "final_x": "3676077.90523",
    "final_y": "538817.986185",
    "longitude": "-90.0849402912054",
    "latitude": "29.975726188125435",
    "geocoded_column": {
      "latitude": "29.975726188125435",
      "longitude": "-90.0849402912054"
    }
  },
  {
    "service_request": "2023-993034",
    "request_type": "Roads/Drainage",
    "request_reason": "Pothole",
    "date_created": "2023-04-20T20:46:27.000",
    "date_modified": "2023-04-20T20:46:27.000",
    "request_status": "Pending",
    "responsible_agency": "Department of Public Works",
    "final_address": "2028 Camp St",
    "address_councildis": "B",
    "status": "Pending",
    "rowid": "993034",
    "final_x": "3679094.39887",
    "final_y": "522698.36985",
    "longitude": "-90.0759720103262",
    "latitude": "29.931311953968205",
    "geocoded_column": {
      "latitude": "29.931311953968205",
      "longitude": "-90.0759720103262"
    }
  },
  {
    "service_request": "2023-993033",
    "request_type": "Traffic Signals/Signs/Striping/Streetlights",
    "request_reason": "Street Light Outage/Malfunction",
    "date_created": "2023-04-20T20:38:41.000",
    "date_modified": "2023-04-20T20:38:41.000",
    "request_status": "Pending",
    "responsible_agency": "Department of Public Works",
    "final_address": "7080 W Renaissance Ct",
    "address_councildis": "E",
    "status": "Assigned to Contractor",
    "contractor": "Legacy Professional Services",
    "rowid": "993033",
    "final_x": "3716722.88824",
    "final_y": "567368.645476",
    "longitude": "-89.95548928275878",
    "latitude": "30.05294903604092",
    "geocoded_column": {
      "latitude": "30.05294903604092",
      "longitude": "-89.95548928275878"
    }
  },
  {
    "service_request": "2023-993032",
    "request_type": "Trash/Recycling",
    "request_reason": "Request a Large Item Pick Up",
    "date_created": "2023-04-20T20:12:25.000",
    "date_modified": "2023-04-20T20:12:25.000",
    "request_status": "Pending",
    "responsible_agency": "Department of Sanitation",
    "final_address": "4660 Wright Rd",
    "address_councildis": "E",
    "status": "Assigned to Contractor",
    "contractor": "Waste Pro",
    "rowid": "993032",
    "final_x": "3716616.13234",
    "final_y": "556539.419674",
    "longitude": "-89.9562380653574",
    "latitude": "30.02317657314148",
    "geocoded_column": {
      "latitude": "30.02317657314148",
      "longitude": "-89.9562380653574"
    }
  },
  {
    "service_request": "2023-993031",
    "request_type": "Trash/Recycling",
    "request_reason": "Missed Trash Pick-Up",
    "date_created": "2023-04-20T19:53:09.000",
    "date_modified": "2023-04-20T19:53:09.000",
    "request_status": "Pending",
    "responsible_agency": "Department of Sanitation",
    "final_address": "5927 Pratt Dr",
    "address_councildis": "D",
    "status": "Assigned to Contractor",
    "contractor": "IV Waste",
    "rowid": "993031",
    "final_x": "3680317.70882",
    "final_y": "554429.5334",
    "longitude": "-90.07100662838735",
    "latitude": "30.018524708707204",
    "geocoded_column": {
      "latitude": "30.018524708707204",
      "longitude": "-90.07100662838735"
    }
  },
  {
    "service_request": "2023-993030",
    "request_type": "Health Related Request",
    "request_reason": "Noise Ordinance Complaint",
    "date_created": "2023-04-20T19:41:42.000",
    "date_modified": "2023-04-20T19:41:42.000",
    "request_status": "Pending",
    "responsible_agency": "Health Department",
    "status": "Pending",
    "rowid": "993030",
    "longitude": "0.0",
    "latitude": "0.0",
    "geocoded_column": {
      "latitude": "0.0",
      "longitude": "0.0"
    }
  },
  {
    "service_request": "2023-993029",
    "request_type": "Trash/Recycling",
    "request_reason": "Repair Trash Cart",
    "date_created": "2023-04-20T19:25:36.000",
    "date_modified": "2023-04-20T19:25:37.000",
    "request_status": "Pending",
    "responsible_agency": "Department of Sanitation",
    "final_address": "3207 Bienville Ave",
    "address_councildis": "B",
    "status": "Assigned to Contractor",
    "contractor": "Richards Disposal",
    "rowid": "993029",
    "final_x": "3674325.24129",
    "final_y": "536979.187336",
    "longitude": "-90.09053869145548",
    "latitude": "29.970722505628906",
    "geocoded_column": {
      "latitude": "29.970722505628906",
      "longitude": "-90.09053869145548"
    }
  },
  {
    "service_request": "2023-993028",
    "request_type": "Roads/Drainage",
    "request_reason": "Accessibility Ramps, Curbs and Sidewalk Repair",
    "date_created": "2023-04-20T19:15:06.000",
    "date_modified": "2023-04-20T19:15:06.000",
    "request_status": "Pending",
    "responsible_agency": "Department of Public Works",
    "status": "Pending",
    "rowid": "993028",
    "longitude": "0.0",
    "latitude": "0.0",
    "geocoded_column": {
      "latitude": "0.0",
      "longitude": "0.0"
    }
  },
  {
    "service_request": "2023-993027",
    "request_type": "Abandoned Vehicles",
    "request_reason": "Abandoned/Junk Vehicles",
    "date_created": "2023-04-20T18:54:59.000",
    "date_modified": "2023-04-20T18:54:59.000",
    "request_status": "Pending",
    "responsible_agency": "Department of Public Works",
    "final_address": "1830 Baronne St",
    "address_councildis": "B",
    "status": "Pending",
    "rowid": "993027",
    "final_x": "3677736.53448",
    "final_y": "524956.772477",
    "longitude": "-90.08018064819774",
    "latitude": "29.93756272111786",
    "geocoded_column": {
      "latitude": "29.93756272111786",
      "longitude": "-90.08018064819774"
    }
  },
  {
    "service_request": "2023-993026",
    "request_type": "Traffic Signals/Signs/Striping/Streetlights",
    "request_reason": "Street Light Outage/Malfunction",
    "date_created": "2023-04-20T18:50:41.000",
    "date_modified": "2023-04-20T18:50:42.000",
    "request_status": "Pending",
    "responsible_agency": "Department of Public Works",
    "final_address": "285 Audubon Blvd",
    "address_councildis": "A",
    "status": "Assigned to Contractor",
    "contractor": "Legacy Professional Services",
    "rowid": "993026",
    "final_x": "3667021.43002",
    "final_y": "529497.436353",
    "longitude": "-90.11385656887228",
    "latitude": "29.950365954852604",
    "geocoded_column": {
      "latitude": "29.950365954852604",
      "longitude": "-90.11385656887228"
    }
  },
  {
    "service_request": "2023-993025",
    "request_type": "Trash/Recycling",
    "request_reason": "Order Recycling Cart",
    "date_created": "2023-04-20T18:37:38.000",
    "date_modified": "2023-04-20T18:37:38.000",
    "request_status": "Pending",
    "responsible_agency": "Department of Sanitation",
    "status": "Pending",
    "rowid": "993025",
    "longitude": "0.0",
    "latitude": "0.0",
    "geocoded_column": {
      "latitude": "0.0",
      "longitude": "0.0"
    }
  },
  {
    "service_request": "2023-993024",
    "request_type": "Roads/Drainage",
    "request_reason": "Accessibility Ramps, Curbs and Sidewalk Repair",
    "date_created": "2023-04-20T18:07:39.000",
    "date_modified": "2023-04-20T18:07:39.000",
    "request_status": "Pending",
    "responsible_agency": "Department of Public Works",
    "status": "Pending",
    "rowid": "993024",
    "longitude": "0.0",
    "latitude": "0.0",
    "geocoded_column": {
      "latitude": "0.0",
      "longitude": "0.0"
    }
  },
  {
    "service_request": "2023-993023",
    "request_type": "Trash/Recycling",
    "request_reason": "Replace Trash Cart",
    "date_created": "2023-04-20T18:04:49.000",
    "date_modified": "2023-04-20T18:04:49.000",
    "request_status": "Pending",
    "responsible_agency": "Department of Sanitation",
    "final_address": "6335 Dauphine St",
    "address_councildis": "E",
    "status": "Assigned to Contractor",
    "contractor": "Waste Pro",
    "rowid": "993023",
    "final_x": "3699971.39037",
    "final_y": "531900.992643",
    "longitude": "-90.00973079913217",
    "latitude": "29.95596951565446",
    "geocoded_column": {
      "latitude": "29.95596951565446",
      "longitude": "-90.00973079913217"
    }
  },
  {
    "service_request": "2023-993022",
    "request_type": "Mosquito, Termite & Rodent Control",
    "request_reason": "Mosquito Complaint",
    "date_created": "2023-04-20T18:04:30.000",
    "date_modified": "2023-04-20T18:04:30.000",
    "request_status": "Pending",
    "responsible_agency": "Mosquito, Termite & Rodent Control Board",
    "final_address": "5410 Peoples Ave",
    "address_councildis": "D",
    "status": "Pending",
    "rowid": "993022",
    "final_x": "3687951.43017",
    "final_y": "553122.985751",
    "longitude": "-90.04693326205012",
    "latitude": "30.01469873829396",
    "geocoded_column": {
      "latitude": "30.01469873829396",
      "longitude": "-90.04693326205012"
    }
  },
  {
    "service_request": "2023-993021",
    "request_type": "Trash/Recycling",
    "request_reason": "Request a Large Item Pick Up",
    "date_created": "2023-04-20T18:00:54.000",
    "date_modified": "2023-04-20T18:00:54.000",
    "request_status": "Pending",
    "responsible_agency": "Department of Sanitation",
    "final_address": "1016 Joseph St",
    "address_councildis": "A",
    "status": "Assigned to Contractor",
    "contractor": "Richards Disposal",
    "rowid": "993021",
    "final_x": "3666241.31847",
    "final_y": "519674.125944",
    "longitude": "-90.11664910922086",
    "latitude": "29.923377796667936",
    "geocoded_column": {
      "latitude": "29.923377796667936",
      "longitude": "-90.11664910922086"
    }
  },
  {
    "service_request": "2023-993020",
    "request_type": "Trash/Recycling",
    "request_reason": "Request a Large Item Pick Up",
    "date_created": "2023-04-20T17:53:41.000",
    "date_modified": "2023-04-20T17:53:42.000",
    "request_status": "Pending",
    "responsible_agency": "Department of Sanitation",
    "final_address": "11235 Fernley Dr",
    "address_councildis": "E",
    "status": "Assigned to Contractor",
    "contractor": "Waste Pro",
    "rowid": "993020",
    "final_x": "3717363.37208",
    "final_y": "559934.145117",
    "longitude": "-89.95374783157818",
    "latitude": "30.032485994731484",
    "geocoded_column": {
      "latitude": "30.032485994731484",
      "longitude": "-89.95374783157818"
    }
  },
  {
    "service_request": "2023-993019",
    "request_type": "Trash/Recycling",
    "request_reason": "Missed Trash Pick-Up",
    "date_created": "2023-04-20T17:49:47.000",
    "date_modified": "2023-04-20T17:49:48.000",
    "request_status": "Pending",
    "responsible_agency": "Department of Sanitation",
    "final_address": "3016 Second St",
    "address_councildis": "B",
    "status": "Assigned to Contractor",
    "contractor": "Richards Disposal",
    "rowid": "993019",
    "final_x": "3673777.97121",
    "final_y": "527374.109311",
    "longitude": "-90.09259550244812",
    "latitude": "29.944328054231928",
    "geocoded_column": {
      "latitude": "29.944328054231928",
      "longitude": "-90.09259550244812"
    }
  },
  {
    "service_request": "2023-993018",
    "request_type": "Trash/Recycling",
    "request_reason": "MIssed Recycling Pick-Up",
    "date_created": "2023-04-20T17:44:13.000",
    "date_modified": "2023-04-20T17:44:14.000",
    "request_status": "Pending",
    "responsible_agency": "Department of Sanitation",
    "final_address": "700 Block of Jefferson Ave, New Orleans, Louisiana, 70115",
    "status": "Assigned to Contractor",
    "rowid": "993018",
    "longitude": "0.0",
    "latitude": "0.0",
    "geocoded_column": {
      "latitude": "0.0",
      "longitude": "0.0"
    }
  },
  {
    "service_request": "2023-993017",
    "request_type": "Trash/Recycling",
    "request_reason": "Repair Trash Cart",
    "date_created": "2023-04-20T17:38:08.000",
    "date_modified": "2023-04-20T17:38:09.000",
    "request_status": "Pending",
    "responsible_agency": "Department of Sanitation",
    "final_address": "8121 Nelson St",
    "address_councildis": "A",
    "status": "Assigned to Contractor",
    "contractor": "Richards Disposal",
    "rowid": "993017",
    "final_x": "3665045.40352",
    "final_y": "531965.042563",
    "longitude": "-90.12001335183436",
    "latitude": "29.957208748047286",
    "geocoded_column": {
      "latitude": "29.957208748047286",
      "longitude": "-90.12001335183436"
    }
  },
  {
    "service_request": "2023-993016",
    "request_type": "Traffic Signals/Signs/Striping/Streetlights",
    "request_reason": "Street Light Outage/Malfunction",
    "date_created": "2023-04-20T17:33:41.000",
    "date_modified": "2023-04-20T17:33:42.000",
    "request_status": "Pending",
    "responsible_agency": "Department of Public Works",
    "status": "Assigned to Contractor",
    "contractor": "Legacy Professional Services",
    "rowid": "993016",
    "longitude": "0.0",
    "latitude": "0.0",
    "geocoded_column": {
      "latitude": "0.0",
      "longitude": "0.0"
    }
  },
  {
    "service_request": "2023-993015",
    "request_type": "Trash/Recycling",
    "request_reason": "Request a Large Item Pick Up",
    "date_created": "2023-04-20T17:30:57.000",
    "date_modified": "2023-04-20T17:30:57.000",
    "request_status": "Pending",
    "responsible_agency": "Department of Sanitation",
    "final_address": "1030 Tricou St",
    "address_councildis": "E",
    "status": "Assigned to Contractor",
    "contractor": "Waste Pro",
    "rowid": "993015",
    "final_x": "3700013.42359",
    "final_y": "532859.020612",
    "longitude": "-90.00956312494074",
    "latitude": "29.958602416737786",
    "geocoded_column": {
      "latitude": "29.958602416737786",
      "longitude": "-90.00956312494074"
    }
  },
  {
    "service_request": "2023-993014",
    "request_type": "Abandoned Vehicles",
    "request_reason": "Abandoned/Junk Vehicles",
    "date_created": "2023-04-20T17:03:59.000",
    "date_modified": "2023-04-20T17:03:59.000",
    "request_status": "Pending",
    "responsible_agency": "Department of Public Works",
    "final_address": "3800 BLK Perrier St",
    "address_councildis": "B",
    "status": "Pending",
    "rowid": "993014",
    "final_x": "3672947.91096",
    "final_y": "520287.670827",
    "longitude": "-90.09545795576994",
    "latitude": "29.92486733386166",
    "geocoded_column": {
      "latitude": "29.92486733386166",
      "longitude": "-90.09545795576994"
    }
  },
  {
    "service_request": "2023-993013",
    "request_type": "Mosquito, Termite & Rodent Control",
    "request_reason": "Rodent Complaint (Rats)",
    "date_created": "2023-04-20T17:03:21.000",
    "date_modified": "2023-04-20T17:03:21.000",
    "request_status": "Pending",
    "responsible_agency": "Mosquito, Termite & Rodent Control Board",
    "final_address": "1517 Tropic Dr",
    "address_councildis": "C",
    "status": "Pending",
    "rowid": "993013",
    "final_x": "3699465.82135",
    "final_y": "525391.917181",
    "longitude": "-90.01156429230458",
    "latitude": "29.93808789278876",
    "geocoded_column": {
      "latitude": "29.93808789278876",
      "longitude": "-90.01156429230458"
    }
  },
  {
    "service_request": "2023-993011",
    "request_type": "Trash/Recycling",
    "request_reason": "Missed Trash Pick-Up",
    "date_created": "2023-04-20T16:51:53.000",
    "date_modified": "2023-04-20T16:51:54.000",
    "request_status": "Pending",
    "responsible_agency": "Department of Sanitation",
    "final_address": "1700 BLK Elysian Fields Ave",
    "address_councildis": "D",
    "status": "Assigned to Contractor",
    "contractor": "IV Waste",
    "rowid": "993011",
    "final_x": "3684769.17472",
    "final_y": "538693.843332",
    "longitude": "-90.05749523918266",
    "latitude": "29.975121607643153",
    "geocoded_column": {
      "latitude": "29.975121607643153",
      "longitude": "-90.05749523918266"
    }
  },
  {
    "service_request": "2023-993010",
    "request_type": "Trash/Recycling",
    "request_reason": "Request a Large Item Pick Up",
    "date_created": "2023-04-20T16:50:27.000",
    "date_modified": "2023-04-20T16:50:27.000",
    "request_status": "Pending",
    "responsible_agency": "Department of Sanitation",
    "final_address": "2314 S Johnson St",
    "address_councildis": "B",
    "status": "Assigned to Contractor",
    "contractor": "Richards Disposal",
    "rowid": "993010",
    "final_x": "3673639.26952",
    "final_y": "528650.387136",
    "longitude": "-90.09298980500414",
    "latitude": "29.94784152731979",
    "geocoded_column": {
      "latitude": "29.94784152731979",
      "longitude": "-90.09298980500414"
    }
  },
  {
    "service_request": "2023-993009",
    "request_type": "Trash/Recycling",
    "request_reason": "Order Recycling Cart",
    "date_created": "2023-04-20T16:48:23.000",
    "date_modified": "2023-04-20T16:48:24.000",
    "request_status": "Pending",
    "responsible_agency": "Department of Sanitation",
    "final_address": "4861 Marque Dr",
    "address_councildis": "E",
    "status": "Pending",
    "rowid": "993009",
    "final_x": "3710040.02347",
    "final_y": "556646.771802",
    "longitude": "-89.97701292475521",
    "latitude": "30.023687421235604",
    "geocoded_column": {
      "latitude": "30.023687421235604",
      "longitude": "-89.97701292475521"
    }
  },
  {
    "service_request": "2023-993007",
    "request_type": "Trash/Recycling",
    "request_reason": "Repair Trash Cart",
    "date_created": "2023-04-20T16:46:27.000",
    "date_modified": "2023-04-20T16:46:27.000",
    "request_status": "Pending",
    "responsible_agency": "Department of Sanitation",
    "final_address": "4861 Marque Dr",
    "address_councildis": "E",
    "status": "Assigned to Contractor",
    "contractor": "Waste Pro",
    "rowid": "993007",
    "final_x": "3710040.02347",
    "final_y": "556646.771802",
    "longitude": "-89.97701292475521",
    "latitude": "30.023687421235604",
    "geocoded_column": {
      "latitude": "30.023687421235604",
      "longitude": "-89.97701292475521"
    }
  },
  {
    "service_request": "2023-993006",
    "request_type": "Trash/Recycling",
    "request_reason": "Replace Recycling Cart",
    "date_created": "2023-04-20T16:42:47.000",
    "date_modified": "2023-04-20T16:42:47.000",
    "request_status": "Pending",
    "responsible_agency": "Department of Sanitation",
    "final_address": "6325 York St",
    "address_councildis": "A",
    "status": "Pending",
    "rowid": "993006",
    "final_x": "3667418.18778",
    "final_y": "529241.238977",
    "longitude": "-90.11261242875403",
    "latitude": "29.949649878864143",
    "geocoded_column": {
      "latitude": "29.949649878864143",
      "longitude": "-90.11261242875403"
    }
  },
  {
    "service_request": "2023-993005",
    "request_type": "Trash/Recycling",
    "request_reason": "Request a Large Item Pick Up",
    "date_created": "2023-04-20T16:41:10.000",
    "date_modified": "2023-04-20T16:41:11.000",
    "request_status": "Pending",
    "responsible_agency": "Department of Sanitation",
    "final_address": "3120 Laurel St",
    "address_councildis": "B",
    "status": "Assigned to Contractor",
    "contractor": "Richards Disposal",
    "rowid": "993005",
    "final_x": "3676389.88654",
    "final_y": "519468.098231",
    "longitude": "-90.08462095561443",
    "latitude": "29.922511080295305",
    "geocoded_column": {
      "latitude": "29.922511080295305",
      "longitude": "-90.08462095561443"
    }
  },
  {
    "service_request": "2023-993004",
    "request_type": "Property Maintenance",
    "request_reason": "Property Maintenance",
    "date_created": "2023-04-20T16:39:43.000",
    "date_modified": "2023-04-20T16:39:44.000",
    "request_status": "Pending",
    "responsible_agency": "Department of Code Enforcement",
    "final_address": "7122 Salem Dr",
    "address_councildis": "E",
    "status": "Pending",
    "rowid": "993004",
    "final_x": "3706410.26167",
    "final_y": "561207.40003",
    "longitude": "-89.98831298860924",
    "latitude": "30.03634500182433",
    "geocoded_column": {
      "latitude": "30.03634500182433",
      "longitude": "-89.98831298860924"
    }
  },
  {
    "service_request": "2023-993003",
    "request_type": "Property Maintenance",
    "request_reason": "Property Maintenance",
    "date_created": "2023-04-20T16:34:02.000",
    "date_modified": "2023-04-20T16:34:02.000",
    "request_status": "Pending",
    "responsible_agency": "Department of Code Enforcement",
    "final_address": "5771 Tullis Dr",
    "address_councildis": "C",
    "status": "Pending",
    "rowid": "993003",
    "final_x": "3705449.26046",
    "final_y": "512736.887665",
    "longitude": "-89.99314149078683",
    "latitude": "29.903099809947054",
    "geocoded_column": {
      "latitude": "29.903099809947054",
      "longitude": "-89.99314149078683"
    }
  },
  {
    "service_request": "2023-993002",
    "request_type": "Trash/Recycling",
    "request_reason": "Replace Trash Cart",
    "date_created": "2023-04-20T16:29:17.000",
    "date_modified": "2023-04-20T16:29:18.000",
    "request_status": "Pending",
    "responsible_agency": "Department of Sanitation",
    "final_address": "82 Versailles Blvd",
    "address_councildis": "B",
    "status": "Assigned to Contractor",
    "contractor": "Richards Disposal",
    "rowid": "993002",
    "final_x": "3667942.69498",
    "final_y": "530843.52493",
    "longitude": "-90.11090234218462",
    "latitude": "29.954040266915815",
    "geocoded_column": {
      "latitude": "29.954040266915815",
      "longitude": "-90.11090234218462"
    }
  },
  {
    "service_request": "2023-993001",
    "request_type": "Trash/Recycling",
    "request_reason": "Request a Large Item Pick Up",
    "date_created": "2023-04-20T16:27:43.000",
    "date_modified": "2023-04-20T16:27:43.000",
    "request_status": "Pending",
    "responsible_agency": "Department of Sanitation",
    "final_address": "4907 Camp St",
    "address_councildis": "B",
    "status": "Assigned to Contractor",
    "contractor": "Richards Disposal",
    "rowid": "993001",
    "final_x": "3668908.3769",
    "final_y": "518996.806647",
    "longitude": "-90.10825304170682",
    "latitude": "29.921437243928448",
    "geocoded_column": {
      "latitude": "29.921437243928448",
      "longitude": "-90.10825304170682"
    }
  },
  {
    "service_request": "2023-993000",
    "request_type": "Trash/Recycling",
    "request_reason": "Return Recycling Cart",
    "date_created": "2023-04-20T16:23:14.000",
    "date_modified": "2023-04-20T16:23:14.000",
    "request_status": "Pending",
    "responsible_agency": "Department of Sanitation",
    "final_address": "6043 Hurst St",
    "address_councildis": "A",
    "status": "Pending",
    "rowid": "993000",
    "final_x": "3665220.78292",
    "final_y": "521966.878202",
    "longitude": "-90.11979391990407",
    "latitude": "29.92971190009224",
    "geocoded_column": {
      "latitude": "29.92971190009224",
      "longitude": "-90.11979391990407"
    }
  },
  {
    "service_request": "2023-992999",
    "request_type": "Trash/Recycling",
    "request_reason": "Order Recycling Cart",
    "date_created": "2023-04-20T16:21:26.000",
    "date_modified": "2023-04-20T16:21:26.000",
    "request_status": "Pending",
    "responsible_agency": "Department of Sanitation",
    "final_address": "1553 Holiday Pl",
    "address_councildis": "C",
    "status": "Pending",
    "rowid": "992999",
    "final_x": "3698893.03991",
    "final_y": "525251.988797",
    "longitude": "-90.01337769230247",
    "latitude": "29.937721293606728",
    "geocoded_column": {
      "latitude": "29.937721293606728",
      "longitude": "-90.01337769230247"
    }
  },
  {
    "service_request": "2023-992998",
    "request_type": "Trash/Recycling",
    "request_reason": "Missed Trash Pick-Up",
    "date_created": "2023-04-20T16:14:55.000",
    "date_modified": "2023-04-20T16:14:56.000",
    "request_status": "Pending",
    "responsible_agency": "Department of Sanitation",
    "final_address": "706 River Oaks Dr",
    "address_councildis": "C",
    "status": "Assigned to Contractor",
    "contractor": "Richards Disposal",
    "rowid": "992998",
    "final_x": "3701545.82583",
    "final_y": "519947.15692",
    "longitude": "-90.00519682115737",
    "latitude": "29.923050552996486",
    "geocoded_column": {
      "latitude": "29.923050552996486",
      "longitude": "-90.00519682115737"
    }
  },
  {
    "service_request": "2023-992997",
    "request_type": "Trash/Recycling",
    "request_reason": "Repair Trash Cart",
    "date_created": "2023-04-20T16:11:37.000",
    "date_modified": "2023-04-20T16:11:38.000",
    "request_status": "Pending",
    "responsible_agency": "Department of Sanitation",
    "final_address": "3515 Baudin St",
    "address_councildis": "B",
    "status": "Assigned to Contractor",
    "contractor": "Richards Disposal",
    "rowid": "992997",
    "final_x": "3671794.51598",
    "final_y": "535833.889415",
    "longitude": "-90.09857002483766",
    "latitude": "29.967648553218513",
    "geocoded_column": {
      "latitude": "29.967648553218513",
      "longitude": "-90.09857002483766"
    }
  },
  {
    "service_request": "2023-992996",
    "request_type": "Trash/Recycling",
    "request_reason": "Missed Trash Pick-Up",
    "date_created": "2023-04-20T16:08:58.000",
    "date_modified": "2023-04-20T16:08:59.000",
    "request_status": "Pending",
    "responsible_agency": "Department of Sanitation",
    "final_address": "3766 Herald St",
    "address_councildis": "C",
    "status": "Assigned to Contractor",
    "contractor": "Richards Disposal",
    "rowid": "992996",
    "final_x": "3702231.23946",
    "final_y": "516978.108149",
    "longitude": "-90.00314205031033",
    "latitude": "29.914864825742253",
    "geocoded_column": {
      "latitude": "29.914864825742253",
      "longitude": "-90.00314205031033"
    }
  },
  {
    "service_request": "2023-992995",
    "request_type": "Trash/Recycling",
    "request_reason": "Request a Large Item Pick Up",
    "date_created": "2023-04-20T16:05:45.000",
    "date_modified": "2023-04-20T16:05:45.000",
    "request_status": "Pending",
    "responsible_agency": "Department of Sanitation",
    "final_address": "1418 Clouet St",
    "address_councildis": "C",
    "status": "Assigned to Contractor",
    "contractor": "IV Waste",
    "rowid": "992995",
    "final_x": "3689292.56259",
    "final_y": "537278.783944",
    "longitude": "-90.04325956045722",
    "latitude": "29.97109142949715",
    "geocoded_column": {
      "latitude": "29.97109142949715",
      "longitude": "-90.04325956045722"
    }
  },
  {
    "service_request": "2023-992994",
    "request_type": "Trash/Recycling",
    "request_reason": "Request a Large Item Pick Up",
    "date_created": "2023-04-20T16:05:12.000",
    "date_modified": "2023-04-20T16:05:12.000",
    "request_status": "Pending",
    "responsible_agency": "Department of Sanitation",
    "final_address": "1225 Marais St",
    "address_councildis": "C",
    "status": "Assigned to Contractor",
    "contractor": "Richards Disposal",
    "rowid": "992994",
    "final_x": "3681823.32463",
    "final_y": "535683.052295",
    "longitude": "-90.06690409115626",
    "latitude": "29.966932833807675",
    "geocoded_column": {
      "latitude": "29.966932833807675",
      "longitude": "-90.06690409115626"
    }
  },
  {
    "service_request": "2023-992993",
    "request_type": "Traffic Signals/Signs/Striping/Streetlights",
    "request_reason": "Traffic Signal Malfunctioning/Damaged",
    "date_created": "2023-04-20T16:02:08.000",
    "date_modified": "2023-04-20T16:02:08.000",
    "request_status": "Pending",
    "responsible_agency": "Department of Public Works",
    "final_address": "ST CHARLES AVE & NASHVILLE AVE",
    "address_councildis": "A",
    "status": "Pending",
    "rowid": "992993",
    "final_x": "3666231.1",
    "final_y": "522124.98",
    "longitude": "-90.11659921430268",
    "latitude": "29.93011716947148",
    "geocoded_column": {
      "latitude": "29.93011716947148",
      "longitude": "-90.11659921430268"
    }
  },
  {
    "service_request": "2023-992992",
    "request_type": "Abandoned Vehicles",
    "request_reason": "Abandoned/Junk Vehicles",
    "date_created": "2023-04-20T16:01:44.000",
    "date_modified": "2023-04-20T16:04:45.000",
    "request_status": "Pending",
    "responsible_agency": "Department of Public Works",
    "final_address": "4322 America St",
    "address_councildis": "E",
    "status": "Pending",
    "rowid": "992992",
    "final_x": "3699891.72234",
    "final_y": "552787.075222",
    "longitude": "-90.00922024466762",
    "latitude": "30.013401118303076",
    "geocoded_column": {
      "latitude": "30.013401118303076",
      "longitude": "-90.00922024466762"
    }
  },
  {
    "service_request": "2023-992991",
    "request_type": "Trash/Recycling",
    "request_reason": "Repair Trash Cart",
    "date_created": "2023-04-20T16:00:46.000",
    "date_modified": "2023-04-20T16:00:47.000",
    "request_status": "Pending",
    "responsible_agency": "Department of Sanitation",
    "final_address": "4626 Anson St",
    "address_councildis": "C",
    "status": "Assigned to Contractor",
    "contractor": "Richards Disposal",
    "rowid": "992991",
    "final_x": "3702184.78244",
    "final_y": "521632.275321",
    "longitude": "-90.00311814479304",
    "latitude": "29.927663666331934",
    "geocoded_column": {
      "latitude": "29.927663666331934",
      "longitude": "-90.00311814479304"
    }
  },
  {
    "service_request": "2023-992990",
    "request_type": "Abandoned Vehicles",
    "request_reason": "Abandoned/Junk Vehicles",
    "date_created": "2023-04-20T15:59:32.000",
    "date_modified": "2023-04-20T16:01:15.000",
    "request_status": "Pending",
    "responsible_agency": "Department of Public Works",
    "final_address": "4222 America St",
    "address_councildis": "E",
    "status": "Pending",
    "rowid": "992990",
    "final_x": "3699947.84919",
    "final_y": "552242.76655",
    "longitude": "-90.00906278973713",
    "latitude": "30.011902691786908",
    "geocoded_column": {
      "latitude": "30.011902691786908",
      "longitude": "-90.00906278973713"
    }
  },
  {
    "service_request": "2023-992989",
    "request_type": "Tax and Revenue",
    "request_reason": "Sales Tax Question",
    "date_created": "2023-04-20T15:57:35.000",
    "date_modified": "2023-04-20T15:57:36.000",
    "request_status": "Pending",
    "responsible_agency": "Bureau of Revenue",
    "status": "Pending",
    "rowid": "992989",
    "longitude": "0.0",
    "latitude": "0.0",
    "geocoded_column": {
      "latitude": "0.0",
      "longitude": "0.0"
    }
  },
  {
    "service_request": "2023-992988",
    "request_type": "Tax and Revenue",
    "request_reason": "Sales Tax Question",
    "date_created": "2023-04-20T15:56:07.000",
    "date_modified": "2023-04-20T15:56:07.000",
    "request_status": "Pending",
    "responsible_agency": "Bureau of Revenue",
    "status": "Pending",
    "rowid": "992988",
    "longitude": "0.0",
    "latitude": "0.0",
    "geocoded_column": {
      "latitude": "0.0",
      "longitude": "0.0"
    }
  },
  {
    "service_request": "2023-992987",
    "request_type": "Trash/Recycling",
    "request_reason": "Order Trash Cart",
    "date_created": "2023-04-20T15:52:39.000",
    "date_modified": "2023-04-20T16:35:09.000",
    "request_status": "Pending",
    "responsible_agency": "Department of Sanitation",
    "final_address": "1339 France St",
    "address_councildis": "D",
    "status": "Assigned to Contractor",
    "contractor": "IV Waste",
    "rowid": "992987",
    "final_x": "3692683.97296",
    "final_y": "536210.330311",
    "longitude": "-90.03258738317676",
    "latitude": "29.968048134259593",
    "geocoded_column": {
      "latitude": "29.968048134259593",
      "longitude": "-90.03258738317676"
    }
  },
  {
    "service_request": "2023-992986",
    "request_type": "Trash/Recycling",
    "request_reason": "Order Trash Cart",
    "date_created": "2023-04-20T15:52:09.000",
    "date_modified": "2023-04-20T15:52:10.000",
    "request_status": "Pending",
    "responsible_agency": "Department of Sanitation",
    "final_address": "2307 Gordon St",
    "address_councildis": "E",
    "status": "Assigned to Contractor",
    "contractor": "Waste Pro",
    "rowid": "992986",
    "final_x": "3700945.90615",
    "final_y": "537788.093576",
    "longitude": "-90.00643836842491",
    "latitude": "29.97212594054471",
    "geocoded_column": {
      "latitude": "29.97212594054471",
      "longitude": "-90.00643836842491"
    }
  },
  {
    "service_request": "2023-992985",
    "request_type": "Trash/Recycling",
    "request_reason": "Illegal Dumping",
    "date_created": "2023-04-20T15:51:45.000",
    "date_modified": "2023-04-20T17:57:51.000",
    "request_status": "Pending",
    "responsible_agency": "Department of Sanitation",
    "final_address": "2437 Marengo St",
    "address_councildis": "B",
    "status": "Pending",
    "rowid": "992985",
    "final_x": "3671688.26292",
    "final_y": "524108.588476",
    "longitude": "-90.09930436240008",
    "latitude": "29.935410986976944",
    "geocoded_column": {
      "latitude": "29.935410986976944",
      "longitude": "-90.09930436240008"
    }
  },
  {
    "service_request": "2023-992984",
    "request_type": "Trash/Recycling",
    "request_reason": "Order Recycling Cart",
    "date_created": "2023-04-20T15:50:34.000",
    "date_modified": "2023-04-20T15:50:34.000",
    "request_status": "Pending",
    "responsible_agency": "Department of Sanitation",
    "final_address": "7825 Hampson St",
    "address_councildis": "A",
    "status": "Pending",
    "rowid": "992984",
    "final_x": "3661472.85638",
    "final_y": "526531.51507",
    "longitude": "-90.13147438477147",
    "latitude": "29.942371824020977",
    "geocoded_column": {
      "latitude": "29.942371824020977",
      "longitude": "-90.13147438477147"
    }
  },
  {
    "service_request": "2023-992983",
    "request_type": "Trash/Recycling",
    "request_reason": "Illegal Dumping",
    "date_created": "2023-04-20T15:48:36.000",
    "date_modified": "2023-04-20T15:48:37.000",
    "request_status": "Pending",
    "responsible_agency": "Department of Sanitation",
    "final_address": "8400 BLK Jeannette St",
    "address_councildis": "A",
    "status": "Pending",
    "rowid": "992983",
    "final_x": "3661744.66762",
    "final_y": "529994.804627",
    "longitude": "-90.13050142864894",
    "latitude": "29.95188692068568",
    "geocoded_column": {
      "latitude": "29.95188692068568",
      "longitude": "-90.13050142864894"
    }
  },
  {
    "service_request": "2023-992982",
    "request_type": "Abandoned Vehicles",
    "request_reason": "Abandoned/Junk Vehicles",
    "date_created": "2023-04-20T15:47:01.000",
    "date_modified": "2023-04-20T15:47:01.000",
    "request_status": "Pending",
    "responsible_agency": "Department of Public Works",
    "final_address": "519 Hagan St",
    "address_councildis": "A",
    "status": "Pending",
    "rowid": "992982",
    "final_x": "3674263.83982",
    "final_y": "537992.355977",
    "longitude": "-90.09069790498782",
    "latitude": "29.973510206398664",
    "geocoded_column": {
      "latitude": "29.973510206398664",
      "longitude": "-90.09069790498782"
    }
  },
  {
    "service_request": "2023-992981",
    "request_type": "Trash/Recycling",
    "request_reason": "MIssed Recycling Pick-Up",
    "date_created": "2023-04-20T15:41:10.000",
    "date_modified": "2023-04-20T15:41:10.000",
    "request_status": "Pending",
    "responsible_agency": "Department of Sanitation",
    "final_address": "707 Napoleon Ave",
    "address_councildis": "B",
    "status": "Assigned to Contractor",
    "contractor": "Richards Disposal",
    "rowid": "992981",
    "final_x": "3671209.84321",
    "final_y": "518144.849974",
    "longitude": "-90.10101722388623",
    "latitude": "29.919026773839985",
    "geocoded_column": {
      "latitude": "29.919026773839985",
      "longitude": "-90.10101722388623"
    }
  },
  {
    "service_request": "2023-992980",
    "request_type": "Trash/Recycling",
    "request_reason": "Replace Trash Cart",
    "date_created": "2023-04-20T15:40:24.000",
    "date_modified": "2023-04-20T15:40:25.000",
    "request_status": "Pending",
    "responsible_agency": "Department of Sanitation",
    "final_address": "3604 State Street Dr",
    "address_councildis": "A",
    "status": "Assigned to Contractor",
    "contractor": "Richards Disposal",
    "rowid": "992980",
    "final_x": "3667826.52564",
    "final_y": "528994.027328",
    "longitude": "-90.111331440409",
    "latitude": "29.948958159294644",
    "geocoded_column": {
      "latitude": "29.948958159294644",
      "longitude": "-90.111331440409"
    }
  },
  {
    "service_request": "2023-992979",
    "request_type": "Trash/Recycling",
    "request_reason": "Request a Large Item Pick Up",
    "date_created": "2023-04-20T15:40:13.000",
    "date_modified": "2023-04-20T15:40:13.000",
    "request_status": "Pending",
    "responsible_agency": "Department of Sanitation",
    "final_address": "2830 Bruxelles St",
    "address_councildis": "D",
    "status": "Assigned to Contractor",
    "contractor": "IV Waste",
    "rowid": "992979",
    "final_x": "3680272.89346",
    "final_y": "542865.134797",
    "longitude": "-90.07155059377428",
    "latitude": "29.986728099512984",
    "geocoded_column": {
      "latitude": "29.986728099512984",
      "longitude": "-90.07155059377428"
    }
  },
  {
    "service_request": "2023-992978",
    "request_type": "Abandoned Vehicles",
    "request_reason": "Abandoned/Junk Vehicles",
    "date_created": "2023-04-20T15:34:56.000",
    "date_modified": "2023-04-20T15:34:56.000",
    "request_status": "Pending",
    "responsible_agency": "Department of Public Works",
    "final_address": "4911 Hickerson Dr",
    "address_councildis": "E",
    "status": "Pending",
    "rowid": "992978",
    "final_x": "3710268.42443",
    "final_y": "556784.790746",
    "longitude": "-89.9762860657091",
    "latitude": "30.02405948343988",
    "geocoded_column": {
      "latitude": "30.02405948343988",
      "longitude": "-89.9762860657091"
    }
  },
  {
    "service_request": "2023-992977",
    "request_type": "Trash/Recycling",
    "request_reason": "Request a Large Item Pick Up",
    "date_created": "2023-04-20T15:34:43.000",
    "date_modified": "2023-04-20T15:34:44.000",
    "request_status": "Pending",
    "responsible_agency": "Department of Sanitation",
    "final_address": "4411 Longfellow Dr",
    "address_councildis": "E",
    "status": "Assigned to Contractor",
    "contractor": "Waste Pro",
    "rowid": "992977",
    "final_x": "3709859.6076",
    "final_y": "554142.481368",
    "longitude": "-89.97767661709715",
    "latitude": "30.016807470655287",
    "geocoded_column": {
      "latitude": "30.016807470655287",
      "longitude": "-89.97767661709715"
    }
  },
  {
    "service_request": "2023-992976",
    "request_type": "Roads/Drainage",
    "request_reason": "Service Cut",
    "date_created": "2023-04-20T15:32:32.000",
    "date_modified": "2023-04-20T15:47:05.000",
    "request_status": "Pending",
    "responsible_agency": "Department of Public Works",
    "final_address": "MARIGNY ST & PRESSBURG ST",
    "address_councildis": "D",
    "status": "Pending",
    "rowid": "992976",
    "final_x": "3683949.3",
    "final_y": "554621.38",
    "longitude": "-90.05952540200926",
    "latitude": "30.0189417095896",
    "geocoded_column": {
      "latitude": "30.0189417095896",
      "longitude": "-90.05952540200926"
    }
  },
  {
    "service_request": "2023-992975",
    "request_type": "Trash/Recycling",
    "request_reason": "Replace Trash Cart",
    "date_created": "2023-04-20T15:28:11.000",
    "date_modified": "2023-04-20T15:31:32.000",
    "request_status": "Pending",
    "responsible_agency": "Department of Sanitation",
    "final_address": "830 Adele St",
    "address_councildis": "B",
    "status": "Assigned to Contractor",
    "contractor": "Richards Disposal",
    "rowid": "992975",
    "final_x": "3679872.30901",
    "final_y": "521724.112826",
    "longitude": "-90.07355006029594",
    "latitude": "29.92860957219823",
    "geocoded_column": {
      "latitude": "29.92860957219823",
      "longitude": "-90.07355006029594"
    }
  },
  {
    "service_request": "2023-992974",
    "request_type": "Abandoned Vehicles",
    "request_reason": "Abandoned/Junk Vehicles",
    "date_created": "2023-04-20T15:23:18.000",
    "date_modified": "2023-04-20T15:23:19.000",
    "request_status": "Pending",
    "responsible_agency": "Department of Public Works",
    "final_address": "2200 BLK Bienville Ave",
    "address_councildis": "B",
    "status": "Pending",
    "rowid": "992974",
    "final_x": "3677306.21097",
    "final_y": "534622.292092",
    "longitude": "-90.08120575876637",
    "latitude": "29.964152606847136",
    "geocoded_column": {
      "latitude": "29.964152606847136",
      "longitude": "-90.08120575876637"
    }
  },
  {
    "service_request": "2023-992973",
    "request_type": "Abandoned Vehicles",
    "request_reason": "Abandoned/Junk Vehicles",
    "date_created": "2023-04-20T15:19:33.000",
    "date_modified": "2023-04-20T15:21:25.000",
    "request_status": "Pending",
    "responsible_agency": "Department of Public Works",
    "final_address": "1437 St Maurice Ave",
    "address_councildis": "E",
    "status": "Pending",
    "rowid": "992973",
    "final_x": "3700411.15472",
    "final_y": "534505.281541",
    "longitude": "-90.00824708591797",
    "latitude": "29.963116405562808",
    "geocoded_column": {
      "latitude": "29.963116405562808",
      "longitude": "-90.00824708591797"
    }
  },
  {
    "service_request": "2023-992972",
    "request_type": "Trash/Recycling",
    "request_reason": "Start Trash Service",
    "date_created": "2023-04-20T15:18:38.000",
    "date_modified": "2023-04-20T15:18:39.000",
    "request_status": "Pending",
    "responsible_agency": "Department of Sanitation",
    "final_address": "1912 Filmore Ave",
    "address_councildis": "D",
    "status": "Assigned to Contractor",
    "contractor": "IV Waste",
    "rowid": "992972",
    "final_x": "3681727.76341",
    "final_y": "551960.377814",
    "longitude": "-90.06663761816834",
    "latitude": "30.011692640391445",
    "geocoded_column": {
      "latitude": "30.011692640391445",
      "longitude": "-90.06663761816834"
    }
  },
  {
    "service_request": "2023-992971",
    "request_type": "Traffic Signals/Signs/Striping/Streetlights",
    "request_reason": "Additional signage",
    "date_created": "2023-04-20T15:18:32.000",
    "date_modified": "2023-04-20T15:18:32.000",
    "request_status": "Pending",
    "responsible_agency": "Department of Public Works",
    "final_address": "6801 Freret St",
    "address_councildis": "A",
    "status": "Pending",
    "rowid": "992971",
    "final_x": "3664720.3234",
    "final_y": "525375.643261",
    "longitude": "-90.12125996046916",
    "latitude": "29.939099486452882",
    "geocoded_column": {
      "latitude": "29.939099486452882",
      "longitude": "-90.12125996046916"
    }
  },
  {
    "service_request": "2023-992970",
    "request_type": "Roads/Drainage",
    "request_reason": "Street Subsidence (Sinking)",
    "date_created": "2023-04-20T15:17:41.000",
    "date_modified": "2023-04-20T15:17:41.000",
    "request_status": "Pending",
    "responsible_agency": "Department of Public Works",
    "final_address": "1800 BLK Shirley Dr",
    "address_councildis": "C",
    "status": "Pending",
    "rowid": "992970",
    "final_x": "3692910.15023",
    "final_y": "522352.971814",
    "longitude": "-90.03236997446685",
    "latitude": "29.929938135951453",
    "geocoded_column": {
      "latitude": "29.929938135951453",
      "longitude": "-90.03236997446685"
    }
  },
  {
    "service_request": "2023-992969",
    "request_type": "Trash/Recycling",
    "request_reason": "MIssed Recycling Pick-Up",
    "date_created": "2023-04-20T15:09:45.000",
    "date_modified": "2023-04-20T15:09:45.000",
    "request_status": "Pending",
    "responsible_agency": "Department of Sanitation",
    "final_address": "6227 Magazine St",
    "address_councildis": "A",
    "status": "Assigned to Contractor",
    "contractor": "Richards Disposal",
    "rowid": "992969",
    "final_x": "3663587.86605",
    "final_y": "519717.036664",
    "longitude": "-90.12502367117801",
    "latitude": "29.923572993451124",
    "geocoded_column": {
      "latitude": "29.923572993451124",
      "longitude": "-90.12502367117801"
    }
  },
  {
    "service_request": "2023-992968",
    "request_type": "Roads/Drainage",
    "request_reason": "Pothole",
    "date_created": "2023-04-20T15:00:59.000",
    "date_modified": "2023-04-20T15:00:59.000",
    "request_status": "Pending",
    "responsible_agency": "Department of Public Works",
    "final_address": "315 Broadway St",
    "address_councildis": "A",
    "status": "Pending",
    "rowid": "992968",
    "final_x": "3661595.11078",
    "final_y": "522575.06265",
    "longitude": "-90.13121944712512",
    "latitude": "29.93148930311977",
    "geocoded_column": {
      "latitude": "29.93148930311977",
      "longitude": "-90.13121944712512"
    }
  },
  {
    "service_request": "2023-992967",
    "request_type": "Property Maintenance",
    "request_reason": "Property Maintenance",
    "date_created": "2023-04-20T14:59:26.000",
    "date_modified": "2023-04-20T14:59:26.000",
    "request_status": "Pending",
    "responsible_agency": "Department of Code Enforcement",
    "final_address": "2915 Audubon St",
    "address_councildis": "B",
    "status": "Pending",
    "rowid": "992967",
    "final_x": "3667819.25236",
    "final_y": "531466.909955",
    "longitude": "-90.11127113178964",
    "latitude": "29.955757992075636",
    "geocoded_column": {
      "latitude": "29.955757992075636",
      "longitude": "-90.11127113178964"
    }
  },
  {
    "service_request": "2023-992966",
    "request_type": "Trash/Recycling",
    "request_reason": "Request a Large Item Pick Up",
    "date_created": "2023-04-20T14:59:26.000",
    "date_modified": "2023-04-20T14:59:27.000",
    "request_status": "Pending",
    "responsible_agency": "Department of Sanitation",
    "final_address": "4651 Spain St",
    "address_councildis": "D",
    "status": "Assigned to Contractor",
    "contractor": "IV Waste",
    "rowid": "992966",
    "final_x": "3685119.12021",
    "final_y": "549967.539796",
    "longitude": "-90.05599310792047",
    "latitude": "30.00610953936148",
    "geocoded_column": {
      "latitude": "30.00610953936148",
      "longitude": "-90.05599310792047"
    }
  },
  {
    "service_request": "2023-992965",
    "request_type": "Tax and Revenue",
    "request_reason": "Occupational License Tax",
    "date_created": "2023-04-20T14:58:55.000",
    "date_modified": "2023-04-20T14:58:55.000",
    "request_status": "Pending",
    "responsible_agency": "Bureau of Revenue",
    "final_address": "114 Magazine St",
    "address_councildis": "B",
    "status": "Pending",
    "rowid": "992965",
    "final_x": "3681755.46101",
    "final_y": "530010.965505",
    "longitude": "-90.06731631570014",
    "latitude": "29.9513385898649",
    "geocoded_column": {
      "latitude": "29.9513385898649",
      "longitude": "-90.06731631570014"
    }
  },
  {
    "service_request": "2023-992964",
    "request_type": "Trash/Recycling",
    "request_reason": "Repair Recycling Cart",
    "date_created": "2023-04-20T14:54:24.000",
    "date_modified": "2023-04-20T15:31:24.000",
    "request_status": "Pending",
    "responsible_agency": "Department of Sanitation",
    "final_address": "4651 Spain St",
    "address_councildis": "D",
    "status": "Pending",
    "rowid": "992964",
    "final_x": "3685119.12021",
    "final_y": "549967.539796",
    "longitude": "-90.05599310792047",
    "latitude": "30.00610953936148",
    "geocoded_column": {
      "latitude": "30.00610953936148",
      "longitude": "-90.05599310792047"
    }
  },
  {
    "service_request": "2023-992963",
    "request_type": "Trash/Recycling",
    "request_reason": "Repair Recycling Cart",
    "date_created": "2023-04-20T14:54:20.000",
    "date_modified": "2023-04-20T15:30:29.000",
    "request_status": "Pending",
    "responsible_agency": "Department of Sanitation",
    "final_address": "4651 Spain St",
    "address_councildis": "D",
    "rowid": "992963",
    "final_x": "3685119.12021",
    "final_y": "549967.539796",
    "longitude": "-90.05599310792047",
    "latitude": "30.00610953936148",
    "geocoded_column": {
      "latitude": "30.00610953936148",
      "longitude": "-90.05599310792047"
    }
  },
  {
    "service_request": "2023-992962",
    "request_type": "Roads/Drainage",
    "request_reason": "Damaged Sidewalk",
    "date_created": "2023-04-20T14:53:23.000",
    "date_modified": "2023-04-20T14:53:24.000",
    "request_status": "Pending",
    "responsible_agency": "Department of Public Works",
    "final_address": "7616 Woodbine Dr",
    "address_councildis": "E",
    "status": "Pending",
    "rowid": "992962",
    "final_x": "3701914.32036",
    "final_y": "561323.686686",
    "longitude": "-90.00251669435146",
    "latitude": "30.036809088623198",
    "geocoded_column": {
      "latitude": "30.036809088623198",
      "longitude": "-90.00251669435146"
    }
  },
  {
    "service_request": "2023-992961",
    "request_type": "Abandoned Vehicles",
    "request_reason": "Abandoned/Junk Vehicles",
    "date_created": "2023-04-20T14:52:19.000",
    "date_modified": "2023-04-20T14:52:19.000",
    "request_status": "Pending",
    "responsible_agency": "Department of Public Works",
    "final_address": "2600 BLK Joseph St",
    "address_councildis": "A",
    "status": "Pending",
    "rowid": "992961",
    "final_x": "3667619.90882",
    "final_y": "525594.574583",
    "longitude": "-90.1120982195407",
    "latitude": "29.939616821020007",
    "geocoded_column": {
      "latitude": "29.939616821020007",
      "longitude": "-90.1120982195407"
    }
  },
  {
    "service_request": "2023-992960",
    "request_type": "Roads/Drainage",
    "request_reason": "Debris in Roadway",
    "date_created": "2023-04-20T14:51:59.000",
    "date_modified": "2023-04-20T14:57:22.000",
    "request_status": "Pending",
    "responsible_agency": "Department of Public Works",
    "final_address": "7080 Whitmore Pl",
    "address_councildis": "E",
    "status": "Pending",
    "rowid": "992960",
    "final_x": "3718789.74021",
    "final_y": "569426.350502",
    "longitude": "-89.94887802938014",
    "latitude": "30.05853837298817",
    "geocoded_column": {
      "latitude": "30.05853837298817",
      "longitude": "-89.94887802938014"
    }
  },
  {
    "service_request": "2023-992959",
    "request_type": "Trash/Recycling",
    "request_reason": "Request a Large Item Pick Up",
    "date_created": "2023-04-20T14:51:14.000",
    "date_modified": "2023-04-20T14:51:15.000",
    "request_status": "Pending",
    "responsible_agency": "Department of Sanitation",
    "final_address": "1944 Elizardi Blvd",
    "address_councildis": "C",
    "status": "Assigned to Contractor",
    "contractor": "Richards Disposal",
    "rowid": "992959",
    "final_x": "3694731.48701",
    "final_y": "523384.676667",
    "longitude": "-90.02658320600509",
    "latitude": "29.93271798592189",
    "geocoded_column": {
      "latitude": "29.93271798592189",
      "longitude": "-90.02658320600509"
    }
  },
  {
    "service_request": "2023-992958",
    "request_type": "Abandoned Vehicles",
    "request_reason": "Abandoned/Junk Vehicles",
    "date_created": "2023-04-20T14:50:08.000",
    "date_modified": "2023-04-20T14:50:08.000",
    "request_status": "Pending",
    "responsible_agency": "Department of Public Works",
    "final_address": "2600 BLK Joseph St",
    "address_councildis": "A",
    "status": "Pending",
    "rowid": "992958",
    "final_x": "3667619.90882",
    "final_y": "525594.574583",
    "longitude": "-90.1120982195407",
    "latitude": "29.939616821020007",
    "geocoded_column": {
      "latitude": "29.939616821020007",
      "longitude": "-90.1120982195407"
    }
  },
  {
    "service_request": "2023-992957",
    "request_type": "Trash/Recycling",
    "request_reason": "Request a Large Item Pick Up",
    "date_created": "2023-04-20T14:50:02.000",
    "date_modified": "2023-04-20T14:50:02.000",
    "request_status": "Pending",
    "responsible_agency": "Department of Sanitation",
    "final_address": "1434 Elizardi Blvd",
    "address_councildis": "C",
    "status": "Assigned to Contractor",
    "contractor": "Richards Disposal",
    "rowid": "992957",
    "final_x": "3694802.76598",
    "final_y": "525844.405181",
    "longitude": "-90.02626960780394",
    "latitude": "29.939479159996935",
    "geocoded_column": {
      "latitude": "29.939479159996935",
      "longitude": "-90.02626960780394"
    }
  },
  {
    "service_request": "2023-992956",
    "request_type": "Trash/Recycling",
    "request_reason": "Order Trash Cart",
    "date_created": "2023-04-20T14:46:31.000",
    "date_modified": "2023-04-20T16:36:37.000",
    "case_close_date": "2023-04-20T11:36:37.000",
    "request_status": "Closed",
    "responsible_agency": "Department of Sanitation",
    "final_address": "1147 Constantinople St",
    "address_councildis": "B",
    "status": "Duplicate Request",
    "contractor": "Richards Disposal",
    "rowid": "992956",
    "final_x": "3672470.32295",
    "final_y": "519926.56268",
    "longitude": "-90.09697784653967",
    "latitude": "29.923888580314873",
    "geocoded_column": {
      "latitude": "29.923888580314873",
      "longitude": "-90.09697784653967"
    }
  },
  {
    "service_request": "2023-992955",
    "request_type": "Trash/Recycling",
    "request_reason": "Order Trash Cart",
    "date_created": "2023-04-20T14:46:30.000",
    "date_modified": "2023-04-20T14:46:31.000",
    "request_status": "Pending",
    "responsible_agency": "Department of Sanitation",
    "final_address": "1147 Constantinople St",
    "address_councildis": "B",
    "status": "Assigned to Contractor",
    "contractor": "Richards Disposal",
    "rowid": "992955",
    "final_x": "3672470.32295",
    "final_y": "519926.56268",
    "longitude": "-90.09697784653967",
    "latitude": "29.923888580314873",
    "geocoded_column": {
      "latitude": "29.923888580314873",
      "longitude": "-90.09697784653967"
    }
  },
  {
    "service_request": "2023-992953",
    "request_type": "Property Maintenance",
    "request_reason": "Property Maintenance",
    "date_created": "2023-04-20T14:45:14.000",
    "date_modified": "2023-04-20T14:45:14.000",
    "request_status": "Pending",
    "responsible_agency": "Department of Code Enforcement",
    "final_address": "2000 Almonaster Ave",
    "address_councildis": "D",
    "status": "Pending",
    "rowid": "992953",
    "final_x": "3687864.71785",
    "final_y": "539920.207626",
    "longitude": "-90.04767527406993",
    "latitude": "29.978398540367188",
    "geocoded_column": {
      "latitude": "29.978398540367188",
      "longitude": "-90.04767527406993"
    }
  },
  {
    "service_request": "2023-992952",
    "request_type": "Trash/Recycling",
    "request_reason": "Missed Trash Pick-Up",
    "date_created": "2023-04-20T14:43:51.000",
    "date_modified": "2023-04-20T14:43:52.000",
    "request_status": "Pending",
    "responsible_agency": "Department of Sanitation",
    "final_address": "3208 Laurel St",
    "address_councildis": "B",
    "status": "Assigned to Contractor",
    "contractor": "Richards Disposal",
    "rowid": "992952",
    "final_x": "3676074.09077",
    "final_y": "519269.524151",
    "longitude": "-90.08562462184489",
    "latitude": "29.921974524737443",
    "geocoded_column": {
      "latitude": "29.921974524737443",
      "longitude": "-90.08562462184489"
    }
  },
  {
    "service_request": "2023-992951",
    "request_type": "Abandoned Vehicles",
    "request_reason": "Abandoned/Junk Vehicles",
    "date_created": "2023-04-20T14:41:19.000",
    "date_modified": "2023-04-20T14:41:19.000",
    "request_status": "Pending",
    "responsible_agency": "Department of Public Works",
    "final_address": "2600 BLK Willow St",
    "address_councildis": "B",
    "status": "Pending",
    "rowid": "992951",
    "final_x": "3673779.13567",
    "final_y": "526618.093861",
    "longitude": "-90.09261767188882",
    "latitude": "29.942249225099122",
    "geocoded_column": {
      "latitude": "29.942249225099122",
      "longitude": "-90.09261767188882"
    }
  },
  {
    "service_request": "2023-992949",
    "request_type": "Trash/Recycling",
    "request_reason": "Request a Large Item Pick Up",
    "date_created": "2023-04-20T14:41:11.000",
    "date_modified": "2023-04-20T14:41:12.000",
    "request_status": "Pending",
    "responsible_agency": "Department of Sanitation",
    "final_address": "1613 Prytania St",
    "address_councildis": "B",
    "status": "Assigned to Contractor",
    "contractor": "Richards Disposal",
    "rowid": "992949",
    "final_x": "3679370.2829",
    "final_y": "524921.37798",
    "longitude": "-90.07502401321526",
    "latitude": "29.937416166981176",
    "geocoded_column": {
      "latitude": "29.937416166981176",
      "longitude": "-90.07502401321526"
    }
  },
  {
    "service_request": "2023-992948",
    "request_type": "Trash/Recycling",
    "request_reason": "Illegal Dumping",
    "date_created": "2023-04-20T14:40:26.000",
    "date_modified": "2023-04-20T14:40:26.000",
    "request_status": "Pending",
    "responsible_agency": "Department of Code Enforcement",
    "final_address": "635 N Scott St",
    "address_councildis": "A",
    "status": "Pending",
    "rowid": "992948",
    "final_x": "3673034.16641",
    "final_y": "539562.001418",
    "longitude": "-90.09452788433894",
    "latitude": "29.97786280846396",
    "geocoded_column": {
      "latitude": "29.97786280846396",
      "longitude": "-90.09452788433894"
    }
  },
  {
    "service_request": "2023-992947",
    "request_type": "Trash/Recycling",
    "request_reason": "Order Trash Cart",
    "date_created": "2023-04-20T14:40:04.000",
    "date_modified": "2023-04-20T14:40:05.000",
    "request_status": "Pending",
    "responsible_agency": "Department of Sanitation",
    "final_address": "8512 Chase St",
    "address_councildis": "E",
    "status": "Assigned to Contractor",
    "contractor": "Waste Pro",
    "rowid": "992947",
    "final_x": "3703438.44382",
    "final_y": "563274.158816",
    "longitude": "-89.99762832075831",
    "latitude": "30.042123359243714",
    "geocoded_column": {
      "latitude": "30.042123359243714",
      "longitude": "-89.99762832075831"
    }
  },
  {
    "service_request": "2023-992946",
    "request_type": "Trash/Recycling",
    "request_reason": "Order Trash Cart",
    "date_created": "2023-04-20T14:39:49.000",
    "date_modified": "2023-04-20T14:39:50.000",
    "request_status": "Pending",
    "responsible_agency": "Department of Sanitation",
    "final_address": "8510 Chase St",
    "address_councildis": "E",
    "status": "Assigned to Contractor",
    "contractor": "Waste Pro",
    "rowid": "992946",
    "final_x": "3703416.3953",
    "final_y": "563262.845792",
    "longitude": "-89.99769841876092",
    "latitude": "30.04209295957559",
    "geocoded_column": {
      "latitude": "30.04209295957559",
      "longitude": "-89.99769841876092"
    }
  },
  {
    "service_request": "2023-992945",
    "request_type": "Trash/Recycling",
    "request_reason": "Illegal Dumping",
    "date_created": "2023-04-20T14:38:59.000",
    "date_modified": "2023-04-20T14:38:59.000",
    "request_status": "Pending",
    "responsible_agency": "Department of Sanitation",
    "final_address": "2700 BLK Alvar St",
    "address_councildis": "D",
    "status": "Pending",
    "rowid": "992945",
    "final_x": "3693152.67599",
    "final_y": "541985.894162",
    "longitude": "-90.03089988743056",
    "latitude": "29.983914234590472",
    "geocoded_column": {
      "latitude": "29.983914234590472",
      "longitude": "-90.03089988743056"
    }
  },
  {
    "service_request": "2023-992944",
    "request_type": "Trash/Recycling",
    "request_reason": "Request a Large Item Pick Up",
    "date_created": "2023-04-20T14:32:47.000",
    "date_modified": "2023-04-20T14:32:48.000",
    "request_status": "Pending",
    "responsible_agency": "Department of Sanitation",
    "final_address": "1506 Pauline St",
    "address_councildis": "D",
    "status": "Assigned to Contractor",
    "contractor": "IV Waste",
    "rowid": "992944",
    "final_x": "3691568.71792",
    "final_y": "537023.2258",
    "longitude": "-90.03608032283533",
    "latitude": "29.970318074147357",
    "geocoded_column": {
      "latitude": "29.970318074147357",
      "longitude": "-90.03608032283533"
    }
  },
  {
    "service_request": "2023-992943",
    "request_type": "Roads/Drainage",
    "request_reason": "Debris in Roadway",
    "date_created": "2023-04-20T14:29:48.000",
    "date_modified": "2023-04-20T14:31:34.000",
    "request_status": "Pending",
    "responsible_agency": "Department of Public Works",
    "final_address": "6500 BLK Morrison Rd",
    "address_councildis": "E",
    "rowid": "992943",
    "final_x": "3698201.80271",
    "final_y": "558442.096814",
    "longitude": "-90.01435380306008",
    "latitude": "30.029003864317342",
    "geocoded_column": {
      "latitude": "30.029003864317342",
      "longitude": "-90.01435380306008"
    }
  },
  {
    "service_request": "2023-992942",
    "request_type": "Trash/Recycling",
    "request_reason": "Return Trash Cart",
    "date_created": "2023-04-20T14:27:52.000",
    "date_modified": "2023-04-20T14:27:52.000",
    "request_status": "Pending",
    "responsible_agency": "Department of Sanitation",
    "final_address": "1513 Exposition Blvd",
    "address_councildis": "A",
    "status": "Assigned to Contractor",
    "contractor": "Richards Disposal",
    "rowid": "992942",
    "final_x": "3664371.50631",
    "final_y": "522430.616122",
    "longitude": "-90.12245947844359",
    "latitude": "29.931011737720027",
    "geocoded_column": {
      "latitude": "29.931011737720027",
      "longitude": "-90.12245947844359"
    }
  },
  {
    "service_request": "2023-992941",
    "request_type": "Trash/Recycling",
    "request_reason": "Illegal Dumping",
    "date_created": "2023-04-20T14:24:54.000",
    "date_modified": "2023-04-20T14:24:55.000",
    "request_status": "Pending",
    "responsible_agency": "Department of Sanitation",
    "final_address": "3517 Chartres St",
    "address_councildis": "C",
    "status": "Pending",
    "rowid": "992941",
    "final_x": "3690194.75056",
    "final_y": "533774.886021",
    "longitude": "-90.04053518987128",
    "latitude": "29.961428978219214",
    "geocoded_column": {
      "latitude": "29.961428978219214",
      "longitude": "-90.04053518987128"
    }
  },
  {
    "service_request": "2023-992940",
    "request_type": "Trash/Recycling",
    "request_reason": "Order Recycling Cart",
    "date_created": "2023-04-20T14:20:53.000",
    "date_modified": "2023-04-20T14:20:53.000",
    "request_status": "Pending",
    "responsible_agency": "Department of Sanitation",
    "final_address": "9704 Andover Dr",
    "address_councildis": "E",
    "status": "Pending",
    "rowid": "992940",
    "final_x": "3708455.42692",
    "final_y": "561659.154783",
    "longitude": "-89.98183307779988",
    "latitude": "30.037520980289298",
    "geocoded_column": {
      "latitude": "30.037520980289298",
      "longitude": "-89.98183307779988"
    }
  },
  {
    "service_request": "2023-992939",
    "request_type": "Trash/Recycling",
    "request_reason": "Missed Trash Pick-Up",
    "date_created": "2023-04-20T14:16:24.000",
    "date_modified": "2023-04-20T14:16:25.000",
    "request_status": "Pending",
    "responsible_agency": "Department of Sanitation",
    "final_address": "4227 S Carrollton Ave",
    "address_councildis": "A",
    "status": "Assigned to Contractor",
    "contractor": "Richards Disposal",
    "rowid": "992939",
    "final_x": "3669580.66087",
    "final_y": "536822.133384",
    "longitude": "-90.10552801209249",
    "latitude": "29.970431305400442",
    "geocoded_column": {
      "latitude": "29.970431305400442",
      "longitude": "-90.10552801209249"
    }
  },
  {
    "service_request": "2023-992938",
    "request_type": "Trash/Recycling",
    "request_reason": "Request a Large Item Pick Up",
    "date_created": "2023-04-20T14:12:56.000",
    "date_modified": "2023-04-20T14:12:57.000",
    "request_status": "Pending",
    "responsible_agency": "Department of Sanitation",
    "final_address": "7510 Parry St",
    "address_councildis": "E",
    "status": "Assigned to Contractor",
    "contractor": "Waste Pro",
    "rowid": "992938",
    "final_x": "3714735.94757",
    "final_y": "567924.161637",
    "longitude": "-89.96174837057569",
    "latitude": "30.054542023061423",
    "geocoded_column": {
      "latitude": "30.054542023061423",
      "longitude": "-89.96174837057569"
    }
  },
  {
    "service_request": "2023-992937",
    "request_type": "Trash/Recycling",
    "request_reason": "Return Recycling Cart",
    "date_created": "2023-04-20T14:10:39.000",
    "date_modified": "2023-04-20T14:24:18.000",
    "request_status": "Pending",
    "responsible_agency": "Department of Sanitation",
    "final_address": "1133 4th Street",
    "address_councildis": "B",
    "rowid": "992937",
    "final_x": "3677192.55387",
    "final_y": "521269.726009",
    "longitude": "-90.08202515245979",
    "latitude": "29.927440895984773",
    "geocoded_column": {
      "latitude": "29.927440895984773",
      "longitude": "-90.08202515245979"
    }
  },
  {
    "service_request": "2023-992936",
    "request_type": "Trash/Recycling",
    "request_reason": "Order Trash Cart",
    "date_created": "2023-04-20T14:09:03.000",
    "date_modified": "2023-04-20T14:09:04.000",
    "request_status": "Pending",
    "responsible_agency": "Department of Sanitation",
    "final_address": "8832 Spruce St Apt B",
    "address_councildis": "A",
    "status": "Assigned to Contractor",
    "contractor": "Richards Disposal",
    "rowid": "992936",
    "final_x": "3661831.70195",
    "final_y": "532237.401795",
    "longitude": "-90.13015225986163",
    "latitude": "29.958050826454787",
    "geocoded_column": {
      "latitude": "29.958050826454787",
      "longitude": "-90.13015225986163"
    }
  },
  {
    "service_request": "2023-992935",
    "request_type": "Trash/Recycling",
    "request_reason": "Order Trash Cart",
    "date_created": "2023-04-20T14:08:06.000",
    "date_modified": "2023-04-20T14:08:06.000",
    "request_status": "Pending",
    "responsible_agency": "Department of Sanitation",
    "final_address": "8832 Spruce St Apt C",
    "address_councildis": "A",
    "status": "Assigned to Contractor",
    "contractor": "Richards Disposal",
    "rowid": "992935",
    "final_x": "3661823.67245",
    "final_y": "532241.308035",
    "longitude": "-90.13017748539255",
    "latitude": "29.95806179917979",
    "geocoded_column": {
      "latitude": "29.95806179917979",
      "longitude": "-90.13017748539255"
    }
  },
  {
    "service_request": "2023-992934",
    "request_type": "Trash/Recycling",
    "request_reason": "Request a Large Item Pick Up",
    "date_created": "2023-04-20T14:06:14.000",
    "date_modified": "2023-04-20T14:06:15.000",
    "request_status": "Pending",
    "responsible_agency": "Department of Sanitation",
    "final_address": "7351 Symmes Ave",
    "address_councildis": "E",
    "status": "Assigned to Contractor",
    "contractor": "Waste Pro",
    "rowid": "992934",
    "final_x": "3708332.00056",
    "final_y": "563832.237217",
    "longitude": "-89.98214214906004",
    "latitude": "30.04350009450724",
    "geocoded_column": {
      "latitude": "30.04350009450724",
      "longitude": "-89.98214214906004"
    }
  },
  {
    "service_request": "2023-992933",
    "request_type": "Trash/Recycling",
    "request_reason": "Replace Trash Cart",
    "date_created": "2023-04-20T14:06:12.000",
    "date_modified": "2023-04-20T14:06:13.000",
    "request_status": "Pending",
    "responsible_agency": "Department of Sanitation",
    "final_address": "8832 Spruce St Apt A",
    "address_councildis": "A",
    "status": "Assigned to Contractor",
    "contractor": "Richards Disposal",
    "rowid": "992933",
    "final_x": "3661816.29395",
    "final_y": "532246.733379",
    "longitude": "-90.13020060487415",
    "latitude": "29.958076930148376",
    "geocoded_column": {
      "latitude": "29.958076930148376",
      "longitude": "-90.13020060487415"
    }
  },
  {
    "service_request": "2023-992932",
    "request_type": "Traffic Signals/Signs/Striping/Streetlights",
    "request_reason": "Street Light Outage/Malfunction",
    "date_created": "2023-04-20T14:04:24.000",
    "date_modified": "2023-04-20T14:04:25.000",
    "request_status": "Pending",
    "responsible_agency": "Department of Public Works",
    "final_address": "5011 Coronado Dr",
    "address_councildis": "E",
    "status": "Assigned to Contractor",
    "contractor": "Legacy Professional Services",
    "rowid": "992932",
    "final_x": "3714056.09279",
    "final_y": "557828.458715",
    "longitude": "-89.96427848007917",
    "latitude": "30.02680526934426",
    "geocoded_column": {
      "latitude": "30.02680526934426",
      "longitude": "-89.96427848007917"
    }
  },
  {
    "service_request": "2023-992931",
    "request_type": "Trash/Recycling",
    "request_reason": "Request a Large Item Pick Up",
    "date_created": "2023-04-20T14:04:00.000",
    "date_modified": "2023-04-20T14:04:00.000",
    "request_status": "Pending",
    "responsible_agency": "Department of Sanitation",
    "status": "Assigned to Contractor",
    "rowid": "992931",
    "longitude": "0.0",
    "latitude": "0.0",
    "geocoded_column": {
      "latitude": "0.0",
      "longitude": "0.0"
    }
  },
  {
    "service_request": "2023-992930",
    "request_type": "Trash/Recycling",
    "request_reason": "Request a Large Item Pick Up",
    "date_created": "2023-04-20T14:03:24.000",
    "date_modified": "2023-04-20T14:03:24.000",
    "request_status": "Pending",
    "responsible_agency": "Department of Sanitation",
    "final_address": "3611 Timber Ct",
    "address_councildis": "C",
    "status": "Assigned to Contractor",
    "contractor": "Richards Disposal",
    "rowid": "992930",
    "final_x": "3703706.43786",
    "final_y": "511698.33976",
    "longitude": "-89.99867994439734",
    "latitude": "29.900300090230022",
    "geocoded_column": {
      "latitude": "29.900300090230022",
      "longitude": "-89.99867994439734"
    }
  },
  {
    "service_request": "2023-992929",
    "request_type": "Trash/Recycling",
    "request_reason": "Replace Trash Cart",
    "date_created": "2023-04-20T14:02:48.000",
    "date_modified": "2023-04-20T14:02:48.000",
    "request_status": "Pending",
    "responsible_agency": "Department of Sanitation",
    "final_address": "712 Harmony St",
    "address_councildis": "B",
    "status": "Assigned to Contractor",
    "contractor": "Richards Disposal",
    "rowid": "992929",
    "final_x": "3676401.68853",
    "final_y": "518760.936759",
    "longitude": "-90.08460802801261",
    "latitude": "29.920566260520857",
    "geocoded_column": {
      "latitude": "29.920566260520857",
      "longitude": "-90.08460802801261"
    }
  },
  {
    "service_request": "2023-992928",
    "request_type": "Abandoned Vehicles",
    "request_reason": "Abandoned/Junk Vehicles",
    "date_created": "2023-04-20T14:01:00.000",
    "date_modified": "2023-04-20T14:01:00.000",
    "request_status": "Pending",
    "responsible_agency": "Department of Public Works",
    "final_address": "3400 BLK Magazine St",
    "address_councildis": "B",
    "status": "Pending",
    "rowid": "992928",
    "final_x": "3674563.58522",
    "final_y": "519438.183024",
    "longitude": "-90.09038688448878",
    "latitude": "29.92248342256901",
    "geocoded_column": {
      "latitude": "29.92248342256901",
      "longitude": "-90.09038688448878"
    }
  },
  {
    "service_request": "2023-992927",
    "request_type": "Trash/Recycling",
    "request_reason": "Repair Trash Cart",
    "date_created": "2023-04-20T13:59:58.000",
    "date_modified": "2023-04-20T13:59:59.000",
    "request_status": "Pending",
    "responsible_agency": "Department of Sanitation",
    "final_address": "1728 Toledano St",
    "address_councildis": "B",
    "status": "Assigned to Contractor",
    "contractor": "Richards Disposal",
    "rowid": "992927",
    "final_x": "3674286.47291",
    "final_y": "522281.90329",
    "longitude": "-90.09116430615796",
    "latitude": "29.930310999263007",
    "geocoded_column": {
      "latitude": "29.930310999263007",
      "longitude": "-90.09116430615796"
    }
  },
  {
    "service_request": "2023-992926",
    "request_type": "Trash/Recycling",
    "request_reason": "Order Trash Cart",
    "date_created": "2023-04-20T13:59:07.000",
    "date_modified": "2023-04-20T13:59:08.000",
    "request_status": "Pending",
    "responsible_agency": "Department of Sanitation",
    "final_address": "2501 Holiday Dr",
    "address_councildis": "C",
    "status": "Assigned to Contractor",
    "contractor": "Richards Disposal",
    "rowid": "992926",
    "final_x": "3698776.93207",
    "final_y": "522282.51193",
    "longitude": "-90.01385220668926",
    "latitude": "29.929559935876455",
    "geocoded_column": {
      "latitude": "29.929559935876455",
      "longitude": "-90.01385220668926"
    }
  },
  {
    "service_request": "2023-992925",
    "request_type": "Roads/Drainage",
    "request_reason": "Pothole",
    "date_created": "2023-04-20T13:58:44.000",
    "date_modified": "2023-04-20T13:58:44.000",
    "request_status": "Pending",
    "responsible_agency": "Department of Public Works",
    "final_address": "3137 Orleans Ave",
    "address_councildis": "A",
    "status": "Pending",
    "rowid": "992925",
    "final_x": "3675086.00885",
    "final_y": "538360.268233",
    "longitude": "-90.08808869185481",
    "latitude": "29.974497297491975",
    "geocoded_column": {
      "latitude": "29.974497297491975",
      "longitude": "-90.08808869185481"
    }
  },
  {
    "service_request": "2023-992924",
    "request_type": "Trash/Recycling",
    "request_reason": "Repair Recycling Cart",
    "date_created": "2023-04-20T13:54:02.000",
    "date_modified": "2023-04-20T13:54:02.000",
    "request_status": "Pending",
    "responsible_agency": "Department of Sanitation",
    "final_address": "1213 Fourth St",
    "address_councildis": "B",
    "status": "Pending",
    "rowid": "992924",
    "final_x": "3677085.05038",
    "final_y": "521444.314361",
    "longitude": "-90.08235849758003",
    "latitude": "29.927924184837305",
    "geocoded_column": {
      "latitude": "29.927924184837305",
      "longitude": "-90.08235849758003"
    }
  },
  {
    "service_request": "2023-992922",
    "request_type": "Trash/Recycling",
    "request_reason": "Request a Large Item Pick Up",
    "date_created": "2023-04-20T13:48:28.000",
    "date_modified": "2023-04-20T13:48:28.000",
    "request_status": "Pending",
    "responsible_agency": "Department of Sanitation",
    "final_address": "2610 Dauphine St",
    "address_councildis": "C",
    "status": "Assigned to Contractor",
    "contractor": "IV Waste",
    "rowid": "992922",
    "final_x": "3686921.11548",
    "final_y": "535276.37415",
    "longitude": "-90.05081967097989",
    "latitude": "29.965658702160038",
    "geocoded_column": {
      "latitude": "29.965658702160038",
      "longitude": "-90.05081967097989"
    }
  },
  {
    "service_request": "2023-992921",
    "request_type": "Property Maintenance",
    "request_reason": "Property Maintenance",
    "date_created": "2023-04-20T13:48:14.000",
    "date_modified": "2023-04-20T13:48:15.000",
    "request_status": "Pending",
    "responsible_agency": "Department of Code Enforcement",
    "final_address": "2401 Franklin Ave",
    "address_councildis": "D",
    "status": "Pending",
    "rowid": "992921",
    "final_x": "3687606.51452",
    "final_y": "541363.66286",
    "longitude": "-90.04843965021185",
    "latitude": "29.982375494710098",
    "geocoded_column": {
      "latitude": "29.982375494710098",
      "longitude": "-90.04843965021185"
    }
  },
  {
    "service_request": "2023-992920",
    "request_type": "Property Maintenance",
    "request_reason": "Property Maintenance",
    "date_created": "2023-04-20T13:40:19.000",
    "date_modified": "2023-04-20T13:45:36.000",
    "case_close_date": "2023-04-20T08:45:36.000",
    "request_status": "Closed",
    "responsible_agency": "Department of Code Enforcement",
    "final_address": " & FOREST ISLE DR",
    "address_councildis": "C",
    "status": "Invalid Request",
    "rowid": "992920",
    "final_x": "3705932.1",
    "final_y": "512829.92",
    "longitude": "-89.99161423218112",
    "latitude": "29.90334007988865",
    "geocoded_column": {
      "latitude": "29.90334007988865",
      "longitude": "-89.99161423218112"
    }
  },
  {
    "service_request": "2023-992919",
    "request_type": "Trash/Recycling",
    "request_reason": "Order Recycling Cart",
    "date_created": "2023-04-20T13:37:06.000",
    "date_modified": "2023-04-20T13:37:07.000",
    "request_status": "Pending",
    "responsible_agency": "Department of Sanitation",
    "final_address": "100 St John Ct Q",
    "address_councildis": "A",
    "status": "Pending",
    "rowid": "992919",
    "final_x": "3674766.40949",
    "final_y": "540102.413259",
    "longitude": "-90.0890383163039",
    "latitude": "29.979297147075552",
    "geocoded_column": {
      "latitude": "29.979297147075552",
      "longitude": "-90.0890383163039"
    }
  },
  {
    "service_request": "2023-992918",
    "request_type": "Trash/Recycling",
    "request_reason": "Order Trash Cart",
    "date_created": "2023-04-20T13:33:41.000",
    "date_modified": "2023-04-20T13:33:42.000",
    "request_status": "Pending",
    "responsible_agency": "Department of Sanitation",
    "final_address": "2911 Spain St",
    "address_councildis": "D",
    "status": "Assigned to Contractor",
    "contractor": "IV Waste",
    "rowid": "992918",
    "final_x": "3685600.64834",
    "final_y": "543490.483406",
    "longitude": "-90.05470018694388",
    "latitude": "29.98828519262726",
    "geocoded_column": {
      "latitude": "29.98828519262726",
      "longitude": "-90.05470018694388"
    }
  },
  {
    "service_request": "2023-992917",
    "request_type": "Trash/Recycling",
    "request_reason": "Request a Large Item Pick Up",
    "date_created": "2023-04-20T13:28:35.000",
    "date_modified": "2023-04-20T13:28:35.000",
    "request_status": "Pending",
    "responsible_agency": "Department of Sanitation",
    "final_address": "4650 Good Dr",
    "address_councildis": "E",
    "status": "Assigned to Contractor",
    "contractor": "Waste Pro",
    "rowid": "992917",
    "final_x": "3714756.94687",
    "final_y": "556383.27337",
    "longitude": "-89.96211852595196",
    "latitude": "30.02280853941986",
    "geocoded_column": {
      "latitude": "30.02280853941986",
      "longitude": "-89.96211852595196"
    }
  },
  {
    "service_request": "2023-992916",
    "request_type": "Property Maintenance",
    "request_reason": "Property Maintenance",
    "date_created": "2023-04-20T13:26:16.000",
    "date_modified": "2023-04-20T13:26:16.000",
    "request_status": "Pending",
    "responsible_agency": "Department of Code Enforcement",
    "final_address": "2709 St Anthony St",
    "address_councildis": "D",
    "status": "Pending",
    "rowid": "992916",
    "final_x": "3683164.28213",
    "final_y": "542170.795213",
    "longitude": "-90.06244210734971",
    "latitude": "29.9847310459189",
    "geocoded_column": {
      "latitude": "29.9847310459189",
      "longitude": "-90.06244210734971"
    }
  },
  {
    "service_request": "2023-992915",
    "request_type": "Trash/Recycling",
    "request_reason": "Repair Trash Cart",
    "date_created": "2023-04-20T13:26:04.000",
    "date_modified": "2023-04-20T13:26:42.000",
    "request_status": "Pending",
    "responsible_agency": "Department of Sanitation",
    "final_address": "2700 Ramsey Dr",
    "address_councildis": "C",
    "status": "Assigned to Contractor",
    "contractor": "Richards Disposal",
    "rowid": "992915",
    "final_x": "3703166.84292",
    "final_y": "520898.812217",
    "longitude": "-90.00004498046556",
    "latitude": "29.925615512317652",
    "geocoded_column": {
      "latitude": "29.925615512317652",
      "longitude": "-90.00004498046556"
    }
  },
  {
    "service_request": "2023-992913",
    "request_type": "Abandoned Vehicles",
    "request_reason": "Vehicle Blocking Your Driveway",
    "date_created": "2023-04-20T13:23:39.000",
    "date_modified": "2023-04-20T13:23:39.000",
    "request_status": "Pending",
    "responsible_agency": "Department of Public Works",
    "final_address": "1038 Milan St, New Orleans, Louisiana, 70115",
    "address_councildis": "B",
    "status": "Pending",
    "rowid": "992913",
    "final_x": "3671690.89108",
    "final_y": "519536.973367",
    "longitude": "-90.09945148086652",
    "latitude": "29.922840435865165",
    "geocoded_column": {
      "latitude": "29.922840435865165",
      "longitude": "-90.09945148086652"
    }
  },
  {
    "service_request": "2023-992912",
    "request_type": "Trash/Recycling",
    "request_reason": "Missed Trash Pick-Up",
    "date_created": "2023-04-20T13:20:50.000",
    "date_modified": "2023-04-20T13:20:50.000",
    "request_status": "Pending",
    "responsible_agency": "Department of Sanitation",
    "final_address": "638 Race St",
    "address_councildis": "B",
    "status": "Assigned to Contractor",
    "contractor": "Richards Disposal",
    "rowid": "992912",
    "final_x": "3681735.77192",
    "final_y": "523430.073979",
    "longitude": "-90.06760801675561",
    "latitude": "29.93324393633051",
    "geocoded_column": {
      "latitude": "29.93324393633051",
      "longitude": "-90.06760801675561"
    }
  },
  {
    "service_request": "2023-992911",
    "request_type": "Roads/Drainage",
    "request_reason": "Catch Basin - Clogged",
    "date_created": "2023-04-20T13:17:03.000",
    "date_modified": "2023-04-20T13:17:40.000",
    "request_status": "Pending",
    "responsible_agency": "Department of Public Works",
    "final_address": "MADRID ST & ST ROCH AVE",
    "address_councildis": "D",
    "status": "Pending",
    "rowid": "992911",
    "final_x": "3684911.1",
    "final_y": "555435.18",
    "longitude": "-90.05645780350078",
    "latitude": "30.021149925203158",
    "geocoded_column": {
      "latitude": "30.021149925203158",
      "longitude": "-90.05645780350078"
    }
  },
  {
    "service_request": "2023-992910",
    "request_type": "Trash/Recycling",
    "request_reason": "MIssed Recycling Pick-Up",
    "date_created": "2023-04-20T13:16:44.000",
    "date_modified": "2023-04-20T13:52:58.000",
    "request_status": "Pending",
    "responsible_agency": "Department of Sanitation",
    "final_address": "719 Napoleon Ave",
    "address_councildis": "B",
    "status": "Assigned to Contractor",
    "contractor": "Richards Disposal",
    "rowid": "992910",
    "final_x": "3671207.81537",
    "final_y": "518229.393974",
    "longitude": "-90.10102075473856",
    "latitude": "29.919259302988777",
    "geocoded_column": {
      "latitude": "29.919259302988777",
      "longitude": "-90.10102075473856"
    }
  },
  {
    "service_request": "2023-992909",
    "request_type": "Property Maintenance",
    "request_reason": "Property Maintenance",
    "date_created": "2023-04-20T13:13:12.000",
    "date_modified": "2023-04-20T13:13:12.000",
    "request_status": "Pending",
    "responsible_agency": "Department of Code Enforcement",
    "final_address": "1232 Mandolin St",
    "address_councildis": "D",
    "status": "Pending",
    "rowid": "992909",
    "final_x": "3677320.73237",
    "final_y": "547956.720722",
    "longitude": "-90.08069956564039",
    "latitude": "30.00081723156498",
    "geocoded_column": {
      "latitude": "30.00081723156498",
      "longitude": "-90.08069956564039"
    }
  },
  {
    "service_request": "2023-992908",
    "request_type": "Trash/Recycling",
    "request_reason": "Missed Trash Pick-Up",
    "date_created": "2023-04-20T13:11:42.000",
    "date_modified": "2023-04-20T13:11:43.000",
    "request_status": "Pending",
    "responsible_agency": "Department of Sanitation",
    "final_address": "8700 BLK Curran Rd",
    "address_councildis": "E",
    "status": "Assigned to Contractor",
    "contractor": "Waste Pro",
    "rowid": "992908",
    "final_x": "3704543.22145",
    "final_y": "562768.959223",
    "longitude": "-89.9941554878265",
    "latitude": "30.040698802975264",
    "geocoded_column": {
      "latitude": "30.040698802975264",
      "longitude": "-89.9941554878265"
    }
  },
  {
    "service_request": "2023-992907",
    "request_type": "Trash/Recycling",
    "request_reason": "Missed Trash Pick-Up",
    "date_created": "2023-04-20T13:09:13.000",
    "date_modified": "2023-04-20T13:09:14.000",
    "request_status": "Pending",
    "responsible_agency": "Department of Sanitation",
    "final_address": "2730 St Charles Ave",
    "address_councildis": "B",
    "status": "Assigned to Contractor",
    "contractor": "Richards Disposal",
    "rowid": "992907",
    "final_x": "3676081.96635",
    "final_y": "522509.256442",
    "longitude": "-90.08548839340357",
    "latitude": "29.930882503707025",
    "geocoded_column": {
      "latitude": "29.930882503707025",
      "longitude": "-90.08548839340357"
    }
  },
  {
    "service_request": "2023-992906",
    "request_type": "Roads/Drainage",
    "request_reason": "Debris in Roadway",
    "date_created": "2023-04-20T13:09:08.000",
    "date_modified": "2023-04-20T13:09:08.000",
    "request_status": "Pending",
    "responsible_agency": "Department of Public Works",
    "final_address": "2000 Gentilly Blvd",
    "address_councildis": "D",
    "status": "Pending",
    "rowid": "992906",
    "final_x": "3680065.56527",
    "final_y": "543816.834382",
    "longitude": "-90.07217238028191",
    "latitude": "29.989351215522333",
    "geocoded_column": {
      "latitude": "29.989351215522333",
      "longitude": "-90.07217238028191"
    }
  },
  {
    "service_request": "2023-992905",
    "request_type": "Roads/Drainage",
    "request_reason": "Pothole",
    "date_created": "2023-04-20T13:07:28.000",
    "date_modified": "2023-04-20T13:07:28.000",
    "request_status": "Pending",
    "responsible_agency": "Department of Public Works",
    "final_address": "1432 Fern St",
    "address_councildis": "A",
    "status": "Pending",
    "rowid": "992905",
    "final_x": "3663087.43117",
    "final_y": "528517.694208",
    "longitude": "-90.12631072849541",
    "latitude": "29.94778651621753",
    "geocoded_column": {
      "latitude": "29.94778651621753",
      "longitude": "-90.12631072849541"
    }
  },
  {
    "service_request": "2023-992904",
    "request_type": "Traffic Signals/Signs/Striping/Streetlights",
    "request_reason": "Traffic Signal Malfunctioning/Damaged",
    "date_created": "2023-04-20T13:06:12.000",
    "date_modified": "2023-04-20T13:06:12.000",
    "request_status": "Pending",
    "responsible_agency": "Department of Public Works",
    "final_address": "EARHART BLVD & MAGNOLIA ST",
    "address_councildis": "B",
    "status": "Pending",
    "rowid": "992904",
    "final_x": "3676590.5",
    "final_y": "528721.38",
    "longitude": "-90.08366914458753",
    "latitude": "29.947948562397546",
    "geocoded_column": {
      "latitude": "29.947948562397546",
      "longitude": "-90.08366914458753"
    }
  },
  {
    "service_request": "2023-992903",
    "request_type": "Property Maintenance",
    "request_reason": "Property Maintenance",
    "date_created": "2023-04-20T13:03:02.000",
    "date_modified": "2023-04-20T13:03:02.000",
    "request_status": "Pending",
    "responsible_agency": "Department of Code Enforcement",
    "status": "Pending",
    "rowid": "992903",
    "longitude": "0.0",
    "latitude": "0.0",
    "geocoded_column": {
      "latitude": "0.0",
      "longitude": "0.0"
    }
  },
  {
    "service_request": "2023-992902",
    "request_type": "Traffic Signals/Signs/Striping/Streetlights",
    "request_reason": "Street Light Outage/Malfunction",
    "date_created": "2023-04-20T13:00:33.000",
    "date_modified": "2023-04-20T13:00:34.000",
    "request_status": "Pending",
    "responsible_agency": "Department of Public Works",
    "final_address": "3200 Rue Parc Fontaine Apt 3201",
    "address_councildis": "C",
    "status": "Assigned to Contractor",
    "contractor": "Legacy Professional Services",
    "rowid": "992902",
    "final_x": "3700314.73994",
    "final_y": "519257.757751",
    "longitude": "-90.00910800769105",
    "latitude": "29.921194120483545",
    "geocoded_column": {
      "latitude": "29.921194120483545",
      "longitude": "-90.00910800769105"
    }
  },
  {
    "service_request": "2023-992901",
    "request_type": "Trash/Recycling",
    "request_reason": "MIssed Recycling Pick-Up",
    "date_created": "2023-04-20T12:59:31.000",
    "date_modified": "2023-04-20T12:59:32.000",
    "request_status": "Pending",
    "responsible_agency": "Department of Sanitation",
    "final_address": "3520 Baronne St",
    "address_councildis": "B",
    "status": "Assigned to Contractor",
    "contractor": "Richards Disposal",
    "rowid": "992901",
    "final_x": "3673371.17166",
    "final_y": "521977.259962",
    "longitude": "-90.09406417504928",
    "latitude": "29.9295005803291",
    "geocoded_column": {
      "latitude": "29.9295005803291",
      "longitude": "-90.09406417504928"
    }
  },
  {
    "service_request": "2023-992900",
    "request_type": "Property Maintenance",
    "request_reason": "Property Maintenance",
    "date_created": "2023-04-20T12:57:24.000",
    "date_modified": "2023-04-20T12:57:25.000",
    "request_status": "Pending",
    "responsible_agency": "Department of Code Enforcement",
    "final_address": "1301 Mandolin St",
    "address_councildis": "D",
    "status": "Pending",
    "rowid": "992900",
    "final_x": "3677304.78958",
    "final_y": "548112.18549",
    "longitude": "-90.08074456134314",
    "latitude": "30.001245183873444",
    "geocoded_column": {
      "latitude": "30.001245183873444",
      "longitude": "-90.08074456134314"
    }
  },
  {
    "service_request": "2023-992898",
    "request_type": "Trash/Recycling",
    "request_reason": "Repair Trash Cart",
    "date_created": "2023-04-20T12:55:50.000",
    "date_modified": "2023-04-20T12:55:51.000",
    "request_status": "Pending",
    "responsible_agency": "Department of Sanitation",
    "final_address": "836 Taft Pl",
    "address_councildis": "A",
    "status": "Assigned to Contractor",
    "contractor": "Richards Disposal",
    "rowid": "992898",
    "final_x": "3673835.45166",
    "final_y": "539622.235786",
    "longitude": "-90.09199508179661",
    "latitude": "29.97800458792729",
    "geocoded_column": {
      "latitude": "29.97800458792729",
      "longitude": "-90.09199508179661"
    }
  },
  {
    "service_request": "2023-992897",
    "request_type": "Trash/Recycling",
    "request_reason": "Repair Trash Cart",
    "date_created": "2023-04-20T12:55:39.000",
    "date_modified": "2023-04-20T12:55:39.000",
    "request_status": "Pending",
    "responsible_agency": "Department of Sanitation",
    "final_address": "11025 Chaucer St",
    "address_councildis": "E",
    "status": "Assigned to Contractor",
    "contractor": "Waste Pro",
    "rowid": "992897",
    "final_x": "3713195.27672",
    "final_y": "562260.241951",
    "longitude": "-89.96683153412604",
    "latitude": "30.03901915737819",
    "geocoded_column": {
      "latitude": "30.03901915737819",
      "longitude": "-89.96683153412604"
    }
  },
  {
    "service_request": "2023-992896",
    "request_type": "Trash/Recycling",
    "request_reason": "Order Recycling Cart",
    "date_created": "2023-04-20T12:55:04.000",
    "date_modified": "2023-04-20T12:55:04.000",
    "request_status": "Pending",
    "responsible_agency": "Department of Sanitation",
    "final_address": "11025 Chaucer St",
    "address_councildis": "E",
    "status": "Pending",
    "rowid": "992896",
    "final_x": "3713195.27672",
    "final_y": "562260.241951",
    "longitude": "-89.96683153412604",
    "latitude": "30.03901915737819",
    "geocoded_column": {
      "latitude": "30.03901915737819",
      "longitude": "-89.96683153412604"
    }
  },
  {
    "service_request": "2023-992895",
    "request_type": "Traffic Signals/Signs/Striping/Streetlights",
    "request_reason": "Street Light Outage/Malfunction",
    "date_created": "2023-04-20T12:52:20.000",
    "date_modified": "2023-04-20T12:52:21.000",
    "request_status": "Pending",
    "responsible_agency": "Department of Public Works",
    "final_address": "3201 Rue Parc Fontaine",
    "address_councildis": "C",
    "status": "Assigned to Contractor",
    "contractor": "Legacy Professional Services",
    "rowid": "992895",
    "final_x": "3700081.13136",
    "final_y": "518907.818039",
    "longitude": "-90.00985815966307",
    "latitude": "29.920239327415114",
    "geocoded_column": {
      "latitude": "29.920239327415114",
      "longitude": "-90.00985815966307"
    }
  },