[
  {
    "service_request": "2025-1164000",
    "request_type": "Roads and Streets",
    "request_reason": "Debris in Driving Lanes",
    "date_created": "2025-01-26T23:05:02.000",
    "date_modified": "2025-01-26T23:05:29.000",
    "request_status": "Pending",
    "responsible_agency": "Department of Public Works",
    "final_address": "1625 Milton St",
    "address_councildis": "D",
    "status": "Pending",
    "rowid": "1164000",
    "final_x": "3679877.70607",
    "final_y": "546312.946704",
    "longitude": "-90.07267902787703",
    "latitude": "29.99622032826536",
    "geocoded_column": {
      "latitude": "29.99622032826536",
      "longitude": "-90.07267902787703"
    }
  },
  {
    "service_request": "2025-1163999",
    "request_type": "Roads and Streets",
    "request_reason": "Debris in Driving Lanes",
    "date_created": "2025-01-26T23:04:48.000",
    "date_modified": "2025-01-26T23:05:06.000",
    "request_status": "Pending",
    "responsible_agency": "Department of Public Works",
    "final_address": "1625 Milton St",
    "address_councildis": "D",
    "status": "Pending",
    "rowid": "1163999",
    "final_x": "3679877.70607",
    "final_y": "546312.946704",
    "longitude": "-90.07267902787703",
    "latitude": "29.99622032826536",
    "geocoded_column": {
      "latitude": "29.99622032826536",
      "longitude": "-90.07267902787703"
    }
  },
  {
    "service_request": "2025-1163998",
    "request_type": "Roads and Streets",
    "request_reason": "Debris in Driving Lanes",
    "date_created": "2025-01-26T23:03:10.000",
    "date_modified": "2025-01-26T23:03:13.000",
    "request_status": "Pending",
    "responsible_agency": "Department of Public Works",
    "final_address": "1625 Milton St",
    "address_councildis": "D",
    "status": "Pending",
    "rowid": "1163998",
    "final_x": "3679877.70607",
    "final_y": "546312.946704",
    "longitude": "-90.07267902787703",
    "latitude": "29.99622032826536",
    "geocoded_column": {
      "latitude": "29.99622032826536",
      "longitude": "-90.07267902787703"
    }
  },
  {
    "service_request": "2025-1163997",
    "request_type": "Trash/Recycling",
    "request_reason": "Missed Trash Pick-Up",
    "date_created": "2025-01-26T22:47:16.000",
    "date_modified": "2025-01-26T22:47:18.000",
    "request_status": "Pending",
    "responsible_agency": "Department of Sanitation",
    "final_address": "7810 Haney Dr",
    "address_councildis": "E",
    "status": "Assigned to Contractor",
    "contractor": "Waste Pro",
    "rowid": "1163997",
    "final_x": "3712228.13227",
    "final_y": "567772.166692",
    "longitude": "-89.96968065022602",
    "latitude": "30.054206400621563",
    "geocoded_column": {
      "latitude": "30.054206400621563",
      "longitude": "-89.96968065022602"
    }
  },
  {
    "service_request": "2025-1163996",
    "request_type": "Trash/Recycling",
    "request_reason": "Request a Large Item Pick Up",
    "date_created": "2025-01-26T22:42:04.000",
    "date_modified": "2025-01-26T22:42:08.000",
    "request_status": "Pending",
    "responsible_agency": "Department of Sanitation",
    "final_address": "906 Washington Ave",
    "address_councildis": "B",
    "status": "Assigned to Contractor",
    "contractor": "IV Waste",
    "rowid": "1163996",
    "final_x": "3677369.74101",
    "final_y": "520235.422392",
    "longitude": "-90.08150148681219",
    "latitude": "29.92459157518719",
    "geocoded_column": {
      "latitude": "29.92459157518719",
      "longitude": "-90.08150148681219"
    }
  },
  {
    "service_request": "2025-1163995",
    "request_type": "Trash/Recycling",
    "request_reason": "Order Second Trash Cart",
    "date_created": "2025-01-26T22:37:25.000",
    "date_modified": "2025-01-26T22:37:27.000",
    "request_status": "Pending",
    "responsible_agency": "Department of Sanitation",
    "final_address": "7030 Edgefield Dr",
    "address_councildis": "E",
    "status": "Assigned to Contractor",
    "contractor": "Waste Pro",
    "rowid": "1163995",
    "final_x": "3718759.15468",
    "final_y": "569053.91767",
    "longitude": "-89.9489889286263",
    "latitude": "30.057515353520355",
    "geocoded_column": {
      "latitude": "30.057515353520355",
      "longitude": "-89.9489889286263"
    }
  },
  {
    "service_request": "2025-1163994",
    "request_type": "Trash/Recycling",
    "request_reason": "Order Second Trash Cart",
    "date_created": "2025-01-26T22:36:24.000",
    "date_modified": "2025-01-26T22:36:26.000",
    "request_status": "Pending",
    "responsible_agency": "Department of Sanitation",
    "final_address": "7030 Edgefield Dr",
    "address_councildis": "E",
    "status": "Assigned to Contractor",
    "contractor": "Waste Pro",
    "rowid": "1163994",
    "final_x": "3718759.15468",
    "final_y": "569053.91767",
    "longitude": "-89.9489889286263",
    "latitude": "30.057515353520355",
    "geocoded_column": {
      "latitude": "30.057515353520355",
      "longitude": "-89.9489889286263"
    }
  },
  {
    "service_request": "2025-1163993",
    "request_type": "Property Maintenance",
    "request_reason": "Property Maintenance",
    "date_created": "2025-01-26T21:35:35.000",
    "date_modified": "2025-01-26T21:35:37.000",
    "request_status": "Pending",
    "responsible_agency": "Department of Code Enforcement",
    "final_address": "1034 Fats Domino Ave",
    "address_councildis": "E",
    "status": "Pending",
    "rowid": "1163993",
    "final_x": "3697914.88247",
    "final_y": "533609.459397",
    "longitude": "-90.0161624899093",
    "latitude": "29.96073235326379",
    "geocoded_column": {
      "latitude": "29.96073235326379",
      "longitude": "-90.0161624899093"
    }
  },
  {
    "service_request": "2025-1163992",
    "request_type": "Roads and Streets",
    "request_reason": "Street Subsidence (Sinking)",
    "date_created": "2025-01-26T21:32:34.000",
    "date_modified": "2025-01-26T21:32:37.000",
    "request_status": "Pending",
    "responsible_agency": "Department of Public Works",
    "final_address": "5303 St Charles Ave",
    "address_councildis": "B",
    "status": "Pending",
    "rowid": "1163992",
    "final_x": "3667789.46273",
    "final_y": "521417.941689",
    "longitude": "-90.11170349665443",
    "latitude": "29.928127445898355",
    "geocoded_column": {
      "latitude": "29.928127445898355",
      "longitude": "-90.11170349665443"
    }
  },
  {
    "service_request": "2025-1163991",
    "request_type": "Abandoned Vehicles",
    "request_reason": "Abandoned/Junk Vehicles",
    "date_created": "2025-01-26T21:31:37.000",
    "date_modified": "2025-01-26T21:31:39.000",
    "request_status": "Pending",
    "responsible_agency": "Department of Public Works",
    "final_address": "5176 Forest Park Ln",
    "address_councildis": "C",
    "status": "Pending",
    "rowid": "1163991",
    "final_x": "3703586.57674",
    "final_y": "510676.986799",
    "longitude": "-89.99909574295562",
    "latitude": "29.89749555283955",
    "geocoded_column": {
      "latitude": "29.89749555283955",
      "longitude": "-89.99909574295562"
    }
  },
  {
    "service_request": "2025-1163990",
    "request_type": "Roads and Streets",
    "request_reason": "Street Subsidence (Sinking)",
    "date_created": "2025-01-26T21:30:50.000",
    "date_modified": "2025-01-26T21:30:53.000",
    "request_status": "Pending",
    "responsible_agency": "Department of Public Works",
    "final_address": "5303 St Charles Ave",
    "address_councildis": "B",
    "status": "Pending",
    "rowid": "1163990",
    "final_x": "3667789.46273",
    "final_y": "521417.941689",
    "longitude": "-90.11170349665443",
    "latitude": "29.928127445898355",
    "geocoded_column": {
      "latitude": "29.928127445898355",
      "longitude": "-90.11170349665443"
    }
  },
  {
    "service_request": "2025-1163989",
    "request_type": "Trash/Recycling",
    "request_reason": "Illegal Dumping",
    "date_created": "2025-01-26T21:29:03.000",
    "date_modified": "2025-01-26T21:29:05.000",
    "request_status": "Pending",
    "responsible_agency": "Department of Sanitation",
    "final_address": "7800 BLK Lake Forest Blvd",
    "address_councildis": "E",
    "status": "Pending",
    "rowid": "1163989",
    "final_x": "3703162.42074",
    "final_y": "556733.02871",
    "longitude": "-89.9987414304439",
    "latitude": "30.024146646982185",
    "geocoded_column": {
      "latitude": "30.024146646982185",
      "longitude": "-89.9987414304439"
    }
  },
  {
    "service_request": "2025-1163988",
    "request_type": "Trash/Recycling",
    "request_reason": "Illegal Dumping",
    "date_created": "2025-01-26T21:27:20.000",
    "date_modified": "2025-01-26T21:27:23.000",
    "request_status": "Pending",
    "responsible_agency": "Department of Sanitation",
    "final_address": "7800 BLK Lake Forest Blvd",
    "address_councildis": "E",
    "status": "Pending",
    "rowid": "1163988",
    "final_x": "3703162.42074",
    "final_y": "556733.02871",
    "longitude": "-89.9987414304439",
    "latitude": "30.024146646982185",
    "geocoded_column": {
      "latitude": "30.024146646982185",
      "longitude": "-89.9987414304439"
    }
  },
  {
    "service_request": "2025-1163987",
    "request_type": "Trash/Recycling",
    "request_reason": "Request a Large Item Pick Up",
    "date_created": "2025-01-26T21:21:55.000",
    "date_modified": "2025-01-26T21:21:57.000",
    "request_status": "Pending",
    "responsible_agency": "Department of Sanitation",
    "final_address": "6335 Dauphine St",
    "address_councildis": "E",
    "status": "Assigned to Contractor",
    "contractor": "Waste Pro",
    "rowid": "1163987",
    "final_x": "3699971.39037",
    "final_y": "531900.992643",
    "longitude": "-90.00973079913217",
    "latitude": "29.95596951565446",
    "geocoded_column": {
      "latitude": "29.95596951565446",
      "longitude": "-90.00973079913217"
    }
  },
  {
    "service_request": "2025-1163986",
    "request_type": "Parks & Parkways",
    "request_reason": "Request Tree Service (Right of Way/Public Property)",
    "date_created": "2025-01-26T21:17:52.000",
    "date_modified": "2025-01-26T21:17:55.000",
    "request_status": "Pending",
    "responsible_agency": "Department of Parks & Parkway",
    "final_address": "331 Calhoun St",
    "address_councildis": "A",
    "status": "Pending",
    "rowid": "1163986",
    "final_x": "3662912.89619",
    "final_y": "518358.568694",
    "longitude": "-90.12719944997919",
    "latitude": "29.9198571836906",
    "geocoded_column": {
      "latitude": "29.9198571836906",
      "longitude": "-90.12719944997919"
    }
  },
  {
    "service_request": "2025-1163985",
    "request_type": "Trash/Recycling",
    "request_reason": "Damaged Caused By Contractor",
    "date_created": "2025-01-26T21:11:15.000",
    "date_modified": "2025-01-26T21:11:17.000",
    "request_status": "Pending",
    "responsible_agency": "Department of Sanitation",
    "final_address": "7458 Garfield St",
    "address_councildis": "A",
    "status": "Assigned to Contractor",
    "contractor": "IV Waste",
    "rowid": "1163985",
    "final_x": "3661134.24653",
    "final_y": "523976.310588",
    "longitude": "-90.13262799436322",
    "latitude": "29.9353555812167",
    "geocoded_column": {
      "latitude": "29.9353555812167",
      "longitude": "-90.13262799436322"
    }
  },
  {
    "service_request": "2025-1163984",
    "request_type": "Trash/Recycling",
    "request_reason": "Request a Large Item Pick Up",
    "date_created": "2025-01-26T20:56:44.000",
    "date_modified": "2025-01-26T20:56:46.000",
    "request_status": "Pending",
    "responsible_agency": "Department of Sanitation",
    "final_address": "2050 Valentine Ct",
    "address_councildis": "C",
    "status": "Assigned to Contractor",
    "contractor": "Richards Disposal",
    "rowid": "1163984",
    "final_x": "3699795.65213",
    "final_y": "523664.264763",
    "longitude": "-90.01058595815529",
    "latitude": "29.933326982858944",
    "geocoded_column": {
      "latitude": "29.933326982858944",
      "longitude": "-90.01058595815529"
    }
  },
  {
    "service_request": "2025-1163983",
    "request_type": "Trash/Recycling",
    "request_reason": "Request a Large Item Pick Up",
    "date_created": "2025-01-26T20:54:57.000",
    "date_modified": "2025-01-26T20:54:59.000",
    "request_status": "Pending",
    "responsible_agency": "Department of Sanitation",
    "final_address": "2050 Valentine Ct",
    "address_councildis": "C",
    "status": "Assigned to Contractor",
    "contractor": "Richards Disposal",
    "rowid": "1163983",
    "final_x": "3699795.65213",
    "final_y": "523664.264763",
    "longitude": "-90.01058595815529",
    "latitude": "29.933326982858944",
    "geocoded_column": {
      "latitude": "29.933326982858944",
      "longitude": "-90.01058595815529"
    }
  },
  {
    "service_request": "2025-1163982",
    "request_type": "Drainage",
    "request_reason": "Street Flooding",
    "date_created": "2025-01-26T20:54:03.000",
    "date_modified": "2025-01-26T20:54:05.000",
    "request_status": "Pending",
    "responsible_agency": "Department of Public Works",
    "final_address": "1729 Nashville Ave",
    "address_councildis": "A",
    "status": "Pending",
    "rowid": "1163982",
    "final_x": "3666547.43905",
    "final_y": "522878.884539",
    "longitude": "-90.11557528636845",
    "latitude": "29.932180927162634",
    "geocoded_column": {
      "latitude": "29.932180927162634",
      "longitude": "-90.11557528636845"
    }
  },
  {
    "service_request": "2025-1163981",
    "request_type": "Roads and Streets",
    "request_reason": "Sidewalk Damaged or Missing",
    "date_created": "2025-01-26T20:37:34.000",
    "date_modified": "2025-01-26T20:37:36.000",
    "request_status": "Pending",
    "responsible_agency": "Department of Public Works",
    "final_address": "2601 Josephine St",
    "address_councildis": "B",
    "status": "Pending",
    "rowid": "1163981",
    "final_x": "3675731.59349",
    "final_y": "526837.387966",
    "longitude": "-90.08644579078629",
    "latitude": "29.942793935926975",
    "geocoded_column": {
      "latitude": "29.942793935926975",
      "longitude": "-90.08644579078629"
    }
  },
  {
    "service_request": "2025-1163980",
    "request_type": "Drainage",
    "request_reason": "Catch Basin Damaged",
    "date_created": "2025-01-26T20:28:58.000",
    "date_modified": "2025-01-26T20:29:00.000",
    "request_status": "Pending",
    "responsible_agency": "Department of Public Works",
    "final_address": "2120 Magnolia St",
    "address_councildis": "B",
    "status": "Pending",
    "rowid": "1163980",
    "final_x": "3675382.5563",
    "final_y": "526927.60595",
    "longitude": "-90.08754468869851",
    "latitude": "29.94305244478261",
    "geocoded_column": {
      "latitude": "29.94305244478261",
      "longitude": "-90.08754468869851"
    }
  },
  {
    "service_request": "2025-1163979",
    "request_type": "Trash/Recycling",
    "request_reason": "Request a Large Item Pick Up",
    "date_created": "2025-01-26T20:24:50.000",
    "date_modified": "2025-01-26T20:24:54.000",
    "request_status": "Pending",
    "responsible_agency": "Department of Sanitation",
    "final_address": "2424 Jena St",
    "address_councildis": "B",
    "status": "Assigned to Contractor",
    "contractor": "IV Waste",
    "rowid": "1163979",
    "final_x": "3670095.28833",
    "final_y": "523874.683516",
    "longitude": "-90.10434132436562",
    "latitude": "29.93481490027657",
    "geocoded_column": {
      "latitude": "29.93481490027657",
      "longitude": "-90.10434132436562"
    }
  },
  {
    "service_request": "2025-1163978",
    "request_type": "Streetlights",
    "request_reason": "Streetlight Knocked Down/Leaning",
    "date_created": "2025-01-26T20:22:26.000",
    "date_modified": "2025-01-26T20:22:28.000",
    "request_status": "Pending",
    "responsible_agency": "Department of Public Works",
    "final_address": "10101 Dwyer Rd",
    "address_councildis": "E",
    "status": "Pending",
    "contractor": "Legacy Professional Services",
    "rowid": "1163978",
    "final_x": "3712861.84318",
    "final_y": "558035.777435",
    "longitude": "-89.96804434105468",
    "latitude": "30.027414493874833",
    "geocoded_column": {
      "latitude": "30.027414493874833",
      "longitude": "-89.96804434105468"
    }
  },
  {
    "service_request": "2025-1163977",
    "request_type": "Trash/Recycling",
    "request_reason": "Repair Trash Cart",
    "date_created": "2025-01-26T20:19:29.000",
    "date_modified": "2025-01-26T20:19:31.000",
    "request_status": "Pending",
    "responsible_agency": "Department of Sanitation",
    "final_address": "2136 Broadway St",
    "address_councildis": "A",
    "status": "Assigned to Contractor",
    "contractor": "IV Waste",
    "rowid": "1163977",
    "final_x": "3666062.4482",
    "final_y": "529425.890753",
    "longitude": "-90.1168869425692",
    "latitude": "29.950197256207634",
    "geocoded_column": {
      "latitude": "29.950197256207634",
      "longitude": "-90.1168869425692"
    }
  },
  {
    "service_request": "2025-1163976",
    "request_type": "Trash/Recycling",
    "request_reason": "Request a Large Item Pick Up",
    "date_created": "2025-01-26T20:18:58.000",
    "date_modified": "2025-01-26T20:19:00.000",
    "request_status": "Pending",
    "responsible_agency": "Department of Sanitation",
    "final_address": "5610 Laurel St",
    "address_councildis": "A",
    "status": "Assigned to Contractor",
    "contractor": "IV Waste",
    "rowid": "1163976",
    "final_x": "3665790.69882",
    "final_y": "517840.215222",
    "longitude": "-90.1181329456149",
    "latitude": "29.918348265970874",
    "geocoded_column": {
      "latitude": "29.918348265970874",
      "longitude": "-90.1181329456149"
    }
  },
  {
    "service_request": "2025-1163975",
    "request_type": "Street and Traffic Signs",
    "request_reason": "Street Name Sign Damaged or Missing",
    "date_created": "2025-01-26T20:18:39.000",
    "date_modified": "2025-01-26T20:18:42.000",
    "request_status": "Pending",
    "responsible_agency": "Department of Public Works",
    "final_address": "4500 BLK Cardenas Dr",
    "address_councildis": "E",
    "status": "Pending",
    "rowid": "1163975",
    "final_x": "3713764.14593",
    "final_y": "555543.601955",
    "longitude": "-89.96528719221863",
    "latitude": "30.020532404422635",
    "geocoded_column": {
      "latitude": "30.020532404422635",
      "longitude": "-89.96528719221863"
    }
  },
  {
    "service_request": "2025-1163974",
    "request_type": "Trash/Recycling",
    "request_reason": "Order Recycling Cart",
    "date_created": "2025-01-26T20:17:39.000",
    "date_modified": "2025-01-26T20:17:42.000",
    "request_status": "Pending",
    "responsible_agency": "Department of Sanitation",
    "final_address": "2136 Broadway St",
    "address_councildis": "A",
    "status": "Pending",
    "rowid": "1163974",
    "final_x": "3666062.4482",
    "final_y": "529425.890753",
    "longitude": "-90.1168869425692",
    "latitude": "29.950197256207634",
    "geocoded_column": {
      "latitude": "29.950197256207634",
      "longitude": "-90.1168869425692"
    }
  },
  {
    "service_request": "2025-1163973",
    "request_type": "Roads and Streets",
    "request_reason": "Road Shoulder Damage",
    "date_created": "2025-01-26T20:11:33.000",
    "date_modified": "2025-01-26T20:11:35.000",
    "request_status": "Pending",
    "responsible_agency": "Department of Public Works",
    "final_address": "2728 Martin Luther King, Jr. Blvd",
    "address_councildis": "B",
    "status": "Pending",
    "rowid": "1163973",
    "final_x": "3675653.11464",
    "final_y": "527680.221503",
    "longitude": "-90.08666461562096",
    "latitude": "29.945113798109738",
    "geocoded_column": {
      "latitude": "29.945113798109738",
      "longitude": "-90.08666461562096"
    }
  },
  {
    "service_request": "2025-1163972",
    "request_type": "Trash/Recycling",
    "request_reason": "Request a Large Item Pick Up",
    "date_created": "2025-01-26T20:09:15.000",
    "date_modified": "2025-01-26T20:09:17.000",
    "request_status": "Pending",
    "responsible_agency": "Department of Sanitation",
    "final_address": "5852 General Diaz St",
    "address_councildis": "A",
    "status": "Assigned to Contractor",
    "contractor": "IV Waste",
    "rowid": "1163972",
    "final_x": "3669326.29255",
    "final_y": "546285.741072",
    "longitude": "-90.10601121353952",
    "latitude": "29.996460500008144",
    "geocoded_column": {
      "latitude": "29.996460500008144",
      "longitude": "-90.10601121353952"
    }
  },
  {
    "service_request": "2025-1163971",
    "request_type": "Trash/Recycling",
    "request_reason": "Replace Trash Cart",
    "date_created": "2025-01-26T20:08:38.000",
    "date_modified": "2025-01-26T20:08:41.000",
    "request_status": "Pending",
    "responsible_agency": "Department of Sanitation",
    "final_address": "4000 BLK Herschel St",
    "address_councildis": "C",
    "status": "Assigned to Contractor",
    "contractor": "Richards Disposal",
    "rowid": "1163971",
    "final_x": "3698460.62765",
    "final_y": "521053.422576",
    "longitude": "-90.01489536118453",
    "latitude": "29.926190373624078",
    "geocoded_column": {
      "latitude": "29.926190373624078",
      "longitude": "-90.01489536118453"
    }
  },
  {
    "service_request": "2025-1163970",
    "request_type": "Trash/Recycling",
    "request_reason": "Request a Large Item Pick Up",
    "date_created": "2025-01-26T19:57:57.000",
    "date_modified": "2025-01-26T19:57:59.000",
    "request_status": "Pending",
    "responsible_agency": "Department of Sanitation",
    "final_address": "2713 Jackson Ave",
    "address_councildis": "B",
    "status": "Assigned to Contractor",
    "contractor": "IV Waste",
    "rowid": "1163970",
    "final_x": "3675017.73499",
    "final_y": "527196.646591",
    "longitude": "-90.08868729411675",
    "latitude": "29.943803119334724",
    "geocoded_column": {
      "latitude": "29.943803119334724",
      "longitude": "-90.08868729411675"
    }
  },
  {
    "service_request": "2025-1163969",
    "request_type": "Roads and Streets",
    "request_reason": "Street Subsidence (Sinking)",
    "date_created": "2025-01-26T19:51:15.000",
    "date_modified": "2025-01-26T19:51:18.000",
    "request_status": "Pending",
    "responsible_agency": "Department of Public Works",
    "final_address": "3879 Mimosa Dr",
    "address_councildis": "C",
    "status": "Pending",
    "rowid": "1163969",
    "final_x": "3704330.01764",
    "final_y": "512935.929137",
    "longitude": "-89.99666644648696",
    "latitude": "29.90368305442151",
    "geocoded_column": {
      "latitude": "29.90368305442151",
      "longitude": "-89.99666644648696"
    }
  },
  {
    "service_request": "2025-1163968",
    "request_type": "General Services",
    "request_reason": "General Service Request",
    "date_created": "2025-01-26T19:37:12.000",
    "date_modified": "2025-01-26T19:37:14.000",
    "request_status": "Pending",
    "responsible_agency": "Orleans Parish Communication District",
    "final_address": "1729 General Pershing St",
    "address_councildis": "B",
    "status": "Pending",
    "rowid": "1163968",
    "final_x": "3671230.12564",
    "final_y": "521526.095033",
    "longitude": "-90.10083840251973",
    "latitude": "29.92832351987896",
    "geocoded_column": {
      "latitude": "29.92832351987896",
      "longitude": "-90.10083840251973"
    }
  },
  {
    "service_request": "2025-1163967",
    "request_type": "Streetlights",
    "request_reason": "Streetlight Outage/Malfunction",
    "date_created": "2025-01-26T19:34:46.000",
    "date_modified": "2025-01-26T19:34:48.000",
    "request_status": "Pending",
    "responsible_agency": "Department of Public Works",
    "final_address": "4711 Owens Blvd",
    "address_councildis": "D",
    "status": "Pending",
    "contractor": "Legacy Professional Services",
    "rowid": "1163967",
    "final_x": "3676605.72149",
    "final_y": "549555.444947",
    "longitude": "-90.08290322522261",
    "latitude": "30.005234630188234",
    "geocoded_column": {
      "latitude": "30.005234630188234",
      "longitude": "-90.08290322522261"
    }
  },
  {
    "service_request": "2025-1163966",
    "request_type": "Trash/Recycling",
    "request_reason": "Replace Trash Cart",
    "date_created": "2025-01-26T19:27:52.000",
    "date_modified": "2025-01-26T19:27:56.000",
    "request_status": "Pending",
    "responsible_agency": "Department of Sanitation",
    "final_address": "4710 Owens Blvd",
    "address_councildis": "D",
    "status": "Assigned to Contractor",
    "contractor": "IV Waste",
    "rowid": "1163966",
    "final_x": "3676476.38613",
    "final_y": "549587.703379",
    "longitude": "-90.08331071192893",
    "latitude": "30.005327209658322",
    "geocoded_column": {
      "latitude": "30.005327209658322",
      "longitude": "-90.08331071192893"
    }
  },
  {
    "service_request": "2025-1163965",
    "request_type": "Streetlights",
    "request_reason": "Streetlight Outage/Malfunction",
    "date_created": "2025-01-26T19:23:45.000",
    "date_modified": "2025-01-26T19:23:46.000",
    "request_status": "Pending",
    "responsible_agency": "Department of Public Works",
    "final_address": "5498 Hawthorne Pl",
    "address_councildis": "A",
    "status": "Pending",
    "contractor": "Legacy Professional Services",
    "rowid": "1163965",
    "final_x": "3667767.41197",
    "final_y": "543916.667278",
    "longitude": "-90.11101546787542",
    "latitude": "29.989992179028956",
    "geocoded_column": {
      "latitude": "29.989992179028956",
      "longitude": "-90.11101546787542"
    }
  },
  {
    "service_request": "2025-1163964",
    "request_type": "Streetlights",
    "request_reason": "Streetlight Outage/Malfunction",
    "date_created": "2025-01-26T19:20:41.000",
    "date_modified": "2025-01-26T19:20:42.000",
    "request_status": "Pending",
    "responsible_agency": "Department of Public Works",
    "final_address": "Aymard Court & Hawthorne Place",
    "address_councildis": "A",
    "status": "Pending",
    "contractor": "Legacy Professional Services",
    "rowid": "1163964",
    "final_x": "3667823.85869",
    "final_y": "544022.015246",
    "longitude": "-90.11083361692933",
    "latitude": "29.990280194152398",
    "geocoded_column": {
      "latitude": "29.990280194152398",
      "longitude": "-90.11083361692933"
    }
  },
  {
    "service_request": "2025-1163963",
    "request_type": "Drainage",
    "request_reason": "Catch Basin Damaged",
    "date_created": "2025-01-26T19:17:06.000",
    "date_modified": "2025-01-26T19:17:09.000",
    "request_status": "Pending",
    "responsible_agency": "Department of Public Works",
    "final_address": "2838 St Andrew St",
    "address_councildis": "B",
    "status": "Pending",
    "rowid": "1163963",
    "final_x": "3675225.44206",
    "final_y": "527589.996351",
    "longitude": "-90.08801800876488",
    "latitude": "29.94487849613701",
    "geocoded_column": {
      "latitude": "29.94487849613701",
      "longitude": "-90.08801800876488"
    }
  },
  {
    "service_request": "2025-1163962",
    "request_type": "Trash/Recycling",
    "request_reason": "Illegal Dumping",
    "date_created": "2025-01-26T19:05:53.000",
    "date_modified": "2025-01-26T19:05:54.000",
    "request_status": "Pending",
    "responsible_agency": "Department of Sanitation",
    "final_address": "2700 BLK Saint Andrew St",
    "address_councildis": "B",
    "status": "Pending",
    "rowid": "1163962",
    "final_x": "3675445.70714",
    "final_y": "527413.464646",
    "longitude": "-90.08732862502731",
    "latitude": "29.944386508003635",
    "geocoded_column": {
      "latitude": "29.944386508003635",
      "longitude": "-90.08732862502731"
    }
  },
  {
    "service_request": "2025-1163961",
    "request_type": "Streetlights",
    "request_reason": "Streetlight Outage/Malfunction",
    "date_created": "2025-01-26T19:05:43.000",
    "date_modified": "2025-01-26T19:05:44.000",
    "request_status": "Pending",
    "responsible_agency": "Department of Public Works",
    "final_address": "2200 BLK Cadiz St",
    "address_councildis": "B",
    "status": "Pending",
    "contractor": "Legacy Professional Services",
    "rowid": "1163961",
    "final_x": "3669871.32426",
    "final_y": "523096.674067",
    "longitude": "-90.10507470604477",
    "latitude": "29.932682227589236",
    "geocoded_column": {
      "latitude": "29.932682227589236",
      "longitude": "-90.10507470604477"
    }
  },
  {
    "service_request": "2025-1163960",
    "request_type": "Trash/Recycling",
    "request_reason": "Illegal Dumping",
    "date_created": "2025-01-26T18:59:43.000",
    "date_modified": "2025-01-26T18:59:46.000",
    "request_status": "Pending",
    "responsible_agency": "Department of Sanitation",
    "final_address": "2700 BLK Josephine St",
    "address_councildis": "B",
    "status": "Pending",
    "rowid": "1163960",
    "final_x": "3675428.30888",
    "final_y": "527175.596027",
    "longitude": "-90.08739172271062",
    "latitude": "29.943732967931723",
    "geocoded_column": {
      "latitude": "29.943732967931723",
      "longitude": "-90.08739172271062"
    }
  },
  {
    "service_request": "2025-1163959",
    "request_type": "Healthy Homes",
    "request_reason": "Healthy Homes",
    "date_created": "2025-01-26T18:31:23.000",
    "date_modified": "2025-01-26T18:31:34.000",
    "request_status": "Pending",
    "responsible_agency": "Department of Code Enforcement",
    "final_address": " & BALDWIN ST",
    "address_councildis": "D",
    "status": "Pending",
    "rowid": "1163959",
    "final_x": "3687880.8",
    "final_y": "560035.64",
    "longitude": "-90.04691121641319",
    "latitude": "30.03370814054373",
    "geocoded_column": {
      "latitude": "30.03370814054373",
      "longitude": "-90.04691121641319"
    }
  },
  {
    "service_request": "2025-1163958",
    "request_type": "Trash/Recycling",
    "request_reason": "Request a Large Item Pick Up",
    "date_created": "2025-01-26T18:30:20.000",
    "date_modified": "2025-01-26T18:30:27.000",
    "request_status": "Pending",
    "responsible_agency": "Department of Sanitation",
    "final_address": "1000 Broadway St",
    "address_councildis": "A",
    "status": "Assigned to Contractor",
    "contractor": "IV Waste",
    "rowid": "1163958",
    "final_x": "3663748.49779",
    "final_y": "525959.537853",
    "longitude": "-90.12430869496454",
    "latitude": "29.940733241356003",
    "geocoded_column": {
      "latitude": "29.940733241356003",
      "longitude": "-90.12430869496454"
    }
  },
  {
    "service_request": "2025-1163957",
    "request_type": "Family Reunification",
    "request_reason": "Misplaced Citizen",
    "date_created": "2025-01-26T18:29:45.000",
    "date_modified": "2025-01-26T18:29:48.000",
    "request_status": "Pending",
    "responsible_agency": "Health Department",
    "final_address": " & WILSON ST",
    "address_councildis": "D",
    "status": "Pending",
    "rowid": "1163957",
    "final_x": "3687879.66",
    "final_y": "560022.2",
    "longitude": "-90.04691529576257",
    "latitude": "30.03367122080225",
    "geocoded_column": {
      "latitude": "30.03367122080225",
      "longitude": "-90.04691529576257"
    }
  },
  {
    "service_request": "2025-1163956",
    "request_type": "Trash/Recycling",
    "request_reason": "Request a Large Item Pick Up",
    "date_created": "2025-01-26T18:03:28.000",
    "date_modified": "2025-01-26T18:03:30.000",
    "request_status": "Pending",
    "responsible_agency": "Department of Sanitation",
    "final_address": "1500 BLK S Robertson St",
    "address_councildis": "B",
    "status": "Assigned to Contractor",
    "contractor": "IV Waste",
    "rowid": "1163956",
    "final_x": "3676051.67673",
    "final_y": "527314.302114",
    "longitude": "-90.08541881218189",
    "latitude": "29.944095711200287",
    "geocoded_column": {
      "latitude": "29.944095711200287",
      "longitude": "-90.08541881218189"
    }
  },
  {
    "service_request": "2025-1163955",
    "request_type": "Trash/Recycling",
    "request_reason": "Request a Large Item Pick Up",
    "date_created": "2025-01-26T17:59:13.000",
    "date_modified": "2025-01-26T17:59:15.000",
    "request_status": "Pending",
    "responsible_agency": "Department of Sanitation",
    "final_address": "2719 Felicity St",
    "address_councildis": "B",
    "status": "Assigned to Contractor",
    "contractor": "IV Waste",
    "rowid": "1163955",
    "final_x": "3675412.52545",
    "final_y": "527715.404159",
    "longitude": "-90.08742302365211",
    "latitude": "29.94521773413254",
    "geocoded_column": {
      "latitude": "29.94521773413254",
      "longitude": "-90.08742302365211"
    }
  },
  {
    "service_request": "2025-1163954",
    "request_type": "Trash/Recycling",
    "request_reason": "Missed Trash Pick-Up",
    "date_created": "2025-01-26T17:50:27.000",
    "date_modified": "2025-01-26T17:50:29.000",
    "request_status": "Pending",
    "responsible_agency": "Department of Sanitation",
    "final_address": "5006 N Galvez St",
    "address_councildis": "E",
    "status": "Assigned to Contractor",
    "contractor": "Waste Pro",
    "rowid": "1163954",
    "final_x": "3697065.836",
    "final_y": "537903.945161",
    "longitude": "-90.01868800928291",
    "latitude": "29.972567466573878",
    "geocoded_column": {
      "latitude": "29.972567466573878",
      "longitude": "-90.01868800928291"
    }
  },
  {
    "service_request": "2025-1163953",
    "request_type": "Trash/Recycling",
    "request_reason": "Repair Trash Cart",
    "date_created": "2025-01-26T17:47:46.000",
    "date_modified": "2025-01-26T17:47:48.000",
    "request_status": "Pending",
    "responsible_agency": "Department of Sanitation",
    "final_address": "2334 Iberville St B",
    "address_councildis": "B",
    "status": "Assigned to Contractor",
    "contractor": "IV Waste",
    "rowid": "1163953",
    "final_x": "3676707.65192",
    "final_y": "534575.404357",
    "longitude": "-90.08309757367498",
    "latitude": "29.964041652868673",
    "geocoded_column": {
      "latitude": "29.964041652868673",
      "longitude": "-90.08309757367498"
    }
  },
  {
    "service_request": "2025-1163952",
    "request_type": "Traffic Signals",
    "request_reason": "Traffic Signal Malfunctioning or Damaged",
    "date_created": "2025-01-26T17:36:50.000",
    "date_modified": "2025-01-26T17:36:52.000",
    "request_status": "Pending",
    "responsible_agency": "Department of Public Works",
    "final_address": "POLAND AVE & ST CLAUDE AVE",
    "address_councildis": "C",
    "status": "Pending",
    "rowid": "1163952",
    "final_x": "3693011.2",
    "final_y": "535005.18",
    "longitude": "-90.03159722953174",
    "latitude": "29.964724178363277",
    "geocoded_column": {
      "latitude": "29.964724178363277",
      "longitude": "-90.03159722953174"
    }
  },
  {
    "service_request": "2025-1163951",
    "request_type": "Trash/Recycling",
    "request_reason": "Request a Large Item Pick Up",
    "date_created": "2025-01-26T17:33:43.000",
    "date_modified": "2025-01-26T17:33:46.000",
    "request_status": "Pending",
    "responsible_agency": "Department of Sanitation",
    "final_address": "2020 Camp St",
    "address_councildis": "B",
    "status": "Assigned to Contractor",
    "contractor": "IV Waste",
    "rowid": "1163951",
    "final_x": "3679150.01717",
    "final_y": "522739.85721",
    "longitude": "-90.07579499293321",
    "latitude": "29.931424352313797",
    "geocoded_column": {
      "latitude": "29.931424352313797",
      "longitude": "-90.07579499293321"
    }
  },
  {
    "service_request": "2025-1163950",
    "request_type": "Streetlights",
    "request_reason": "Streetlight Outage/Malfunction",
    "date_created": "2025-01-26T17:18:31.000",
    "date_modified": "2025-01-26T17:18:32.000",
    "request_status": "Pending",
    "responsible_agency": "Department of Public Works",
    "final_address": " & BALDWIN ST",
    "address_councildis": "D",
    "status": "Pending",
    "contractor": "Legacy Professional Services",
    "rowid": "1163950",
    "final_x": "3687880.8",
    "final_y": "560035.64",
    "longitude": "-90.04691121641319",
    "latitude": "30.03370814054373",
    "geocoded_column": {
      "latitude": "30.03370814054373",
      "longitude": "-90.04691121641319"
    }
  },
  {
    "service_request": "2025-1163949",
    "request_type": "Drainage",
    "request_reason": "Catch Basin Damaged",
    "date_created": "2025-01-26T17:15:56.000",
    "date_modified": "2025-01-26T17:15:58.000",
    "request_status": "Pending",
    "responsible_agency": "Department of Public Works",
    "final_address": "0 BLK Bienville St",
    "address_councildis": "C",
    "status": "Pending",
    "rowid": "1163949",
    "final_x": "3682796.7971",
    "final_y": "530442.12099",
    "longitude": "-90.06401321104035",
    "latitude": "29.95249244398008",
    "geocoded_column": {
      "latitude": "29.95249244398008",
      "longitude": "-90.06401321104035"
    }
  },
  {
    "service_request": "2025-1163948",
    "request_type": "Trash/Recycling",
    "request_reason": "Request a Large Item Pick Up",
    "date_created": "2025-01-26T17:14:15.000",
    "date_modified": "2025-01-26T17:14:18.000",
    "request_status": "Pending",
    "responsible_agency": "Department of Sanitation",
    "final_address": "2854 Fortin St",
    "address_councildis": "A",
    "status": "Assigned to Contractor",
    "contractor": "IV Waste",
    "rowid": "1163948",
    "final_x": "3677936.82293",
    "final_y": "540875.344715",
    "longitude": "-90.07899817656201",
    "latitude": "29.981327394520708",
    "geocoded_column": {
      "latitude": "29.981327394520708",
      "longitude": "-90.07899817656201"
    }
  },
  {
    "service_request": "2025-1163947",
    "request_type": "Trash/Recycling",
    "request_reason": "Replace Recycling Cart",
    "date_created": "2025-01-26T17:04:31.000",
    "date_modified": "2025-01-26T17:04:33.000",
    "request_status": "Pending",
    "responsible_agency": "Department of Sanitation",
    "final_address": "5020 Magnolia St",
    "address_councildis": "B",
    "status": "Pending",
    "rowid": "1163947",
    "final_x": "3668686.13678",
    "final_y": "524580.504828",
    "longitude": "-90.10876619591352",
    "latitude": "29.936797165852138",
    "geocoded_column": {
      "latitude": "29.936797165852138",
      "longitude": "-90.10876619591352"
    }
  },
  {
    "service_request": "2025-1163946",
    "request_type": "Trash/Recycling",
    "request_reason": "Request a Large Item Pick Up",
    "date_created": "2025-01-26T16:56:19.000",
    "date_modified": "2025-01-26T16:56:20.000",
    "request_status": "Pending",
    "responsible_agency": "Department of Sanitation",
    "final_address": "37 Spanish Fort Blvd",
    "address_councildis": "D",
    "status": "Assigned to Contractor",
    "contractor": "IV Waste",
    "rowid": "1163946",
    "final_x": "3674095.50177",
    "final_y": "555092.447897",
    "longitude": "-90.09064384876098",
    "latitude": "30.02053449867548",
    "geocoded_column": {
      "latitude": "30.02053449867548",
      "longitude": "-90.09064384876098"
    }
  },
  {
    "service_request": "2025-1163945",
    "request_type": "Street and Traffic Signs",
    "request_reason": "Crosswalk Signage Damaged or Missing",
    "date_created": "2025-01-26T16:55:58.000",
    "date_modified": "2025-01-26T16:56:00.000",
    "request_status": "Pending",
    "responsible_agency": "Department of Public Works",
    "final_address": "501 N Carrollton Ave",
    "address_councildis": "A",
    "status": "Pending",
    "rowid": "1163945",
    "final_x": "3672082.92161",
    "final_y": "539511.610634",
    "longitude": "-90.09753396912926",
    "latitude": "29.97775249471257",
    "geocoded_column": {
      "latitude": "29.97775249471257",
      "longitude": "-90.09753396912926"
    }
  },
  {
    "service_request": "2025-1163944",
    "request_type": "Drainage",
    "request_reason": "Drainage Manhole Cover Missing or Damaged",
    "date_created": "2025-01-26T16:55:06.000",
    "date_modified": "2025-01-26T16:55:09.000",
    "request_status": "Pending",
    "responsible_agency": "Department of Public Works",
    "final_address": "2316 Martin Luther King, Jr. Blvd",
    "address_councildis": "B",
    "status": "Pending",
    "rowid": "1163944",
    "final_x": "3676782.92065",
    "final_y": "526973.34547",
    "longitude": "-90.0831218147504",
    "latitude": "29.943136274977352",
    "geocoded_column": {
      "latitude": "29.943136274977352",
      "longitude": "-90.0831218147504"
    }
  },
  {
    "service_request": "2025-1163943",
    "request_type": "Property Maintenance",
    "request_reason": "Property Maintenance",
    "date_created": "2025-01-26T16:42:55.000",
    "date_modified": "2025-01-26T16:42:59.000",
    "request_status": "Pending",
    "responsible_agency": "Department of Code Enforcement",
    "final_address": "1629 Basin St",
    "address_councildis": "C",
    "status": "Pending",
    "rowid": "1163943",
    "final_x": "3680016.77563",
    "final_y": "534692.675718",
    "longitude": "-90.07264358577605",
    "latitude": "29.964264414661557",
    "geocoded_column": {
      "latitude": "29.964264414661557",
      "longitude": "-90.07264358577605"
    }
  },
  {
    "service_request": "2025-1163942",
    "request_type": "General Services",
    "request_reason": "General Service Request",
    "date_created": "2025-01-26T16:40:32.000",
    "date_modified": "2025-01-26T16:40:34.000",
    "request_status": "Pending",
    "responsible_agency": "Orleans Parish Communication District",
    "final_address": "827 Tchoupitoulas St",
    "address_councildis": "B",
    "status": "Pending",
    "rowid": "1163942",
    "final_x": "3681672.34191",
    "final_y": "527456.075199",
    "longitude": "-90.06766787167993",
    "latitude": "29.944316025706247",
    "geocoded_column": {
      "latitude": "29.944316025706247",
      "longitude": "-90.06766787167993"
    }
  },
  {
    "service_request": "2025-1163941",
    "request_type": "Abandoned Vehicles",
    "request_reason": "Abandoned/Junk Vehicles",
    "date_created": "2025-01-26T16:36:08.000",
    "date_modified": "2025-01-26T16:36:10.000",
    "request_status": "Pending",
    "responsible_agency": "Department of Public Works",
    "final_address": "TULLIS DR & EUGENIE CT & LENNOX BLVD",
    "address_councildis": "C",
    "status": "Pending",
    "rowid": "1163941",
    "final_x": "3700652.4",
    "final_y": "511987.58",
    "longitude": "-90.00830754574949",
    "latitude": "29.90119286442581",
    "geocoded_column": {
      "latitude": "29.90119286442581",
      "longitude": "-90.00830754574949"
    }
  },
  {
    "service_request": "2025-1163940",
    "request_type": "Trash/Recycling",
    "request_reason": "Request a Large Item Pick Up",
    "date_created": "2025-01-26T16:31:16.000",
    "date_modified": "2025-01-26T16:31:18.000",
    "request_status": "Pending",
    "responsible_agency": "Department of Sanitation",
    "final_address": "4237 S Galvez St",
    "address_councildis": "B",
    "status": "Assigned to Contractor",
    "contractor": "IV Waste",
    "rowid": "1163940",
    "final_x": "3670616.38471",
    "final_y": "527636.591999",
    "longitude": "-90.1025686611949",
    "latitude": "29.945143550261253",
    "geocoded_column": {
      "latitude": "29.945143550261253",
      "longitude": "-90.1025686611949"
    }
  },
  {
    "service_request": "2025-1163939",
    "request_type": "General Services",
    "request_reason": "General Service Request",
    "date_created": "2025-01-26T16:26:25.000",
    "date_modified": "2025-01-26T16:26:27.000",
    "request_status": "Pending",
    "responsible_agency": "Orleans Parish Communication District",
    "final_address": "1602 Third St",
    "address_councildis": "B",
    "status": "Pending",
    "rowid": "1163939",
    "final_x": "3676320.13301",
    "final_y": "522993.361147",
    "longitude": "-90.08471988039643",
    "latitude": "29.932206499969116",
    "geocoded_column": {
      "latitude": "29.932206499969116",
      "longitude": "-90.08471988039643"
    }
  },
  {
    "service_request": "2025-1163938",
    "request_type": "Trash/Recycling",
    "request_reason": "Request a Large Item Pick Up",
    "date_created": "2025-01-26T16:13:35.000",
    "date_modified": "2025-01-26T16:13:39.000",
    "request_status": "Pending",
    "responsible_agency": "Department of Sanitation",
    "final_address": "6517 Center St",
    "address_councildis": "A",
    "status": "Assigned to Contractor",
    "contractor": "IV Waste",
    "rowid": "1163938",
    "final_x": "3664946.45664",
    "final_y": "551364.969109",
    "longitude": "-90.11967695006946",
    "latitude": "30.010554892203977",
    "geocoded_column": {
      "latitude": "30.010554892203977",
      "longitude": "-90.11967695006946"
    }
  },
  {
    "service_request": "2025-1163937",
    "request_type": "Abandoned Vehicles",
    "request_reason": "Abandoned/Junk Vehicles",
    "date_created": "2025-01-26T16:09:56.000",
    "date_modified": "2025-01-26T16:10:00.000",
    "request_status": "Pending",
    "responsible_agency": "Department of Public Works",
    "final_address": "2311 S Johnson St",
    "address_councildis": "B",
    "status": "Pending",
    "rowid": "1163937",
    "final_x": "3673605.37768",
    "final_y": "528728.905664",
    "longitude": "-90.09309413181799",
    "latitude": "29.948058436115023",
    "geocoded_column": {
      "latitude": "29.948058436115023",
      "longitude": "-90.09309413181799"
    }
  },
  {
    "service_request": "2025-1163936",
    "request_type": "Trash/Recycling",
    "request_reason": "Replace Trash Cart",
    "date_created": "2025-01-26T16:03:46.000",
    "date_modified": "2025-01-26T16:03:47.000",
    "request_status": "Pending",
    "responsible_agency": "Department of Sanitation",
    "final_address": "1119 Leonidas St",
    "address_councildis": "A",
    "status": "Assigned to Contractor",
    "contractor": "IV Waste",
    "rowid": "1163936",
    "final_x": "3660550.81389",
    "final_y": "529399.385409",
    "longitude": "-90.13429074676351",
    "latitude": "29.95028411433917",
    "geocoded_column": {
      "latitude": "29.95028411433917",
      "longitude": "-90.13429074676351"
    }
  },
  {
    "service_request": "2025-1163935",
    "request_type": "Trash/Recycling",
    "request_reason": "Replace Trash Cart",
    "date_created": "2025-01-26T16:03:34.000",
    "date_modified": "2025-01-26T16:03:37.000",
    "request_status": "Pending",
    "responsible_agency": "Department of Sanitation",
    "final_address": "4000 BLK Octavia St",
    "address_councildis": "B",
    "status": "Assigned to Contractor",
    "contractor": "IV Waste",
    "rowid": "1163935",
    "final_x": "3668939.99115",
    "final_y": "530177.261612",
    "longitude": "-90.107775777805",
    "latitude": "29.952178968237757",
    "geocoded_column": {
      "latitude": "29.952178968237757",
      "longitude": "-90.107775777805"
    }
  },
  {
    "service_request": "2025-1163933",
    "request_type": "Safety & Permits",
    "request_reason": "Zoning Enforcement",
    "date_created": "2025-01-26T15:54:54.000",
    "date_modified": "2025-01-26T15:54:55.000",
    "request_status": "Pending",
    "responsible_agency": "Safety and Permits",
    "final_address": "447 Audubon St",
    "address_councildis": "A",
    "status": "Pending",
    "rowid": "1163933",
    "final_x": "3662426.36231",
    "final_y": "523281.935547",
    "longitude": "-90.12857180969915",
    "latitude": "29.933408975578114",
    "geocoded_column": {
      "latitude": "29.933408975578114",
      "longitude": "-90.12857180969915"
    }
  },
  {
    "service_request": "2025-1163932",
    "request_type": "Safety & Permits",
    "request_reason": "Licenses & Permits",
    "date_created": "2025-01-26T15:53:20.000",
    "date_modified": "2025-01-26T15:53:21.000",
    "request_status": "Pending",
    "responsible_agency": "Safety and Permits",
    "final_address": "447 Audubon St",
    "address_councildis": "A",
    "status": "Pending",
    "rowid": "1163932",
    "final_x": "3662426.36231",
    "final_y": "523281.935547",
    "longitude": "-90.12857180969915",
    "latitude": "29.933408975578114",
    "geocoded_column": {
      "latitude": "29.933408975578114",
      "longitude": "-90.12857180969915"
    }
  },
  {
    "service_request": "2025-1163931",
    "request_type": "Property Maintenance",
    "request_reason": "Property Maintenance",
    "date_created": "2025-01-26T15:52:06.000",
    "date_modified": "2025-01-26T15:52:08.000",
    "request_status": "Pending",
    "responsible_agency": "Department of Code Enforcement",
    "final_address": "447 Audubon St",
    "address_councildis": "A",
    "status": "Pending",
    "rowid": "1163931",
    "final_x": "3662426.36231",
    "final_y": "523281.935547",
    "longitude": "-90.12857180969915",
    "latitude": "29.933408975578114",
    "geocoded_column": {
      "latitude": "29.933408975578114",
      "longitude": "-90.12857180969915"
    }
  },
  {
    "service_request": "2025-1163930",
    "request_type": "Mosquito, Termite & Rodent Control",
    "request_reason": "Non-Rodent Complaint (Mice, Possums, Snakes)",
    "date_created": "2025-01-26T15:50:13.000",
    "date_modified": "2025-01-26T15:50:16.000",
    "request_status": "Pending",
    "responsible_agency": "Mosquito, Termite & Rodent Control Board",
    "final_address": "447 Audubon St",
    "address_councildis": "A",
    "status": "Pending",
    "rowid": "1163930",
    "final_x": "3662426.36231",
    "final_y": "523281.935547",
    "longitude": "-90.12857180969915",
    "latitude": "29.933408975578114",
    "geocoded_column": {
      "latitude": "29.933408975578114",
      "longitude": "-90.12857180969915"
    }
  },
  {
    "service_request": "2025-1163929",
    "request_type": "Abandoned Vehicles",
    "request_reason": "Abandoned/Junk Vehicles",
    "date_created": "2025-01-26T15:48:30.000",
    "date_modified": "2025-01-26T15:48:32.000",
    "request_status": "Pending",
    "responsible_agency": "Department of Public Works",
    "final_address": "7151 Edgefield Dr",
    "address_councildis": "E",
    "status": "Pending",
    "rowid": "1163929",
    "final_x": "3718406.4942",
    "final_y": "569768.774758",
    "longitude": "-89.95007635169226",
    "latitude": "30.059492623987847",
    "geocoded_column": {
      "latitude": "30.059492623987847",
      "longitude": "-89.95007635169226"
    }
  },
  {
    "service_request": "2025-1163928",
    "request_type": "Healthy Homes",
    "request_reason": "Healthy Homes",
    "date_created": "2025-01-26T15:46:33.000",
    "date_modified": "2025-01-26T15:46:35.000",
    "request_status": "Pending",
    "responsible_agency": "Department of Code Enforcement",
    "final_address": "447 Audubon St",
    "address_councildis": "A",
    "status": "Pending",
    "rowid": "1163928",
    "final_x": "3662426.36231",
    "final_y": "523281.935547",
    "longitude": "-90.12857180969915",
    "latitude": "29.933408975578114",
    "geocoded_column": {
      "latitude": "29.933408975578114",
      "longitude": "-90.12857180969915"
    }
  },
  {
    "service_request": "2025-1163927",
    "request_type": "Health Related Request",
    "request_reason": "Request Health Records (Immunization, Lead and Health)",
    "date_created": "2025-01-26T15:45:14.000",
    "date_modified": "2025-01-26T15:45:16.000",
    "request_status": "Pending",
    "responsible_agency": "Health Department",
    "final_address": "447 Audubon St",
    "address_councildis": "A",
    "status": "Pending",
    "rowid": "1163927",
    "final_x": "3662426.36231",
    "final_y": "523281.935547",
    "longitude": "-90.12857180969915",
    "latitude": "29.933408975578114",
    "geocoded_column": {
      "latitude": "29.933408975578114",
      "longitude": "-90.12857180969915"
    }
  },
  {
    "service_request": "2025-1163926",
    "request_type": "Trash/Recycling",
    "request_reason": "Request a Large Item Pick Up",
    "date_created": "2025-01-26T15:42:16.000",
    "date_modified": "2025-01-26T15:42:18.000",
    "request_status": "Pending",
    "responsible_agency": "Department of Sanitation",
    "final_address": "6977 Whitmore Pl",
    "address_councildis": "E",
    "status": "Assigned to Contractor",
    "contractor": "Waste Pro",
    "rowid": "1163926",
    "final_x": "3719245.99007",
    "final_y": "569010.83991",
    "longitude": "-89.94745177113401",
    "latitude": "30.057380726256007",
    "geocoded_column": {
      "latitude": "30.057380726256007",
      "longitude": "-89.94745177113401"
    }
  },
  {
    "service_request": "2025-1163925",
    "request_type": "Safety & Permits",
    "request_reason": "Licenses & Permits",
    "date_created": "2025-01-26T15:41:05.000",
    "date_modified": "2025-01-26T15:41:07.000",
    "request_status": "Pending",
    "responsible_agency": "Safety and Permits",
    "final_address": "447 Audubon St",
    "address_councildis": "A",
    "status": "Pending",
    "rowid": "1163925",
    "final_x": "3662426.36231",
    "final_y": "523281.935547",
    "longitude": "-90.12857180969915",
    "latitude": "29.933408975578114",
    "geocoded_column": {
      "latitude": "29.933408975578114",
      "longitude": "-90.12857180969915"
    }
  },
  {
    "service_request": "2025-1163924",
    "request_type": "Abandoned Vehicles",
    "request_reason": "Abandoned/Junk Vehicles",
    "date_created": "2025-01-26T15:38:42.000",
    "date_modified": "2025-01-26T15:38:58.000",
    "request_status": "Pending",
    "responsible_agency": "Department of Public Works",
    "final_address": "3305 Loyola Ave",
    "address_councildis": "B",
    "status": "Pending",
    "rowid": "1163924",
    "final_x": "3673646.48897",
    "final_y": "523676.025339",
    "longitude": "-90.09313700413203",
    "latitude": "29.93416344468879",
    "geocoded_column": {
      "latitude": "29.93416344468879",
      "longitude": "-90.09313700413203"
    }
  },
  {
    "service_request": "2025-1163923",
    "request_type": "Safety & Permits",
    "request_reason": "Construction permit",
    "date_created": "2025-01-26T15:36:07.000",
    "date_modified": "2025-01-26T15:36:09.000",
    "request_status": "Pending",
    "responsible_agency": "Safety and Permits",
    "final_address": "447 Audubon St",
    "address_councildis": "A",
    "status": "Pending",
    "rowid": "1163923",
    "final_x": "3662426.36231",
    "final_y": "523281.935547",
    "longitude": "-90.12857180969915",
    "latitude": "29.933408975578114",
    "geocoded_column": {
      "latitude": "29.933408975578114",
      "longitude": "-90.12857180969915"
    }
  },
  {
    "service_request": "2025-1163922",
    "request_type": "Trash/Recycling",
    "request_reason": "Missed Trash Pick-Up",
    "date_created": "2025-01-26T15:33:12.000",
    "date_modified": "2025-01-26T15:33:21.000",
    "request_status": "Pending",
    "responsible_agency": "Department of Sanitation",
    "final_address": "1124 Jackson Ave",
    "address_councildis": "B",
    "status": "Assigned to Contractor",
    "contractor": "IV Waste",
    "rowid": "1163922",
    "final_x": "3678674.23976",
    "final_y": "522220.253882",
    "longitude": "-90.07731494512066",
    "latitude": "29.93000996235017",
    "geocoded_column": {
      "latitude": "29.93000996235017",
      "longitude": "-90.07731494512066"
    }
  },
  {
    "service_request": "2025-1163921",
    "request_type": "Property Maintenance",
    "request_reason": "Property Maintenance",
    "date_created": "2025-01-26T15:31:34.000",
    "date_modified": "2025-01-26T15:31:53.000",
    "request_status": "Pending",
    "responsible_agency": "Department of Code Enforcement",
    "final_address": "447 Audubon St",
    "address_councildis": "A",
    "status": "Pending",
    "rowid": "1163921",
    "final_x": "3662426.36231",
    "final_y": "523281.935547",
    "longitude": "-90.12857180969915",
    "latitude": "29.933408975578114",
    "geocoded_column": {
      "latitude": "29.933408975578114",
      "longitude": "-90.12857180969915"
    }
  },
  {
    "service_request": "2025-1163919",
    "request_type": "Trash/Recycling",
    "request_reason": "Request a Large Item Pick Up",
    "date_created": "2025-01-26T15:27:03.000",
    "date_modified": "2025-01-26T15:27:05.000",
    "request_status": "Pending",
    "responsible_agency": "Department of Sanitation",
    "final_address": "7615 Stonewood St",
    "address_councildis": "E",
    "status": "Assigned to Contractor",
    "contractor": "Waste Pro",
    "rowid": "1163919",
    "final_x": "3719587.11807",
    "final_y": "572402.560105",
    "longitude": "-89.94624374568849",
    "latitude": "30.066695189517368",
    "geocoded_column": {
      "latitude": "30.066695189517368",
      "longitude": "-89.94624374568849"
    }
  },
  {
    "service_request": "2025-1163918",
    "request_type": "Healthy Homes",
    "request_reason": "Healthy Homes",
    "date_created": "2025-01-26T15:25:55.000",
    "date_modified": "2025-01-26T15:25:58.000",
    "request_status": "Pending",
    "responsible_agency": "Department of Code Enforcement",
    "final_address": "447 Audubon St",
    "address_councildis": "A",
    "status": "Pending",
    "rowid": "1163918",
    "final_x": "3662426.36231",
    "final_y": "523281.935547",
    "longitude": "-90.12857180969915",
    "latitude": "29.933408975578114",
    "geocoded_column": {
      "latitude": "29.933408975578114",
      "longitude": "-90.12857180969915"
    }
  },
  {
    "service_request": "2025-1163917",
    "request_type": "General Services",
    "request_reason": "General Service Request",
    "date_created": "2025-01-26T15:16:40.000",
    "date_modified": "2025-01-26T15:16:43.000",
    "request_status": "Pending",
    "responsible_agency": "Orleans Parish Communication District",
    "final_address": "2929 Pine St",
    "address_councildis": "B",
    "status": "Pending",
    "rowid": "1163917",
    "final_x": "3667460.51994",
    "final_y": "531955.695875",
    "longitude": "-90.11238744072737",
    "latitude": "29.957112508302433",
    "geocoded_column": {
      "latitude": "29.957112508302433",
      "longitude": "-90.11238744072737"
    }
  },
  {
    "service_request": "2025-1163916",
    "request_type": "Streetlights",
    "request_reason": "Streetlight Outage/Malfunction",
    "date_created": "2025-01-26T15:11:20.000",
    "date_modified": "2025-01-26T15:11:21.000",
    "request_status": "Pending",
    "responsible_agency": "Department of Public Works",
    "final_address": "BROAD PL & BROADWAY ST",
    "address_councildis": "A",
    "status": "Pending",
    "contractor": "Legacy Professional Services",
    "rowid": "1163916",
    "final_x": "3667024.7",
    "final_y": "530913.78",
    "longitude": "-90.11379864696168",
    "latitude": "29.954260342499296",
    "geocoded_column": {
      "latitude": "29.954260342499296",
      "longitude": "-90.11379864696168"
    }
  },
  {
    "service_request": "2025-1163915",
    "request_type": "Roads and Streets",
    "request_reason": "Push-up/Pavement Expansion",
    "date_created": "2025-01-26T15:10:25.000",
    "date_modified": "2025-01-26T15:10:27.000",
    "request_status": "Pending",
    "responsible_agency": "Department of Public Works",
    "final_address": "1405 General Ogden St",
    "address_councildis": "A",
    "status": "Pending",
    "rowid": "1163915",
    "final_x": "3660443.0407",
    "final_y": "530851.203394",
    "longitude": "-90.1345830822016",
    "latitude": "29.954279248760766",
    "geocoded_column": {
      "latitude": "29.954279248760766",
      "longitude": "-90.1345830822016"
    }
  },
  {
    "service_request": "2025-1163914",
    "request_type": "Streetlights",
    "request_reason": "Streetlight Outage/Malfunction",
    "date_created": "2025-01-26T14:53:36.000",
    "date_modified": "2025-01-26T14:53:37.000",
    "request_status": "Pending",
    "responsible_agency": "Department of Public Works",
    "final_address": "1700 BLK Mardi Gras Blvd",
    "address_councildis": "C",
    "status": "Pending",
    "contractor": "Legacy Professional Services",
    "rowid": "1163914",
    "final_x": "3690932.09973",
    "final_y": "525174.061972",
    "longitude": "-90.03851368804145",
    "latitude": "29.937756782483575",
    "geocoded_column": {
      "latitude": "29.937756782483575",
      "longitude": "-90.03851368804145"
    }
  },
  {
    "service_request": "2025-1163913",
    "request_type": "Street and Traffic Signs",
    "request_reason": "Stop Sign Missing or Damaged",
    "date_created": "2025-01-26T14:45:50.000",
    "date_modified": "2025-01-26T14:45:53.000",
    "request_status": "Pending",
    "responsible_agency": "Department of Public Works",
    "final_address": "PONCE DE LEON ST & ESPLANADE AVE",
    "address_councildis": "A",
    "status": "Pending",
    "rowid": "1163913",
    "final_x": "3676163.3",
    "final_y": "540540.33",
    "longitude": "-90.08461130979877",
    "latitude": "29.980459483469463",
    "geocoded_column": {
      "latitude": "29.980459483469463",
      "longitude": "-90.08461130979877"
    }
  },
  {
    "service_request": "2025-1163912",
    "request_type": "Trash/Recycling",
    "request_reason": "Request a Large Item Pick Up",
    "date_created": "2025-01-26T14:11:41.000",
    "date_modified": "2025-01-26T14:11:44.000",
    "request_status": "Pending",
    "responsible_agency": "Department of Sanitation",
    "final_address": "5917 Canal Blvd",
    "address_councildis": "A",
    "status": "Assigned to Contractor",
    "contractor": "IV Waste",
    "rowid": "1163912",
    "final_x": "3668573.07924",
    "final_y": "546857.434065",
    "longitude": "-90.10837126772999",
    "latitude": "29.998054620383684",
    "geocoded_column": {
      "latitude": "29.998054620383684",
      "longitude": "-90.10837126772999"
    }
  },
  {
    "service_request": "2025-1163911",
    "request_type": "Drainage",
    "request_reason": "Drainage Manhole Cover Missing or Damaged",
    "date_created": "2025-01-26T13:47:04.000",
    "date_modified": "2025-01-26T13:47:06.000",
    "request_status": "Pending",
    "responsible_agency": "Department of Public Works",
    "final_address": "7916 Nelson St",
    "address_councildis": "A",
    "status": "Pending",
    "rowid": "1163911",
    "final_x": "3665567.52672",
    "final_y": "531384.066435",
    "longitude": "-90.11838409173271",
    "latitude": "29.955596040854758",
    "geocoded_column": {
      "latitude": "29.955596040854758",
      "longitude": "-90.11838409173271"
    }
  },
  {
    "service_request": "2025-1163910",
    "request_type": "Roads and Streets",
    "request_reason": "Debris in Driving Lanes",
    "date_created": "2025-01-26T13:28:05.000",
    "date_modified": "2025-01-26T13:28:07.000",
    "request_status": "Pending",
    "responsible_agency": "Department of Public Works",
    "final_address": "200 BLK S Alexander St",
    "address_councildis": "A",
    "status": "Pending",
    "rowid": "1163910",
    "final_x": "3669629.45139",
    "final_y": "538690.635333",
    "longitude": "-90.10531068396043",
    "latitude": "29.975567620071434",
    "geocoded_column": {
      "latitude": "29.975567620071434",
      "longitude": "-90.10531068396043"
    }
  },
  {
    "service_request": "2025-1163909",
    "request_type": "Street and Traffic Signs",
    "request_reason": "Stop Sign Missing or Damaged",
    "date_created": "2025-01-26T13:26:10.000",
    "date_modified": "2025-01-26T13:26:13.000",
    "request_status": "Pending",
    "responsible_agency": "Department of Public Works",
    "final_address": "3141 Ponce De Leon St",
    "address_councildis": "A",
    "status": "Pending",
    "rowid": "1163909",
    "final_x": "3676280.52334",
    "final_y": "540562.560011",
    "longitude": "-90.08424030237236",
    "latitude": "29.9805170951782",
    "geocoded_column": {
      "latitude": "29.9805170951782",
      "longitude": "-90.08424030237236"
    }
  },
  {
    "service_request": "2025-1163908",
    "request_type": "Trash/Recycling",
    "request_reason": "Request a Large Item Pick Up",
    "date_created": "2025-01-26T13:20:32.000",
    "date_modified": "2025-01-26T13:20:34.000",
    "request_status": "Pending",
    "responsible_agency": "Department of Sanitation",
    "final_address": "2937 Amazon St",
    "address_councildis": "C",
    "status": "Assigned to Contractor",
    "contractor": "Richards Disposal",
    "rowid": "1163908",
    "final_x": "3694444.92304",
    "final_y": "521052.437689",
    "longitude": "-90.02757176373682",
    "latitude": "29.92631410562253",
    "geocoded_column": {
      "latitude": "29.92631410562253",
      "longitude": "-90.02757176373682"
    }
  },
  {
    "service_request": "2025-1163907",
    "request_type": "Trash/Recycling",
    "request_reason": "Missed Trash Pick-Up",
    "date_created": "2025-01-26T13:18:44.000",
    "date_modified": "2025-01-26T13:18:46.000",
    "request_status": "Pending",
    "responsible_agency": "Department of Sanitation",
    "final_address": "1410 Thalia St",
    "address_councildis": "B",
    "status": "Assigned to Contractor",
    "contractor": "IV Waste",
    "rowid": "1163907",
    "final_x": "3679969.49877",
    "final_y": "525375.765245",
    "longitude": "-90.0731164711927",
    "latitude": "29.938647474163314",
    "geocoded_column": {
      "latitude": "29.938647474163314",
      "longitude": "-90.0731164711927"
    }
  },
  {
    "service_request": "2025-1163906",
    "request_type": "General Services",
    "request_reason": "General Service Request",
    "date_created": "2025-01-26T13:15:29.000",
    "date_modified": "2025-01-26T13:15:43.000",
    "request_status": "Pending",
    "responsible_agency": "Orleans Parish Communication District",
    "final_address": "7036 Magazine St",
    "address_councildis": "A",
    "status": "Pending",
    "rowid": "1163906",
    "final_x": "3661022.84365",
    "final_y": "521033.654969",
    "longitude": "-90.13307700714913",
    "latitude": "29.927267409832922",
    "geocoded_column": {
      "latitude": "29.927267409832922",
      "longitude": "-90.13307700714913"
    }
  },
  {
    "service_request": "2025-1163905",
    "request_type": "Trash/Recycling",
    "request_reason": "Missed Trash Pick-Up",
    "date_created": "2025-01-26T13:11:59.000",
    "date_modified": "2025-01-26T13:12:02.000",
    "request_status": "Pending",
    "responsible_agency": "Department of Sanitation",
    "final_address": "1416 Melpomene St",
    "address_councildis": "B",
    "status": "Assigned to Contractor",
    "contractor": "IV Waste",
    "rowid": "1163905",
    "final_x": "3679875.88597",
    "final_y": "525062.354621",
    "longitude": "-90.07342289648855",
    "latitude": "29.93778852940619",
    "geocoded_column": {
      "latitude": "29.93778852940619",
      "longitude": "-90.07342289648855"
    }
  },
  {
    "service_request": "2025-1163904",
    "request_type": "Alley Ways",
    "request_reason": "Alley Way Regrading",
    "date_created": "2025-01-26T13:08:04.000",
    "date_modified": "2025-01-26T13:08:06.000",
    "request_status": "Pending",
    "responsible_agency": "Department of Public Works",
    "final_address": "6119 Marshal Foch St",
    "address_councildis": "A",
    "status": "Pending",
    "rowid": "1163904",
    "final_x": "3669990.69044",
    "final_y": "548033.198994",
    "longitude": "-90.103853186442",
    "latitude": "30.00124581851448",
    "geocoded_column": {
      "latitude": "30.00124581851448",
      "longitude": "-90.103853186442"
    }
  },
  {
    "service_request": "2025-1163903",
    "request_type": "Trash/Recycling",
    "request_reason": "Replace Trash Cart",
    "date_created": "2025-01-26T13:05:08.000",
    "date_modified": "2025-01-26T13:05:10.000",
    "request_status": "Pending",
    "responsible_agency": "Department of Sanitation",
    "final_address": "6119 Marshal Foch St",
    "address_councildis": "A",
    "status": "Assigned to Contractor",
    "contractor": "IV Waste",
    "rowid": "1163903",
    "final_x": "3669990.69044",
    "final_y": "548033.198994",
    "longitude": "-90.103853186442",
    "latitude": "30.00124581851448",
    "geocoded_column": {
      "latitude": "30.00124581851448",
      "longitude": "-90.103853186442"
    }
  },
  {
    "service_request": "2025-1163902",
    "request_type": "Property Maintenance",
    "request_reason": "Property Maintenance",
    "date_created": "2025-01-26T12:47:02.000",
    "date_modified": "2025-01-26T12:47:05.000",
    "request_status": "Pending",
    "responsible_agency": "Department of Code Enforcement",
    "final_address": "8537 Spruce St",
    "address_councildis": "A",
    "status": "Pending",
    "rowid": "1163902",
    "final_x": "3662601.0665",
    "final_y": "531645.254851",
    "longitude": "-90.12774248291376",
    "latitude": "29.95640037836121",
    "geocoded_column": {
      "latitude": "29.95640037836121",
      "longitude": "-90.12774248291376"
    }
  },
  {
    "service_request": "2025-1163901",
    "request_type": "Trash/Recycling",
    "request_reason": "Missed Trash Pick-Up",
    "date_created": "2025-01-26T12:25:02.000",
    "date_modified": "2025-01-26T13:20:53.000",
    "case_close_date": "2025-01-26T07:20:52.000",
    "request_status": "Closed",
    "responsible_agency": "Department of Sanitation",
    "final_address": "6135 Chartres St",
    "address_councildis": "E",
    "status": "Invalid Request",
    "contractor": "Waste Pro",
    "contractor_action": "Invalid Request",
    "rowid": "1163901",
    "final_x": "3699024.64196",
    "final_y": "531485.532739",
    "longitude": "-90.0127354050799",
    "latitude": "29.954857184955504",
    "geocoded_column": {
      "latitude": "29.954857184955504",
      "longitude": "-90.0127354050799"
    }
  },
  {
    "service_request": "2025-1163900",
    "request_type": "Graffiti Removal",
    "request_reason": "Graffiti Removal",
    "date_created": "2025-01-26T12:02:08.000",
    "date_modified": "2025-01-26T12:02:10.000",
    "request_status": "Pending",
    "responsible_agency": "Department of Code Enforcement",
    "final_address": "3637 Desaix Blvd",
    "address_councildis": "D",
    "status": "Pending",
    "rowid": "1163900",
    "final_x": "3675467.35681",
    "final_y": "543794.89915",
    "longitude": "-90.08669756441621",
    "latitude": "29.989429259283128",
    "geocoded_column": {
      "latitude": "29.989429259283128",
      "longitude": "-90.08669756441621"
    }
  },
  {
    "service_request": "2025-1163899",
    "request_type": "Trash/Recycling",
    "request_reason": "Request a Large Item Pick Up",
    "date_created": "2025-01-26T12:02:01.000",
    "date_modified": "2025-01-26T12:02:03.000",
    "request_status": "Pending",
    "responsible_agency": "Department of Sanitation",
    "final_address": "2323 Prentiss Ave",
    "address_councildis": "D",
    "status": "Assigned to Contractor",
    "contractor": "IV Waste",
    "rowid": "1163899",
    "final_x": "3684624.46325",
    "final_y": "553990.922392",
    "longitude": "-90.05741430848039",
    "latitude": "30.017187527657875",
    "geocoded_column": {
      "latitude": "30.017187527657875",
      "longitude": "-90.05741430848039"
    }
  },
  {
    "service_request": "2025-1163898",
    "request_type": "Alley Ways",
    "request_reason": "Alley Way Regrading",
    "date_created": "2025-01-26T11:55:16.000",
    "date_modified": "2025-01-26T11:55:19.000",
    "request_status": "Pending",
    "responsible_agency": "Department of Public Works",
    "final_address": "6830 Tara Ln",
    "address_councildis": "E",
    "status": "Pending",
    "rowid": "1163898",
    "final_x": "3707161.83448",
    "final_y": "559405.579485",
    "longitude": "-89.98600484255756",
    "latitude": "30.031366425976454",
    "geocoded_column": {
      "latitude": "30.031366425976454",
      "longitude": "-89.98600484255756"
    }
  },
  {
    "service_request": "2025-1163897",
    "request_type": "Abandoned Vehicles",
    "request_reason": "Vehicle Blocking Your Driveway",
    "date_created": "2025-01-26T11:31:33.000",
    "date_modified": "2025-01-26T11:31:39.000",
    "request_status": "Pending",
    "responsible_agency": "Department of Public Works",
    "final_address": "1526 Pine St",
    "address_councildis": "A",
    "status": "Pending",
    "rowid": "1163897",
    "final_x": "3664637.4818",
    "final_y": "527830.573311",
    "longitude": "-90.12143952946141",
    "latitude": "29.945852166921238",
    "geocoded_column": {
      "latitude": "29.945852166921238",
      "longitude": "-90.12143952946141"
    }
  },
  {
    "service_request": "2025-1163896",
    "request_type": "Trash/Recycling",
    "request_reason": "Order Recycling Cart",
    "date_created": "2025-01-26T11:21:05.000",
    "date_modified": "2025-01-26T11:21:12.000",
    "request_status": "Pending",
    "responsible_agency": "Department of Sanitation",
    "final_address": "5730 Brunswick Ct",
    "address_councildis": "C",
    "status": "Pending",
    "rowid": "1163896",
    "final_x": "3704758.71838",
    "final_y": "517226.369589",
    "longitude": "-89.9951553423239",
    "latitude": "29.915466538731838",
    "geocoded_column": {
      "latitude": "29.915466538731838",
      "longitude": "-89.9951553423239"
    }
  },
  {
    "service_request": "2025-1163895",
    "request_type": "Trash/Recycling",
    "request_reason": "Replace Trash Cart",
    "date_created": "2025-01-26T11:19:40.000",
    "date_modified": "2025-01-26T11:19:41.000",
    "request_status": "Pending",
    "responsible_agency": "Department of Sanitation",
    "final_address": "5730 Brunswick Ct",
    "address_councildis": "C",
    "status": "Assigned to Contractor",
    "contractor": "Richards Disposal",
    "rowid": "1163895",
    "final_x": "3704758.71838",
    "final_y": "517226.369589",
    "longitude": "-89.9951553423239",
    "latitude": "29.915466538731838",
    "geocoded_column": {
      "latitude": "29.915466538731838",
      "longitude": "-89.9951553423239"
    }
  },
  {
    "service_request": "2025-1163894",
    "request_type": "General Services",
    "request_reason": "General Service Request",
    "date_created": "2025-01-26T11:18:22.000",
    "date_modified": "2025-01-26T11:18:25.000",
    "request_status": "Pending",
    "responsible_agency": "Orleans Parish Communication District",
    "final_address": "1604 Third St",
    "address_councildis": "B",
    "status": "Pending",
    "rowid": "1163894",
    "final_x": "3676304.62165",
    "final_y": "523017.676219",
    "longitude": "-90.08476801188161",
    "latitude": "29.932273823245716",
    "geocoded_column": {
      "latitude": "29.932273823245716",
      "longitude": "-90.08476801188161"
    }
  },
  {
    "service_request": "2025-1163893",
    "request_type": "Roads and Streets",
    "request_reason": "Street Subsidence (Sinking)",
    "date_created": "2025-01-26T11:09:23.000",
    "date_modified": "2025-01-26T11:09:25.000",
    "request_status": "Pending",
    "responsible_agency": "Department of Public Works",
    "final_address": "0 BLK Finch St",
    "address_councildis": "D",
    "status": "Pending",
    "rowid": "1163893",
    "final_x": "3672340.22713",
    "final_y": "555269.340036",
    "longitude": "-90.0961839653335",
    "latitude": "30.02107311492116",
    "geocoded_column": {
      "latitude": "30.02107311492116",
      "longitude": "-90.0961839653335"
    }
  },
  {
    "service_request": "2025-1163892",
    "request_type": "General Services",
    "request_reason": "General Service Request",
    "date_created": "2025-01-26T11:05:19.000",
    "date_modified": "2025-01-26T11:05:22.000",
    "request_status": "Pending",
    "responsible_agency": "Orleans Parish Communication District",
    "final_address": "6300 Beauregard Ave",
    "address_councildis": "D",
    "status": "Pending",
    "rowid": "1163892",
    "final_x": "3676250.30683",
    "final_y": "555475.808281",
    "longitude": "-90.08382209799248",
    "latitude": "30.021524167859827",
    "geocoded_column": {
      "latitude": "30.021524167859827",
      "longitude": "-90.08382209799248"
    }
  },
  {
    "service_request": "2025-1163891",
    "request_type": "Drainage",
    "request_reason": "Ditch and Culvert Maintenance",
    "date_created": "2025-01-26T10:59:41.000",
    "date_modified": "2025-01-26T10:59:43.000",
    "request_status": "Pending",
    "responsible_agency": "Department of Public Works",
    "final_address": "3128 Annunciation St",
    "address_councildis": "B",
    "status": "Pending",
    "rowid": "1163891",
    "final_x": "3676539.40097",
    "final_y": "519119.961847",
    "longitude": "-90.08416097877206",
    "latitude": "29.92154933644663",
    "geocoded_column": {
      "latitude": "29.92154933644663",
      "longitude": "-90.08416097877206"
    }
  },
  {
    "service_request": "2025-1163890",
    "request_type": "Roads and Streets",
    "request_reason": "Debris in Driving Lanes",
    "date_created": "2025-01-26T10:47:03.000",
    "date_modified": "2025-01-26T10:47:05.000",
    "request_status": "Pending",
    "responsible_agency": "Department of Public Works",
    "final_address": "6326 Caldwell Dr",
    "address_councildis": "D",
    "status": "Pending",
    "rowid": "1163890",
    "final_x": "3679048.70613",
    "final_y": "556884.792346",
    "longitude": "-90.0749310164164",
    "latitude": "30.02531415535802",
    "geocoded_column": {
      "latitude": "30.02531415535802",
      "longitude": "-90.0749310164164"
    }
  },
  {
    "service_request": "2025-1163889",
    "request_type": "Trash/Recycling",
    "request_reason": "Missed Trash Pick-Up",
    "date_created": "2025-01-26T10:45:48.000",
    "date_modified": "2025-01-26T10:45:51.000",
    "request_status": "Pending",
    "responsible_agency": "Department of Sanitation",
    "final_address": "815 Port St",
    "address_councildis": "C",
    "status": "Assigned to Contractor",
    "contractor": "IV Waste",
    "rowid": "1163889",
    "final_x": "3687199.3862",
    "final_y": "535368.849734",
    "longitude": "-90.04993763398572",
    "latitude": "29.96590441077106",
    "geocoded_column": {
      "latitude": "29.96590441077106",
      "longitude": "-90.04993763398572"
    }
  },
  {
    "service_request": "2025-1163888",
    "request_type": "Trash/Recycling",
    "request_reason": "Request a Large Item Pick Up",
    "date_created": "2025-01-26T10:29:27.000",
    "date_modified": "2025-01-26T10:29:30.000",
    "request_status": "Pending",
    "responsible_agency": "Department of Sanitation",
    "final_address": "4311 State Street Dr",
    "address_councildis": "B",
    "status": "Assigned to Contractor",
    "contractor": "IV Waste",
    "rowid": "1163888",
    "final_x": "3668558.99514",
    "final_y": "531229.526466",
    "longitude": "-90.1089432864963",
    "latitude": "29.95508355119546",
    "geocoded_column": {
      "latitude": "29.95508355119546",
      "longitude": "-90.1089432864963"
    }
  },
  {
    "service_request": "2025-1163887",
    "request_type": "Property Maintenance",
    "request_reason": "Property Maintenance",
    "date_created": "2025-01-26T10:09:27.000",
    "date_modified": "2025-01-26T10:09:30.000",
    "request_status": "Pending",
    "responsible_agency": "Department of Code Enforcement",
    "final_address": "4833 Laurel St",
    "address_councildis": "B",
    "status": "Pending",
    "rowid": "1163887",
    "final_x": "3669382.73671",
    "final_y": "517916.366774",
    "longitude": "-90.10679219763068",
    "latitude": "29.91845242180929",
    "geocoded_column": {
      "latitude": "29.91845242180929",
      "longitude": "-90.10679219763068"
    }
  },
  {
    "service_request": "2025-1163886",
    "request_type": "Abandoned Vehicles",
    "request_reason": "Abandoned/Junk Vehicles",
    "date_created": "2025-01-26T10:05:44.000",
    "date_modified": "2025-01-26T10:05:46.000",
    "request_status": "Pending",
    "responsible_agency": "Department of Public Works",
    "final_address": "4833 Laurel St",
    "address_councildis": "B",
    "status": "Pending",
    "rowid": "1163886",
    "final_x": "3669382.73671",
    "final_y": "517916.366774",
    "longitude": "-90.10679219763068",
    "latitude": "29.91845242180929",
    "geocoded_column": {
      "latitude": "29.91845242180929",
      "longitude": "-90.10679219763068"
    }
  },
  {
    "service_request": "2025-1163885",
    "request_type": "Trash/Recycling",
    "request_reason": "Missed Trash Pick-Up",
    "date_created": "2025-01-26T10:04:27.000",
    "date_modified": "2025-01-26T11:38:32.000",
    "case_close_date": "2025-01-26T05:38:31.000",
    "request_status": "Closed",
    "responsible_agency": "Department of Sanitation",
    "final_address": "6135 Chartres St",
    "address_councildis": "E",
    "status": "Invalid Request",
    "contractor": "Waste Pro",
    "contractor_action": "Invalid Request",
    "rowid": "1163885",
    "final_x": "3699024.64196",
    "final_y": "531485.532739",
    "longitude": "-90.0127354050799",
    "latitude": "29.954857184955504",
    "geocoded_column": {
      "latitude": "29.954857184955504",
      "longitude": "-90.0127354050799"
    }
  },
  {
    "service_request": "2025-1163884",
    "request_type": "Abandoned Vehicles",
    "request_reason": "Abandoned/Junk Vehicles",
    "date_created": "2025-01-26T10:04:12.000",
    "date_modified": "2025-01-26T10:04:14.000",
    "request_status": "Pending",
    "responsible_agency": "Department of Public Works",
    "final_address": "4833 Laurel St",
    "address_councildis": "B",
    "status": "Pending",
    "rowid": "1163884",
    "final_x": "3669382.73671",
    "final_y": "517916.366774",
    "longitude": "-90.10679219763068",
    "latitude": "29.91845242180929",
    "geocoded_column": {
      "latitude": "29.91845242180929",
      "longitude": "-90.10679219763068"
    }
  },
  {
    "service_request": "2025-1163883",
    "request_type": "Traffic Safety",
    "request_reason": "Request for Traffic Calming due to Speeding",
    "date_created": "2025-01-26T10:01:52.000",
    "date_modified": "2025-01-26T10:01:54.000",
    "request_status": "Pending",
    "responsible_agency": "Department of Public Works",
    "final_address": "1 Allen Toussaint Blvd",
    "address_councildis": "D",
    "status": "Pending",
    "rowid": "1163883",
    "final_x": "3676990.37691",
    "final_y": "555052.272153",
    "longitude": "-90.0814982949586",
    "latitude": "30.020337385797948",
    "geocoded_column": {
      "latitude": "30.020337385797948",
      "longitude": "-90.0814982949586"
    }
  },
  {
    "service_request": "2025-1163882",
    "request_type": "Trash/Recycling",
    "request_reason": "Repair Recycling Cart",
    "date_created": "2025-01-26T09:58:43.000",
    "date_modified": "2025-01-26T09:58:44.000",
    "request_status": "Pending",
    "responsible_agency": "Department of Sanitation",
    "final_address": "3709 Vincennes Pl",
    "address_councildis": "A",
    "status": "Pending",
    "rowid": "1163882",
    "final_x": "3668222.86484",
    "final_y": "529300.488897",
    "longitude": "-90.1100696916681",
    "latitude": "29.949789200425823",
    "geocoded_column": {
      "latitude": "29.949789200425823",
      "longitude": "-90.1100696916681"
    }
  },
  {
    "service_request": "2025-1163881",
    "request_type": "Trash/Recycling",
    "request_reason": "Order Recycling Cart",
    "date_created": "2025-01-26T09:49:43.000",
    "date_modified": "2025-01-26T09:49:46.000",
    "request_status": "Pending",
    "responsible_agency": "Department of Sanitation",
    "final_address": "3110 Trafalgar St",
    "address_councildis": "A",
    "status": "Pending",
    "rowid": "1163881",
    "final_x": "3678667.80629",
    "final_y": "543124.488397",
    "longitude": "-90.07661148383441",
    "latitude": "29.987489733721638",
    "geocoded_column": {
      "latitude": "29.987489733721638",
      "longitude": "-90.07661148383441"
    }
  },
  {
    "service_request": "2025-1163880",
    "request_type": "Roads and Streets",
    "request_reason": "Pothole",
    "date_created": "2025-01-26T09:20:11.000",
    "date_modified": "2025-01-26T09:20:15.000",
    "request_status": "Pending",
    "responsible_agency": "Department of Public Works",
    "final_address": "800 BLK Alvar St",
    "address_councildis": "C",
    "status": "Pending",
    "rowid": "1163880",
    "final_x": "3691250.41733",
    "final_y": "534414.849921",
    "longitude": "-90.03717872851009",
    "latitude": "29.963155862707318",
    "geocoded_column": {
      "latitude": "29.963155862707318",
      "longitude": "-90.03717872851009"
    }
  },
  {
    "service_request": "2025-1163879",
    "request_type": "Trash/Recycling",
    "request_reason": "Missed Trash Pick-Up",
    "date_created": "2025-01-26T09:03:25.000",
    "date_modified": "2025-01-26T09:03:27.000",
    "request_status": "Pending",
    "responsible_agency": "Department of Sanitation",
    "final_address": "2085 N Rocheblave St",
    "address_councildis": "D",
    "status": "Assigned to Contractor",
    "contractor": "IV Waste",
    "rowid": "1163879",
    "final_x": "3683327.22972",
    "final_y": "541018.958219",
    "longitude": "-90.06196779445067",
    "latitude": "29.981558928621954",
    "geocoded_column": {
      "latitude": "29.981558928621954",
      "longitude": "-90.06196779445067"
    }
  },
  {
    "service_request": "2025-1163878",
    "request_type": "Property Maintenance",
    "request_reason": "Property Maintenance",
    "date_created": "2025-01-26T08:56:11.000",
    "date_modified": "2025-01-26T08:56:14.000",
    "request_status": "Pending",
    "responsible_agency": "Department of Code Enforcement",
    "final_address": "816 N Galvez St",
    "address_councildis": "D",
    "status": "Pending",
    "rowid": "1163878",
    "final_x": "3678690.60168",
    "final_y": "536059.034951",
    "longitude": "-90.07678421675958",
    "latitude": "29.96806149037974",
    "geocoded_column": {
      "latitude": "29.96806149037974",
      "longitude": "-90.07678421675958"
    }
  },
  {
    "service_request": "2025-1163877",
    "request_type": "Trash/Recycling",
    "request_reason": "Request a Large Item Pick Up",
    "date_created": "2025-01-26T08:50:39.000",
    "date_modified": "2025-01-26T08:50:42.000",
    "request_status": "Pending",
    "responsible_agency": "Department of Sanitation",
    "final_address": "1768 Pace Blvd",
    "address_councildis": "C",
    "status": "Assigned to Contractor",
    "contractor": "Richards Disposal",
    "rowid": "1163877",
    "final_x": "3694410.15274",
    "final_y": "524061.836604",
    "longitude": "-90.02757326672773",
    "latitude": "29.93459001672939",
    "geocoded_column": {
      "latitude": "29.93459001672939",
      "longitude": "-90.02757326672773"
    }
  },
  {
    "service_request": "2025-1163876",
    "request_type": "General Services",
    "request_reason": "General Service Request",
    "date_created": "2025-01-26T08:26:19.000",
    "date_modified": "2025-01-26T08:26:22.000",
    "request_status": "Pending",
    "responsible_agency": "Orleans Parish Communication District",
    "final_address": "3205 Belfort St",
    "address_councildis": "A",
    "status": "Pending",
    "rowid": "1163876",
    "final_x": "3678453.7997",
    "final_y": "542561.885325",
    "longitude": "-90.07730693598788",
    "latitude": "29.985949223701823",
    "geocoded_column": {
      "latitude": "29.985949223701823",
      "longitude": "-90.07730693598788"
    }
  },
  {
    "service_request": "2025-1163875",
    "request_type": "Trash/Recycling",
    "request_reason": "Request a Large Item Pick Up",
    "date_created": "2025-01-26T07:36:17.000",
    "date_modified": "2025-01-26T07:36:19.000",
    "request_status": "Pending",
    "responsible_agency": "Department of Sanitation",
    "final_address": "2816 Upperline St",
    "address_councildis": "B",
    "status": "Assigned to Contractor",
    "contractor": "IV Waste",
    "rowid": "1163875",
    "final_x": "3669163.82702",
    "final_y": "525118.243005",
    "longitude": "-90.1072399345081",
    "latitude": "29.938261726580734",
    "geocoded_column": {
      "latitude": "29.938261726580734",
      "longitude": "-90.1072399345081"
    }
  },
  {
    "service_request": "2025-1163874",
    "request_type": "Roads and Streets",
    "request_reason": "Curb Damage",
    "date_created": "2025-01-26T07:23:48.000",
    "date_modified": "2025-01-26T07:23:53.000",
    "request_status": "Pending",
    "responsible_agency": "Department of Public Works",
    "final_address": "1600 BLK Erato St",
    "address_councildis": "B",
    "status": "Pending",
    "rowid": "1163874",
    "final_x": "3679322.05274",
    "final_y": "526180.116719",
    "longitude": "-90.075132643067",
    "latitude": "29.940878737980444",
    "geocoded_column": {
      "latitude": "29.940878737980444",
      "longitude": "-90.075132643067"
    }
  },
  {
    "service_request": "2025-1163873",
    "request_type": "Trash/Recycling",
    "request_reason": "Replace Trash Cart",
    "date_created": "2025-01-26T05:15:32.000",
    "date_modified": "2025-01-26T05:15:34.000",
    "request_status": "Pending",
    "responsible_agency": "Department of Sanitation",
    "final_address": "2400 BLK General Pershing St",
    "address_councildis": "B",
    "status": "Assigned to Contractor",
    "contractor": "IV Waste",
    "rowid": "1163873",
    "final_x": "3670948.08031",
    "final_y": "523908.868965",
    "longitude": "-90.10164790556207",
    "latitude": "29.9348837210439",
    "geocoded_column": {
      "latitude": "29.9348837210439",
      "longitude": "-90.10164790556207"
    }
  },
  {
    "service_request": "2025-1163872",
    "request_type": "Trash/Recycling",
    "request_reason": "Return Trash Cart",
    "date_created": "2025-01-26T02:17:39.000",
    "date_modified": "2025-01-26T02:17:42.000",
    "request_status": "Pending",
    "responsible_agency": "Department of Sanitation",
    "final_address": "425 20Th St",
    "address_councildis": "A",
    "status": "Assigned to Contractor",
    "contractor": "IV Waste",
    "rowid": "1163872",
    "final_x": "3664592.20045",
    "final_y": "549107.975123",
    "longitude": "-90.12087163904582",
    "latitude": "30.004359252805486",
    "geocoded_column": {
      "latitude": "30.004359252805486",
      "longitude": "-90.12087163904582"
    }
  },
  {
    "service_request": "2025-1163871",
    "request_type": "Streetlights",
    "request_reason": "Streetlight Outage/Malfunction",
    "date_created": "2025-01-26T00:40:33.000",
    "date_modified": "2025-01-26T00:40:34.000",
    "request_status": "Pending",
    "responsible_agency": "Department of Public Works",
    "final_address": "2420 Ursulines Ave",
    "address_councildis": "D",
    "status": "Pending",
    "contractor": "Legacy Professional Services",
    "rowid": "1163871",
    "final_x": "3678523.08565",
    "final_y": "537359.475272",
    "longitude": "-90.0772682197892",
    "latitude": "29.97164230635432",
    "geocoded_column": {
      "latitude": "29.97164230635432",
      "longitude": "-90.0772682197892"
    }
  },
  {
    "service_request": "2025-1163870",
    "request_type": "General Services",
    "request_reason": "General Service Request",
    "date_created": "2025-01-25T22:47:43.000",
    "date_modified": "2025-01-25T22:47:46.000",
    "request_status": "Pending",
    "responsible_agency": "Orleans Parish Communication District",
    "final_address": "4929 Papania Dr",
    "address_councildis": "E",
    "status": "Pending",
    "rowid": "1163870",
    "final_x": "3715546.58892",
    "final_y": "557668.094043",
    "longitude": "-89.959574794081",
    "latitude": "30.026315279434666",
    "geocoded_column": {
      "latitude": "30.026315279434666",
      "longitude": "-89.959574794081"
    }
  },
  {
    "service_request": "2025-1163869",
    "request_type": "Trash/Recycling",
    "request_reason": "Request a Large Item Pick Up",
    "date_created": "2025-01-25T22:04:14.000",
    "date_modified": "2025-01-25T22:04:16.000",
    "request_status": "Pending",
    "responsible_agency": "Department of Sanitation",
    "final_address": "806 Opelousas Ave",
    "address_councildis": "C",
    "status": "Assigned to Contractor",
    "contractor": "Richards Disposal",
    "rowid": "1163869",
    "final_x": "3687901.85539",
    "final_y": "529190.67392",
    "longitude": "-90.0479381307274",
    "latitude": "29.94889490713998",
    "geocoded_column": {
      "latitude": "29.94889490713998",
      "longitude": "-90.0479381307274"
    }
  },
  {
    "service_request": "2025-1163868",
    "request_type": "Trash/Recycling",
    "request_reason": "Repair Recycling Cart",
    "date_created": "2025-01-25T20:51:51.000",
    "date_modified": "2025-01-25T20:52:25.000",
    "request_status": "Pending",
    "responsible_agency": "Department of Sanitation",
    "final_address": "5722 Durbridge Dr",
    "address_councildis": "C",
    "status": "Pending",
    "rowid": "1163868",
    "final_x": "3704899.80574",
    "final_y": "521701.537401",
    "longitude": "-89.99454498329762",
    "latitude": "29.927767167186413",
    "geocoded_column": {
      "latitude": "29.927767167186413",
      "longitude": "-89.99454498329762"
    }
  },
  {
    "service_request": "2025-1163867",
    "request_type": "Trash/Recycling",
    "request_reason": "Illegal Dumping",
    "date_created": "2025-01-25T18:48:48.000",
    "date_modified": "2025-01-25T18:48:51.000",
    "request_status": "Pending",
    "responsible_agency": "Department of Sanitation",
    "final_address": "9555 Stroelitz St",
    "address_councildis": "A",
    "status": "Pending",
    "rowid": "1163867",
    "final_x": "3664017.34439",
    "final_y": "538586.201737",
    "longitude": "-90.12303882575885",
    "latitude": "29.97544465039475",
    "geocoded_column": {
      "latitude": "29.97544465039475",
      "longitude": "-90.12303882575885"
    }
  },
  {
    "service_request": "2025-1163866",
    "request_type": "Streetlights",
    "request_reason": "Streetlight Outage/Malfunction",
    "date_created": "2025-01-25T18:38:18.000",
    "date_modified": "2025-01-25T18:38:19.000",
    "request_status": "Pending",
    "responsible_agency": "Department of Public Works",
    "final_address": "444 Fairway Dr",
    "address_councildis": "A",
    "status": "Pending",
    "contractor": "Legacy Professional Services",
    "rowid": "1163866",
    "final_x": "3664193.87661",
    "final_y": "542679.959181",
    "longitude": "-90.12234464341984",
    "latitude": "29.98669598375984",
    "geocoded_column": {
      "latitude": "29.98669598375984",
      "longitude": "-90.12234464341984"
    }
  },
  {
    "service_request": "2025-1163865",
    "request_type": "Trash/Recycling",
    "request_reason": "Replace Recycling Cart",
    "date_created": "2025-01-25T18:31:18.000",
    "date_modified": "2025-01-25T18:31:20.000",
    "request_status": "Pending",
    "responsible_agency": "Department of Sanitation",
    "final_address": "144 Middle Park Pl",
    "address_councildis": "A",
    "status": "Pending",
    "rowid": "1163865",
    "final_x": "3670092.88346",
    "final_y": "544317.389071",
    "longitude": "-90.10365632326965",
    "latitude": "29.99102561121078",
    "geocoded_column": {
      "latitude": "29.99102561121078",
      "longitude": "-90.10365632326965"
    }
  },
  {
    "service_request": "2025-1163864",
    "request_type": "Trash/Recycling",
    "request_reason": "Request a Large Item Pick Up",
    "date_created": "2025-01-25T18:16:18.000",
    "date_modified": "2025-01-25T18:16:21.000",
    "request_status": "Pending",
    "responsible_agency": "Department of Sanitation",
    "final_address": "2518 Dryades St",
    "address_councildis": "B",
    "status": "Assigned to Contractor",
    "contractor": "IV Waste",
    "rowid": "1163864",
    "final_x": "3675964.48289",
    "final_y": "523824.220859",
    "longitude": "-90.08581407750897",
    "latitude": "29.93450174468675",
    "geocoded_column": {
      "latitude": "29.93450174468675",
      "longitude": "-90.08581407750897"
    }
  },
  {
    "service_request": "2025-1163863",
    "request_type": "Streetlights",
    "request_reason": "Streetlight Outage/Malfunction",
    "date_created": "2025-01-25T18:08:07.000",
    "date_modified": "2025-01-25T18:08:08.000",
    "request_status": "Pending",
    "responsible_agency": "Department of Public Works",
    "final_address": "5300 Douglass St",
    "address_councildis": "E",
    "status": "Pending",
    "contractor": "Legacy Professional Services",
    "rowid": "1163863",
    "final_x": "3696249.6721",
    "final_y": "531862.229059",
    "longitude": "-90.02148404051023",
    "latitude": "29.955980615008656",
    "geocoded_column": {
      "latitude": "29.955980615008656",
      "longitude": "-90.02148404051023"
    }
  },
  {
    "service_request": "2025-1163862",
    "request_type": "Drainage",
    "request_reason": "Street Flooding",
    "date_created": "2025-01-25T18:00:50.000",
    "date_modified": "2025-01-25T18:01:05.000",
    "request_status": "Pending",
    "responsible_agency": "Department of Public Works",
    "final_address": "2227 Easter Ln",
    "address_councildis": "C",
    "status": "Pending",
    "rowid": "1163862",
    "final_x": "3699216.92746",
    "final_y": "523003.939643",
    "longitude": "-90.01243697585005",
    "latitude": "29.931529674116884",
    "geocoded_column": {
      "latitude": "29.931529674116884",
      "longitude": "-90.01243697585005"
    }
  },
  {
    "service_request": "2025-1163861",
    "request_type": "Roads and Streets",
    "request_reason": "Street Subsidence (Sinking)",
    "date_created": "2025-01-25T17:55:22.000",
    "date_modified": "2025-01-25T17:55:23.000",
    "request_status": "Pending",
    "responsible_agency": "Department of Public Works",
    "final_address": "2227 Easter Ln",
    "address_councildis": "C",
    "status": "Pending",
    "rowid": "1163861",
    "final_x": "3699216.92746",
    "final_y": "523003.939643",
    "longitude": "-90.01243697585005",
    "latitude": "29.931529674116884",
    "geocoded_column": {
      "latitude": "29.931529674116884",
      "longitude": "-90.01243697585005"
    }
  },
  {
    "service_request": "2025-1163860",
    "request_type": "Trash/Recycling",
    "request_reason": "Request a Large Item Pick Up",
    "date_created": "2025-01-25T17:53:06.000",
    "date_modified": "2025-01-25T17:53:08.000",
    "request_status": "Pending",
    "responsible_agency": "Department of Sanitation",
    "final_address": "5025 St Bernard Ave",
    "address_councildis": "D",
    "status": "Assigned to Contractor",
    "contractor": "IV Waste",
    "rowid": "1163860",
    "final_x": "3676795.66369",
    "final_y": "550715.236757",
    "longitude": "-90.08226315140675",
    "latitude": "30.008417944025044",
    "geocoded_column": {
      "latitude": "30.008417944025044",
      "longitude": "-90.08226315140675"
    }
  },