[
  {
    "service_request": "2022-852224",
    "request_type": "Abandoned Vehicles",
    "request_reason": "Abandoned/Junk Vehicles",
    "date_created": "2022-01-05T22:33:10.000",
    "date_modified": "2022-01-05T22:33:10.000",
    "request_status": "Pending",
    "responsible_agency": "Department of Public Works",
    "final_address": "3442 Magazine St",
    "address_councildis": "B",
    "status": "Pending",
    "rowid": "852224",
    "final_x": "3674666.52052",
    "final_y": "519368.872695",
    "longitude": "-90.09006433279566",
    "latitude": "29.922289770771666",
    "geocoded_column": {
      "latitude": "29.922289770771666",
      "longitude": "-90.09006433279566"
    }
  },
  {
    "service_request": "2022-852223",
    "request_type": "Abandoned Vehicles",
    "request_reason": "Abandoned/Junk Vehicles",
    "date_created": "2022-01-05T21:57:30.000",
    "date_modified": "2022-01-05T21:57:30.000",
    "request_status": "Pending",
    "responsible_agency": "Department of Public Works",
    "final_address": "7220 Garfield St",
    "address_councildis": "A",
    "status": "Pending",
    "rowid": "852223",
    "final_x": "3661858.57088",
    "final_y": "523403.219131",
    "longitude": "-90.13036028329319",
    "latitude": "29.93375887027469",
    "geocoded_column": {
      "latitude": "29.93375887027469",
      "longitude": "-90.13036028329319"
    }
  },
  {
    "service_request": "2022-852221",
    "request_type": "Health Related Questions",
    "request_reason": "Noise Ordinance Complaint",
    "date_created": "2022-01-05T21:43:26.000",
    "date_modified": "2022-01-05T21:43:26.000",
    "request_status": "Pending",
    "responsible_agency": "Health Department",
    "final_address": "711 Bourbon St, New Orleans, Louisiana, 70116",
    "address_councildis": "C",
    "status": "Pending",
    "rowid": "852221",
    "final_x": "3682299.38447",
    "final_y": "532765.705988",
    "longitude": "-90.06550263299877",
    "latitude": "29.95889665479323",
    "geocoded_column": {
      "latitude": "29.95889665479323",
      "longitude": "-90.06550263299877"
    }
  },
  {
    "service_request": "2022-852220",
    "request_type": "Trash/Recycling",
    "request_reason": "Request a Large Item Pick Up",
    "date_created": "2022-01-05T21:41:25.000",
    "date_modified": "2022-01-05T21:41:26.000",
    "request_status": "Pending",
    "responsible_agency": "Department of Sanitation",
    "final_address": "1122 Toledano St, New Orleans, Louisiana, 70115",
    "address_councildis": "B",
    "status": "Assigned to Contractor",
    "contractor": "Richards Disposal",
    "rowid": "852220",
    "final_x": "3675276.40289",
    "final_y": "519954.859512",
    "longitude": "-90.08811908080055",
    "latitude": "29.923882836088683",
    "geocoded_column": {
      "latitude": "29.923882836088683",
      "longitude": "-90.08811908080055"
    }
  },
  {
    "service_request": "2022-852219",
    "request_type": "Health Related Questions",
    "request_reason": "Noise Ordinance Complaint",
    "date_created": "2022-01-05T21:37:44.000",
    "date_modified": "2022-01-05T21:37:44.000",
    "request_status": "Pending",
    "responsible_agency": "Health Department",
    "final_address": "718 Bourbon St, New Orleans, Louisiana, 70116",
    "address_councildis": "C",
    "status": "Pending",
    "rowid": "852219",
    "final_x": "3682364.17781",
    "final_y": "532746.008004",
    "longitude": "-90.06529872053143",
    "latitude": "29.95884052062511",
    "geocoded_column": {
      "latitude": "29.95884052062511",
      "longitude": "-90.06529872053143"
    }
  },
  {
    "service_request": "2022-852218",
    "request_type": "Trash/Recycling",
    "request_reason": "Illegal Dumping",
    "date_created": "2022-01-05T21:00:03.000",
    "date_modified": "2022-01-05T21:00:03.000",
    "request_status": "Pending",
    "responsible_agency": "Department of Sanitation",
    "final_address": "3120 Josephine St",
    "address_councildis": "B",
    "status": "Pending",
    "rowid": "852218",
    "final_x": "3674491.78382",
    "final_y": "528333.391808",
    "longitude": "-90.09030893216686",
    "latitude": "29.946944492677588",
    "geocoded_column": {
      "latitude": "29.946944492677588",
      "longitude": "-90.09030893216686"
    }
  },
  {
    "service_request": "2022-852217",
    "request_type": "Roads/Drainage",
    "request_reason": "Debris in Roadway",
    "date_created": "2022-01-05T20:58:06.000",
    "date_modified": "2022-01-05T20:58:06.000",
    "request_status": "Pending",
    "responsible_agency": "Department of Public Works",
    "final_address": "3120 Josephine St",
    "address_councildis": "B",
    "status": "Pending",
    "rowid": "852217",
    "final_x": "3674491.78382",
    "final_y": "528333.391808",
    "longitude": "-90.09030893216686",
    "latitude": "29.946944492677588",
    "geocoded_column": {
      "latitude": "29.946944492677588",
      "longitude": "-90.09030893216686"
    }
  },
  {
    "service_request": "2022-852215",
    "request_type": "Abandoned Vehicles",
    "request_reason": "Abandoned/Junk Vehicles",
    "date_created": "2022-01-05T20:54:06.000",
    "date_modified": "2022-01-05T20:54:06.000",
    "request_status": "Pending",
    "responsible_agency": "Department of Public Works",
    "final_address": "3120 Josephine St",
    "address_councildis": "B",
    "status": "Pending",
    "rowid": "852215",
    "final_x": "3674491.78382",
    "final_y": "528333.391808",
    "longitude": "-90.09030893216686",
    "latitude": "29.946944492677588",
    "geocoded_column": {
      "latitude": "29.946944492677588",
      "longitude": "-90.09030893216686"
    }
  },
  {
    "service_request": "2022-852214",
    "request_type": "Property Maintenance",
    "request_reason": "Property Maintenance",
    "date_created": "2022-01-05T20:52:29.000",
    "date_modified": "2022-01-05T20:52:29.000",
    "request_status": "Pending",
    "responsible_agency": "Department of Code Enforcement",
    "final_address": "3120 Josephine St",
    "address_councildis": "B",
    "status": "Pending",
    "rowid": "852214",
    "final_x": "3674491.78382",
    "final_y": "528333.391808",
    "longitude": "-90.09030893216686",
    "latitude": "29.946944492677588",
    "geocoded_column": {
      "latitude": "29.946944492677588",
      "longitude": "-90.09030893216686"
    }
  },
  {
    "service_request": "2022-852213",
    "request_type": "Trash/Recycling",
    "request_reason": "Illegal Dumping",
    "date_created": "2022-01-05T20:31:53.000",
    "date_modified": "2022-01-05T20:31:53.000",
    "request_status": "Pending",
    "responsible_agency": "Department of Code Enforcement",
    "final_address": "4700 BLK Francisco Verrett Dr",
    "address_councildis": "E",
    "status": "Pending",
    "rowid": "852213",
    "final_x": "3704212.95899",
    "final_y": "555240.03957",
    "longitude": "-89.99547703238007",
    "latitude": "30.02000781714973",
    "geocoded_column": {
      "latitude": "30.02000781714973",
      "longitude": "-89.99547703238007"
    }
  },
  {
    "service_request": "2022-852211",
    "request_type": "Trash/Recycling",
    "request_reason": "Replace Recycling Cart",
    "date_created": "2022-01-05T20:20:28.000",
    "date_modified": "2022-01-05T20:20:28.000",
    "request_status": "Pending",
    "responsible_agency": "Department of Sanitation",
    "final_address": "7338 Ebbtide Dr",
    "address_councildis": "E",
    "status": "Pending",
    "rowid": "852211",
    "final_x": "3702433.03613",
    "final_y": "560673.461598",
    "longitude": "-90.00090134756263",
    "latitude": "30.035004648222582",
    "geocoded_column": {
      "latitude": "30.035004648222582",
      "longitude": "-90.00090134756263"
    }
  },
  {
    "service_request": "2022-852210",
    "request_type": "Traffic Signals/Signs/Striping/Streetlights",
    "request_reason": "Street Light Outage/Malfunction",
    "date_created": "2022-01-05T19:59:02.000",
    "date_modified": "2022-01-05T19:59:02.000",
    "request_status": "Pending",
    "responsible_agency": "Department of Public Works",
    "final_address": "1346 Rapides Dr",
    "address_councildis": "D",
    "status": "Pending",
    "contractor": "Royal Engineering",
    "rowid": "852210",
    "final_x": "3677392.80731",
    "final_y": "552594.196694",
    "longitude": "-90.08031167040814",
    "latitude": "30.01356647005323",
    "geocoded_column": {
      "latitude": "30.01356647005323",
      "longitude": "-90.08031167040814"
    }
  },
  {
    "service_request": "2022-852209",
    "request_type": "Traffic Signals/Signs/Striping/Streetlights",
    "request_reason": "Street Light Outage/Malfunction",
    "date_created": "2022-01-05T19:58:21.000",
    "date_modified": "2022-01-05T19:58:22.000",
    "request_status": "Pending",
    "responsible_agency": "Department of Public Works",
    "final_address": "4617 Prytania St",
    "address_councildis": "B",
    "status": "Pending",
    "contractor": "Royal Engineering",
    "rowid": "852209",
    "final_x": "3670044.1602",
    "final_y": "520318.638264",
    "longitude": "-90.1046231187028",
    "latitude": "29.925038421961155",
    "geocoded_column": {
      "latitude": "29.925038421961155",
      "longitude": "-90.1046231187028"
    }
  },
  {
    "service_request": "2022-852208",
    "request_type": "Property Maintenance",
    "request_reason": "Property Maintenance",
    "date_created": "2022-01-05T19:54:51.000",
    "date_modified": "2022-01-05T19:54:51.000",
    "request_status": "Pending",
    "responsible_agency": "Department of Code Enforcement",
    "final_address": "1201 St Bernard Ave",
    "address_councildis": "C",
    "status": "Pending",
    "rowid": "852208",
    "final_x": "3683096.09794",
    "final_y": "536294.029191",
    "longitude": "-90.06286328220617",
    "latitude": "29.96857406799968",
    "geocoded_column": {
      "latitude": "29.96857406799968",
      "longitude": "-90.06286328220617"
    }
  },
  {
    "service_request": "2022-852207",
    "request_type": "Traffic Signals/Signs/Striping/Streetlights",
    "request_reason": "Traffic Signal Malfunctioning/Damaged",
    "date_created": "2022-01-05T19:53:20.000",
    "date_modified": "2022-01-05T19:53:20.000",
    "request_status": "Pending",
    "responsible_agency": "Department of Public Works",
    "final_address": "3233 St Bernard Ave",
    "address_councildis": "D",
    "status": "Pending",
    "rowid": "852207",
    "final_x": "3678880.94984",
    "final_y": "544486.859279",
    "longitude": "-90.0758910135286",
    "latitude": "29.991229346777356",
    "geocoded_column": {
      "latitude": "29.991229346777356",
      "longitude": "-90.0758910135286"
    }
  },
  {
    "service_request": "2022-852206",
    "request_type": "Traffic Signals/Signs/Striping/Streetlights",
    "request_reason": "Street Light Outage/Malfunction",
    "date_created": "2022-01-05T19:05:53.000",
    "date_modified": "2022-01-05T19:05:54.000",
    "request_status": "Pending",
    "responsible_agency": "Department of Public Works",
    "final_address": "5067 Debore Cir",
    "address_councildis": "D",
    "status": "Pending",
    "contractor": "Royal Engineering",
    "rowid": "852206",
    "final_x": "3692123.76214",
    "final_y": "553204.538711",
    "longitude": "-90.03374784963881",
    "latitude": "30.014793521593422",
    "geocoded_column": {
      "latitude": "30.014793521593422",
      "longitude": "-90.03374784963881"
    }
  },
  {
    "service_request": "2022-852205",
    "request_type": "Trash/Recycling",
    "request_reason": "Request a Large Item Pick Up",
    "date_created": "2022-01-05T19:05:40.000",
    "date_modified": "2022-01-05T19:05:40.000",
    "request_status": "Pending",
    "responsible_agency": "Department of Sanitation",
    "final_address": "7911 Cynthia Dr",
    "address_councildis": "E",
    "status": "Assigned to Contractor",
    "contractor": "Metro Disposal",
    "rowid": "852205",
    "final_x": "3702133.61047",
    "final_y": "560542.983262",
    "longitude": "-90.00185236443579",
    "latitude": "30.03465545404194",
    "geocoded_column": {
      "latitude": "30.03465545404194",
      "longitude": "-90.00185236443579"
    }
  },
  {
    "service_request": "2022-852204",
    "request_type": "Trash/Recycling",
    "request_reason": "Illegal Dumping",
    "date_created": "2022-01-05T18:42:37.000",
    "date_modified": "2022-01-05T18:42:37.000",
    "request_status": "Pending",
    "responsible_agency": "Department of Sanitation",
    "final_address": "5212 De Montluzin St",
    "address_councildis": "D",
    "status": "Pending",
    "rowid": "852204",
    "final_x": "3686946.8237",
    "final_y": "552419.653846",
    "longitude": "-90.0501322087807",
    "latitude": "30.012795807251763",
    "geocoded_column": {
      "latitude": "30.012795807251763",
      "longitude": "-90.0501322087807"
    }
  },
  {
    "service_request": "2022-852203",
    "request_type": "Trash/Recycling",
    "request_reason": "Order Trash Cart",
    "date_created": "2022-01-05T18:26:42.000",
    "date_modified": "2022-01-05T18:26:43.000",
    "request_status": "Pending",
    "responsible_agency": "Department of Sanitation",
    "final_address": "7901 Haney Dr",
    "address_councildis": "E",
    "status": "Assigned to Contractor",
    "contractor": "Metro Disposal",
    "rowid": "852203",
    "final_x": "3712126.80958",
    "final_y": "568037.545189",
    "longitude": "-89.96999092408602",
    "latitude": "30.0549393984319",
    "geocoded_column": {
      "latitude": "30.0549393984319",
      "longitude": "-89.96999092408602"
    }
  },
  {
    "service_request": "2022-852202",
    "request_type": "Trash/Recycling",
    "request_reason": "MIssed Recycling Pick-Up",
    "date_created": "2022-01-05T18:18:49.000",
    "date_modified": "2022-01-05T18:20:42.000",
    "request_status": "Pending",
    "responsible_agency": "Department of Sanitation",
    "final_address": "634 Eighth St",
    "address_councildis": "B",
    "status": "Assigned to Contractor",
    "contractor": "Richards Disposal",
    "rowid": "852202",
    "final_x": "3676938.26549",
    "final_y": "518905.502967",
    "longitude": "-90.08290932307021",
    "latitude": "29.920947681168073",
    "geocoded_column": {
      "latitude": "29.920947681168073",
      "longitude": "-90.08290932307021"
    }
  },
  {
    "service_request": "2022-852201",
    "request_type": "Trash/Recycling",
    "request_reason": "Replace Trash Cart",
    "date_created": "2022-01-05T18:01:19.000",
    "date_modified": "2022-01-05T18:01:19.000",
    "request_status": "Pending",
    "responsible_agency": "Department of Sanitation",
    "final_address": "2537 Onzaga St",
    "address_councildis": "D",
    "status": "Assigned to Contractor",
    "contractor": "Metro Disposal",
    "rowid": "852201",
    "final_x": "3679554.60911",
    "final_y": "540318.782859",
    "longitude": "-90.07390778958512",
    "latitude": "29.979748248076536",
    "geocoded_column": {
      "latitude": "29.979748248076536",
      "longitude": "-90.07390778958512"
    }
  },
  {
    "service_request": "2022-852200",
    "request_type": "Trash/Recycling",
    "request_reason": "Missed Trash Pick-Up",
    "date_created": "2022-01-05T17:45:42.000",
    "date_modified": "2022-01-05T17:45:43.000",
    "request_status": "Pending",
    "responsible_agency": "Department of Sanitation",
    "final_address": "2324 Burdette St",
    "address_councildis": "A",
    "status": "Assigned to Contractor",
    "contractor": "Richards Disposal",
    "rowid": "852200",
    "final_x": "3665508.56845",
    "final_y": "530649.351682",
    "longitude": "-90.11859485633559",
    "latitude": "29.953577533322182",
    "geocoded_column": {
      "latitude": "29.953577533322182",
      "longitude": "-90.11859485633559"
    }
  },
  {
    "service_request": "2022-852199",
    "request_type": "Abandoned Vehicles",
    "request_reason": "Abandoned/Junk Vehicles",
    "date_created": "2022-01-05T17:39:26.000",
    "date_modified": "2022-01-05T17:39:26.000",
    "request_status": "Pending",
    "responsible_agency": "Department of Public Works",
    "final_address": "CATALINA DR & CAESAR DR",
    "address_councildis": "C",
    "status": "Pending",
    "rowid": "852199",
    "final_x": "3697085.9",
    "final_y": "524109.78",
    "longitude": "-90.01912430073058",
    "latitude": "29.934637730846973",
    "geocoded_column": {
      "latitude": "29.934637730846973",
      "longitude": "-90.01912430073058"
    }
  },
  {
    "service_request": "2022-852198",
    "request_type": "Trash/Recycling",
    "request_reason": "Illegal Dumping",
    "date_created": "2022-01-05T17:02:52.000",
    "date_modified": "2022-01-05T17:02:52.000",
    "request_status": "Pending",
    "responsible_agency": "Department of Sanitation",
    "final_address": "3123 Urquhart St",
    "address_councildis": "C",
    "status": "Pending",
    "rowid": "852198",
    "final_x": "3689384.55574",
    "final_y": "536717.977351",
    "longitude": "-90.0429889792863",
    "latitude": "29.969546560285092",
    "geocoded_column": {
      "latitude": "29.969546560285092",
      "longitude": "-90.0429889792863"
    }
  },
  {
    "service_request": "2022-852197",
    "request_type": "Trash/Recycling",
    "request_reason": "Missed Trash Pick-Up",
    "date_created": "2022-01-05T16:57:22.000",
    "date_modified": "2022-01-05T16:57:22.000",
    "request_status": "Pending",
    "responsible_agency": "Department of Sanitation",
    "final_address": "5489 Canal Blvd",
    "address_councildis": "A",
    "status": "Assigned to Contractor",
    "contractor": "Metro Disposal",
    "rowid": "852197",
    "final_x": "3668279.53652",
    "final_y": "543716.798926",
    "longitude": "-90.10940454206076",
    "latitude": "29.98942757793269",
    "geocoded_column": {
      "latitude": "29.98942757793269",
      "longitude": "-90.10940454206076"
    }
  },
  {
    "service_request": "2022-852196",
    "request_type": "Trash/Recycling",
    "request_reason": "Missed Trash Pick-Up",
    "date_created": "2022-01-05T16:56:47.000",
    "date_modified": "2022-01-05T16:56:48.000",
    "request_status": "Pending",
    "responsible_agency": "Department of Sanitation",
    "final_address": "New Orleans, Louisiana",
    "status": "Assigned to Contractor",
    "rowid": "852196",
    "longitude": "0.0",
    "latitude": "0.0",
    "geocoded_column": {
      "latitude": "0.0",
      "longitude": "0.0"
    }
  },
  {
    "service_request": "2022-852195",
    "request_type": "Trash/Recycling",
    "request_reason": "Missed Trash Pick-Up",
    "date_created": "2022-01-05T16:53:04.000",
    "date_modified": "2022-01-05T16:53:05.000",
    "request_status": "Pending",
    "responsible_agency": "Department of Sanitation",
    "final_address": "New Orleans, Louisiana",
    "status": "Assigned to Contractor",
    "rowid": "852195",
    "longitude": "0.0",
    "latitude": "0.0",
    "geocoded_column": {
      "latitude": "0.0",
      "longitude": "0.0"
    }
  },
  {
    "service_request": "2022-852194",
    "request_type": "Trash/Recycling",
    "request_reason": "Repair Trash Cart",
    "date_created": "2022-01-05T16:48:58.000",
    "date_modified": "2022-01-05T16:48:59.000",
    "request_status": "Pending",
    "responsible_agency": "Department of Sanitation",
    "final_address": "2025 Jena St",
    "address_councildis": "B",
    "status": "Assigned to Contractor",
    "contractor": "Richards Disposal",
    "rowid": "852194",
    "final_x": "3670369.63527",
    "final_y": "522492.32569",
    "longitude": "-90.1035220517311",
    "latitude": "29.93100576670361",
    "geocoded_column": {
      "latitude": "29.93100576670361",
      "longitude": "-90.1035220517311"
    }
  },
  {
    "service_request": "2022-852193",
    "request_type": "Trash/Recycling",
    "request_reason": "Request a Large Item Pick Up",
    "date_created": "2022-01-05T16:47:56.000",
    "date_modified": "2022-01-05T16:47:57.000",
    "request_status": "Pending",
    "responsible_agency": "Department of Sanitation",
    "final_address": "2328 Lapeyrouse St, New Orleans, Louisiana, 70119",
    "address_councildis": "D",
    "status": "Assigned to Contractor",
    "contractor": "Metro Disposal",
    "rowid": "852193",
    "final_x": "3679992.29282",
    "final_y": "539422.612426",
    "longitude": "-90.07255655029775",
    "latitude": "29.977270855203177",
    "geocoded_column": {
      "latitude": "29.977270855203177",
      "longitude": "-90.07255655029775"
    }
  },
  {
    "service_request": "2022-852190",
    "request_type": "Trash/Recycling",
    "request_reason": "Missed Trash Pick-Up",
    "date_created": "2022-01-05T16:39:23.000",
    "date_modified": "2022-01-05T16:39:24.000",
    "request_status": "Pending",
    "responsible_agency": "Department of Sanitation",
    "final_address": "4910 Wright Rd",
    "address_councildis": "E",
    "status": "Assigned to Contractor",
    "contractor": "Metro Disposal",
    "rowid": "852190",
    "final_x": "3716505.36607",
    "final_y": "557626.757147",
    "longitude": "-89.9565467764216",
    "latitude": "30.02616997805968",
    "geocoded_column": {
      "latitude": "30.02616997805968",
      "longitude": "-89.9565467764216"
    }
  },
  {
    "service_request": "2022-852189",
    "request_type": "COVID-19",
    "request_reason": "COVID-19 Business Non-Compliance",
    "date_created": "2022-01-05T16:34:19.000",
    "date_modified": "2022-01-05T16:34:20.000",
    "request_status": "Pending",
    "responsible_agency": "Safety and Permits",
    "final_address": "6005 Bullard Ave",
    "address_councildis": "E",
    "status": "Pending",
    "rowid": "852189",
    "final_x": "3715841.25407",
    "final_y": "563990.499361",
    "longitude": "-89.95840397576464",
    "latitude": "30.043689633892903",
    "geocoded_column": {
      "latitude": "30.043689633892903",
      "longitude": "-89.95840397576464"
    }
  },
  {
    "service_request": "2022-852188",
    "request_type": "Abandoned Vehicles",
    "request_reason": "Abandoned/Junk Vehicles",
    "date_created": "2022-01-05T16:30:57.000",
    "date_modified": "2022-01-05T16:30:57.000",
    "request_status": "Pending",
    "responsible_agency": "Department of Public Works",
    "final_address": "4005 Orleans Ave",
    "address_councildis": "A",
    "status": "Pending",
    "rowid": "852188",
    "final_x": "3673025.81448",
    "final_y": "540011.733067",
    "longitude": "-90.09453890631052",
    "latitude": "29.979099665376864",
    "geocoded_column": {
      "latitude": "29.979099665376864",
      "longitude": "-90.09453890631052"
    }
  },
  {
    "service_request": "2022-852187",
    "request_type": "Trash/Recycling",
    "request_reason": "Request a Large Item Pick Up",
    "date_created": "2022-01-05T16:28:59.000",
    "date_modified": "2022-01-05T16:29:00.000",
    "request_status": "Pending",
    "responsible_agency": "Department of Sanitation",
    "final_address": "7911 Cynthia Dr",
    "address_councildis": "E",
    "status": "Assigned to Contractor",
    "contractor": "Metro Disposal",
    "rowid": "852187",
    "final_x": "3702133.61047",
    "final_y": "560542.983262",
    "longitude": "-90.00185236443579",
    "latitude": "30.03465545404194",
    "geocoded_column": {
      "latitude": "30.03465545404194",
      "longitude": "-90.00185236443579"
    }
  },
  {
    "service_request": "2022-852186",
    "request_type": "Trash/Recycling",
    "request_reason": "Illegal Dumping",
    "date_created": "2022-01-05T16:26:00.000",
    "date_modified": "2022-01-05T16:26:00.000",
    "request_status": "Pending",
    "responsible_agency": "Department of Sanitation",
    "final_address": "6526 Virgilian St",
    "address_councildis": "D",
    "status": "Pending",
    "rowid": "852186",
    "final_x": "3697252.08355",
    "final_y": "555262.389337",
    "longitude": "-90.01747025464518",
    "latitude": "30.02029090581026",
    "geocoded_column": {
      "latitude": "30.02029090581026",
      "longitude": "-90.01747025464518"
    }
  },
  {
    "service_request": "2022-852185",
    "request_type": "Abandoned Vehicles",
    "request_reason": "Abandoned/Junk Vehicles",
    "date_created": "2022-01-05T16:19:16.000",
    "date_modified": "2022-01-05T16:19:16.000",
    "request_status": "Pending",
    "responsible_agency": "Department of Public Works",
    "final_address": "118 Conrad St",
    "address_councildis": "A",
    "status": "Pending",
    "rowid": "852185",
    "final_x": "3667030.12013",
    "final_y": "554508.451352",
    "longitude": "-90.11298806279542",
    "latitude": "30.01913751498031",
    "geocoded_column": {
      "latitude": "30.01913751498031",
      "longitude": "-90.11298806279542"
    }
  },
  {
    "service_request": "2022-852184",
    "request_type": "Abandoned Vehicles",
    "request_reason": "Abandoned/Junk Vehicles",
    "date_created": "2022-01-05T16:17:31.000",
    "date_modified": "2022-01-05T16:20:39.000",
    "request_status": "Pending",
    "responsible_agency": "Department of Public Works",
    "final_address": "2104 Treasure St",
    "address_councildis": "D",
    "status": "Pending",
    "rowid": "852184",
    "final_x": "3683671.38389",
    "final_y": "543924.709838",
    "longitude": "-90.06077887074103",
    "latitude": "29.989538216229256",
    "geocoded_column": {
      "latitude": "29.989538216229256",
      "longitude": "-90.06077887074103"
    }
  },
  {
    "service_request": "2022-852183",
    "request_type": "Abandoned Vehicles",
    "request_reason": "Abandoned/Junk Vehicles",
    "date_created": "2022-01-05T16:16:29.000",
    "date_modified": "2022-01-05T16:16:29.000",
    "request_status": "Pending",
    "responsible_agency": "Department of Public Works",
    "final_address": "118 Conrad St",
    "address_councildis": "A",
    "status": "Pending",
    "rowid": "852183",
    "final_x": "3667030.12013",
    "final_y": "554508.451352",
    "longitude": "-90.11298806279542",
    "latitude": "30.01913751498031",
    "geocoded_column": {
      "latitude": "30.01913751498031",
      "longitude": "-90.11298806279542"
    }
  },
  {
    "service_request": "2022-852182",
    "request_type": "Abandoned Vehicles",
    "request_reason": "Abandoned/Junk Vehicles",
    "date_created": "2022-01-05T16:13:56.000",
    "date_modified": "2022-01-05T16:13:56.000",
    "request_status": "Pending",
    "responsible_agency": "Department of Public Works",
    "final_address": "118 Conrad St",
    "address_councildis": "A",
    "status": "Pending",
    "rowid": "852182",
    "final_x": "3667030.12013",
    "final_y": "554508.451352",
    "longitude": "-90.11298806279542",
    "latitude": "30.01913751498031",
    "geocoded_column": {
      "latitude": "30.01913751498031",
      "longitude": "-90.11298806279542"
    }
  },
  {
    "service_request": "2022-852181",
    "request_type": "Trash/Recycling",
    "request_reason": "Order Recycling Cart",
    "date_created": "2022-01-05T16:13:16.000",
    "date_modified": "2022-01-05T16:13:16.000",
    "request_status": "Pending",
    "responsible_agency": "Department of Sanitation",
    "final_address": "6301 Perlita Dr",
    "address_councildis": "D",
    "status": "Pending",
    "rowid": "852181",
    "final_x": "3678255.31502",
    "final_y": "556115.100058",
    "longitude": "-90.07746467105578",
    "latitude": "30.023221716817236",
    "geocoded_column": {
      "latitude": "30.023221716817236",
      "longitude": "-90.07746467105578"
    }
  },
  {
    "service_request": "2022-852179",
    "request_type": "Trash/Recycling",
    "request_reason": "Replace Trash Cart",
    "date_created": "2022-01-05T16:11:06.000",
    "date_modified": "2022-01-05T16:11:06.000",
    "request_status": "Pending",
    "responsible_agency": "Department of Sanitation",
    "final_address": "6301 Perlita Dr",
    "address_councildis": "D",
    "status": "Assigned to Contractor",
    "contractor": "Metro Disposal",
    "rowid": "852179",
    "final_x": "3678255.31502",
    "final_y": "556115.100058",
    "longitude": "-90.07746467105578",
    "latitude": "30.023221716817236",
    "geocoded_column": {
      "latitude": "30.023221716817236",
      "longitude": "-90.07746467105578"
    }
  },
  {
    "service_request": "2022-852178",
    "request_type": "Abandoned Vehicles",
    "request_reason": "Abandoned/Junk Vehicles",
    "date_created": "2022-01-05T16:02:07.000",
    "date_modified": "2022-01-05T16:04:22.000",
    "case_close_date": "2020-07-14T19:00:00.000",
    "request_status": "Pending",
    "responsible_agency": "Department of Public Works",
    "final_address": "N RAMPART ST & MONTEGUT ST",
    "address_councildis": "C",
    "status": "Pending",
    "rowid": "852178",
    "final_x": "3688322.9",
    "final_y": "535707.68",
    "longitude": "-90.04637760391033",
    "latitude": "29.966801426539508",
    "geocoded_column": {
      "latitude": "29.966801426539508",
      "longitude": "-90.04637760391033"
    }
  },
  {
    "service_request": "2022-852177",
    "request_type": "Trash/Recycling",
    "request_reason": "Request a Large Item Pick Up",
    "date_created": "2022-01-05T16:01:42.000",
    "date_modified": "2022-01-05T16:01:43.000",
    "request_status": "Pending",
    "responsible_agency": "Department of Sanitation",
    "final_address": "7507 Jonlee Dr",
    "address_councildis": "E",
    "status": "Assigned to Contractor",
    "contractor": "Metro Disposal",
    "rowid": "852177",
    "final_x": "3717571.89855",
    "final_y": "570011.66551",
    "longitude": "-89.95270517048132",
    "latitude": "30.060188149191926",
    "geocoded_column": {
      "latitude": "30.060188149191926",
      "longitude": "-89.95270517048132"
    }
  },
  {
    "service_request": "2022-852176",
    "request_type": "Trash/Recycling",
    "request_reason": "Damaged Caused By Contractor",
    "date_created": "2022-01-05T15:59:44.000",
    "date_modified": "2022-01-05T15:59:45.000",
    "request_status": "Pending",
    "responsible_agency": "Department of Sanitation",
    "final_address": "109 W Hubbell Rd",
    "address_councildis": "C",
    "status": "Assigned to Contractor",
    "contractor": "Richards Disposal",
    "rowid": "852176",
    "final_x": "3689073.90339",
    "final_y": "531143.691266",
    "longitude": "-90.04416810282991",
    "latitude": "29.95422882860053",
    "geocoded_column": {
      "latitude": "29.95422882860053",
      "longitude": "-90.04416810282991"
    }
  },
  {
    "service_request": "2022-852175",
    "request_type": "Abandoned Vehicles",
    "request_reason": "Abandoned/Junk Vehicles",
    "date_created": "2022-01-05T15:57:54.000",
    "date_modified": "2022-01-05T15:57:54.000",
    "request_status": "Pending",
    "responsible_agency": "Department of Public Works",
    "final_address": "5243 Canal Blvd",
    "address_councildis": "A",
    "status": "Pending",
    "rowid": "852175",
    "final_x": "3668151.57082",
    "final_y": "542313.111181",
    "longitude": "-90.10985609313417",
    "latitude": "29.985571672776864",
    "geocoded_column": {
      "latitude": "29.985571672776864",
      "longitude": "-90.10985609313417"
    }
  },
  {
    "service_request": "2022-852174",
    "request_type": "Property Maintenance",
    "request_reason": "Property Maintenance",
    "date_created": "2022-01-05T15:55:27.000",
    "date_modified": "2022-01-05T15:55:27.000",
    "request_status": "Pending",
    "responsible_agency": "Department of Code Enforcement",
    "final_address": "117 W Hubbell Rd",
    "address_councildis": "C",
    "status": "Pending",
    "rowid": "852174",
    "final_x": "3689070.24931",
    "final_y": "531076.297026",
    "longitude": "-90.04418203511044",
    "latitude": "29.95404363073047",
    "geocoded_column": {
      "latitude": "29.95404363073047",
      "longitude": "-90.04418203511044"
    }
  },
  {
    "service_request": "2022-852173",
    "request_type": "Health Related Questions",
    "request_reason": "Request Health Records (Immunization, Lead and Health)",
    "date_created": "2022-01-05T15:52:56.000",
    "date_modified": "2022-01-05T15:52:56.000",
    "request_status": "Pending",
    "responsible_agency": "Health Department",
    "final_address": "6133 Perrier St",
    "address_councildis": "A",
    "status": "Pending",
    "rowid": "852173",
    "final_x": "3664379.79674",
    "final_y": "520840.766649",
    "longitude": "-90.12248634341742",
    "latitude": "29.926639911806454",
    "geocoded_column": {
      "latitude": "29.926639911806454",
      "longitude": "-90.12248634341742"
    }
  },
  {
    "service_request": "2022-852172",
    "request_type": "Trash/Recycling",
    "request_reason": "Request a Large Item Pick Up",
    "date_created": "2022-01-05T15:44:54.000",
    "date_modified": "2022-01-05T15:44:55.000",
    "request_status": "Pending",
    "responsible_agency": "Department of Sanitation",
    "final_address": "2412 George Nick Connor Dr",
    "address_councildis": "D",
    "status": "Assigned to Contractor",
    "contractor": "Metro Disposal",
    "rowid": "852172",
    "final_x": "3681166.49032",
    "final_y": "540937.375755",
    "longitude": "-90.06879525338462",
    "latitude": "29.98140034978296",
    "geocoded_column": {
      "latitude": "29.98140034978296",
      "longitude": "-90.06879525338462"
    }
  },
  {
    "service_request": "2022-852171",
    "request_type": "Trash/Recycling",
    "request_reason": "Illegal Dumping",
    "date_created": "2022-01-05T15:40:46.000",
    "date_modified": "2022-01-05T15:40:46.000",
    "request_status": "Pending",
    "responsible_agency": "Department of Sanitation",
    "final_address": "6529 Fleur-De-Lis Dr",
    "address_councildis": "A",
    "status": "Pending",
    "rowid": "852171",
    "final_x": "3665484.69261",
    "final_y": "551639.097685",
    "longitude": "-90.11796726325905",
    "latitude": "30.0112929638023",
    "geocoded_column": {
      "latitude": "30.0112929638023",
      "longitude": "-90.11796726325905"
    }
  },
  {
    "service_request": "2022-852170",
    "request_type": "Roads/Drainage",
    "request_reason": "Pothole",
    "date_created": "2022-01-05T15:38:20.000",
    "date_modified": "2022-01-05T15:38:20.000",
    "request_status": "Pending",
    "responsible_agency": "Department of Public Works",
    "final_address": "1031 Congress St",
    "address_councildis": "C",
    "status": "Pending",
    "rowid": "852170",
    "final_x": "3690702.97174",
    "final_y": "535385.953158",
    "longitude": "-90.03887284734326",
    "latitude": "29.96584307256384",
    "geocoded_column": {
      "latitude": "29.96584307256384",
      "longitude": "-90.03887284734326"
    }
  },
  {
    "service_request": "2022-852169",
    "request_type": "Trash/Recycling",
    "request_reason": "Request a Large Item Pick Up",
    "date_created": "2022-01-05T15:34:53.000",
    "date_modified": "2022-01-05T15:34:54.000",
    "request_status": "Pending",
    "responsible_agency": "Department of Sanitation",
    "final_address": "7060 Curran Rd",
    "address_councildis": "E",
    "status": "Assigned to Contractor",
    "contractor": "Metro Disposal",
    "rowid": "852169",
    "final_x": "3699291.25885",
    "final_y": "560257.248925",
    "longitude": "-90.01084497787751",
    "latitude": "30.033960304819626",
    "geocoded_column": {
      "latitude": "30.033960304819626",
      "longitude": "-90.01084497787751"
    }
  },
  {
    "service_request": "2022-852168",
    "request_type": "Trash/Recycling",
    "request_reason": "Replace Trash Cart",
    "date_created": "2022-01-05T15:32:08.000",
    "date_modified": "2022-01-05T15:32:08.000",
    "request_status": "Pending",
    "responsible_agency": "Department of Sanitation",
    "final_address": "3727 Coliseum St, New Orleans, Louisiana, 70115",
    "address_councildis": "B",
    "status": "Assigned to Contractor",
    "contractor": "Richards Disposal",
    "rowid": "852168",
    "final_x": "3673174.89992",
    "final_y": "520136.978104",
    "longitude": "-90.09474656689223",
    "latitude": "29.924446232479852",
    "geocoded_column": {
      "latitude": "29.924446232479852",
      "longitude": "-90.09474656689223"
    }
  },
  {
    "service_request": "2022-852167",
    "request_type": "Trash/Recycling",
    "request_reason": "Replace Trash Cart",
    "date_created": "2022-01-05T15:25:06.000",
    "date_modified": "2022-01-05T15:26:41.000",
    "request_status": "Pending",
    "responsible_agency": "Department of Sanitation",
    "final_address": "3301 Huntlee Dr",
    "address_councildis": "C",
    "status": "Assigned to Contractor",
    "contractor": "Richards Disposal",
    "rowid": "852167",
    "final_x": "3701701.58257",
    "final_y": "519217.068983",
    "longitude": "-90.00473188257212",
    "latitude": "29.921038097278426",
    "geocoded_column": {
      "latitude": "29.921038097278426",
      "longitude": "-90.00473188257212"
    }
  },
  {
    "service_request": "2022-852166",
    "request_type": "Trash/Recycling",
    "request_reason": "Illegal Dumping",
    "date_created": "2022-01-05T15:24:45.000",
    "date_modified": "2022-01-05T15:24:45.000",
    "request_status": "Pending",
    "responsible_agency": "Department of Code Enforcement",
    "final_address": "1961 Jo Ann Pl",
    "address_councildis": "C",
    "status": "Pending",
    "rowid": "852166",
    "final_x": "3694933.33859",
    "final_y": "523266.033147",
    "longitude": "-90.02595025345371",
    "latitude": "29.932385425603073",
    "geocoded_column": {
      "latitude": "29.932385425603073",
      "longitude": "-90.02595025345371"
    }
  },
  {
    "service_request": "2022-852165",
    "request_type": "Traffic Signals/Signs/Striping/Streetlights",
    "request_reason": "Traffic Sign Missing/Damaged",
    "date_created": "2022-01-05T15:24:12.000",
    "date_modified": "2022-01-05T15:24:12.000",
    "request_status": "Pending",
    "responsible_agency": "Department of Public Works",
    "final_address": "ST CLAUDE AVE & FRANKLIN AVE",
    "address_councildis": "C",
    "status": "Pending",
    "rowid": "852165",
    "final_x": "3687068.7",
    "final_y": "536547.68",
    "longitude": "-90.05030865196827",
    "latitude": "29.96914980739771",
    "geocoded_column": {
      "latitude": "29.96914980739771",
      "longitude": "-90.05030865196827"
    }
  },
  {
    "service_request": "2022-852164",
    "request_type": "Trash/Recycling",
    "request_reason": "Request a Large Item Pick Up",
    "date_created": "2022-01-05T15:22:43.000",
    "date_modified": "2022-01-05T15:22:44.000",
    "request_status": "Pending",
    "responsible_agency": "Department of Sanitation",
    "final_address": "2808 Seine St",
    "address_councildis": "C",
    "status": "Assigned to Contractor",
    "contractor": "Richards Disposal",
    "rowid": "852164",
    "final_x": "3693363.14576",
    "final_y": "521041.724089",
    "longitude": "-90.03098699779967",
    "latitude": "29.926318499274164",
    "geocoded_column": {
      "latitude": "29.926318499274164",
      "longitude": "-90.03098699779967"
    }
  },
  {
    "service_request": "2022-852163",
    "request_type": "Trash/Recycling",
    "request_reason": "Request a Large Item Pick Up",
    "date_created": "2022-01-05T15:18:58.000",
    "date_modified": "2022-01-05T15:20:14.000",
    "request_status": "Pending",
    "responsible_agency": "Department of Sanitation",
    "final_address": "411 S Dupre St",
    "address_councildis": "B",
    "status": "Assigned to Contractor",
    "contractor": "Richards Disposal",
    "rowid": "852163",
    "final_x": "3673734.46254",
    "final_y": "534581.538437",
    "longitude": "-90.09248644480422",
    "latitude": "29.96414738552425",
    "geocoded_column": {
      "latitude": "29.96414738552425",
      "longitude": "-90.09248644480422"
    }
  },
  {
    "service_request": "2022-852162",
    "request_type": "Trash/Recycling",
    "request_reason": "Replace Trash Cart",
    "date_created": "2022-01-05T15:14:46.000",
    "date_modified": "2022-01-05T15:14:47.000",
    "request_status": "Pending",
    "responsible_agency": "Department of Sanitation",
    "final_address": "3512 Nashville Ave",
    "address_councildis": "A",
    "status": "Assigned to Contractor",
    "contractor": "Richards Disposal",
    "rowid": "852162",
    "final_x": "3668105.81396",
    "final_y": "528569.547392",
    "longitude": "-90.11046390699097",
    "latitude": "29.94778278467895",
    "geocoded_column": {
      "latitude": "29.94778278467895",
      "longitude": "-90.11046390699097"
    }
  },
  {
    "service_request": "2022-852161",
    "request_type": "Trash/Recycling",
    "request_reason": "Illegal Dumping",
    "date_created": "2022-01-05T15:13:56.000",
    "date_modified": "2022-01-05T15:13:56.000",
    "request_status": "Pending",
    "responsible_agency": "Department of Sanitation",
    "final_address": "3825 Jena St",
    "address_councildis": "B",
    "status": "Pending",
    "rowid": "852161",
    "final_x": "3669705.10234",
    "final_y": "528661.846272",
    "longitude": "-90.10541118311178",
    "latitude": "29.94798954821877",
    "geocoded_column": {
      "latitude": "29.94798954821877",
      "longitude": "-90.10541118311178"
    }
  },
  {
    "service_request": "2022-852160",
    "request_type": "Trash/Recycling",
    "request_reason": "Replace Trash Cart",
    "date_created": "2022-01-05T15:12:11.000",
    "date_modified": "2022-01-05T15:12:12.000",
    "request_status": "Pending",
    "responsible_agency": "Department of Sanitation",
    "final_address": "1919 Pine St",
    "address_councildis": "A",
    "status": "Assigned to Contractor",
    "contractor": "Richards Disposal",
    "rowid": "852160",
    "final_x": "3665455.28532",
    "final_y": "528801.336192",
    "longitude": "-90.11882495231607",
    "latitude": "29.94849764299678",
    "geocoded_column": {
      "latitude": "29.94849764299678",
      "longitude": "-90.11882495231607"
    }
  },
  {
    "service_request": "2022-852159",
    "request_type": "Abandoned Vehicles",
    "request_reason": "Abandoned/Junk Vehicles",
    "date_created": "2022-01-05T15:11:29.000",
    "date_modified": "2022-01-05T15:11:29.000",
    "request_status": "Pending",
    "responsible_agency": "Department of Public Works",
    "final_address": "827 St Ferdinand St",
    "address_councildis": "C",
    "status": "Pending",
    "rowid": "852159",
    "final_x": "3687512.02082",
    "final_y": "535402.19847",
    "longitude": "-90.04894916549053",
    "latitude": "29.965986476128005",
    "geocoded_column": {
      "latitude": "29.965986476128005",
      "longitude": "-90.04894916549053"
    }
  },
  {
    "service_request": "2022-852156",
    "request_type": "Abandoned Vehicles",
    "request_reason": "Abandoned/Junk Vehicles",
    "date_created": "2022-01-05T15:05:16.000",
    "date_modified": "2022-01-05T15:10:09.000",
    "request_status": "Pending",
    "responsible_agency": "Department of Public Works",
    "final_address": "2820 Josephine St",
    "address_councildis": "B",
    "status": "Pending",
    "rowid": "852156",
    "final_x": "3675194.36974",
    "final_y": "527405.939967",
    "longitude": "-90.0881224288305",
    "latitude": "29.944373330291782",
    "geocoded_column": {
      "latitude": "29.944373330291782",
      "longitude": "-90.0881224288305"
    }
  },
  {
    "service_request": "2022-852155",
    "request_type": "Roads/Drainage",
    "request_reason": "Man hole cover issue",
    "date_created": "2022-01-05T15:02:37.000",
    "date_modified": "2022-01-05T15:02:37.000",
    "request_status": "Pending",
    "responsible_agency": "Department of Public Works",
    "final_address": "1518 Broadway St",
    "address_councildis": "A",
    "status": "Pending",
    "rowid": "852155",
    "final_x": "3664822.73632",
    "final_y": "527583.085119",
    "longitude": "-90.12086288484325",
    "latitude": "29.945166265161536",
    "geocoded_column": {
      "latitude": "29.945166265161536",
      "longitude": "-90.12086288484325"
    }
  },
  {
    "service_request": "2022-852152",
    "request_type": "Trash/Recycling",
    "request_reason": "Order Trash Cart",
    "date_created": "2022-01-05T14:55:46.000",
    "date_modified": "2022-01-05T14:55:47.000",
    "request_status": "Pending",
    "responsible_agency": "Department of Sanitation",
    "final_address": "7101 Barrington Ct",
    "address_councildis": "E",
    "status": "Assigned to Contractor",
    "contractor": "Metro Disposal",
    "rowid": "852152",
    "final_x": "3714048.26469",
    "final_y": "565261.903074",
    "longitude": "-89.964022517721",
    "latitude": "30.047244513774405",
    "geocoded_column": {
      "latitude": "30.047244513774405",
      "longitude": "-89.964022517721"
    }
  },
  {
    "service_request": "2022-852151",
    "request_type": "Trash/Recycling",
    "request_reason": "Repair Trash Cart",
    "date_created": "2022-01-05T14:54:21.000",
    "date_modified": "2022-01-05T14:54:22.000",
    "request_status": "Pending",
    "responsible_agency": "Department of Sanitation",
    "final_address": "1225 Milan St",
    "address_councildis": "B",
    "status": "Assigned to Contractor",
    "contractor": "Richards Disposal",
    "rowid": "852151",
    "final_x": "3671717.71073",
    "final_y": "520109.166904",
    "longitude": "-90.09934737022807",
    "latitude": "29.924412991295743",
    "geocoded_column": {
      "latitude": "29.924412991295743",
      "longitude": "-90.09934737022807"
    }
  },
  {
    "service_request": "2022-852149",
    "request_type": "Trash/Recycling",
    "request_reason": "Illegal Dumping",
    "date_created": "2022-01-05T14:48:13.000",
    "date_modified": "2022-01-05T14:48:13.000",
    "request_status": "Pending",
    "responsible_agency": "Department of Code Enforcement",
    "final_address": "3415 Dryades St",
    "address_councildis": "B",
    "status": "Pending",
    "rowid": "852149",
    "final_x": "3673596.65467",
    "final_y": "522514.940986",
    "longitude": "-90.09333399669963",
    "latitude": "29.930972321899358",
    "geocoded_column": {
      "latitude": "29.930972321899358",
      "longitude": "-90.09333399669963"
    }
  },
  {
    "service_request": "2022-852148",
    "request_type": "EMS",
    "request_reason": "EMS Lost & Found",
    "date_created": "2022-01-05T14:35:05.000",
    "date_modified": "2022-01-05T14:35:06.000",
    "request_status": "Pending",
    "responsible_agency": "Emergency Medical Services",
    "final_address": "714 St Peter St",
    "address_councildis": "C",
    "status": "Pending",
    "rowid": "852148",
    "final_x": "3682412.47042",
    "final_y": "532496.207428",
    "longitude": "-90.06515495514563",
    "latitude": "29.95815218464423",
    "geocoded_column": {
      "latitude": "29.95815218464423",
      "longitude": "-90.06515495514563"
    }
  },
  {
    "service_request": "2022-852147",
    "request_type": "Trash/Recycling",
    "request_reason": "Request a Large Item Pick Up",
    "date_created": "2022-01-05T14:34:26.000",
    "date_modified": "2022-01-05T14:34:27.000",
    "request_status": "Pending",
    "responsible_agency": "Department of Sanitation",
    "final_address": "5401 Rhodes Ave",
    "address_councildis": "C",
    "status": "Assigned to Contractor",
    "contractor": "Richards Disposal",
    "rowid": "852147",
    "final_x": "3703999.89489",
    "final_y": "519887.571256",
    "longitude": "-89.99745252600799",
    "latitude": "29.922808270763984",
    "geocoded_column": {
      "latitude": "29.922808270763984",
      "longitude": "-89.99745252600799"
    }
  },
  {
    "service_request": "2022-852146",
    "request_type": "Trash/Recycling",
    "request_reason": "Repair Trash Cart",
    "date_created": "2022-01-05T14:29:42.000",
    "date_modified": "2022-01-05T14:29:42.000",
    "request_status": "Pending",
    "responsible_agency": "Department of Sanitation",
    "final_address": "3514 Annunciation St",
    "address_councildis": "B",
    "status": "Assigned to Contractor",
    "contractor": "Richards Disposal",
    "rowid": "852146",
    "final_x": "3674692.67656",
    "final_y": "518277.349814",
    "longitude": "-90.09001915470319",
    "latitude": "29.919287652453313",
    "geocoded_column": {
      "latitude": "29.919287652453313",
      "longitude": "-90.09001915470319"
    }
  },
  {
    "service_request": "2022-852145",
    "request_type": "Roads/Drainage",
    "request_reason": "Catch Basin - Broken/Damage",
    "date_created": "2022-01-05T14:27:33.000",
    "date_modified": "2022-01-05T14:27:33.000",
    "request_status": "Pending",
    "responsible_agency": "Department of Public Works",
    "final_address": "7819 Beach Dr",
    "address_councildis": "E",
    "status": "Pending",
    "rowid": "852145",
    "final_x": "3702287.30724",
    "final_y": "562115.658911",
    "longitude": "-90.00130888947818",
    "latitude": "30.038974785655913",
    "geocoded_column": {
      "latitude": "30.038974785655913",
      "longitude": "-90.00130888947818"
    }
  },
  {
    "service_request": "2022-852144",
    "request_type": "Trash/Recycling",
    "request_reason": "Request a Large Item Pick Up",
    "date_created": "2022-01-05T14:19:35.000",
    "date_modified": "2022-01-05T14:19:36.000",
    "request_status": "Pending",
    "responsible_agency": "Department of Sanitation",
    "final_address": "8428 Birch St",
    "address_councildis": "A",
    "status": "Assigned to Contractor",
    "contractor": "Richards Disposal",
    "rowid": "852144",
    "final_x": "3661894.77811",
    "final_y": "530276.409537",
    "longitude": "-90.13001811071912",
    "latitude": "29.95265690986511",
    "geocoded_column": {
      "latitude": "29.95265690986511",
      "longitude": "-90.13001811071912"
    }
  },
  {
    "service_request": "2022-852143",
    "request_type": "Abandoned Vehicles",
    "request_reason": "Abandoned/Junk Vehicles",
    "date_created": "2022-01-05T14:18:04.000",
    "date_modified": "2022-01-05T14:20:07.000",
    "request_status": "Pending",
    "responsible_agency": "Department of Public Works",
    "final_address": "MARAIS ST & FRANKLIN AVE",
    "address_councildis": "C",
    "status": "Pending",
    "rowid": "852143",
    "final_x": "3687138.8",
    "final_y": "536839.28",
    "longitude": "-90.05007695833918",
    "latitude": "29.96994944707801",
    "geocoded_column": {
      "latitude": "29.96994944707801",
      "longitude": "-90.05007695833918"
    }
  },
  {
    "service_request": "2022-852142",
    "request_type": "Trash/Recycling",
    "request_reason": "Missed Trash Pick-Up",
    "date_created": "2022-01-05T14:13:40.000",
    "date_modified": "2022-01-05T14:13:41.000",
    "request_status": "Pending",
    "responsible_agency": "Department of Sanitation",
    "final_address": "2401 St Andrew St",
    "address_councildis": "B",
    "status": "Assigned to Contractor",
    "contractor": "Richards Disposal",
    "rowid": "852142",
    "final_x": "3676092.8859",
    "final_y": "526738.119038",
    "longitude": "-90.08530851722698",
    "latitude": "29.94251016374888",
    "geocoded_column": {
      "latitude": "29.94251016374888",
      "longitude": "-90.08530851722698"
    }
  },
  {
    "service_request": "2022-852141",
    "request_type": "Abandoned Vehicles",
    "request_reason": "Abandoned/Junk Vehicles",
    "date_created": "2022-01-05T14:13:18.000",
    "date_modified": "2022-01-05T14:13:18.000",
    "request_status": "Pending",
    "responsible_agency": "Department of Public Works",
    "final_address": "3013 Constance St",
    "address_councildis": "B",
    "status": "Pending",
    "rowid": "852141",
    "final_x": "3676422.43157",
    "final_y": "520020.58156",
    "longitude": "-90.08449921676215",
    "latitude": "29.924029255762015",
    "geocoded_column": {
      "latitude": "29.924029255762015",
      "longitude": "-90.08449921676215"
    }
  },
  {
    "service_request": "2022-852140",
    "request_type": "Trash/Recycling",
    "request_reason": "Illegal Dumping",
    "date_created": "2022-01-05T14:07:46.000",
    "date_modified": "2022-01-05T14:07:46.000",
    "request_status": "Pending",
    "responsible_agency": "Department of Sanitation",
    "final_address": "1900 BLK Jo Ann Pl",
    "address_councildis": "C",
    "status": "Pending",
    "rowid": "852140",
    "final_x": "3694987.64936",
    "final_y": "523780.536544",
    "longitude": "-90.02576026519034",
    "latitude": "29.933798429879165",
    "geocoded_column": {
      "latitude": "29.933798429879165",
      "longitude": "-90.02576026519034"
    }
  },
  {
    "service_request": "2022-852139",
    "request_type": "Trash/Recycling",
    "request_reason": "Illegal Dumping",
    "date_created": "2022-01-05T14:07:35.000",
    "date_modified": "2022-01-05T14:07:35.000",
    "request_status": "Pending",
    "responsible_agency": "Department of Sanitation",
    "final_address": "2526 Gallier St",
    "address_councildis": "D",
    "status": "Pending",
    "rowid": "852139",
    "final_x": "3691780.0536",
    "final_y": "541114.36686",
    "longitude": "-90.03526653707604",
    "latitude": "29.98156067582575",
    "geocoded_column": {
      "latitude": "29.98156067582575",
      "longitude": "-90.03526653707604"
    }
  },
  {
    "service_request": "2022-852138",
    "request_type": "Trash/Recycling",
    "request_reason": "Illegal Dumping",
    "date_created": "2022-01-05T14:05:05.000",
    "date_modified": "2022-01-05T14:05:05.000",
    "request_status": "Pending",
    "responsible_agency": "Department of Sanitation",
    "final_address": "2125 Elysian Fields Ave",
    "address_councildis": "D",
    "status": "Pending",
    "rowid": "852138",
    "final_x": "3684846.19426",
    "final_y": "540230.972555",
    "longitude": "-90.05719792498071",
    "latitude": "29.979345816099045",
    "geocoded_column": {
      "latitude": "29.979345816099045",
      "longitude": "-90.05719792498071"
    }
  },
  {
    "service_request": "2022-852137",
    "request_type": "Trash/Recycling",
    "request_reason": "Missed Trash Pick-Up",
    "date_created": "2022-01-05T13:50:17.000",
    "date_modified": "2022-01-05T13:50:18.000",
    "request_status": "Pending",
    "responsible_agency": "Department of Sanitation",
    "final_address": "1819 Broadway St",
    "address_councildis": "A",
    "status": "Assigned to Contractor",
    "contractor": "Richards Disposal",
    "rowid": "852137",
    "final_x": "3665503.68621",
    "final_y": "528373.267264",
    "longitude": "-90.11868645739101",
    "latitude": "29.947319181036768",
    "geocoded_column": {
      "latitude": "29.947319181036768",
      "longitude": "-90.11868645739101"
    }
  },
  {
    "service_request": "2022-852136",
    "request_type": "Trash/Recycling",
    "request_reason": "Order Recycling Cart",
    "date_created": "2022-01-05T13:49:10.000",
    "date_modified": "2022-01-05T13:49:11.000",
    "request_status": "Pending",
    "responsible_agency": "Department of Sanitation",
    "final_address": "1819 Broadway St",
    "address_councildis": "A",
    "status": "Pending",
    "rowid": "852136",
    "final_x": "3665503.68621",
    "final_y": "528373.267264",
    "longitude": "-90.11868645739101",
    "latitude": "29.947319181036768",
    "geocoded_column": {
      "latitude": "29.947319181036768",
      "longitude": "-90.11868645739101"
    }
  },
  {
    "service_request": "2022-852135",
    "request_type": "Abandoned Vehicles",
    "request_reason": "Abandoned/Junk Vehicles",
    "date_created": "2022-01-05T13:48:56.000",
    "date_modified": "2022-01-05T13:48:56.000",
    "request_status": "Pending",
    "responsible_agency": "Department of Public Works",
    "final_address": "5243 Canal Blvd",
    "address_councildis": "A",
    "status": "Pending",
    "rowid": "852135",
    "final_x": "3668151.57082",
    "final_y": "542313.111181",
    "longitude": "-90.10985609313417",
    "latitude": "29.985571672776864",
    "geocoded_column": {
      "latitude": "29.985571672776864",
      "longitude": "-90.10985609313417"
    }
  },
  {
    "service_request": "2022-852134",
    "request_type": "Trash/Recycling",
    "request_reason": "Request a Large Item Pick Up",
    "date_created": "2022-01-05T13:48:09.000",
    "date_modified": "2022-01-05T13:48:10.000",
    "request_status": "Pending",
    "responsible_agency": "Department of Sanitation",
    "final_address": "1526 Maura Pl",
    "address_councildis": "C",
    "status": "Assigned to Contractor",
    "contractor": "Richards Disposal",
    "rowid": "852134",
    "final_x": "3699313.84944",
    "final_y": "525512.845437",
    "longitude": "-90.01203967579347",
    "latitude": "29.938425222857703",
    "geocoded_column": {
      "latitude": "29.938425222857703",
      "longitude": "-90.01203967579347"
    }
  },
  {
    "service_request": "2022-852132",
    "request_type": "Abandoned Vehicles",
    "request_reason": "Vehicle Blocking Your Driveway",
    "date_created": "2022-01-05T13:46:09.000",
    "date_modified": "2022-01-05T13:46:09.000",
    "request_status": "Pending",
    "responsible_agency": "Department of Public Works",
    "final_address": "8930 Dinkins St",
    "address_councildis": "E",
    "status": "Pending",
    "rowid": "852132",
    "final_x": "3704925.58987",
    "final_y": "563475.300384",
    "longitude": "-89.9929209707852",
    "latitude": "30.042628668662182",
    "geocoded_column": {
      "latitude": "30.042628668662182",
      "longitude": "-89.9929209707852"
    }
  },
  {
    "service_request": "2022-852131",
    "request_type": "Trash/Recycling",
    "request_reason": "Replace Recycling Cart",
    "date_created": "2022-01-05T13:42:05.000",
    "date_modified": "2022-01-05T13:42:05.000",
    "request_status": "Pending",
    "responsible_agency": "Department of Sanitation",
    "final_address": "New Orleans,LA",
    "status": "Pending",
    "rowid": "852131",
    "longitude": "0.0",
    "latitude": "0.0",
    "geocoded_column": {
      "latitude": "0.0",
      "longitude": "0.0"
    }
  },
  {
    "service_request": "2022-852130",
    "request_type": "Trash/Recycling",
    "request_reason": "Illegal Dumping",
    "date_created": "2022-01-05T13:39:49.000",
    "date_modified": "2022-01-05T13:40:38.000",
    "case_close_date": "2022-01-05T07:40:38.000",
    "request_status": "Closed",
    "responsible_agency": "Department of Sanitation",
    "final_address": "BENEFIT ST & FRENCHMEN ST",
    "address_councildis": "D",
    "status": "Resolved",
    "rowid": "852130",
    "final_x": "3683940.2",
    "final_y": "544373.88",
    "longitude": "-90.05991399012376",
    "latitude": "29.990765063124663",
    "geocoded_column": {
      "latitude": "29.990765063124663",
      "longitude": "-90.05991399012376"
    }
  },
  {
    "service_request": "2022-852129",
    "request_type": "Property Maintenance",
    "request_reason": "Property Maintenance",
    "date_created": "2022-01-05T13:39:29.000",
    "date_modified": "2022-01-05T13:42:51.000",
    "request_status": "Pending",
    "responsible_agency": "Department of Code Enforcement",
    "final_address": "4522 Rhodes Dr",
    "address_councildis": "E",
    "status": "Pending",
    "rowid": "852129",
    "final_x": "3702561.12356",
    "final_y": "553345.505495",
    "longitude": "-90.00076588597965",
    "latitude": "30.014851500329353",
    "geocoded_column": {
      "latitude": "30.014851500329353",
      "longitude": "-90.00076588597965"
    }
  },
  {
    "service_request": "2022-852128",
    "request_type": "Abandoned Vehicles",
    "request_reason": "Abandoned/Junk Vehicles",
    "date_created": "2022-01-05T13:33:07.000",
    "date_modified": "2022-01-05T13:33:07.000",
    "request_status": "Pending",
    "responsible_agency": "Department of Public Works",
    "final_address": "2343 Martin Luther King, Jr. Blvd",
    "address_councildis": "B",
    "status": "Pending",
    "rowid": "852128",
    "final_x": "3676769.52142",
    "final_y": "527167.253759",
    "longitude": "-90.0831574398577",
    "latitude": "29.943669860658034",
    "geocoded_column": {
      "latitude": "29.943669860658034",
      "longitude": "-90.0831574398577"
    }
  },
  {
    "service_request": "2022-852127",
    "request_type": "Property Maintenance",
    "request_reason": "Property Maintenance",
    "date_created": "2022-01-05T13:28:23.000",
    "date_modified": "2022-01-05T13:28:24.000",
    "request_status": "Pending",
    "responsible_agency": "Department of Code Enforcement",
    "final_address": "2181 Law St",
    "address_councildis": "D",
    "status": "Pending",
    "rowid": "852127",
    "final_x": "3684296.20482",
    "final_y": "541839.461772",
    "longitude": "-90.05887850131678",
    "latitude": "29.983785426685873",
    "geocoded_column": {
      "latitude": "29.983785426685873",
      "longitude": "-90.05887850131678"
    }
  },
  {
    "service_request": "2022-852126",
    "request_type": "Roads/Drainage",
    "request_reason": "Catch Basin - Broken/Damage",
    "date_created": "2022-01-05T13:26:27.000",
    "date_modified": "2022-01-05T13:26:27.000",
    "request_status": "Pending",
    "responsible_agency": "Department of Public Works",
    "final_address": "5523 Franklin Ave",
    "address_councildis": "D",
    "status": "Pending",
    "rowid": "852126",
    "final_x": "3686645.63484",
    "final_y": "553478.052375",
    "longitude": "-90.05104637738657",
    "latitude": "30.015715285298775",
    "geocoded_column": {
      "latitude": "30.015715285298775",
      "longitude": "-90.05104637738657"
    }
  },
  {
    "service_request": "2022-852123",
    "request_type": "Trash/Recycling",
    "request_reason": "Repair Trash Cart",
    "date_created": "2022-01-05T13:21:18.000",
    "date_modified": "2022-01-05T13:21:20.000",
    "request_status": "Pending",
    "responsible_agency": "Department of Sanitation",
    "final_address": "306 Audubon Blvd",
    "address_councildis": "A",
    "status": "Assigned to Contractor",
    "contractor": "Richards Disposal",
    "rowid": "852123",
    "final_x": "3666995.23917",
    "final_y": "529801.187777",
    "longitude": "-90.11392905955792",
    "latitude": "29.95120193885334",
    "geocoded_column": {
      "latitude": "29.95120193885334",
      "longitude": "-90.11392905955792"
    }
  },
  {
    "service_request": "2022-852122",
    "request_type": "Traffic Signals/Signs/Striping/Streetlights",
    "request_reason": "Additional signage",
    "date_created": "2022-01-05T13:18:42.000",
    "date_modified": "2022-01-05T13:18:42.000",
    "request_status": "Pending",
    "responsible_agency": "Department of Public Works",
    "final_address": "1206 Touro St",
    "address_councildis": "C",
    "status": "Pending",
    "rowid": "852122",
    "final_x": "3684168.95804",
    "final_y": "536683.043271",
    "longitude": "-90.05946147947584",
    "latitude": "29.96961096968141",
    "geocoded_column": {
      "latitude": "29.96961096968141",
      "longitude": "-90.05946147947584"
    }
  },
  {
    "service_request": "2022-852121",
    "request_type": "Trash/Recycling",
    "request_reason": "Missed Trash Pick-Up",
    "date_created": "2022-01-05T13:18:28.000",
    "date_modified": "2022-01-05T13:18:30.000",
    "request_status": "Pending",
    "responsible_agency": "Department of Sanitation",
    "final_address": "5237 Coliseum St",
    "address_councildis": "B",
    "status": "Assigned to Contractor",
    "contractor": "Richards Disposal",
    "rowid": "852121",
    "final_x": "3667787.82945",
    "final_y": "519715.67596",
    "longitude": "-90.1117659406959",
    "latitude": "29.923446802296365",
    "geocoded_column": {
      "latitude": "29.923446802296365",
      "longitude": "-90.1117659406959"
    }
  },
  {
    "service_request": "2022-852120",
    "request_type": "Roads/Drainage",
    "request_reason": "Man hole cover issue",
    "date_created": "2022-01-05T13:13:05.000",
    "date_modified": "2022-01-05T13:13:05.000",
    "request_status": "Pending",
    "responsible_agency": "Department of Public Works",
    "final_address": "8423 Willow St",
    "address_councildis": "A",
    "status": "Pending",
    "rowid": "852120",
    "final_x": "3661533.00269",
    "final_y": "529772.591681",
    "longitude": "-90.13117713089119",
    "latitude": "29.95128201434612",
    "geocoded_column": {
      "latitude": "29.95128201434612",
      "longitude": "-90.13117713089119"
    }
  },
  {
    "service_request": "2022-852119",
    "request_type": "Trash/Recycling",
    "request_reason": "Dead Animal Pick Up",
    "date_created": "2022-01-05T13:10:36.000",
    "date_modified": "2022-01-05T13:10:37.000",
    "request_status": "Pending",
    "responsible_agency": "Department of Sanitation",
    "final_address": "1217 St Mary St",
    "address_councildis": "B",
    "status": "Assigned to Contractor",
    "contractor": "Richards Disposal",
    "rowid": "852119",
    "final_x": "3679407.8349",
    "final_y": "523265.183419",
    "longitude": "-90.07496288117927",
    "latitude": "29.932861044042042",
    "geocoded_column": {
      "latitude": "29.932861044042042",
      "longitude": "-90.07496288117927"
    }
  },
  {
    "service_request": "2022-852118",
    "request_type": "Roads/Drainage",
    "request_reason": "Damaged Sidewalk",
    "date_created": "2022-01-05T13:10:27.000",
    "date_modified": "2022-01-05T14:33:12.000",
    "request_status": "Pending",
    "responsible_agency": "Department of Public Works",
    "final_address": "10927 Curran Rd",
    "address_councildis": "E",
    "status": "Inspected",
    "rowid": "852118",
    "final_x": "3710209.17112",
    "final_y": "566003.624419",
    "longitude": "-89.97612826302473",
    "latitude": "30.049409536917302",
    "geocoded_column": {
      "latitude": "30.049409536917302",
      "longitude": "-89.97612826302473"
    }
  },
  {
    "service_request": "2022-852116",
    "request_type": "Roads/Drainage",
    "request_reason": "Street Subsidence (Sinking)",
    "date_created": "2022-01-05T13:08:33.000",
    "date_modified": "2022-01-05T13:08:33.000",
    "request_status": "Pending",
    "responsible_agency": "Department of Public Works",
    "final_address": "1328 St Denis St",
    "address_councildis": "D",
    "status": "Pending",
    "rowid": "852116",
    "final_x": "3677689.32258",
    "final_y": "545678.122832",
    "longitude": "-90.07961392079702",
    "latitude": "29.99454080664516",
    "geocoded_column": {
      "latitude": "29.99454080664516",
      "longitude": "-90.07961392079702"
    }
  },
  {
    "service_request": "2022-852115",
    "request_type": "Abandoned Vehicles",
    "request_reason": "Abandoned/Junk Vehicles",
    "date_created": "2022-01-05T13:07:43.000",
    "date_modified": "2022-01-05T13:07:43.000",
    "request_status": "Pending",
    "responsible_agency": "Department of Public Works",
    "final_address": "1939 Canal St",
    "address_councildis": "B",
    "status": "Pending",
    "rowid": "852115",
    "final_x": "3677660.00949",
    "final_y": "533484.557316",
    "longitude": "-90.08012778820033",
    "latitude": "29.961013586088104",
    "geocoded_column": {
      "latitude": "29.961013586088104",
      "longitude": "-90.08012778820033"
    }
  },
  {
    "service_request": "2022-852114",
    "request_type": "Roads/Drainage",
    "request_reason": "Street Subsidence (Sinking)",
    "date_created": "2022-01-05T13:07:15.000",
    "date_modified": "2022-01-05T13:07:15.000",
    "request_status": "Pending",
    "responsible_agency": "Department of Public Works",
    "final_address": "1328 St Denis St",
    "address_councildis": "D",
    "status": "Pending",
    "rowid": "852114",
    "final_x": "3677689.32258",
    "final_y": "545678.122832",
    "longitude": "-90.07961392079702",
    "latitude": "29.99454080664516",
    "geocoded_column": {
      "latitude": "29.99454080664516",
      "longitude": "-90.07961392079702"
    }
  },
  {
    "service_request": "2022-852113",
    "request_type": "Property Maintenance",
    "request_reason": "Property Maintenance",
    "date_created": "2022-01-05T13:07:00.000",
    "date_modified": "2022-01-05T13:09:59.000",
    "request_status": "Pending",
    "responsible_agency": "Department of Code Enforcement",
    "final_address": "2115 Mandeville St",
    "address_councildis": "D",
    "status": "Pending",
    "rowid": "852113",
    "final_x": "3685509.58953",
    "final_y": "540178.805003",
    "longitude": "-90.05510450291077",
    "latitude": "29.979182041732034",
    "geocoded_column": {
      "latitude": "29.979182041732034",
      "longitude": "-90.05510450291077"
    }
  },
  {
    "service_request": "2022-852112",
    "request_type": "Trash/Recycling",
    "request_reason": "Replace Trash Cart",
    "date_created": "2022-01-05T13:02:45.000",
    "date_modified": "2022-01-05T13:02:45.000",
    "request_status": "Pending",
    "responsible_agency": "Department of Sanitation",
    "final_address": "10220 Deerfield Dr",
    "address_councildis": "E",
    "status": "Assigned to Contractor",
    "contractor": "Metro Disposal",
    "rowid": "852112",
    "final_x": "3709990.47512",
    "final_y": "563389.776288",
    "longitude": "-89.97691726561213",
    "latitude": "30.042229625686183",
    "geocoded_column": {
      "latitude": "30.042229625686183",
      "longitude": "-89.97691726561213"
    }
  },
  {
    "service_request": "2022-852111",
    "request_type": "COVID-19",
    "request_reason": "COVID-19 Business Non-Compliance",
    "date_created": "2022-01-05T13:01:25.000",
    "date_modified": "2022-01-05T13:01:26.000",
    "request_status": "Pending",
    "responsible_agency": "Safety and Permits",
    "final_address": "615 Bourbon St",
    "address_councildis": "C",
    "status": "Pending",
    "rowid": "852111",
    "final_x": "3682080.33365",
    "final_y": "532494.975044",
    "longitude": "-90.06620379350046",
    "latitude": "29.958158899527238",
    "geocoded_column": {
      "latitude": "29.958158899527238",
      "longitude": "-90.06620379350046"
    }
  },
  {
    "service_request": "2022-852110",
    "request_type": "Traffic Signals/Signs/Striping/Streetlights",
    "request_reason": "Street Light Outage/Malfunction",
    "date_created": "2022-01-05T12:59:16.000",
    "date_modified": "2022-01-05T12:59:17.000",
    "request_status": "Pending",
    "responsible_agency": "Department of Public Works",
    "final_address": "AMERICA ST & BRUTUS ST",
    "address_councildis": "E",
    "status": "Pending",
    "contractor": "Royal Engineering",
    "rowid": "852110",
    "final_x": "3700039.7",
    "final_y": "551727.68",
    "longitude": "-90.00879140754739",
    "latitude": "30.010483479121497",
    "geocoded_column": {
      "latitude": "30.010483479121497",
      "longitude": "-90.00879140754739"
    }
  },
  {
    "service_request": "2022-852109",
    "request_type": "Trash/Recycling",
    "request_reason": "Replace Trash Cart",
    "date_created": "2022-01-05T12:54:23.000",
    "date_modified": "2022-01-05T12:54:24.000",
    "request_status": "Pending",
    "responsible_agency": "Department of Sanitation",
    "final_address": "2902 Louisiana Ave",
    "address_councildis": "B",
    "status": "Assigned to Contractor",
    "contractor": "Richards Disposal",
    "rowid": "852109",
    "final_x": "3672261.84814",
    "final_y": "525759.161341",
    "longitude": "-90.09743734340746",
    "latitude": "29.939932528312326",
    "geocoded_column": {
      "latitude": "29.939932528312326",
      "longitude": "-90.09743734340746"
    }
  },
  {
    "service_request": "2022-852108",
    "request_type": "Traffic Signals/Signs/Striping/Streetlights",
    "request_reason": "Street Light Knocked Down/Leaning",
    "date_created": "2022-01-05T12:49:12.000",
    "date_modified": "2022-01-05T12:49:13.000",
    "request_status": "Pending",
    "responsible_agency": "Department of Public Works",
    "final_address": "4776 Charlene Dr",
    "address_councildis": "E",
    "status": "Pending",
    "contractor": "Royal Engineering",
    "rowid": "852108",
    "final_x": "3707817.80312",
    "final_y": "555795.969305",
    "longitude": "-89.984066287812",
    "latitude": "30.021420185255586",
    "geocoded_column": {
      "latitude": "30.021420185255586",
      "longitude": "-89.984066287812"
    }
  },
  {
    "service_request": "2022-852107",
    "request_type": "Abandoned Vehicles",
    "request_reason": "Vehicle Blocking Your Driveway",
    "date_created": "2022-01-05T12:48:07.000",
    "date_modified": "2022-01-05T12:48:07.000",
    "request_status": "Pending",
    "responsible_agency": "Department of Public Works",
    "final_address": "vacant lot 5243 Canal Blvd",
    "status": "Pending",
    "rowid": "852107",
    "longitude": "0.0",
    "latitude": "0.0",
    "geocoded_column": {
      "latitude": "0.0",
      "longitude": "0.0"
    }
  },
  {
    "service_request": "2022-852106",
    "request_type": "Traffic Signals/Signs/Striping/Streetlights",
    "request_reason": "Request for Traffic Calming due to Speeding",
    "date_created": "2022-01-05T12:47:21.000",
    "date_modified": "2022-01-05T12:47:21.000",
    "request_status": "Pending",
    "responsible_agency": "Department of Public Works",
    "final_address": "14223 Dwyer Blvd",
    "address_councildis": "E",
    "status": "Pending",
    "rowid": "852106",
    "final_x": "3729201.83962",
    "final_y": "563256.69456",
    "longitude": "-89.91620810197671",
    "latitude": "30.04122439662075",
    "geocoded_column": {
      "latitude": "30.04122439662075",
      "longitude": "-89.91620810197671"
    }
  },
  {
    "service_request": "2022-852105",
    "request_type": "Trash/Recycling",
    "request_reason": "Start Trash Service",
    "date_created": "2022-01-05T12:45:13.000",
    "date_modified": "2022-01-05T12:45:14.000",
    "request_status": "Pending",
    "responsible_agency": "Department of Sanitation",
    "final_address": "2109 General Pershing St",
    "address_councildis": "B",
    "status": "Assigned to Contractor",
    "contractor": "Richards Disposal",
    "rowid": "852105",
    "final_x": "3671145.50971",
    "final_y": "522793.695291",
    "longitude": "-90.1010624833354",
    "latitude": "29.931811515957833",
    "geocoded_column": {
      "latitude": "29.931811515957833",
      "longitude": "-90.1010624833354"
    }
  },
  {
    "service_request": "2022-852104",
    "request_type": "Trash/Recycling",
    "request_reason": "Request a Large Item Pick Up",
    "date_created": "2022-01-05T12:43:06.000",
    "date_modified": "2022-01-05T12:43:06.000",
    "request_status": "Pending",
    "responsible_agency": "Department of Sanitation",
    "final_address": "1126 St Andrew St B",
    "address_councildis": "B",
    "status": "Assigned to Contractor",
    "contractor": "Richards Disposal",
    "rowid": "852104",
    "final_x": "3679306.96968",
    "final_y": "522726.434042",
    "longitude": "-90.07529997819722",
    "latitude": "29.931382705698766",
    "geocoded_column": {
      "latitude": "29.931382705698766",
      "longitude": "-90.07529997819722"
    }
  },
  {
    "service_request": "2022-852103",
    "request_type": "Roads/Drainage",
    "request_reason": "Bicycle Hazardous Incident Reporting",
    "date_created": "2022-01-05T12:40:35.000",
    "date_modified": "2022-01-05T12:40:35.000",
    "request_status": "Pending",
    "responsible_agency": "Health Department",
    "final_address": "7849 Read Blvd Apt 11",
    "address_councildis": "E",
    "status": "Pending",
    "rowid": "852103",
    "final_x": "3708416.49547",
    "final_y": "565259.392226",
    "longitude": "-89.9818219115805",
    "latitude": "30.047421459586367",
    "geocoded_column": {
      "latitude": "30.047421459586367",
      "longitude": "-89.9818219115805"
    }
  },
  {
    "service_request": "2022-852102",
    "request_type": "Traffic Signals/Signs/Striping/Streetlights",
    "request_reason": "Traffic Sign Missing/Damaged",
    "date_created": "2022-01-05T12:39:54.000",
    "date_modified": "2022-01-05T12:39:55.000",
    "request_status": "Pending",
    "responsible_agency": "Department of Public Works",
    "final_address": "BROADWAY ST & FONTAINEBLEAU DR",
    "address_councildis": "B",
    "status": "Pending",
    "rowid": "852102",
    "final_x": "3667034.1",
    "final_y": "530721.58",
    "longitude": "-90.11377542476507",
    "latitude": "29.95373158018068",
    "geocoded_column": {
      "latitude": "29.95373158018068",
      "longitude": "-90.11377542476507"
    }
  },
  {
    "service_request": "2022-852101",
    "request_type": "Abandoned Vehicles",
    "request_reason": "Abandoned/Junk Vehicles",
    "date_created": "2022-01-05T12:39:16.000",
    "date_modified": "2022-01-05T12:40:49.000",
    "request_status": "Pending",
    "responsible_agency": "Department of Public Works",
    "final_address": "7901 Oak St",
    "address_councildis": "A",
    "status": "Pending",
    "rowid": "852101",
    "final_x": "3662530.88947",
    "final_y": "527916.704191",
    "longitude": "-90.12808791915138",
    "latitude": "29.946150094633193",
    "geocoded_column": {
      "latitude": "29.946150094633193",
      "longitude": "-90.12808791915138"
    }
  },
  {
    "service_request": "2022-852100",
    "request_type": "Trash/Recycling",
    "request_reason": "Request a Large Item Pick Up",
    "date_created": "2022-01-05T12:36:31.000",
    "date_modified": "2022-01-05T12:36:32.000",
    "request_status": "Pending",
    "responsible_agency": "Department of Sanitation",
    "final_address": "3938 Piedmont Dr",
    "address_councildis": "D",
    "status": "Assigned to Contractor",
    "contractor": "Metro Disposal",
    "rowid": "852100",
    "final_x": "3685296.72405",
    "final_y": "547149.121873",
    "longitude": "-90.05553131043452",
    "latitude": "29.998354462722652",
    "geocoded_column": {
      "latitude": "29.998354462722652",
      "longitude": "-90.05553131043452"
    }
  },
  {
    "service_request": "2022-852099",
    "request_type": "Trash/Recycling",
    "request_reason": "Replace Trash Cart",
    "date_created": "2022-01-05T12:34:19.000",
    "date_modified": "2022-01-05T12:34:20.000",
    "request_status": "Pending",
    "responsible_agency": "Department of Sanitation",
    "final_address": "4123 Dryades St",
    "address_councildis": "B",
    "status": "Assigned to Contractor",
    "contractor": "Richards Disposal",
    "rowid": "852099",
    "final_x": "3671638.1346",
    "final_y": "522077.67385",
    "longitude": "-90.0995316561235",
    "latitude": "29.929828110853617",
    "geocoded_column": {
      "latitude": "29.929828110853617",
      "longitude": "-90.0995316561235"
    }
  },
  {
    "service_request": "2022-852098",
    "request_type": "Property Maintenance",
    "request_reason": "Property Maintenance",
    "date_created": "2022-01-05T12:33:42.000",
    "date_modified": "2022-01-05T12:33:42.000",
    "request_status": "Pending",
    "responsible_agency": "Department of Code Enforcement",
    "final_address": "1400 S Gayoso St",
    "address_councildis": "B",
    "status": "Pending",
    "rowid": "852098",
    "final_x": "3670957.35284",
    "final_y": "531004.232642",
    "longitude": "-90.10137779767413",
    "latitude": "29.954393382015365",
    "geocoded_column": {
      "latitude": "29.954393382015365",
      "longitude": "-90.10137779767413"
    }
  },
  {
    "service_request": "2022-852097",
    "request_type": "Traffic Signals/Signs/Striping/Streetlights",
    "request_reason": "Traffic Signal Malfunctioning/Damaged",
    "date_created": "2022-01-05T12:29:47.000",
    "date_modified": "2022-01-05T12:29:47.000",
    "request_status": "Pending",
    "responsible_agency": "Department of Public Works",
    "final_address": "833 Poydras St",
    "address_councildis": "B",
    "status": "Pending",
    "rowid": "852097",
    "final_x": "3680011.55458",
    "final_y": "529610.537345",
    "longitude": "-90.07283662222024",
    "latitude": "29.950290412537097",
    "geocoded_column": {
      "latitude": "29.950290412537097",
      "longitude": "-90.07283662222024"
    }
  },
  {
    "service_request": "2022-852096",
    "request_type": "Trash/Recycling",
    "request_reason": "Replace Trash Cart",
    "date_created": "2022-01-05T12:28:01.000",
    "date_modified": "2022-01-05T12:28:02.000",
    "request_status": "Pending",
    "responsible_agency": "Department of Sanitation",
    "final_address": "5532 Stillwater Dr",
    "address_councildis": "E",
    "status": "Assigned to Contractor",
    "contractor": "Metro Disposal",
    "rowid": "852096",
    "final_x": "3716443.43788",
    "final_y": "560795.54755",
    "longitude": "-89.9566221554167",
    "latitude": "30.034884927559553",
    "geocoded_column": {
      "latitude": "30.034884927559553",
      "longitude": "-89.9566221554167"
    }
  },
  {
    "service_request": "2022-852095",
    "request_type": "Trash/Recycling",
    "request_reason": "Order Trash Cart",
    "date_created": "2022-01-05T12:24:00.000",
    "date_modified": "2022-01-05T12:24:01.000",
    "request_status": "Pending",
    "responsible_agency": "Department of Sanitation",
    "final_address": "9018 Edinburgh St",
    "address_councildis": "A",
    "status": "Assigned to Contractor",
    "contractor": "Richards Disposal",
    "rowid": "852095",
    "final_x": "3664990.38138",
    "final_y": "536655.652871",
    "longitude": "-90.12003025986856",
    "latitude": "29.970107986445214",
    "geocoded_column": {
      "latitude": "29.970107986445214",
      "longitude": "-90.12003025986856"
    }
  },
  {
    "service_request": "2022-852094",
    "request_type": "Trash/Recycling",
    "request_reason": "Order Trash Cart",
    "date_created": "2022-01-05T12:20:50.000",
    "date_modified": "2022-01-05T12:20:51.000",
    "request_status": "Pending",
    "responsible_agency": "Department of Sanitation",
    "final_address": "1227 Annunciation St",
    "address_councildis": "B",
    "status": "Assigned to Contractor",
    "contractor": "Richards Disposal",
    "rowid": "852094",
    "final_x": "3681322.59196",
    "final_y": "525195.938621",
    "longitude": "-90.06885087924651",
    "latitude": "29.93811202198791",
    "geocoded_column": {
      "latitude": "29.93811202198791",
      "longitude": "-90.06885087924651"
    }
  },
  {
    "service_request": "2022-852093",
    "request_type": "Abandoned Vehicles",
    "request_reason": "Abandoned/Junk Vehicles",
    "date_created": "2022-01-05T12:18:40.000",
    "date_modified": "2022-01-05T12:18:40.000",
    "request_status": "Pending",
    "responsible_agency": "Department of Public Works",
    "final_address": "3738 Meadow Park Ln",
    "address_councildis": "C",
    "status": "Pending",
    "rowid": "852093",
    "final_x": "3703754.04113",
    "final_y": "510676.389679",
    "longitude": "-89.99856728385747",
    "latitude": "29.897488548068463",
    "geocoded_column": {
      "latitude": "29.897488548068463",
      "longitude": "-89.99856728385747"
    }
  },
  {
    "service_request": "2022-852092",
    "request_type": "Abandoned Vehicles",
    "request_reason": "Abandoned/Junk Vehicles",
    "date_created": "2022-01-05T12:14:10.000",
    "date_modified": "2022-01-05T12:14:10.000",
    "request_status": "Pending",
    "responsible_agency": "Department of Public Works",
    "final_address": "3738 Meadow Park Ln",
    "address_councildis": "C",
    "status": "Pending",
    "rowid": "852092",
    "final_x": "3703754.04113",
    "final_y": "510676.389679",
    "longitude": "-89.99856728385747",
    "latitude": "29.897488548068463",
    "geocoded_column": {
      "latitude": "29.897488548068463",
      "longitude": "-89.99856728385747"
    }
  },
  {
    "service_request": "2022-852091",
    "request_type": "Trash/Recycling",
    "request_reason": "Request a Large Item Pick Up",
    "date_created": "2022-01-05T12:12:48.000",
    "date_modified": "2022-01-05T12:12:49.000",
    "request_status": "Pending",
    "responsible_agency": "Department of Sanitation",
    "final_address": "2518 N Rampart St",
    "address_councildis": "C",
    "status": "Assigned to Contractor",
    "contractor": "Metro Disposal",
    "rowid": "852091",
    "final_x": "3686698.81244",
    "final_y": "536042.087815",
    "longitude": "-90.05149464288847",
    "latitude": "29.967770988203572",
    "geocoded_column": {
      "latitude": "29.967770988203572",
      "longitude": "-90.05149464288847"
    }
  },
  {
    "service_request": "2022-852090",
    "request_type": "Property Maintenance",
    "request_reason": "Property Maintenance",
    "date_created": "2022-01-05T12:10:32.000",
    "date_modified": "2022-01-05T12:10:32.000",
    "request_status": "Pending",
    "responsible_agency": "Department of Code Enforcement",
    "final_address": "5163 Forest Park Ln",
    "address_councildis": "C",
    "status": "Pending",
    "rowid": "852090",
    "final_x": "3703388.74903",
    "final_y": "510653.881135",
    "longitude": "-89.99972089274463",
    "latitude": "29.897438352565104",
    "geocoded_column": {
      "latitude": "29.897438352565104",
      "longitude": "-89.99972089274463"
    }
  },
  {
    "service_request": "2022-852089",
    "request_type": "Trash/Recycling",
    "request_reason": "Replace Trash Cart",
    "date_created": "2022-01-05T12:04:07.000",
    "date_modified": "2022-01-05T12:04:07.000",
    "request_status": "Pending",
    "responsible_agency": "Department of Sanitation",
    "final_address": "1705 Rousselin Dr",
    "address_councildis": "D",
    "status": "Assigned to Contractor",
    "contractor": "Metro Disposal",
    "rowid": "852089",
    "final_x": "3679770.18901",
    "final_y": "540650.012043",
    "longitude": "-90.07321539561194",
    "latitude": "29.980652496213974",
    "geocoded_column": {
      "latitude": "29.980652496213974",
      "longitude": "-90.07321539561194"
    }
  },
  {
    "service_request": "2022-852088",
    "request_type": "Abandoned Vehicles",
    "request_reason": "Abandoned/Junk Vehicles",
    "date_created": "2022-01-05T12:02:24.000",
    "date_modified": "2022-01-05T12:02:25.000",
    "request_status": "Pending",
    "responsible_agency": "Department of Public Works",
    "final_address": "2629 Aubry St",
    "address_councildis": "D",
    "status": "Pending",
    "rowid": "852088",
    "final_x": "3679569.93973",
    "final_y": "541230.658508",
    "longitude": "-90.07382771151954",
    "latitude": "29.982255125883736",
    "geocoded_column": {
      "latitude": "29.982255125883736",
      "longitude": "-90.07382771151954"
    }
  },
  {
    "service_request": "2022-852087",
    "request_type": "Trash/Recycling",
    "request_reason": "Repair Trash Cart",
    "date_created": "2022-01-05T11:59:21.000",
    "date_modified": "2022-01-05T11:59:54.000",
    "request_status": "Pending",
    "responsible_agency": "Department of Sanitation",
    "final_address": "409 S Cortez St",
    "address_councildis": "B",
    "status": "Assigned to Contractor",
    "contractor": "Richards Disposal",
    "rowid": "852087",
    "final_x": "3671237.48052",
    "final_y": "536555.424967",
    "longitude": "-90.10030464053091",
    "latitude": "29.96964902722082",
    "geocoded_column": {
      "latitude": "29.96964902722082",
      "longitude": "-90.10030464053091"
    }
  },
  {
    "service_request": "2022-852085",
    "request_type": "Trash/Recycling",
    "request_reason": "Request a Large Item Pick Up",
    "date_created": "2022-01-05T11:58:15.000",
    "date_modified": "2022-01-05T11:58:16.000",
    "request_status": "Pending",
    "responsible_agency": "Department of Sanitation",
    "final_address": "4414 Paris Ave",
    "address_councildis": "D",
    "status": "Assigned to Contractor",
    "contractor": "Metro Disposal",
    "rowid": "852085",
    "final_x": "3679304.54402",
    "final_y": "548732.481939",
    "longitude": "-90.07440563133254",
    "latitude": "30.00289051796732",
    "geocoded_column": {
      "latitude": "30.00289051796732",
      "longitude": "-90.07440563133254"
    }
  },
  {
    "service_request": "2022-852084",
    "request_type": "Roads/Drainage",
    "request_reason": "Street Subsidence (Sinking)",
    "date_created": "2022-01-05T11:56:33.000",
    "date_modified": "2022-01-05T11:56:33.000",
    "request_status": "Pending",
    "responsible_agency": "Department of Public Works",
    "final_address": "7701 Arcadia Ln",
    "address_councildis": "E",
    "status": "Pending",
    "rowid": "852084",
    "final_x": "3712248.3157",
    "final_y": "567332.407652",
    "longitude": "-89.96963339825541",
    "latitude": "30.052996581988573",
    "geocoded_column": {
      "latitude": "30.052996581988573",
      "longitude": "-89.96963339825541"
    }
  },
  {
    "service_request": "2022-852083",
    "request_type": "Abandoned Vehicles",
    "request_reason": "Abandoned/Junk Vehicles",
    "date_created": "2022-01-05T11:52:44.000",
    "date_modified": "2022-01-05T11:52:44.000",
    "request_status": "Pending",
    "responsible_agency": "Department of Public Works",
    "final_address": "2306 Dante St",
    "address_councildis": "A",
    "status": "Pending",
    "rowid": "852083",
    "final_x": "3664051.90266",
    "final_y": "531802.261571",
    "longitude": "-90.12315596649945",
    "latitude": "29.956790042622917",
    "geocoded_column": {
      "latitude": "29.956790042622917",
      "longitude": "-90.12315596649945"
    }
  },
  {
    "service_request": "2022-852081",
    "request_type": "Abandoned Vehicles",
    "request_reason": "Abandoned/Junk Vehicles",
    "date_created": "2022-01-05T11:50:18.000",
    "date_modified": "2022-01-05T11:50:18.000",
    "request_status": "Pending",
    "responsible_agency": "Department of Public Works",
    "final_address": "3133 General Meyer Ave",
    "address_councildis": "C",
    "status": "Pending",
    "rowid": "852081",
    "final_x": "3695713.54173",
    "final_y": "526273.20275",
    "longitude": "-90.02337870546731",
    "latitude": "29.94062960685906",
    "geocoded_column": {
      "latitude": "29.94062960685906",
      "longitude": "-90.02337870546731"
    }
  },
  {
    "service_request": "2022-852078",
    "request_type": "Trash/Recycling",
    "request_reason": "Missed Trash Pick-Up",
    "date_created": "2022-01-05T11:43:16.000",
    "date_modified": "2022-01-05T11:43:17.000",
    "request_status": "Pending",
    "responsible_agency": "Department of Sanitation",
    "final_address": "3015 Short St",
    "address_councildis": "B",
    "status": "Assigned to Contractor",
    "contractor": "Richards Disposal",
    "rowid": "852078",
    "final_x": "3666777.04692",
    "final_y": "532878.913348",
    "longitude": "-90.11451463625751",
    "latitude": "29.95967106078768",
    "geocoded_column": {
      "latitude": "29.95967106078768",
      "longitude": "-90.11451463625751"
    }
  },
  {
    "service_request": "2022-852077",
    "request_type": "Trash/Recycling",
    "request_reason": "Request a Large Item Pick Up",
    "date_created": "2022-01-05T11:39:32.000",
    "date_modified": "2022-01-05T11:39:33.000",
    "request_status": "Pending",
    "responsible_agency": "Department of Sanitation",
    "final_address": "4824 Constance St, New Orleans, Louisiana, 70115",
    "address_councildis": "B",
    "status": "Assigned to Contractor",
    "contractor": "Richards Disposal",
    "rowid": "852077",
    "final_x": "3669412.66938",
    "final_y": "518209.222134",
    "longitude": "-90.10668782005432",
    "latitude": "29.919256800556497",
    "geocoded_column": {
      "latitude": "29.919256800556497",
      "longitude": "-90.10668782005432"
    }
  },
  {
    "service_request": "2022-852076",
    "request_type": "Traffic Signals/Signs/Striping/Streetlights",
    "request_reason": "Street Name Sign Damaged or Missing",
    "date_created": "2022-01-05T11:38:21.000",
    "date_modified": "2022-01-05T11:38:21.000",
    "request_status": "Pending",
    "responsible_agency": "Department of Public Works",
    "final_address": "3800 Cambronne St",
    "address_councildis": "A",
    "status": "Pending",
    "rowid": "852076",
    "final_x": "3667391.48263",
    "final_y": "536008.904647",
    "longitude": "-90.11246907202907",
    "latitude": "29.96825951633695",
    "geocoded_column": {
      "latitude": "29.96825951633695",
      "longitude": "-90.11246907202907"
    }
  },
  {
    "service_request": "2022-852074",
    "request_type": "Trash/Recycling",
    "request_reason": "Replace Trash Cart",
    "date_created": "2022-01-05T11:34:45.000",
    "date_modified": "2022-01-05T11:34:46.000",
    "request_status": "Pending",
    "responsible_agency": "Department of Sanitation",
    "final_address": "6111 West End Blvd",
    "address_councildis": "A",
    "status": "Assigned to Contractor",
    "contractor": "Metro Disposal",
    "rowid": "852074",
    "final_x": "3666593.86689",
    "final_y": "548209.31413",
    "longitude": "-90.11457817415211",
    "latitude": "30.001829855335767",
    "geocoded_column": {
      "latitude": "30.001829855335767",
      "longitude": "-90.11457817415211"
    }
  },
  {
    "service_request": "2022-852073",
    "request_type": "Trash/Recycling",
    "request_reason": "Request a Large Item Pick Up",
    "date_created": "2022-01-05T11:32:51.000",
    "date_modified": "2022-01-05T11:32:51.000",
    "request_status": "Pending",
    "responsible_agency": "Department of Sanitation",
    "final_address": "727 Sixth St",
    "address_councildis": "B",
    "status": "Assigned to Contractor",
    "contractor": "Richards Disposal",
    "rowid": "852073",
    "final_x": "3677366.04597",
    "final_y": "519498.437751",
    "longitude": "-90.08153856613426",
    "latitude": "29.922565217088046",
    "geocoded_column": {
      "latitude": "29.922565217088046",
      "longitude": "-90.08153856613426"
    }
  },
  {
    "service_request": "2022-852071",
    "request_type": "Trash/Recycling",
    "request_reason": "Missed Trash Pick-Up",
    "date_created": "2022-01-05T11:30:54.000",
    "date_modified": "2022-01-05T11:31:23.000",
    "request_status": "Pending",
    "responsible_agency": "Department of Sanitation",
    "final_address": "1534 Aline St",
    "address_councildis": "B",
    "status": "Assigned to Contractor",
    "contractor": "Richards Disposal",
    "rowid": "852071",
    "final_x": "3673789.67848",
    "final_y": "521131.467641",
    "longitude": "-90.09277193050247",
    "latitude": "29.927162471789774",
    "geocoded_column": {
      "latitude": "29.927162471789774",
      "longitude": "-90.09277193050247"
    }
  },
  {
    "service_request": "2022-852070",
    "request_type": "Traffic Signals/Signs/Striping/Streetlights",
    "request_reason": "Street Light Outage/Malfunction",
    "date_created": "2022-01-05T11:22:48.000",
    "date_modified": "2022-01-05T11:22:49.000",
    "request_status": "Pending",
    "responsible_agency": "Department of Public Works",
    "final_address": "148 16Th St",
    "address_councildis": "A",
    "status": "Pending",
    "contractor": "Royal Engineering",
    "rowid": "852070",
    "final_x": "3665747.42829",
    "final_y": "548348.467026",
    "longitude": "-90.11724750918813",
    "latitude": "30.002237205758245",
    "geocoded_column": {
      "latitude": "30.002237205758245",
      "longitude": "-90.11724750918813"
    }
  },
  {
    "service_request": "2022-852069",
    "request_type": "Trash/Recycling",
    "request_reason": "Replace Trash Cart",
    "date_created": "2022-01-05T11:21:48.000",
    "date_modified": "2022-01-05T11:21:49.000",
    "request_status": "Pending",
    "responsible_agency": "Department of Sanitation",
    "final_address": "148 16Th St",
    "address_councildis": "A",
    "status": "Assigned to Contractor",
    "contractor": "Metro Disposal",
    "rowid": "852069",
    "final_x": "3665747.42829",
    "final_y": "548348.467026",
    "longitude": "-90.11724750918813",
    "latitude": "30.002237205758245",
    "geocoded_column": {
      "latitude": "30.002237205758245",
      "longitude": "-90.11724750918813"
    }
  },
  {
    "service_request": "2022-852068",
    "request_type": "Roads/Drainage",
    "request_reason": "Unpermitted work in ROW",
    "date_created": "2022-01-05T11:21:38.000",
    "date_modified": "2022-01-05T11:27:22.000",
    "request_status": "Pending",
    "responsible_agency": "Department of Public Works",
    "final_address": "5156 Wilton Dr",
    "address_councildis": "D",
    "status": "Inspected",
    "rowid": "852068",
    "final_x": "3681863.15029",
    "final_y": "551446.298325",
    "longitude": "-90.06622783544061",
    "latitude": "30.010274991880664",
    "geocoded_column": {
      "latitude": "30.010274991880664",
      "longitude": "-90.06622783544061"
    }
  },
  {
    "service_request": "2022-852066",
    "request_type": "Trash/Recycling",
    "request_reason": "Order Recycling Cart",
    "date_created": "2022-01-05T11:20:17.000",
    "date_modified": "2022-01-05T11:20:17.000",
    "request_status": "Pending",
    "responsible_agency": "Department of Sanitation",
    "final_address": "3537 Piedmont Dr",
    "address_councildis": "D",
    "status": "Pending",
    "rowid": "852066",
    "final_x": "3686237.18601",
    "final_y": "545852.244112",
    "longitude": "-90.05260619170535",
    "latitude": "29.994759644133243",
    "geocoded_column": {
      "latitude": "29.994759644133243",
      "longitude": "-90.05260619170535"
    }
  },
  {
    "service_request": "2022-852065",
    "request_type": "Trash/Recycling",
    "request_reason": "Replace Trash Cart",
    "date_created": "2022-01-05T11:19:30.000",
    "date_modified": "2022-01-05T11:19:30.000",
    "request_status": "Pending",
    "responsible_agency": "Department of Sanitation",
    "final_address": "3537 Piedmont Dr",
    "address_councildis": "D",
    "status": "Assigned to Contractor",
    "contractor": "Metro Disposal",
    "rowid": "852065",
    "final_x": "3686237.18601",
    "final_y": "545852.244112",
    "longitude": "-90.05260619170535",
    "latitude": "29.994759644133243",
    "geocoded_column": {
      "latitude": "29.994759644133243",
      "longitude": "-90.05260619170535"
    }
  },
  {
    "service_request": "2022-852064",
    "request_type": "COVID-19",
    "request_reason": "COVID-19 Business Non-Compliance",
    "date_created": "2022-01-05T11:15:27.000",
    "date_modified": "2022-01-05T11:15:28.000",
    "request_status": "Pending",
    "responsible_agency": "Safety and Permits",
    "final_address": "15 Henry Thomas Dr",
    "address_councildis": "A",
    "status": "Pending",
    "rowid": "852064",
    "final_x": "3673098.80392",
    "final_y": "543854.265358",
    "longitude": "-90.09417713131299",
    "latitude": "29.98966313912075",
    "geocoded_column": {
      "latitude": "29.98966313912075",
      "longitude": "-90.09417713131299"
    }
  },
  {
    "service_request": "2022-852063",
    "request_type": "Abandoned Vehicles",
    "request_reason": "Abandoned/Junk Vehicles",
    "date_created": "2022-01-05T11:10:11.000",
    "date_modified": "2022-01-05T11:10:11.000",
    "request_status": "Pending",
    "responsible_agency": "Department of Public Works",
    "final_address": "1201 Oretha Castle Haley Blvd",
    "address_councildis": "B",
    "status": "Pending",
    "rowid": "852063",
    "final_x": "3678429.03189",
    "final_y": "527070.588798",
    "longitude": "-90.07792126684954",
    "latitude": "29.94335417378562",
    "geocoded_column": {
      "latitude": "29.94335417378562",
      "longitude": "-90.07792126684954"
    }
  },